[
  {
    "service_request": "2023-1045749",
    "request_type": "Roads/Drainage",
    "request_reason": "Pothole",
    "date_created": "2023-10-25T00:59:19.000",
    "date_modified": "2023-10-25T00:59:19.000",
    "request_status": "Pending",
    "responsible_agency": "Department of Public Works",
    "final_address": "1312 Milan St",
    "address_councildis": "B",
    "status": "Pending",
    "rowid": "1045749",
    "final_x": "3671625.82823",
    "final_y": "520286.919608",
    "longitude": "-90.09963137110304",
    "latitude": "29.92490447494246",
    "geocoded_column": {
      "latitude": "29.92490447494246",
      "longitude": "-90.09963137110304"
    }
  },
  {
    "service_request": "2023-1045748",
    "request_type": "Abandoned Vehicles",
    "request_reason": "Abandoned/Junk Vehicles",
    "date_created": "2023-10-25T00:26:44.000",
    "date_modified": "2023-10-25T00:26:44.000",
    "request_status": "Pending",
    "responsible_agency": "Department of Public Works",
    "final_address": "6314 Camp St",
    "address_councildis": "A",
    "status": "Pending",
    "rowid": "1045748",
    "final_x": "3663423.94829",
    "final_y": "520032.114936",
    "longitude": "-90.12553061764025",
    "latitude": "29.92444411210717",
    "geocoded_column": {
      "latitude": "29.92444411210717",
      "longitude": "-90.12553061764025"
    }
  },
  {
    "service_request": "2023-1045747",
    "request_type": "Roads/Drainage",
    "request_reason": "Pothole",
    "date_created": "2023-10-25T00:19:53.000",
    "date_modified": "2023-10-25T00:19:53.000",
    "request_status": "Pending",
    "responsible_agency": "Department of Public Works",
    "final_address": "3450 Chestnut St",
    "address_councildis": "B",
    "status": "Pending",
    "rowid": "1045747",
    "final_x": "3674329.8882",
    "final_y": "520043.285752",
    "longitude": "-90.09110386515998",
    "latitude": "29.924154229101674",
    "geocoded_column": {
      "latitude": "29.924154229101674",
      "longitude": "-90.09110386515998"
    }
  },
  {
    "service_request": "2023-1045746",
    "request_type": "Property Maintenance",
    "request_reason": "Property Maintenance",
    "date_created": "2023-10-24T23:46:21.000",
    "date_modified": "2023-10-24T23:46:21.000",
    "request_status": "Pending",
    "responsible_agency": "Department of Code Enforcement",
    "final_address": "2828 Boyd St",
    "address_councildis": "C",
    "status": "Pending",
    "rowid": "1045746",
    "final_x": "3708194.89963",
    "final_y": "519838.014264",
    "longitude": "-89.984212511078",
    "latitude": "29.922536860354302",
    "geocoded_column": {
      "latitude": "29.922536860354302",
      "longitude": "-89.984212511078"
    }
  },
  {
    "service_request": "2023-1045745",
    "request_type": "Roads/Drainage",
    "request_reason": "Street Subsidence (Sinking)",
    "date_created": "2023-10-24T23:44:21.000",
    "date_modified": "2023-10-24T23:44:21.000",
    "request_status": "Pending",
    "responsible_agency": "Department of Public Works",
    "final_address": "VIXEN ST & HOLIDAY DR",
    "address_councildis": "C",
    "status": "Pending",
    "rowid": "1045745",
    "final_x": "3698810.5",
    "final_y": "520740.68",
    "longitude": "-90.013802290177",
    "latitude": "29.925319364690463",
    "geocoded_column": {
      "latitude": "29.925319364690463",
      "longitude": "-90.013802290177"
    }
  },
  {
    "service_request": "2023-1045744",
    "request_type": "Roads/Drainage",
    "request_reason": "Pothole",
    "date_created": "2023-10-24T23:38:58.000",
    "date_modified": "2023-10-24T23:38:58.000",
    "request_status": "Pending",
    "responsible_agency": "Department of Public Works",
    "final_address": "3719 Camp St",
    "address_councildis": "B",
    "status": "Pending",
    "rowid": "1045744",
    "final_x": "3673390.5684",
    "final_y": "519487.602743",
    "longitude": "-90.09408794366054",
    "latitude": "29.9226542464518",
    "geocoded_column": {
      "latitude": "29.9226542464518",
      "longitude": "-90.09408794366054"
    }
  },
  {
    "service_request": "2023-1045742",
    "request_type": "Traffic Signals/Signs/Striping/Streetlights",
    "request_reason": "Street Light Outage/Malfunction",
    "date_created": "2023-10-24T22:39:34.000",
    "date_modified": "2023-10-24T22:39:35.000",
    "request_status": "Pending",
    "responsible_agency": "Department of Public Works",
    "final_address": "4923 Perrault Walk",
    "address_councildis": "E",
    "status": "Assigned to Contractor",
    "contractor": "Legacy Professional Services",
    "rowid": "1045742",
    "final_x": "3709754.65861",
    "final_y": "556780.875482",
    "longitude": "-89.97790959925578",
    "latitude": "30.024065438518235",
    "geocoded_column": {
      "latitude": "30.024065438518235",
      "longitude": "-89.97790959925578"
    }
  },
  {
    "service_request": "2023-1045741",
    "request_type": "Traffic Signals/Signs/Striping/Streetlights",
    "request_reason": "Street Name Sign Damaged or Missing",
    "date_created": "2023-10-24T22:35:14.000",
    "date_modified": "2023-10-24T22:35:14.000",
    "request_status": "Pending",
    "responsible_agency": "Department of Public Works",
    "final_address": "600 BLK Walker St",
    "address_councildis": "A",
    "status": "Pending",
    "rowid": "1045741",
    "final_x": "3668944.09187",
    "final_y": "554002.590929",
    "longitude": "-90.10695766090471",
    "latitude": "30.017690389998588",
    "geocoded_column": {
      "latitude": "30.017690389998588",
      "longitude": "-90.10695766090471"
    }
  },
  {
    "service_request": "2023-1045740",
    "request_type": "Abandoned Vehicles",
    "request_reason": "Vehicle Blocking Your Driveway",
    "date_created": "2023-10-24T21:47:48.000",
    "date_modified": "2023-10-24T21:47:48.000",
    "request_status": "Pending",
    "responsible_agency": "Department of Public Works",
    "final_address": "1127 Philip St",
    "address_councildis": "B",
    "status": "Pending",
    "rowid": "1045740",
    "final_x": "3678423.50491",
    "final_y": "522054.605114",
    "longitude": "-90.07811220197074",
    "latitude": "29.929562037329514",
    "geocoded_column": {
      "latitude": "29.929562037329514",
      "longitude": "-90.07811220197074"
    }
  },
  {
    "service_request": "2023-1045739",
    "request_type": "Traffic Signals/Signs/Striping/Streetlights",
    "request_reason": "Street Light Outage/Malfunction",
    "date_created": "2023-10-24T21:37:52.000",
    "date_modified": "2023-10-24T21:37:53.000",
    "request_status": "Pending",
    "responsible_agency": "Department of Public Works",
    "final_address": "2376 Jay St",
    "address_councildis": "D",
    "status": "Assigned to Contractor",
    "contractor": "Legacy Professional Services",
    "rowid": "1045739",
    "final_x": "3684707.15087",
    "final_y": "557282.078107",
    "longitude": "-90.05703722352781",
    "latitude": "30.02623445945361",
    "geocoded_column": {
      "latitude": "30.02623445945361",
      "longitude": "-90.05703722352781"
    }
  },
  {
    "service_request": "2023-1045738",
    "request_type": "Trash/Recycling",
    "request_reason": "Replace Trash Cart",
    "date_created": "2023-10-24T21:36:27.000",
    "date_modified": "2023-10-24T21:36:27.000",
    "request_status": "Pending",
    "responsible_agency": "Department of Sanitation",
    "final_address": "3902 Hollygrove St",
    "address_councildis": "A",
    "status": "Assigned to Contractor",
    "contractor": "Richards Disposal",
    "rowid": "1045738",
    "final_x": "3666085.65076",
    "final_y": "537677.576008",
    "longitude": "-90.11653700165758",
    "latitude": "29.972886000343888",
    "geocoded_column": {
      "latitude": "29.972886000343888",
      "longitude": "-90.11653700165758"
    }
  },
  {
    "service_request": "2023-1045737",
    "request_type": "Roads/Drainage",
    "request_reason": "Pothole",
    "date_created": "2023-10-24T21:13:13.000",
    "date_modified": "2023-10-24T21:13:13.000",
    "request_status": "Pending",
    "responsible_agency": "Department of Public Works",
    "final_address": "1312 Milan St",
    "address_councildis": "B",
    "status": "Pending",
    "rowid": "1045737",
    "final_x": "3671625.82823",
    "final_y": "520286.919608",
    "longitude": "-90.09963137110304",
    "latitude": "29.92490447494246",
    "geocoded_column": {
      "latitude": "29.92490447494246",
      "longitude": "-90.09963137110304"
    }
  },
  {
    "service_request": "2023-1045736",
    "request_type": "Roads/Drainage",
    "request_reason": "Pothole",
    "date_created": "2023-10-24T21:07:55.000",
    "date_modified": "2023-10-24T21:07:55.000",
    "request_status": "Pending",
    "responsible_agency": "Department of Public Works",
    "final_address": "4128 Perrier St",
    "address_councildis": "B",
    "status": "Pending",
    "rowid": "1045736",
    "final_x": "3671768.75323",
    "final_y": "520121.883448",
    "longitude": "-90.0991858138644",
    "latitude": "29.92444644615944",
    "geocoded_column": {
      "latitude": "29.92444644615944",
      "longitude": "-90.0991858138644"
    }
  },
  {
    "service_request": "2023-1045735",
    "request_type": "Utility Poles",
    "request_reason": "Utility Pole Leaning",
    "date_created": "2023-10-24T20:59:15.000",
    "date_modified": "2023-10-24T20:59:19.000",
    "request_status": "Pending",
    "responsible_agency": "Utility Company Collective",
    "final_address": "1852 Filmore Ave",
    "address_councildis": "D",
    "status": "Pending",
    "rowid": "1045735",
    "final_x": "3681256.42415",
    "final_y": "551921.401942",
    "longitude": "-90.06812813516518",
    "latitude": "30.01159978949464",
    "geocoded_column": {
      "latitude": "30.01159978949464",
      "longitude": "-90.06812813516518"
    }
  },
  {
    "service_request": "2023-1045734",
    "request_type": "Utility Poles",
    "request_reason": "Utility Pole Leaning",
    "date_created": "2023-10-24T20:53:52.000",
    "date_modified": "2023-10-24T20:53:56.000",
    "request_status": "Pending",
    "responsible_agency": "Utility Company Collective",
    "final_address": "1852 Filmore Ave",
    "address_councildis": "D",
    "status": "Pending",
    "rowid": "1045734",
    "final_x": "3681256.42415",
    "final_y": "551921.401942",
    "longitude": "-90.06812813516518",
    "latitude": "30.01159978949464",
    "geocoded_column": {
      "latitude": "30.01159978949464",
      "longitude": "-90.06812813516518"
    }
  },
  {
    "service_request": "2023-1045733",
    "request_type": "Traffic Signals/Signs/Striping/Streetlights",
    "request_reason": "Street Light Outage/Malfunction",
    "date_created": "2023-10-24T20:30:50.000",
    "date_modified": "2023-10-24T20:30:51.000",
    "request_status": "Pending",
    "responsible_agency": "Department of Public Works",
    "final_address": "DERBES ST & HAY PL",
    "address_councildis": "A",
    "status": "Assigned to Contractor",
    "contractor": "Legacy Professional Services",
    "rowid": "1045733",
    "final_x": "3665844.7",
    "final_y": "554221.38",
    "longitude": "-90.11674322675212",
    "latitude": "30.018382830751626",
    "geocoded_column": {
      "latitude": "30.018382830751626",
      "longitude": "-90.11674322675212"
    }
  },
  {
    "service_request": "2023-1045732",
    "request_type": "Trash/Recycling",
    "request_reason": "Return Trash Cart",
    "date_created": "2023-10-24T19:50:04.000",
    "date_modified": "2023-10-24T19:50:05.000",
    "request_status": "Pending",
    "responsible_agency": "Department of Sanitation",
    "final_address": "722 Fern St",
    "address_councildis": "A",
    "status": "Assigned to Contractor",
    "contractor": "Richards Disposal",
    "rowid": "1045732",
    "final_x": "3661463.92352",
    "final_y": "526732.599358",
    "longitude": "-90.13149592901279",
    "latitude": "29.9429249995209",
    "geocoded_column": {
      "latitude": "29.9429249995209",
      "longitude": "-90.13149592901279"
    }
  },
  {
    "service_request": "2023-1045731",
    "request_type": "Trash/Recycling",
    "request_reason": "Replace Recycling Cart",
    "date_created": "2023-10-24T19:47:10.000",
    "date_modified": "2023-10-24T19:47:10.000",
    "request_status": "Pending",
    "responsible_agency": "Department of Sanitation",
    "final_address": "1716 Robert St",
    "address_councildis": "B",
    "status": "Pending",
    "rowid": "1045731",
    "final_x": "3668667.2978",
    "final_y": "521959.097594",
    "longitude": "-90.10891410626141",
    "latitude": "29.9295896888786",
    "geocoded_column": {
      "latitude": "29.9295896888786",
      "longitude": "-90.10891410626141"
    }
  },
  {
    "service_request": "2023-1045730",
    "request_type": "Trash/Recycling",
    "request_reason": "Missed Trash Pick-Up",
    "date_created": "2023-10-24T19:40:08.000",
    "date_modified": "2023-10-24T19:40:09.000",
    "request_status": "Pending",
    "responsible_agency": "Department of Sanitation",
    "final_address": "7800 Means Ave",
    "address_councildis": "E",
    "status": "Assigned to Contractor",
    "contractor": "Waste Pro",
    "rowid": "1045730",
    "final_x": "3707754.79691",
    "final_y": "565191.834146",
    "longitude": "-89.98391573959016",
    "latitude": "30.047257145229057",
    "geocoded_column": {
      "latitude": "30.047257145229057",
      "longitude": "-89.98391573959016"
    }
  },
  {
    "service_request": "2023-1045729",
    "request_type": "Trash/Recycling",
    "request_reason": "Request a Large Item Pick Up",
    "date_created": "2023-10-24T18:50:35.000",
    "date_modified": "2023-10-24T18:50:36.000",
    "request_status": "Pending",
    "responsible_agency": "Department of Sanitation",
    "final_address": "329 26Th St",
    "address_councildis": "A",
    "status": "Assigned to Contractor",
    "contractor": "IV Waste",
    "rowid": "1045729",
    "final_x": "3665033.51021",
    "final_y": "549986.150164",
    "longitude": "-90.11944806248141",
    "latitude": "30.006761083122623",
    "geocoded_column": {
      "latitude": "30.006761083122623",
      "longitude": "-90.11944806248141"
    }
  },
  {
    "service_request": "2023-1045728",
    "request_type": "Roads/Drainage",
    "request_reason": "Pothole",
    "date_created": "2023-10-24T18:29:31.000",
    "date_modified": "2023-10-24T18:29:31.000",
    "request_status": "Pending",
    "responsible_agency": "Department of Public Works",
    "final_address": "6215 Hurst St",
    "address_councildis": "A",
    "status": "Pending",
    "rowid": "1045728",
    "final_x": "3664668.32039",
    "final_y": "522243.373626",
    "longitude": "-90.12152872358996",
    "latitude": "29.93048825206563",
    "geocoded_column": {
      "latitude": "29.93048825206563",
      "longitude": "-90.12152872358996"
    }
  },
  {
    "service_request": "2023-1045727",
    "request_type": "Traffic Signals/Signs/Striping/Streetlights",
    "request_reason": "Street Name Sign Damaged or Missing",
    "date_created": "2023-10-24T18:29:02.000",
    "date_modified": "2023-10-24T18:29:02.000",
    "request_status": "Pending",
    "responsible_agency": "Department of Public Works",
    "final_address": "233 Walnut St",
    "address_councildis": "A",
    "status": "Pending",
    "rowid": "1045727",
    "final_x": "3661448.78227",
    "final_y": "521325.549881",
    "longitude": "-90.13172275675723",
    "latitude": "29.92805775464452",
    "geocoded_column": {
      "latitude": "29.92805775464452",
      "longitude": "-90.13172275675723"
    }
  },
  {
    "service_request": "2023-1045726",
    "request_type": "Trash/Recycling",
    "request_reason": "Order Recycling Cart",
    "date_created": "2023-10-24T18:28:31.000",
    "date_modified": "2023-10-24T18:28:31.000",
    "request_status": "Pending",
    "responsible_agency": "Department of Sanitation",
    "final_address": "2327 DAbadie St",
    "address_councildis": "D",
    "status": "Pending",
    "rowid": "1045726",
    "final_x": "3680508.94293",
    "final_y": "540044.025099",
    "longitude": "-90.0709031766651",
    "latitude": "29.978963883157824",
    "geocoded_column": {
      "latitude": "29.978963883157824",
      "longitude": "-90.0709031766651"
    }
  },
  {
    "service_request": "2023-1045725",
    "request_type": "Traffic Signals/Signs/Striping/Streetlights",
    "request_reason": "Traffic Sign Missing/Damaged",
    "date_created": "2023-10-24T18:26:44.000",
    "date_modified": "2023-10-24T18:26:44.000",
    "request_status": "Pending",
    "responsible_agency": "Department of Public Works",
    "final_address": "233 Walnut St",
    "address_councildis": "A",
    "status": "Pending",
    "rowid": "1045725",
    "final_x": "3661448.78227",
    "final_y": "521325.549881",
    "longitude": "-90.13172275675723",
    "latitude": "29.92805775464452",
    "geocoded_column": {
      "latitude": "29.92805775464452",
      "longitude": "-90.13172275675723"
    }
  },
  {
    "service_request": "2023-1045724",
    "request_type": "Trash/Recycling",
    "request_reason": "Replace Trash Cart",
    "date_created": "2023-10-24T18:21:01.000",
    "date_modified": "2023-10-24T18:21:01.000",
    "request_status": "Pending",
    "responsible_agency": "Department of Sanitation",
    "final_address": "2333 Laurel St",
    "address_councildis": "B",
    "status": "Assigned to Contractor",
    "contractor": "Richards Disposal",
    "rowid": "1045724",
    "final_x": "3678751.11784",
    "final_y": "521108.783929",
    "longitude": "-90.07711072108852",
    "latitude": "29.926951465765377",
    "geocoded_column": {
      "latitude": "29.926951465765377",
      "longitude": "-90.07711072108852"
    }
  },
  {
    "service_request": "2023-1045723",
    "request_type": "Roads/Drainage",
    "request_reason": "Pothole",
    "date_created": "2023-10-24T18:16:52.000",
    "date_modified": "2023-10-24T18:16:52.000",
    "request_status": "Pending",
    "responsible_agency": "Department of Public Works",
    "final_address": "6000 BLK Chestnut St",
    "address_councildis": "A",
    "status": "Pending",
    "rowid": "1045723",
    "final_x": "3664632.80357",
    "final_y": "519954.959222",
    "longitude": "-90.12171723415494",
    "latitude": "29.924196865658843",
    "geocoded_column": {
      "latitude": "29.924196865658843",
      "longitude": "-90.12171723415494"
    }
  },
  {
    "service_request": "2023-1045722",
    "request_type": "Roads/Drainage",
    "request_reason": "Street Subsidence (Sinking)",
    "date_created": "2023-10-24T17:39:26.000",
    "date_modified": "2023-10-24T17:39:26.000",
    "request_status": "Pending",
    "responsible_agency": "Department of Public Works",
    "final_address": "1900 Franklin Ave",
    "address_councildis": "D",
    "status": "Pending",
    "rowid": "1045722",
    "final_x": "3687608.43862",
    "final_y": "539535.299722",
    "longitude": "-90.04849832672087",
    "latitude": "29.977348083670933",
    "geocoded_column": {
      "latitude": "29.977348083670933",
      "longitude": "-90.04849832672087"
    }
  },
  {
    "service_request": "2023-1045721",
    "request_type": "Roads/Drainage",
    "request_reason": "Pothole",
    "date_created": "2023-10-24T17:38:39.000",
    "date_modified": "2023-10-24T17:38:39.000",
    "request_status": "Pending",
    "responsible_agency": "Department of Public Works",
    "final_address": "1441 Eleonore St",
    "address_councildis": "A",
    "status": "Pending",
    "rowid": "1045721",
    "final_x": "3665781.33408",
    "final_y": "521342.836601",
    "longitude": "-90.11804524522694",
    "latitude": "29.927979647159326",
    "geocoded_column": {
      "latitude": "29.927979647159326",
      "longitude": "-90.11804524522694"
    }
  },
  {
    "service_request": "2023-1045720",
    "request_type": "Traffic Signals/Signs/Striping/Streetlights",
    "request_reason": "Street Name Sign Damaged or Missing",
    "date_created": "2023-10-24T17:36:04.000",
    "date_modified": "2023-10-24T17:36:04.000",
    "request_status": "Pending",
    "responsible_agency": "Department of Public Works",
    "final_address": "1201 N Dorgenois St",
    "address_councildis": "D",
    "status": "Pending",
    "rowid": "1045720",
    "final_x": "3678250.37608",
    "final_y": "538143.360969",
    "longitude": "-90.0781023582876",
    "latitude": "29.97380594015685",
    "geocoded_column": {
      "latitude": "29.97380594015685",
      "longitude": "-90.0781023582876"
    }
  },
  {
    "service_request": "2023-1045719",
    "request_type": "Trash/Recycling",
    "request_reason": "Start Trash Service",
    "date_created": "2023-10-24T17:27:41.000",
    "date_modified": "2023-10-24T17:27:42.000",
    "request_status": "Pending",
    "responsible_agency": "Department of Sanitation",
    "final_address": "1910 Constantinople St",
    "address_councildis": "B",
    "status": "Assigned to Contractor",
    "contractor": "Richards Disposal",
    "rowid": "1045719",
    "final_x": "3672112.71131",
    "final_y": "522185.217978",
    "longitude": "-90.09802983585794",
    "latitude": "29.93010976301257",
    "geocoded_column": {
      "latitude": "29.93010976301257",
      "longitude": "-90.09802983585794"
    }
  },
  {
    "service_request": "2023-1045718",
    "request_type": "Traffic Signals/Signs/Striping/Streetlights",
    "request_reason": "Street Light Outage/Malfunction",
    "date_created": "2023-10-24T17:22:49.000",
    "date_modified": "2023-10-24T17:22:50.000",
    "request_status": "Pending",
    "responsible_agency": "Department of Public Works",
    "final_address": "2829 Camp St",
    "address_councildis": "B",
    "status": "Assigned to Contractor",
    "contractor": "Legacy Professional Services",
    "rowid": "1045718",
    "final_x": "3676454.11214",
    "final_y": "520932.993977",
    "longitude": "-90.08436781862434",
    "latitude": "29.926537145116146",
    "geocoded_column": {
      "latitude": "29.926537145116146",
      "longitude": "-90.08436781862434"
    }
  },
  {
    "service_request": "2023-1045717",
    "request_type": "Trash/Recycling",
    "request_reason": "Request a Large Item Pick Up",
    "date_created": "2023-10-24T17:14:06.000",
    "date_modified": "2023-10-24T17:14:06.000",
    "request_status": "Pending",
    "responsible_agency": "Department of Sanitation",
    "status": "Assigned to Contractor",
    "rowid": "1045717",
    "longitude": "0.0",
    "latitude": "0.0",
    "geocoded_column": {
      "latitude": "0.0",
      "longitude": "0.0"
    }
  },
  {
    "service_request": "2023-1045716",
    "request_type": "Trash/Recycling",
    "request_reason": "Request a Large Item Pick Up",
    "date_created": "2023-10-24T17:03:42.000",
    "date_modified": "2023-10-24T17:03:43.000",
    "request_status": "Pending",
    "responsible_agency": "Department of Sanitation",
    "final_address": "7540 Crestmont Rd",
    "address_councildis": "E",
    "status": "Assigned to Contractor",
    "contractor": "Waste Pro",
    "rowid": "1045716",
    "final_x": "3699632.64765",
    "final_y": "560122.269725",
    "longitude": "-90.00977108067818",
    "latitude": "30.033578325825655",
    "geocoded_column": {
      "latitude": "30.033578325825655",
      "longitude": "-90.00977108067818"
    }
  },
  {
    "service_request": "2023-1045715",
    "request_type": "Trash/Recycling",
    "request_reason": "Request a Large Item Pick Up",
    "date_created": "2023-10-24T17:03:41.000",
    "date_modified": "2023-10-24T17:03:42.000",
    "request_status": "Pending",
    "responsible_agency": "Department of Sanitation",
    "final_address": "7540 Crestmont Rd",
    "address_councildis": "E",
    "status": "Assigned to Contractor",
    "contractor": "Waste Pro",
    "rowid": "1045715",
    "final_x": "3699632.64765",
    "final_y": "560122.269725",
    "longitude": "-90.00977108067818",
    "latitude": "30.033578325825655",
    "geocoded_column": {
      "latitude": "30.033578325825655",
      "longitude": "-90.00977108067818"
    }
  },
  {
    "service_request": "2023-1045714",
    "request_type": "Trash/Recycling",
    "request_reason": "Order Recycling Cart",
    "date_created": "2023-10-24T16:57:59.000",
    "date_modified": "2023-10-24T16:57:59.000",
    "request_status": "Pending",
    "responsible_agency": "Department of Sanitation",
    "final_address": "1014 Governor Nicholls St",
    "address_councildis": "C",
    "status": "Pending",
    "rowid": "1045714",
    "final_x": "3682678.17244",
    "final_y": "534631.668614",
    "longitude": "-90.06424125718259",
    "latitude": "29.964015883492806",
    "geocoded_column": {
      "latitude": "29.964015883492806",
      "longitude": "-90.06424125718259"
    }
  },
  {
    "service_request": "2023-1045713",
    "request_type": "Trash/Recycling",
    "request_reason": "Request a Large Item Pick Up",
    "date_created": "2023-10-24T16:57:01.000",
    "date_modified": "2023-10-24T16:57:02.000",
    "request_status": "Pending",
    "responsible_agency": "Department of Sanitation",
    "final_address": "7801 Shubert St",
    "address_councildis": "E",
    "status": "Assigned to Contractor",
    "contractor": "Waste Pro",
    "rowid": "1045713",
    "final_x": "3695638.45155",
    "final_y": "559314.124957",
    "longitude": "-90.02242234279099",
    "latitude": "30.031482492025",
    "geocoded_column": {
      "latitude": "30.031482492025",
      "longitude": "-90.02242234279099"
    }
  },
  {
    "service_request": "2023-1045712",
    "request_type": "Trash/Recycling",
    "request_reason": "Order Recycling Cart",
    "date_created": "2023-10-24T16:56:42.000",
    "date_modified": "2023-10-24T16:56:42.000",
    "request_status": "Pending",
    "responsible_agency": "Department of Sanitation",
    "final_address": "1012 Governor Nicholls St",
    "address_councildis": "C",
    "status": "Pending",
    "rowid": "1045712",
    "final_x": "3682686.02959",
    "final_y": "534627.554054",
    "longitude": "-90.06421658895322",
    "latitude": "29.96400433057974",
    "geocoded_column": {
      "latitude": "29.96400433057974",
      "longitude": "-90.06421658895322"
    }
  },
  {
    "service_request": "2023-1045711",
    "request_type": "Trash/Recycling",
    "request_reason": "Order Recycling Cart",
    "date_created": "2023-10-24T16:54:41.000",
    "date_modified": "2023-10-24T16:54:41.000",
    "request_status": "Pending",
    "responsible_agency": "Department of Sanitation",
    "final_address": "2102 Lafreniere St",
    "address_councildis": "D",
    "status": "Pending",
    "rowid": "1045711",
    "final_x": "3683579.34639",
    "final_y": "545403.492176",
    "longitude": "-90.0610177244733",
    "latitude": "29.993607152639544",
    "geocoded_column": {
      "latitude": "29.993607152639544",
      "longitude": "-90.0610177244733"
    }
  },
  {
    "service_request": "2023-1045710",
    "request_type": "Traffic Signals/Signs/Striping/Streetlights",
    "request_reason": "Street Light Outage/Malfunction",
    "date_created": "2023-10-24T16:54:33.000",
    "date_modified": "2023-10-24T16:54:34.000",
    "request_status": "Pending",
    "responsible_agency": "Department of Public Works",
    "final_address": "2657 Ramsey Dr",
    "address_councildis": "C",
    "status": "Assigned to Contractor",
    "contractor": "Legacy Professional Services",
    "rowid": "1045710",
    "final_x": "3703065.32695",
    "final_y": "521067.605753",
    "longitude": "-90.00035923453775",
    "latitude": "29.926082883633686",
    "geocoded_column": {
      "latitude": "29.926082883633686",
      "longitude": "-90.00035923453775"
    }
  },
  {
    "service_request": "2023-1045708",
    "request_type": "Trash/Recycling",
    "request_reason": "Order Trash Cart",
    "date_created": "2023-10-24T16:49:27.000",
    "date_modified": "2023-10-24T16:49:28.000",
    "request_status": "Pending",
    "responsible_agency": "Department of Sanitation",
    "final_address": "8521 Palm St Apt A",
    "address_councildis": "A",
    "status": "Assigned to Contractor",
    "contractor": "Richards Disposal",
    "rowid": "1045708",
    "final_x": "3666574.70253",
    "final_y": "535838.245639",
    "longitude": "-90.11505423928797",
    "latitude": "29.967814164559634",
    "geocoded_column": {
      "latitude": "29.967814164559634",
      "longitude": "-90.11505423928797"
    }
  },
  {
    "service_request": "2023-1045707",
    "request_type": "Trash/Recycling",
    "request_reason": "Illegal Dumping",
    "date_created": "2023-10-24T16:48:42.000",
    "date_modified": "2023-10-24T16:48:42.000",
    "request_status": "Pending",
    "responsible_agency": "Department of Sanitation",
    "final_address": "1440 Henriette Delille St",
    "address_councildis": "C",
    "status": "Pending",
    "rowid": "1045707",
    "final_x": "3682855.74997",
    "final_y": "535846.919687",
    "longitude": "-90.06363795936943",
    "latitude": "29.967351996512807",
    "geocoded_column": {
      "latitude": "29.967351996512807",
      "longitude": "-90.06363795936943"
    }
  },
  {
    "service_request": "2023-1045706",
    "request_type": "Property Maintenance",
    "request_reason": "Property Maintenance",
    "date_created": "2023-10-24T16:47:15.000",
    "date_modified": "2023-10-24T16:47:16.000",
    "request_status": "Pending",
    "responsible_agency": "Department of Code Enforcement",
    "final_address": "7008 Prentiss Ave",
    "address_councildis": "E",
    "status": "Pending",
    "rowid": "1045706",
    "final_x": "3701295.34442",
    "final_y": "554921.560408",
    "longitude": "-90.0047073727459",
    "latitude": "30.019225465708807",
    "geocoded_column": {
      "latitude": "30.019225465708807",
      "longitude": "-90.0047073727459"
    }
  },
  {
    "service_request": "2023-1045705",
    "request_type": "Trash/Recycling",
    "request_reason": "Order Recycling Cart",
    "date_created": "2023-10-24T16:45:24.000",
    "date_modified": "2023-10-24T16:45:24.000",
    "request_status": "Pending",
    "responsible_agency": "Department of Sanitation",
    "final_address": "949 Harding Dr",
    "address_councildis": "A",
    "status": "Pending",
    "rowid": "1045705",
    "final_x": "3674337.55963",
    "final_y": "540099.584587",
    "longitude": "-90.09039289167521",
    "latitude": "29.9793021673174",
    "geocoded_column": {
      "latitude": "29.9793021673174",
      "longitude": "-90.09039289167521"
    }
  },
  {
    "service_request": "2023-1045704",
    "request_type": "Roads/Drainage",
    "request_reason": "Pothole",
    "date_created": "2023-10-24T16:44:34.000",
    "date_modified": "2023-10-24T16:44:34.000",
    "request_status": "Pending",
    "responsible_agency": "Department of Public Works",
    "final_address": "901 Henry Clay Ave",
    "address_councildis": "A",
    "status": "Pending",
    "rowid": "1045704",
    "final_x": "3663987.1497",
    "final_y": "519913.049784",
    "longitude": "-90.12375674309207",
    "latitude": "29.924100384557992",
    "geocoded_column": {
      "latitude": "29.924100384557992",
      "longitude": "-90.12375674309207"
    }
  },
  {
    "service_request": "2023-1045703",
    "request_type": "Trash/Recycling",
    "request_reason": "Repair Trash Cart",
    "date_created": "2023-10-24T16:42:26.000",
    "date_modified": "2023-10-24T16:42:27.000",
    "request_status": "Pending",
    "responsible_agency": "Department of Sanitation",
    "final_address": "7 Dunleith Ct",
    "address_councildis": "A",
    "status": "Assigned to Contractor",
    "contractor": "Richards Disposal",
    "rowid": "1045703",
    "final_x": "3663377.06157",
    "final_y": "525182.693501",
    "longitude": "-90.12550724196745",
    "latitude": "29.938607937899327",
    "geocoded_column": {
      "latitude": "29.938607937899327",
      "longitude": "-90.12550724196745"
    }
  },
  {
    "service_request": "2023-1045702",
    "request_type": "Trash/Recycling",
    "request_reason": "Request a Large Item Pick Up",
    "date_created": "2023-10-24T16:38:48.000",
    "date_modified": "2023-10-24T16:38:49.000",
    "request_status": "Pending",
    "responsible_agency": "Department of Sanitation",
    "final_address": "8607 Willow St",
    "address_councildis": "A",
    "status": "Assigned to Contractor",
    "contractor": "Richards Disposal",
    "rowid": "1045702",
    "final_x": "3661095.8903",
    "final_y": "530167.162689",
    "longitude": "-90.13254426744888",
    "latitude": "29.95237956056519",
    "geocoded_column": {
      "latitude": "29.95237956056519",
      "longitude": "-90.13254426744888"
    }
  },
  {
    "service_request": "2023-1045700",
    "request_type": "Mosquito, Termite & Rodent Control",
    "request_reason": "Rodent Complaint (Rats)",
    "date_created": "2023-10-24T16:31:46.000",
    "date_modified": "2023-10-24T16:31:46.000",
    "request_status": "Pending",
    "responsible_agency": "Mosquito, Termite & Rodent Control Board",
    "final_address": "1440 Henriette Delille St",
    "address_councildis": "C",
    "status": "Pending",
    "rowid": "1045700",
    "final_x": "3682855.74997",
    "final_y": "535846.919687",
    "longitude": "-90.06363795936943",
    "latitude": "29.967351996512807",
    "geocoded_column": {
      "latitude": "29.967351996512807",
      "longitude": "-90.06363795936943"
    }
  },
  {
    "service_request": "2023-1045699",
    "request_type": "Property Maintenance",
    "request_reason": "Property Maintenance",
    "date_created": "2023-10-24T16:30:20.000",
    "date_modified": "2023-10-24T16:30:20.000",
    "request_status": "Pending",
    "responsible_agency": "Department of Code Enforcement",
    "final_address": "1440 Henriette Delille St",
    "address_councildis": "C",
    "status": "Pending",
    "rowid": "1045699",
    "final_x": "3682855.74997",
    "final_y": "535846.919687",
    "longitude": "-90.06363795936943",
    "latitude": "29.967351996512807",
    "geocoded_column": {
      "latitude": "29.967351996512807",
      "longitude": "-90.06363795936943"
    }
  },
  {
    "service_request": "2023-1045698",
    "request_type": "Trash/Recycling",
    "request_reason": "Request a Large Item Pick Up",
    "date_created": "2023-10-24T16:29:58.000",
    "date_modified": "2023-10-24T16:29:59.000",
    "request_status": "Pending",
    "responsible_agency": "Department of Sanitation",
    "final_address": "614 Fats Domino Ave",
    "address_councildis": "E",
    "status": "Assigned to Contractor",
    "contractor": "Waste Pro",
    "rowid": "1045698",
    "final_x": "3697494.12829",
    "final_y": "532059.412035",
    "longitude": "-90.0175473493327",
    "latitude": "29.956483564098033",
    "geocoded_column": {
      "latitude": "29.956483564098033",
      "longitude": "-90.0175473493327"
    }
  },
  {
    "service_request": "2023-1045697",
    "request_type": "Trash/Recycling",
    "request_reason": "Repair Trash Cart",
    "date_created": "2023-10-24T16:29:51.000",
    "date_modified": "2023-10-24T16:29:52.000",
    "request_status": "Pending",
    "responsible_agency": "Department of Sanitation",
    "final_address": "2064 Beck St",
    "address_councildis": "C",
    "status": "Assigned to Contractor",
    "contractor": "Richards Disposal",
    "rowid": "1045697",
    "final_x": "3700514.37265",
    "final_y": "523480.118331",
    "longitude": "-90.00832373898858",
    "latitude": "29.932797810962644",
    "geocoded_column": {
      "latitude": "29.932797810962644",
      "longitude": "-90.00832373898858"
    }
  },
  {
    "service_request": "2023-1045696",
    "request_type": "Trash/Recycling",
    "request_reason": "Request a Large Item Pick Up",
    "date_created": "2023-10-24T16:27:23.000",
    "date_modified": "2023-10-24T16:27:24.000",
    "request_status": "Pending",
    "responsible_agency": "Department of Sanitation",
    "final_address": "4511 Croyden Ave",
    "address_councildis": "C",
    "status": "Assigned to Contractor",
    "contractor": "Richards Disposal",
    "rowid": "1045696",
    "final_x": "3702129.28183",
    "final_y": "524179.886332",
    "longitude": "-90.00319998911321",
    "latitude": "29.93467048231449",
    "geocoded_column": {
      "latitude": "29.93467048231449",
      "longitude": "-90.00319998911321"
    }
  },
  {
    "service_request": "2023-1045695",
    "request_type": "Roads/Drainage",
    "request_reason": "Street Subsidence (Sinking)",
    "date_created": "2023-10-24T16:27:03.000",
    "date_modified": "2023-10-24T16:27:03.000",
    "request_status": "Pending",
    "responsible_agency": "Department of Public Works",
    "final_address": "GENERAL MEYER AVE & HOLIDAY DR",
    "address_councildis": "C",
    "status": "Pending",
    "rowid": "1045695",
    "final_x": "3699023.1",
    "final_y": "524730.48",
    "longitude": "-90.01298605689196",
    "latitude": "29.93628320516194",
    "geocoded_column": {
      "latitude": "29.93628320516194",
      "longitude": "-90.01298605689196"
    }
  },
  {
    "service_request": "2023-1045694",
    "request_type": "Trash/Recycling",
    "request_reason": "Request a Large Item Pick Up",
    "date_created": "2023-10-24T16:21:44.000",
    "date_modified": "2023-10-24T16:21:45.000",
    "request_status": "Pending",
    "responsible_agency": "Department of Sanitation",
    "final_address": "812 Desire St",
    "address_councildis": "C",
    "status": "Assigned to Contractor",
    "contractor": "IV Waste",
    "rowid": "1045694",
    "final_x": "3689893.22697",
    "final_y": "534678.57959",
    "longitude": "-90.04145517216666",
    "latitude": "29.963923170936987",
    "geocoded_column": {
      "latitude": "29.963923170936987",
      "longitude": "-90.04145517216666"
    }
  },
  {
    "service_request": "2023-1045693",
    "request_type": "Abandoned Vehicles",
    "request_reason": "Abandoned/Junk Vehicles",
    "date_created": "2023-10-24T16:19:07.000",
    "date_modified": "2023-10-24T16:19:07.000",
    "request_status": "Pending",
    "responsible_agency": "Department of Public Works",
    "final_address": "1139 Kerlerec St",
    "address_councildis": "C",
    "status": "Pending",
    "rowid": "1045693",
    "final_x": "3682866.32616",
    "final_y": "535831.512007",
    "longitude": "-90.0636050988241",
    "latitude": "29.967309308458706",
    "geocoded_column": {
      "latitude": "29.967309308458706",
      "longitude": "-90.0636050988241"
    }
  },
  {
    "service_request": "2023-1045692",
    "request_type": "Trash/Recycling",
    "request_reason": "MIssed Recycling Pick-Up",
    "date_created": "2023-10-24T16:18:50.000",
    "date_modified": "2023-10-24T16:18:51.000",
    "request_status": "Pending",
    "responsible_agency": "Department of Sanitation",
    "final_address": "1926 St Philip St",
    "address_councildis": "D",
    "status": "Assigned to Contractor",
    "contractor": "Richards Disposal",
    "rowid": "1045692",
    "final_x": "3679665.16955",
    "final_y": "536054.449927",
    "longitude": "-90.07370665443693",
    "latitude": "29.968019460765746",
    "geocoded_column": {
      "latitude": "29.968019460765746",
      "longitude": "-90.07370665443693"
    }
  },
  {
    "service_request": "2023-1045691",
    "request_type": "Trash/Recycling",
    "request_reason": "Request a Large Item Pick Up",
    "date_created": "2023-10-24T16:16:38.000",
    "date_modified": "2023-10-24T16:16:38.000",
    "request_status": "Pending",
    "responsible_agency": "Department of Sanitation",
    "final_address": "7738 Sycamore St",
    "address_councildis": "A",
    "status": "Assigned to Contractor",
    "contractor": "Richards Disposal",
    "rowid": "1045691",
    "final_x": "3665142.11047",
    "final_y": "530110.484673",
    "longitude": "-90.11977000210122",
    "latitude": "29.952106501164785",
    "geocoded_column": {
      "latitude": "29.952106501164785",
      "longitude": "-90.11977000210122"
    }
  },
  {
    "service_request": "2023-1045690",
    "request_type": "Trash/Recycling",
    "request_reason": "Order Trash Cart",
    "date_created": "2023-10-24T16:13:53.000",
    "date_modified": "2023-10-24T16:13:53.000",
    "request_status": "Pending",
    "responsible_agency": "Department of Sanitation",
    "final_address": "907 N Rocheblave St",
    "address_councildis": "D",
    "status": "Assigned to Contractor",
    "contractor": "Richards Disposal",
    "rowid": "1045690",
    "final_x": "3677995.48699",
    "final_y": "537025.569288",
    "longitude": "-90.07894600079469",
    "latitude": "29.970740071315408",
    "geocoded_column": {
      "latitude": "29.970740071315408",
      "longitude": "-90.07894600079469"
    }
  },
  {
    "service_request": "2023-1045689",
    "request_type": "Traffic Signals/Signs/Striping/Streetlights",
    "request_reason": "Road Surface Marking Maintenance-Traffic Control",
    "date_created": "2023-10-24T16:09:45.000",
    "date_modified": "2023-10-24T16:09:45.000",
    "request_status": "Pending",
    "responsible_agency": "Department of Public Works",
    "status": "Pending",
    "rowid": "1045689",
    "longitude": "0.0",
    "latitude": "0.0",
    "geocoded_column": {
      "latitude": "0.0",
      "longitude": "0.0"
    }
  },
  {
    "service_request": "2023-1045688",
    "request_type": "Trash/Recycling",
    "request_reason": "Missed Trash Pick-Up",
    "date_created": "2023-10-24T16:09:44.000",
    "date_modified": "2023-10-24T16:10:12.000",
    "request_status": "Pending",
    "responsible_agency": "Department of Sanitation",
    "final_address": "7820 Wave Dr",
    "address_councildis": "E",
    "status": "Assigned to Contractor",
    "contractor": "Waste Pro",
    "rowid": "1045688",
    "final_x": "3714386.88197",
    "final_y": "569428.201318",
    "longitude": "-89.96279481524695",
    "latitude": "30.058688998488748",
    "geocoded_column": {
      "latitude": "30.058688998488748",
      "longitude": "-89.96279481524695"
    }
  },
  {
    "service_request": "2023-1045687",
    "request_type": "Abandoned Vehicles",
    "request_reason": "Abandoned/Junk Vehicles",
    "date_created": "2023-10-24T16:07:21.000",
    "date_modified": "2023-10-24T16:07:21.000",
    "request_status": "Pending",
    "responsible_agency": "Department of Public Works",
    "final_address": "2000 Adams St",
    "address_councildis": "A",
    "status": "Pending",
    "rowid": "1045687",
    "final_x": "3664959.68506",
    "final_y": "529527.575297",
    "longitude": "-90.1203655025754",
    "latitude": "29.950509000502766",
    "geocoded_column": {
      "latitude": "29.950509000502766",
      "longitude": "-90.1203655025754"
    }
  },
  {
    "service_request": "2023-1045686",
    "request_type": "Mosquito, Termite & Rodent Control",
    "request_reason": "Mosquito Complaint",
    "date_created": "2023-10-24T16:05:15.000",
    "date_modified": "2023-10-24T16:10:28.000",
    "request_status": "Pending",
    "responsible_agency": "Mosquito, Termite & Rodent Control Board",
    "final_address": "4928 Werner Dr",
    "address_councildis": "E",
    "status": "Pending",
    "rowid": "1045686",
    "final_x": "3704626.41719",
    "final_y": "556262.266906",
    "longitude": "-89.99413289664025",
    "latitude": "30.02280526748643",
    "geocoded_column": {
      "latitude": "30.02280526748643",
      "longitude": "-89.99413289664025"
    }
  },
  {
    "service_request": "2023-1045685",
    "request_type": "Property Maintenance",
    "request_reason": "Property Maintenance",
    "date_created": "2023-10-24T16:00:18.000",
    "date_modified": "2023-10-24T16:00:18.000",
    "request_status": "Pending",
    "responsible_agency": "Department of Code Enforcement",
    "final_address": "7906 Michigan St",
    "address_councildis": "E",
    "status": "Pending",
    "rowid": "1045685",
    "final_x": "3711133.94168",
    "final_y": "567417.776996",
    "longitude": "-89.97315239291255",
    "latitude": "30.05326773266014",
    "geocoded_column": {
      "latitude": "30.05326773266014",
      "longitude": "-89.97315239291255"
    }
  },
  {
    "service_request": "2023-1045684",
    "request_type": "Abandoned Vehicles",
    "request_reason": "Abandoned/Junk Vehicles",
    "date_created": "2023-10-24T15:55:46.000",
    "date_modified": "2023-10-24T15:55:46.000",
    "request_status": "Pending",
    "responsible_agency": "Department of Public Works",
    "final_address": "100 BLK N Rocheblave St",
    "address_councildis": "B",
    "status": "Pending",
    "rowid": "1045684",
    "final_x": "3676284.63493",
    "final_y": "534698.202701",
    "longitude": "-90.08442919791207",
    "latitude": "29.964391991269945",
    "geocoded_column": {
      "latitude": "29.964391991269945",
      "longitude": "-90.08442919791207"
    }
  },
  {
    "service_request": "2023-1045683",
    "request_type": "Trash/Recycling",
    "request_reason": "Request a Large Item Pick Up",
    "date_created": "2023-10-24T15:54:45.000",
    "date_modified": "2023-10-24T15:54:54.000",
    "request_status": "Pending",
    "responsible_agency": "Department of Sanitation",
    "final_address": "3312 Constance St",
    "address_councildis": "B",
    "status": "Assigned to Contractor",
    "contractor": "Richards Disposal",
    "rowid": "1045683",
    "final_x": "3675446.31304",
    "final_y": "519366.060983",
    "longitude": "-90.0876029415584",
    "latitude": "29.92225875151794",
    "geocoded_column": {
      "latitude": "29.92225875151794",
      "longitude": "-90.0876029415584"
    }
  },
  {
    "service_request": "2023-1045682",
    "request_type": "Trash/Recycling",
    "request_reason": "Repair Trash Cart",
    "date_created": "2023-10-24T15:50:47.000",
    "date_modified": "2023-10-24T15:50:48.000",
    "request_status": "Pending",
    "responsible_agency": "Department of Sanitation",
    "final_address": "7532 Hurst St",
    "address_councildis": "A",
    "status": "Assigned to Contractor",
    "contractor": "Richards Disposal",
    "rowid": "1045682",
    "final_x": "3660948.57312",
    "final_y": "524510.942076",
    "longitude": "-90.13319649084279",
    "latitude": "29.936830997936326",
    "geocoded_column": {
      "latitude": "29.936830997936326",
      "longitude": "-90.13319649084279"
    }
  },
  {
    "service_request": "2023-1045681",
    "request_type": "Property Maintenance",
    "request_reason": "Property Maintenance",
    "date_created": "2023-10-24T15:48:56.000",
    "date_modified": "2023-10-24T15:48:57.000",
    "request_status": "Pending",
    "responsible_agency": "Department of Code Enforcement",
    "final_address": "1700 BLK Hendee St",
    "address_councildis": "C",
    "status": "Pending",
    "rowid": "1045681",
    "final_x": "3690617.96814",
    "final_y": "524336.769028",
    "longitude": "-90.03953527000466",
    "latitude": "29.93546426819031",
    "geocoded_column": {
      "latitude": "29.93546426819031",
      "longitude": "-90.03953527000466"
    }
  },
  {
    "service_request": "2023-1045680",
    "request_type": "Abandoned Vehicles",
    "request_reason": "Abandoned/Junk Vehicles",
    "date_created": "2023-10-24T15:48:47.000",
    "date_modified": "2023-10-24T15:48:47.000",
    "request_status": "Pending",
    "responsible_agency": "Department of Public Works",
    "final_address": "415 N Hennessey St",
    "address_councildis": "A",
    "status": "Pending",
    "rowid": "1045680",
    "final_x": "3671077.88327",
    "final_y": "540018.851019",
    "longitude": "-90.10069099993707",
    "latitude": "29.97917699999077",
    "geocoded_column": {
      "latitude": "29.97917699999077",
      "longitude": "-90.10069099993707"
    }
  },
  {
    "service_request": "2023-1045679",
    "request_type": "Property Maintenance",
    "request_reason": "Property Maintenance",
    "date_created": "2023-10-24T15:47:15.000",
    "date_modified": "2023-10-24T15:47:16.000",
    "request_status": "Pending",
    "responsible_agency": "Department of Code Enforcement",
    "final_address": "1615 Evelina St",
    "address_councildis": "C",
    "status": "Pending",
    "rowid": "1045679",
    "final_x": "3690410.50972",
    "final_y": "529335.785217",
    "longitude": "-90.0400120833515",
    "latitude": "29.949216294132682",
    "geocoded_column": {
      "latitude": "29.949216294132682",
      "longitude": "-90.0400120833515"
    }
  },
  {
    "service_request": "2023-1045678",
    "request_type": "Property Maintenance",
    "request_reason": "Property Maintenance",
    "date_created": "2023-10-24T15:46:20.000",
    "date_modified": "2023-10-24T15:46:21.000",
    "request_status": "Pending",
    "responsible_agency": "Department of Code Enforcement",
    "final_address": "1601 Elizardi Blvd",
    "address_councildis": "C",
    "status": "Pending",
    "rowid": "1045678",
    "final_x": "3694638.12022",
    "final_y": "525287.414013",
    "longitude": "-90.02680946481959",
    "latitude": "29.937952789027428",
    "geocoded_column": {
      "latitude": "29.937952789027428",
      "longitude": "-90.02680946481959"
    }
  },
  {
    "service_request": "2023-1045677",
    "request_type": "Trash/Recycling",
    "request_reason": "Order Recycling Cart",
    "date_created": "2023-10-24T15:45:04.000",
    "date_modified": "2023-10-24T15:45:04.000",
    "request_status": "Pending",
    "responsible_agency": "Department of Sanitation",
    "final_address": "2416 Bienville Ave",
    "address_councildis": "B",
    "status": "Pending",
    "rowid": "1045677",
    "final_x": "3676740.50299",
    "final_y": "534955.861894",
    "longitude": "-90.08298072250993",
    "latitude": "29.96508679662959",
    "geocoded_column": {
      "latitude": "29.96508679662959",
      "longitude": "-90.08298072250993"
    }
  },
  {
    "service_request": "2023-1045676",
    "request_type": "Trash/Recycling",
    "request_reason": "Missed Trash Pick-Up",
    "date_created": "2023-10-24T15:42:38.000",
    "date_modified": "2023-10-24T15:42:39.000",
    "request_status": "Pending",
    "responsible_agency": "Department of Sanitation",
    "final_address": "200 BLK S Gayoso St",
    "address_councildis": "B",
    "status": "Assigned to Contractor",
    "contractor": "Richards Disposal",
    "rowid": "1045676",
    "final_x": "3673975.76454",
    "final_y": "535384.810908",
    "longitude": "-90.09169694532392",
    "latitude": "29.966348927094725",
    "geocoded_column": {
      "latitude": "29.966348927094725",
      "longitude": "-90.09169694532392"
    }
  },
  {
    "service_request": "2023-1045675",
    "request_type": "Parks & Parkways",
    "request_reason": "Request Tree Service (Right of Way/Public Property)",
    "date_created": "2023-10-24T15:41:29.000",
    "date_modified": "2023-10-24T16:05:29.000",
    "case_close_date": "2023-10-24T11:05:29.000",
    "request_status": "Closed",
    "responsible_agency": "Department of Parks & Parkway",
    "final_address": "4404 Perlita St",
    "address_councildis": "D",
    "status": "Duplicate Request",
    "rowid": "1045675",
    "final_x": "3678712.66037",
    "final_y": "548608.145363",
    "longitude": "-90.07627978427895",
    "latitude": "30.002566504245326",
    "geocoded_column": {
      "latitude": "30.002566504245326",
      "longitude": "-90.07627978427895"
    }
  },
  {
    "service_request": "2023-1045674",
    "request_type": "Roads/Drainage",
    "request_reason": "Pothole",
    "date_created": "2023-10-24T15:38:27.000",
    "date_modified": "2023-10-24T15:38:27.000",
    "request_status": "Pending",
    "responsible_agency": "Department of Public Works",
    "final_address": "4216 Chestnut St",
    "address_councildis": "B",
    "status": "Pending",
    "rowid": "1045674",
    "final_x": "3671574.31393",
    "final_y": "519539.203703",
    "longitude": "-90.09981939416457",
    "latitude": "29.922850019854593",
    "geocoded_column": {
      "latitude": "29.922850019854593",
      "longitude": "-90.09981939416457"
    }
  },
  {
    "service_request": "2023-1045673",
    "request_type": "Trash/Recycling",
    "request_reason": "Return Trash Cart",
    "date_created": "2023-10-24T15:37:50.000",
    "date_modified": "2023-10-24T15:37:50.000",
    "request_status": "Pending",
    "responsible_agency": "Department of Sanitation",
    "final_address": "7221 Spring Lake Dr",
    "address_councildis": "E",
    "status": "Assigned to Contractor",
    "contractor": "Waste Pro",
    "rowid": "1045673",
    "final_x": "3700300.1258",
    "final_y": "559038.862684",
    "longitude": "-90.00770139731985",
    "latitude": "30.03057815912377",
    "geocoded_column": {
      "latitude": "30.03057815912377",
      "longitude": "-90.00770139731985"
    }
  },
  {
    "service_request": "2023-1045672",
    "request_type": "Trash/Recycling",
    "request_reason": "Missed Trash Pick-Up",
    "date_created": "2023-10-24T15:29:52.000",
    "date_modified": "2023-10-24T15:29:52.000",
    "request_status": "Pending",
    "responsible_agency": "Department of Sanitation",
    "final_address": "7731 Poitevent Ave",
    "address_councildis": "E",
    "status": "Assigned to Contractor",
    "contractor": "Waste Pro",
    "rowid": "1045672",
    "final_x": "3706823.01719",
    "final_y": "564489.951393",
    "longitude": "-89.98688671374596",
    "latitude": "30.045357387209187",
    "geocoded_column": {
      "latitude": "30.045357387209187",
      "longitude": "-89.98688671374596"
    }
  },
  {
    "service_request": "2023-1045671",
    "request_type": "Roads/Drainage",
    "request_reason": "Pothole",
    "date_created": "2023-10-24T15:28:01.000",
    "date_modified": "2023-10-24T15:28:01.000",
    "request_status": "Pending",
    "responsible_agency": "Department of Public Works",
    "final_address": "1315 Peniston St",
    "address_councildis": "B",
    "status": "Pending",
    "rowid": "1045671",
    "final_x": "3673101.31451",
    "final_y": "520423.11276",
    "longitude": "-90.09496908964098",
    "latitude": "29.925235197927364",
    "geocoded_column": {
      "latitude": "29.925235197927364",
      "longitude": "-90.09496908964098"
    }
  },
  {
    "service_request": "2023-1045670",
    "request_type": "Roads/Drainage",
    "request_reason": "Pothole",
    "date_created": "2023-10-24T15:23:00.000",
    "date_modified": "2023-10-24T15:23:00.000",
    "request_status": "Pending",
    "responsible_agency": "Department of Public Works",
    "final_address": "1312 Milan St",
    "address_councildis": "B",
    "status": "Pending",
    "rowid": "1045670",
    "final_x": "3671625.82823",
    "final_y": "520286.919608",
    "longitude": "-90.09963137110304",
    "latitude": "29.92490447494246",
    "geocoded_column": {
      "latitude": "29.92490447494246",
      "longitude": "-90.09963137110304"
    }
  },
  {
    "service_request": "2023-1045669",
    "request_type": "Abandoned Vehicles",
    "request_reason": "Abandoned/Junk Vehicles",
    "date_created": "2023-10-24T15:21:36.000",
    "date_modified": "2023-10-24T15:27:20.000",
    "request_status": "Pending",
    "responsible_agency": "Department of Public Works",
    "final_address": "10200 Almonaster Ave",
    "address_councildis": "E",
    "status": "Inspected",
    "rowid": "1045669",
    "final_x": "3713684.56383",
    "final_y": "551626.395989",
    "longitude": "-89.96568637555853",
    "latitude": "30.00976423388402",
    "geocoded_column": {
      "latitude": "30.00976423388402",
      "longitude": "-89.96568637555853"
    }
  },
  {
    "service_request": "2023-1045668",
    "request_type": "Trash/Recycling",
    "request_reason": "Request a Large Item Pick Up",
    "date_created": "2023-10-24T15:18:58.000",
    "date_modified": "2023-10-24T15:18:58.000",
    "request_status": "Pending",
    "responsible_agency": "Department of Sanitation",
    "final_address": "4758 Camelot Dr",
    "address_councildis": "E",
    "status": "Assigned to Contractor",
    "contractor": "Waste Pro",
    "rowid": "1045668",
    "final_x": "3708291.78628",
    "final_y": "555690.003289",
    "longitude": "-89.98257259101992",
    "latitude": "30.021113464904975",
    "geocoded_column": {
      "latitude": "30.021113464904975",
      "longitude": "-89.98257259101992"
    }
  },
  {
    "service_request": "2023-1045667",
    "request_type": "Trash/Recycling",
    "request_reason": "Request a Large Item Pick Up",
    "date_created": "2023-10-24T15:17:25.000",
    "date_modified": "2023-10-24T15:17:26.000",
    "request_status": "Pending",
    "responsible_agency": "Department of Sanitation",
    "final_address": "1111 S Peters St",
    "address_councildis": "B",
    "status": "Assigned to Contractor",
    "contractor": "Empire Services",
    "rowid": "1045667",
    "final_x": "3682291.57576",
    "final_y": "525914.435517",
    "longitude": "-90.0657666197599",
    "latitude": "29.940058210635538",
    "geocoded_column": {
      "latitude": "29.940058210635538",
      "longitude": "-90.0657666197599"
    }
  },
  {
    "service_request": "2023-1045666",
    "request_type": "Roads/Drainage",
    "request_reason": "Pothole",
    "date_created": "2023-10-24T15:13:25.000",
    "date_modified": "2023-10-24T15:13:25.000",
    "request_status": "Pending",
    "responsible_agency": "Department of Public Works",
    "final_address": "1421 Constantinople St",
    "address_councildis": "B",
    "status": "Pending",
    "rowid": "1045666",
    "final_x": "3672433.24257",
    "final_y": "520667.657465",
    "longitude": "-90.09706965638372",
    "latitude": "29.925927453713577",
    "geocoded_column": {
      "latitude": "29.925927453713577",
      "longitude": "-90.09706965638372"
    }
  },
  {
    "service_request": "2023-1045665",
    "request_type": "Abandoned Vehicles",
    "request_reason": "Abandoned/Junk Vehicles",
    "date_created": "2023-10-24T15:12:31.000",
    "date_modified": "2023-10-24T15:15:37.000",
    "request_status": "Pending",
    "responsible_agency": "Department of Public Works",
    "final_address": "1502 Spain St",
    "address_councildis": "C",
    "status": "Pending",
    "rowid": "1045665",
    "final_x": "3685976.98274",
    "final_y": "537913.612169",
    "longitude": "-90.05370819288787",
    "latitude": "29.972939211487535",
    "geocoded_column": {
      "latitude": "29.972939211487535",
      "longitude": "-90.05370819288787"
    }
  },
  {
    "service_request": "2023-1045664",
    "request_type": "Traffic Signals/Signs/Striping/Streetlights",
    "request_reason": "Street Name Sign Damaged or Missing",
    "date_created": "2023-10-24T15:08:14.000",
    "date_modified": "2023-10-24T15:08:15.000",
    "request_status": "Pending",
    "responsible_agency": "Department of Public Works",
    "final_address": "CANAL BLVD & FLORIDA BLVD",
    "address_councildis": "A",
    "status": "Pending",
    "rowid": "1045664",
    "final_x": "3668371.3",
    "final_y": "545343.08",
    "longitude": "-90.10905980065687",
    "latitude": "29.993896598145398",
    "geocoded_column": {
      "latitude": "29.993896598145398",
      "longitude": "-90.10905980065687"
    }
  },
  {
    "service_request": "2023-1045663",
    "request_type": "Roads/Drainage",
    "request_reason": "Street Subsidence (Sinking)",
    "date_created": "2023-10-24T15:05:25.000",
    "date_modified": "2023-10-24T15:05:25.000",
    "request_status": "Pending",
    "responsible_agency": "Department of Public Works",
    "final_address": "CONSTANCE ST & BORDEAUX ST",
    "address_councildis": "B",
    "status": "Pending",
    "rowid": "1045663",
    "final_x": "3669627.7",
    "final_y": "518275.98",
    "longitude": "-90.10600681825592",
    "latitude": "29.919434032228303",
    "geocoded_column": {
      "latitude": "29.919434032228303",
      "longitude": "-90.10600681825592"
    }
  },
  {
    "service_request": "2023-1045662",
    "request_type": "Trash/Recycling",
    "request_reason": "Illegal Dumping",
    "date_created": "2023-10-24T15:05:24.000",
    "date_modified": "2023-10-24T15:05:24.000",
    "request_status": "Pending",
    "responsible_agency": "Department of Sanitation",
    "final_address": "Interstate 610 & Orleans Avenue",
    "address_councildis": "A",
    "status": "Pending",
    "rowid": "1045662",
    "final_x": "3670761.8626",
    "final_y": "545732.125456",
    "longitude": "-90.10149512819247",
    "latitude": "29.99489589055346",
    "geocoded_column": {
      "latitude": "29.99489589055346",
      "longitude": "-90.10149512819247"
    }
  },
  {
    "service_request": "2023-1045661",
    "request_type": "Roads/Drainage",
    "request_reason": "Street Subsidence (Sinking)",
    "date_created": "2023-10-24T15:02:35.000",
    "date_modified": "2023-10-24T15:02:36.000",
    "request_status": "Pending",
    "responsible_agency": "Department of Public Works",
    "final_address": "N LAKE CARMEL DR & W RENAISSANCE CT",
    "address_councildis": "E",
    "status": "Pending",
    "rowid": "1045661",
    "final_x": "3716132.7",
    "final_y": "568162.78",
    "longitude": "-89.95732454219426",
    "latitude": "30.055152079809066",
    "geocoded_column": {
      "latitude": "30.055152079809066",
      "longitude": "-89.95732454219426"
    }
  },
  {
    "service_request": "2023-1045660",
    "request_type": "Trash/Recycling",
    "request_reason": "Replace Trash Cart",
    "date_created": "2023-10-24T15:01:28.000",
    "date_modified": "2023-10-24T15:01:29.000",
    "request_status": "Pending",
    "responsible_agency": "Department of Sanitation",
    "final_address": "1910 N Dorgenois St",
    "address_councildis": "D",
    "status": "Assigned to Contractor",
    "contractor": "IV Waste",
    "rowid": "1045660",
    "final_x": "3681326.49615",
    "final_y": "541164.482252",
    "longitude": "-90.0682819623966",
    "latitude": "29.98201995699922",
    "geocoded_column": {
      "latitude": "29.98201995699922",
      "longitude": "-90.0682819623966"
    }
  },
  {
    "service_request": "2023-1045659",
    "request_type": "Trash/Recycling",
    "request_reason": "Request a Large Item Pick Up",
    "date_created": "2023-10-24T15:01:23.000",
    "date_modified": "2023-10-24T15:01:23.000",
    "request_status": "Pending",
    "responsible_agency": "Department of Sanitation",
    "final_address": "830 Congress St",
    "address_councildis": "C",
    "status": "Assigned to Contractor",
    "contractor": "IV Waste",
    "rowid": "1045659",
    "final_x": "3690466.40099",
    "final_y": "534674.99079",
    "longitude": "-90.03964527636735",
    "latitude": "29.963895521571363",
    "geocoded_column": {
      "latitude": "29.963895521571363",
      "longitude": "-90.03964527636735"
    }
  },
  {
    "service_request": "2023-1045658",
    "request_type": "Abandoned Vehicles",
    "request_reason": "Abandoned/Junk Vehicles",
    "date_created": "2023-10-24T15:00:59.000",
    "date_modified": "2023-10-24T15:00:59.000",
    "request_status": "Pending",
    "responsible_agency": "Department of Public Works",
    "final_address": "3622 Buchanan St",
    "address_councildis": "D",
    "status": "Pending",
    "rowid": "1045658",
    "final_x": "3677374.43752",
    "final_y": "545502.55528",
    "longitude": "-90.08061466741114",
    "latitude": "29.994067527157974",
    "geocoded_column": {
      "latitude": "29.994067527157974",
      "longitude": "-90.08061466741114"
    }
  },
  {
    "service_request": "2023-1045657",
    "request_type": "Trash/Recycling",
    "request_reason": "Replace Recycling Cart",
    "date_created": "2023-10-24T14:59:51.000",
    "date_modified": "2023-10-24T14:59:51.000",
    "request_status": "Pending",
    "responsible_agency": "Department of Sanitation",
    "final_address": "724 Bordeaux St",
    "address_councildis": "B",
    "status": "Pending",
    "rowid": "1045657",
    "final_x": "3669608.32705",
    "final_y": "518098.200886",
    "longitude": "-90.10607397947392",
    "latitude": "29.918945766391875",
    "geocoded_column": {
      "latitude": "29.918945766391875",
      "longitude": "-90.10607397947392"
    }
  },
  {
    "service_request": "2023-1045656",
    "request_type": "Trash/Recycling",
    "request_reason": "Request a Large Item Pick Up",
    "date_created": "2023-10-24T14:56:28.000",
    "date_modified": "2023-10-24T14:56:29.000",
    "request_status": "Pending",
    "responsible_agency": "Department of Sanitation",
    "final_address": "2408 Dauphine St",
    "address_councildis": "C",
    "status": "Assigned to Contractor",
    "contractor": "IV Waste",
    "rowid": "1045656",
    "final_x": "3685969.62825",
    "final_y": "535250.742214",
    "longitude": "-90.05382532869208",
    "latitude": "29.965617472173726",
    "geocoded_column": {
      "latitude": "29.965617472173726",
      "longitude": "-90.05382532869208"
    }
  },
  {
    "service_request": "2023-1045655",
    "request_type": "Trash/Recycling",
    "request_reason": "Dead Animal Pick Up",
    "date_created": "2023-10-24T14:53:34.000",
    "date_modified": "2023-10-24T14:53:35.000",
    "request_status": "Pending",
    "responsible_agency": "Department of Sanitation",
    "final_address": "622 Tupelo St",
    "address_councildis": "E",
    "status": "Assigned to Contractor",
    "contractor": "Waste Pro",
    "rowid": "1045655",
    "final_x": "3698821.90493",
    "final_y": "531757.589763",
    "longitude": "-90.01336567166356",
    "latitude": "29.955611668741206",
    "geocoded_column": {
      "latitude": "29.955611668741206",
      "longitude": "-90.01336567166356"
    }
  },
  {
    "service_request": "2023-1045654",
    "request_type": "Roads/Drainage",
    "request_reason": "Pothole",
    "date_created": "2023-10-24T14:52:16.000",
    "date_modified": "2023-10-24T14:53:01.000",
    "request_status": "Pending",
    "responsible_agency": "Department of Public Works",
    "final_address": "7641 Brevard Ave",
    "address_councildis": "E",
    "status": "Pending",
    "rowid": "1045654",
    "final_x": "3706363.58123",
    "final_y": "563518.18288",
    "longitude": "-89.98837479180092",
    "latitude": "30.042700246751252",
    "geocoded_column": {
      "latitude": "30.042700246751252",
      "longitude": "-89.98837479180092"
    }
  },
  {
    "service_request": "2023-1045653",
    "request_type": "Roads/Drainage",
    "request_reason": "Man hole cover issue",
    "date_created": "2023-10-24T14:51:20.000",
    "date_modified": "2023-10-24T14:51:20.000",
    "request_status": "Pending",
    "responsible_agency": "Department of Public Works",
    "final_address": "Moss Street & Orleans Avenue",
    "address_councildis": "A",
    "status": "Pending",
    "rowid": "1045653",
    "final_x": "3674401.0146",
    "final_y": "538772.455113",
    "longitude": "-90.09023794930162",
    "latitude": "29.975651122100142",
    "geocoded_column": {
      "latitude": "29.975651122100142",
      "longitude": "-90.09023794930162"
    }
  },
  {
    "service_request": "2023-1045652",
    "request_type": "Trash/Recycling",
    "request_reason": "Replace Recycling Cart",
    "date_created": "2023-10-24T14:51:17.000",
    "date_modified": "2023-10-24T14:51:17.000",
    "request_status": "Pending",
    "responsible_agency": "Department of Sanitation",
    "final_address": "4626 Orleans Ave",
    "address_councildis": "A",
    "status": "Pending",
    "rowid": "1045652",
    "final_x": "3670602.33396",
    "final_y": "541575.692876",
    "longitude": "-90.10214013979962",
    "latitude": "29.983471843314177",
    "geocoded_column": {
      "latitude": "29.983471843314177",
      "longitude": "-90.10214013979962"
    }
  },
  {
    "service_request": "2023-1045651",
    "request_type": "Trash/Recycling",
    "request_reason": "Repair Trash Cart",
    "date_created": "2023-10-24T14:46:53.000",
    "date_modified": "2023-10-24T14:46:54.000",
    "request_status": "Pending",
    "responsible_agency": "Department of Sanitation",
    "final_address": "5325 Urquhart St",
    "address_councildis": "E",
    "status": "Assigned to Contractor",
    "contractor": "Waste Pro",
    "rowid": "1045651",
    "final_x": "3697229.86237",
    "final_y": "534769.337158",
    "longitude": "-90.01828360278002",
    "latitude": "29.96394323947354",
    "geocoded_column": {
      "latitude": "29.96394323947354",
      "longitude": "-90.01828360278002"
    }
  },
  {
    "service_request": "2023-1045650",
    "request_type": "Abandoned Vehicles",
    "request_reason": "Abandoned/Junk Vehicles",
    "date_created": "2023-10-24T14:44:34.000",
    "date_modified": "2023-10-24T14:44:34.000",
    "request_status": "Pending",
    "responsible_agency": "Department of Public Works",
    "final_address": "1900 River Oaks Dr",
    "address_councildis": "C",
    "status": "Pending",
    "rowid": "1045650",
    "final_x": "3701728.37463",
    "final_y": "523777.384251",
    "longitude": "-90.00448037312127",
    "latitude": "29.933576532346027",
    "geocoded_column": {
      "latitude": "29.933576532346027",
      "longitude": "-90.00448037312127"
    }
  },
  {
    "service_request": "2023-1045649",
    "request_type": "Abandoned Vehicles",
    "request_reason": "Abandoned/Junk Vehicles",
    "date_created": "2023-10-24T14:42:18.000",
    "date_modified": "2023-10-24T14:42:18.000",
    "request_status": "Pending",
    "responsible_agency": "Department of Public Works",
    "final_address": "3000 BLK Metropolitan St",
    "address_councildis": "D",
    "status": "Pending",
    "rowid": "1045649",
    "final_x": "3691269.88087",
    "final_y": "543850.97639",
    "longitude": "-90.03678009018309",
    "latitude": "29.989101250839838",
    "geocoded_column": {
      "latitude": "29.989101250839838",
      "longitude": "-90.03678009018309"
    }
  },
  {
    "service_request": "2023-1045648",
    "request_type": "Trash/Recycling",
    "request_reason": "Order Trash Cart",
    "date_created": "2023-10-24T14:34:28.000",
    "date_modified": "2023-10-24T14:34:29.000",
    "request_status": "Pending",
    "responsible_agency": "Department of Sanitation",
    "final_address": "8033 Arcadia Ln",
    "address_councildis": "E",
    "status": "Assigned to Contractor",
    "contractor": "Waste Pro",
    "rowid": "1045648",
    "final_x": "3711653.9756",
    "final_y": "568207.043365",
    "longitude": "-89.97147907004556",
    "latitude": "30.055420909779965",
    "geocoded_column": {
      "latitude": "30.055420909779965",
      "longitude": "-89.97147907004556"
    }
  },
  {
    "service_request": "2023-1045647",
    "request_type": "Trash/Recycling",
    "request_reason": "Request a Large Item Pick Up",
    "date_created": "2023-10-24T14:33:28.000",
    "date_modified": "2023-10-24T14:33:29.000",
    "request_status": "Pending",
    "responsible_agency": "Department of Sanitation",
    "final_address": "5504 Canal Blvd",
    "address_councildis": "A",
    "status": "Assigned to Contractor",
    "contractor": "IV Waste",
    "rowid": "1045647",
    "final_x": "3667980.06612",
    "final_y": "543901.624974",
    "longitude": "-90.11034425533867",
    "latitude": "29.989944578602856",
    "geocoded_column": {
      "latitude": "29.989944578602856",
      "longitude": "-90.11034425533867"
    }
  },
  {
    "service_request": "2023-1045646",
    "request_type": "Trash/Recycling",
    "request_reason": "Order Trash Cart",
    "date_created": "2023-10-24T14:33:24.000",
    "date_modified": "2023-10-24T14:33:25.000",
    "request_status": "Pending",
    "responsible_agency": "Department of Sanitation",
    "final_address": "14599 Duane Rd",
    "address_councildis": "E",
    "status": "Assigned to Contractor",
    "contractor": "Waste Pro",
    "rowid": "1045646",
    "final_x": "3721210.39359",
    "final_y": "573604.250602",
    "longitude": "-89.94106622026983",
    "latitude": "30.069945199633125",
    "geocoded_column": {
      "latitude": "30.069945199633125",
      "longitude": "-89.94106622026983"
    }
  },
  {
    "service_request": "2023-1045645",
    "request_type": "Trash/Recycling",
    "request_reason": "Request a Large Item Pick Up",
    "date_created": "2023-10-24T14:32:33.000",
    "date_modified": "2023-10-24T14:32:34.000",
    "request_status": "Pending",
    "responsible_agency": "Department of Sanitation",
    "final_address": "1432 Touro St",
    "address_councildis": "C",
    "status": "Assigned to Contractor",
    "contractor": "IV Waste",
    "rowid": "1045645",
    "final_x": "3684097.95157",
    "final_y": "537611.196104",
    "longitude": "-90.05965314158549",
    "latitude": "29.972165238059002",
    "geocoded_column": {
      "latitude": "29.972165238059002",
      "longitude": "-90.05965314158549"
    }
  },
  {
    "service_request": "2023-1045644",
    "request_type": "Trash/Recycling",
    "request_reason": "Request a Large Item Pick Up",
    "date_created": "2023-10-24T14:31:07.000",
    "date_modified": "2023-10-24T14:31:08.000",
    "request_status": "Pending",
    "responsible_agency": "Department of Sanitation",
    "final_address": "7915 Drum St",
    "address_councildis": "E",
    "status": "Assigned to Contractor",
    "contractor": "Waste Pro",
    "rowid": "1045644",
    "final_x": "3700045.26736",
    "final_y": "561485.215647",
    "longitude": "-90.00841736271329",
    "latitude": "30.037312786209515",
    "geocoded_column": {
      "latitude": "30.037312786209515",
      "longitude": "-90.00841736271329"
    }
  },
  {
    "service_request": "2023-1045643",
    "request_type": "Roads/Drainage",
    "request_reason": "Pothole",
    "date_created": "2023-10-24T14:30:53.000",
    "date_modified": "2023-10-24T14:30:53.000",
    "request_status": "Pending",
    "responsible_agency": "Department of Public Works",
    "final_address": "4739 Dryades St",
    "address_councildis": "B",
    "status": "Pending",
    "rowid": "1045643",
    "final_x": "3669310.42426",
    "final_y": "521851.683194",
    "longitude": "-90.10688749493693",
    "latitude": "29.92927542130942",
    "geocoded_column": {
      "latitude": "29.92927542130942",
      "longitude": "-90.10688749493693"
    }
  },
  {
    "service_request": "2023-1045642",
    "request_type": "Property Maintenance",
    "request_reason": "Property Maintenance",
    "date_created": "2023-10-24T14:28:44.000",
    "date_modified": "2023-10-24T14:28:45.000",
    "request_status": "Pending",
    "responsible_agency": "Department of Code Enforcement",
    "final_address": "1956 N Tonti St",
    "address_councildis": "D",
    "status": "Pending",
    "rowid": "1045642",
    "final_x": "3682600.89724",
    "final_y": "540527.956363",
    "longitude": "-90.06427906337369",
    "latitude": "29.980230984854927",
    "geocoded_column": {
      "latitude": "29.980230984854927",
      "longitude": "-90.06427906337369"
    }
  },
  {
    "service_request": "2023-1045639",
    "request_type": "Trash/Recycling",
    "request_reason": "Replace Trash Cart",
    "date_created": "2023-10-24T14:20:17.000",
    "date_modified": "2023-10-24T14:20:18.000",
    "request_status": "Pending",
    "responsible_agency": "Department of Sanitation",
    "final_address": "4429 S Roman St",
    "address_councildis": "B",
    "status": "Assigned to Contractor",
    "contractor": "Richards Disposal",
    "rowid": "1045639",
    "final_x": "3669955.2603",
    "final_y": "526629.49715",
    "longitude": "-90.10469013820213",
    "latitude": "29.942393876359674",
    "geocoded_column": {
      "latitude": "29.942393876359674",
      "longitude": "-90.10469013820213"
    }
  },
  {
    "service_request": "2023-1045638",
    "request_type": "Trash/Recycling",
    "request_reason": "Repair Trash Cart",
    "date_created": "2023-10-24T14:16:17.000",
    "date_modified": "2023-10-24T14:16:18.000",
    "request_status": "Pending",
    "responsible_agency": "Department of Sanitation",
    "final_address": "10220 Flossmoor Dr",
    "address_councildis": "E",
    "status": "Assigned to Contractor",
    "contractor": "Waste Pro",
    "rowid": "1045638",
    "final_x": "3709870.39333",
    "final_y": "563633.523745",
    "longitude": "-89.97728765031596",
    "latitude": "30.042903741655703",
    "geocoded_column": {
      "latitude": "30.042903741655703",
      "longitude": "-89.97728765031596"
    }
  },
  {
    "service_request": "2023-1045637",
    "request_type": "Trash/Recycling",
    "request_reason": "Missed Trash Pick-Up",
    "date_created": "2023-10-24T14:12:49.000",
    "date_modified": "2023-10-24T14:12:50.000",
    "request_status": "Pending",
    "responsible_agency": "Department of Sanitation",
    "final_address": "10933 Vienna St",
    "address_councildis": "E",
    "status": "Assigned to Contractor",
    "contractor": "Waste Pro",
    "rowid": "1045637",
    "final_x": "3715761.88536",
    "final_y": "558012.101723",
    "longitude": "-89.95888145159549",
    "latitude": "30.0272540643672",
    "geocoded_column": {
      "latitude": "30.0272540643672",
      "longitude": "-89.95888145159549"
    }
  },
  {
    "service_request": "2023-1045636",
    "request_type": "Trash/Recycling",
    "request_reason": "Request a Large Item Pick Up",
    "date_created": "2023-10-24T14:05:09.000",
    "date_modified": "2023-10-24T14:05:53.000",
    "request_status": "Pending",
    "responsible_agency": "Department of Sanitation",
    "final_address": "2828 Audubon St",
    "address_councildis": "B",
    "status": "Assigned to Contractor",
    "contractor": "Richards Disposal",
    "rowid": "1045636",
    "final_x": "3667632.12429",
    "final_y": "531322.592194",
    "longitude": "-90.11186687626252",
    "latitude": "29.955366651870104",
    "geocoded_column": {
      "latitude": "29.955366651870104",
      "longitude": "-90.11186687626252"
    }
  },
  {
    "service_request": "2023-1045635",
    "request_type": "Trash/Recycling",
    "request_reason": "Order Trash Cart",
    "date_created": "2023-10-24T14:01:54.000",
    "date_modified": "2023-10-24T14:01:55.000",
    "request_status": "Pending",
    "responsible_agency": "Department of Sanitation",
    "final_address": "2508 Mexico St",
    "address_councildis": "D",
    "status": "Assigned to Contractor",
    "contractor": "IV Waste",
    "rowid": "1045635",
    "final_x": "3685715.49039",
    "final_y": "556262.743322",
    "longitude": "-90.05388696363242",
    "latitude": "30.02340074640817",
    "geocoded_column": {
      "latitude": "30.02340074640817",
      "longitude": "-90.05388696363242"
    }
  },
  {
    "service_request": "2023-1045634",
    "request_type": "Trash/Recycling",
    "request_reason": "Order Recycling Cart",
    "date_created": "2023-10-24T14:01:40.000",
    "date_modified": "2023-10-24T14:01:41.000",
    "request_status": "Pending",
    "responsible_agency": "Department of Sanitation",
    "final_address": "2508 Mexico St",
    "address_councildis": "D",
    "status": "Pending",
    "rowid": "1045634",
    "final_x": "3685715.49039",
    "final_y": "556262.743322",
    "longitude": "-90.05388696363242",
    "latitude": "30.02340074640817",
    "geocoded_column": {
      "latitude": "30.02340074640817",
      "longitude": "-90.05388696363242"
    }
  },
  {
    "service_request": "2023-1045633",
    "request_type": "Trash/Recycling",
    "request_reason": "Request a Large Item Pick Up",
    "date_created": "2023-10-24T14:00:48.000",
    "date_modified": "2023-10-24T14:01:16.000",
    "request_status": "Pending",
    "responsible_agency": "Department of Sanitation",
    "final_address": "5142 Westgrove Park",
    "address_councildis": "C",
    "status": "Assigned to Contractor",
    "contractor": "Richards Disposal",
    "rowid": "1045633",
    "final_x": "3703332.42372",
    "final_y": "511037.766128",
    "longitude": "-89.99988454489299",
    "latitude": "29.89849570930456",
    "geocoded_column": {
      "latitude": "29.89849570930456",
      "longitude": "-89.99988454489299"
    }
  },
  {
    "service_request": "2023-1045631",
    "request_type": "Trash/Recycling",
    "request_reason": "Missed Trash Pick-Up",
    "date_created": "2023-10-24T13:58:40.000",
    "date_modified": "2023-10-24T13:58:41.000",
    "request_status": "Pending",
    "responsible_agency": "Department of Sanitation",
    "final_address": "Cleveland Avenue & South Gayoso Street",
    "address_councildis": "B",
    "status": "Assigned to Contractor",
    "contractor": "Richards Disposal",
    "rowid": "1045631",
    "final_x": "3674089.26203",
    "final_y": "535533.599622",
    "longitude": "-90.09133342854493",
    "latitude": "29.966754663691404",
    "geocoded_column": {
      "latitude": "29.966754663691404",
      "longitude": "-90.09133342854493"
    }
  },
  {
    "service_request": "2023-1045630",
    "request_type": "Trash/Recycling",
    "request_reason": "Order Recycling Cart",
    "date_created": "2023-10-24T13:57:37.000",
    "date_modified": "2023-10-24T13:57:37.000",
    "request_status": "Pending",
    "responsible_agency": "Department of Sanitation",
    "final_address": "4507 Magazine St",
    "address_councildis": "B",
    "status": "Pending",
    "rowid": "1045630",
    "final_x": "3670576.55252",
    "final_y": "518780.081719",
    "longitude": "-90.10299467284558",
    "latitude": "29.920792172236933",
    "geocoded_column": {
      "latitude": "29.920792172236933",
      "longitude": "-90.10299467284558"
    }
  },
  {
    "service_request": "2023-1045629",
    "request_type": "Roads/Drainage",
    "request_reason": "Damaged Sidewalk",
    "date_created": "2023-10-24T13:57:08.000",
    "date_modified": "2023-10-24T13:57:08.000",
    "request_status": "Pending",
    "responsible_agency": "Department of Public Works",
    "final_address": "4505 Duplessis St",
    "address_councildis": "D",
    "status": "Pending",
    "rowid": "1045629",
    "final_x": "3678317.62875",
    "final_y": "549078.073875",
    "longitude": "-90.07751147025961",
    "latitude": "30.00387055080089",
    "geocoded_column": {
      "latitude": "30.00387055080089",
      "longitude": "-90.07751147025961"
    }
  },
  {
    "service_request": "2023-1045628",
    "request_type": "Trash/Recycling",
    "request_reason": "Repair Trash Cart",
    "date_created": "2023-10-24T13:56:31.000",
    "date_modified": "2023-10-24T13:56:32.000",
    "request_status": "Pending",
    "responsible_agency": "Department of Sanitation",
    "final_address": "4507 Magazine St",
    "address_councildis": "B",
    "status": "Assigned to Contractor",
    "contractor": "Richards Disposal",
    "rowid": "1045628",
    "final_x": "3670576.55252",
    "final_y": "518780.081719",
    "longitude": "-90.10299467284558",
    "latitude": "29.920792172236933",
    "geocoded_column": {
      "latitude": "29.920792172236933",
      "longitude": "-90.10299467284558"
    }
  },
  {
    "service_request": "2023-1045627",
    "request_type": "Traffic Signals/Signs/Striping/Streetlights",
    "request_reason": "Street Light Outage/Malfunction",
    "date_created": "2023-10-24T13:51:56.000",
    "date_modified": "2023-10-24T13:51:57.000",
    "request_status": "Pending",
    "responsible_agency": "Department of Public Works",
    "final_address": "3120 Grand-Route St John St",
    "address_councildis": "A",
    "status": "Assigned to Contractor",
    "contractor": "Legacy Professional Services",
    "rowid": "1045627",
    "final_x": "3676221.93576",
    "final_y": "540282.479563",
    "longitude": "-90.08443498919851",
    "latitude": "29.97974872639298",
    "geocoded_column": {
      "latitude": "29.97974872639298",
      "longitude": "-90.08443498919851"
    }
  },
  {
    "service_request": "2023-1045626",
    "request_type": "Trash/Recycling",
    "request_reason": "Order Recycling Cart",
    "date_created": "2023-10-24T13:46:32.000",
    "date_modified": "2023-10-24T13:46:32.000",
    "request_status": "Pending",
    "responsible_agency": "Department of Sanitation",
    "final_address": "533 Barracks St",
    "address_councildis": "C",
    "status": "Pending",
    "rowid": "1045626",
    "final_x": "3684328.59484",
    "final_y": "533978.492933",
    "longitude": "-90.05905231949492",
    "latitude": "29.962169509750765",
    "geocoded_column": {
      "latitude": "29.962169509750765",
      "longitude": "-90.05905231949492"
    }
  },
  {
    "service_request": "2023-1045625",
    "request_type": "Trash/Recycling",
    "request_reason": "Order Recycling Cart",
    "date_created": "2023-10-24T13:45:29.000",
    "date_modified": "2023-10-24T13:45:30.000",
    "request_status": "Pending",
    "responsible_agency": "Department of Sanitation",
    "final_address": "13919 Dwyer Blvd",
    "address_councildis": "E",
    "status": "Pending",
    "rowid": "1045625",
    "final_x": "3727795.96889",
    "final_y": "562769.227616",
    "longitude": "-89.92067007585995",
    "latitude": "30.03993179830851",
    "geocoded_column": {
      "latitude": "30.03993179830851",
      "longitude": "-89.92067007585995"
    }
  },
  {
    "service_request": "2023-1045624",
    "request_type": "Trash/Recycling",
    "request_reason": "Repair Trash Cart",
    "date_created": "2023-10-24T13:44:23.000",
    "date_modified": "2023-10-24T13:44:24.000",
    "request_status": "Pending",
    "responsible_agency": "Department of Sanitation",
    "final_address": "13919 Dwyer Blvd",
    "address_councildis": "E",
    "status": "Assigned to Contractor",
    "contractor": "Waste Pro",
    "rowid": "1045624",
    "final_x": "3727795.96889",
    "final_y": "562769.227616",
    "longitude": "-89.92067007585995",
    "latitude": "30.03993179830851",
    "geocoded_column": {
      "latitude": "30.03993179830851",
      "longitude": "-89.92067007585995"
    }
  },
  {
    "service_request": "2023-1045623",
    "request_type": "Property Maintenance",
    "request_reason": "Property Maintenance",
    "date_created": "2023-10-24T13:44:05.000",
    "date_modified": "2023-10-24T13:44:05.000",
    "request_status": "Pending",
    "responsible_agency": "Department of Code Enforcement",
    "final_address": "4901 Downman Rd",
    "address_councildis": "D",
    "status": "Pending",
    "rowid": "1045623",
    "final_x": "3695993.59856",
    "final_y": "554711.652248",
    "longitude": "-90.02146658120601",
    "latitude": "30.0188162650829",
    "geocoded_column": {
      "latitude": "30.0188162650829",
      "longitude": "-90.02146658120601"
    }
  },
  {
    "service_request": "2023-1045622",
    "request_type": "Traffic Signals/Signs/Striping/Streetlights",
    "request_reason": "Street Light Outage/Malfunction",
    "date_created": "2023-10-24T13:43:40.000",
    "date_modified": "2023-10-24T13:43:41.000",
    "request_status": "Pending",
    "responsible_agency": "Department of Public Works",
    "final_address": "6850 Norwood Ct",
    "address_councildis": "E",
    "status": "Assigned to Contractor",
    "contractor": "Legacy Professional Services",
    "rowid": "1045622",
    "final_x": "3700997.42961",
    "final_y": "557229.896091",
    "longitude": "-90.00556415965184",
    "latitude": "30.025581998864517",
    "geocoded_column": {
      "latitude": "30.025581998864517",
      "longitude": "-90.00556415965184"
    }
  },
  {
    "service_request": "2023-1045621",
    "request_type": "Trash/Recycling",
    "request_reason": "Order Recycling Cart",
    "date_created": "2023-10-24T13:41:01.000",
    "date_modified": "2023-10-24T13:41:01.000",
    "request_status": "Pending",
    "responsible_agency": "Department of Sanitation",
    "final_address": "213 S St Patrick St",
    "address_councildis": "A",
    "status": "Pending",
    "rowid": "1045621",
    "final_x": "3668735.29799",
    "final_y": "539406.66401",
    "longitude": "-90.10811049436963",
    "latitude": "29.977562776985486",
    "geocoded_column": {
      "latitude": "29.977562776985486",
      "longitude": "-90.10811049436963"
    }
  },
  {
    "service_request": "2023-1045620",
    "request_type": "Trash/Recycling",
    "request_reason": "Replace Trash Cart",
    "date_created": "2023-10-24T13:40:15.000",
    "date_modified": "2023-10-24T13:40:16.000",
    "request_status": "Pending",
    "responsible_agency": "Department of Sanitation",
    "final_address": "1305 Dufossat St",
    "address_councildis": "B",
    "status": "Assigned to Contractor",
    "contractor": "Richards Disposal",
    "rowid": "1045620",
    "final_x": "3668120.80993",
    "final_y": "519981.60044",
    "longitude": "-90.11070588554631",
    "latitude": "29.924168245300702",
    "geocoded_column": {
      "latitude": "29.924168245300702",
      "longitude": "-90.11070588554631"
    }
  },
  {
    "service_request": "2023-1045619",
    "request_type": "Trash/Recycling",
    "request_reason": "Repair Trash Cart",
    "date_created": "2023-10-24T13:39:17.000",
    "date_modified": "2023-10-24T13:39:17.000",
    "request_status": "Pending",
    "responsible_agency": "Department of Sanitation",
    "final_address": "2410 Gravier St",
    "address_councildis": "B",
    "status": "Assigned to Contractor",
    "contractor": "Richards Disposal",
    "rowid": "1045619",
    "final_x": "3675106.11611",
    "final_y": "532737.543108",
    "longitude": "-90.0882181528282",
    "latitude": "29.959036103884575",
    "geocoded_column": {
      "latitude": "29.959036103884575",
      "longitude": "-90.0882181528282"
    }
  },
  {
    "service_request": "2023-1045618",
    "request_type": "Trash/Recycling",
    "request_reason": "Order Trash Cart",
    "date_created": "2023-10-24T13:38:52.000",
    "date_modified": "2023-10-24T13:38:52.000",
    "request_status": "Pending",
    "responsible_agency": "Department of Sanitation",
    "final_address": "213 S St Patrick St",
    "address_councildis": "A",
    "status": "Assigned to Contractor",
    "contractor": "Richards Disposal",
    "rowid": "1045618",
    "final_x": "3668735.29799",
    "final_y": "539406.66401",
    "longitude": "-90.10811049436963",
    "latitude": "29.977562776985486",
    "geocoded_column": {
      "latitude": "29.977562776985486",
      "longitude": "-90.10811049436963"
    }
  },
  {
    "service_request": "2023-1045617",
    "request_type": "Traffic Signals/Signs/Striping/Streetlights",
    "request_reason": "Road Surface Marking Maintenance-Traffic Control",
    "date_created": "2023-10-24T13:38:32.000",
    "date_modified": "2023-10-24T13:38:32.000",
    "request_status": "Pending",
    "responsible_agency": "Department of Public Works",
    "final_address": "7713 Arcadia Ln",
    "address_councildis": "E",
    "status": "Pending",
    "rowid": "1045617",
    "final_x": "3712299.50693",
    "final_y": "567429.162276",
    "longitude": "-89.96946795836546",
    "latitude": "30.053260942513937",
    "geocoded_column": {
      "latitude": "30.053260942513937",
      "longitude": "-89.96946795836546"
    }
  },
  {
    "service_request": "2023-1045616",
    "request_type": "Trash/Recycling",
    "request_reason": "MIssed Recycling Pick-Up",
    "date_created": "2023-10-24T13:36:38.000",
    "date_modified": "2023-10-24T14:27:04.000",
    "case_close_date": "2023-10-24T09:27:04.000",
    "request_status": "Closed",
    "responsible_agency": "Department of Sanitation",
    "final_address": "3550 Desaix Blvd",
    "address_councildis": "A",
    "status": "Invalid Request",
    "contractor": "IV Waste",
    "contractor_action": "Invalid Pick-Up",
    "rowid": "1045616",
    "final_x": "3675912.01262",
    "final_y": "543589.852814",
    "longitude": "-90.08530007697497",
    "latitude": "29.988852143683395",
    "geocoded_column": {
      "latitude": "29.988852143683395",
      "longitude": "-90.08530007697497"
    }
  },
  {
    "service_request": "2023-1045615",
    "request_type": "Trash/Recycling",
    "request_reason": "Replace Trash Cart",
    "date_created": "2023-10-24T13:34:01.000",
    "date_modified": "2023-10-24T13:34:01.000",
    "request_status": "Pending",
    "responsible_agency": "Department of Sanitation",
    "final_address": "8811 Colapissa St",
    "address_councildis": "A",
    "status": "Assigned to Contractor",
    "contractor": "Richards Disposal",
    "rowid": "1045615",
    "final_x": "3664654.41581",
    "final_y": "535171.119622",
    "longitude": "-90.121140876108",
    "latitude": "29.966035787684138",
    "geocoded_column": {
      "latitude": "29.966035787684138",
      "longitude": "-90.121140876108"
    }
  },
  {
    "service_request": "2023-1045614",
    "request_type": "Trash/Recycling",
    "request_reason": "Missed Trash Pick-Up",
    "date_created": "2023-10-24T13:33:37.000",
    "date_modified": "2023-10-24T13:33:38.000",
    "request_status": "Pending",
    "responsible_agency": "Department of Sanitation",
    "final_address": "3301 Walter St",
    "address_councildis": "C",
    "status": "Assigned to Contractor",
    "contractor": "Richards Disposal",
    "rowid": "1045614",
    "final_x": "3711830.19051",
    "final_y": "518449.787062",
    "longitude": "-89.97278951064926",
    "latitude": "29.918601532703327",
    "geocoded_column": {
      "latitude": "29.918601532703327",
      "longitude": "-89.97278951064926"
    }
  },
  {
    "service_request": "2023-1045613",
    "request_type": "Trash/Recycling",
    "request_reason": "Repair Trash Cart",
    "date_created": "2023-10-24T13:32:25.000",
    "date_modified": "2023-10-24T13:32:26.000",
    "request_status": "Pending",
    "responsible_agency": "Department of Sanitation",
    "final_address": "8811 Colapissa St",
    "address_councildis": "A",
    "status": "Assigned to Contractor",
    "contractor": "Richards Disposal",
    "rowid": "1045613",
    "final_x": "3664654.41581",
    "final_y": "535171.119622",
    "longitude": "-90.121140876108",
    "latitude": "29.966035787684138",
    "geocoded_column": {
      "latitude": "29.966035787684138",
      "longitude": "-90.121140876108"
    }
  },
  {
    "service_request": "2023-1045612",
    "request_type": "Traffic Signals/Signs/Striping/Streetlights",
    "request_reason": "Street Light Outage/Malfunction",
    "date_created": "2023-10-24T13:31:52.000",
    "date_modified": "2023-10-24T13:31:52.000",
    "request_status": "Pending",
    "responsible_agency": "Department of Public Works",
    "final_address": "6017 Chartres St",
    "address_councildis": "E",
    "status": "Assigned to Contractor",
    "contractor": "Legacy Professional Services",
    "rowid": "1045612",
    "final_x": "3698597.9466",
    "final_y": "531681.635139",
    "longitude": "-90.01407560934719",
    "latitude": "29.955409912387754",
    "geocoded_column": {
      "latitude": "29.955409912387754",
      "longitude": "-90.01407560934719"
    }
  },
  {
    "service_request": "2023-1045611",
    "request_type": "Safety & Permits",
    "request_reason": "Licenses & Permits",
    "date_created": "2023-10-24T13:29:32.000",
    "date_modified": "2023-10-24T13:29:32.000",
    "request_status": "Pending",
    "responsible_agency": "Safety and Permits",
    "final_address": "3716 Downman Rd",
    "address_councildis": "E",
    "status": "Pending",
    "rowid": "1045611",
    "final_x": "3695982.02646",
    "final_y": "551125.670101",
    "longitude": "-90.02163284957727",
    "latitude": "30.008956524103986",
    "geocoded_column": {
      "latitude": "30.008956524103986",
      "longitude": "-90.02163284957727"
    }
  },
  {
    "service_request": "2023-1045610",
    "request_type": "Abandoned Vehicles",
    "request_reason": "Abandoned/Junk Vehicles",
    "date_created": "2023-10-24T13:27:01.000",
    "date_modified": "2023-10-24T13:27:01.000",
    "request_status": "Pending",
    "responsible_agency": "Department of Public Works",
    "final_address": "4715 Constance St",
    "address_councildis": "B",
    "status": "Pending",
    "rowid": "1045610",
    "final_x": "3669831.50727",
    "final_y": "518325.385142",
    "longitude": "-90.10536182769842",
    "latitude": "29.91956387659835",
    "geocoded_column": {
      "latitude": "29.91956387659835",
      "longitude": "-90.10536182769842"
    }
  },
  {
    "service_request": "2023-1045609",
    "request_type": "Trash/Recycling",
    "request_reason": "Request a Large Item Pick Up",
    "date_created": "2023-10-24T13:26:43.000",
    "date_modified": "2023-10-24T13:26:44.000",
    "request_status": "Pending",
    "responsible_agency": "Department of Sanitation",
    "final_address": "2422 Hyman Pl",
    "address_councildis": "C",
    "status": "Assigned to Contractor",
    "contractor": "Richards Disposal",
    "rowid": "1045609",
    "final_x": "3701131.4881",
    "final_y": "522189.424378",
    "longitude": "-90.00642275195021",
    "latitude": "29.929229213838386",
    "geocoded_column": {
      "latitude": "29.929229213838386",
      "longitude": "-90.00642275195021"
    }
  },
  {
    "service_request": "2023-1045608",
    "request_type": "Roads/Drainage",
    "request_reason": "Catch Basin - Broken/Damage",
    "date_created": "2023-10-24T13:24:28.000",
    "date_modified": "2023-10-24T13:24:29.000",
    "request_status": "Pending",
    "responsible_agency": "Department of Public Works",
    "final_address": "5520 Glouster Rd",
    "address_councildis": "E",
    "status": "Pending",
    "rowid": "1045608",
    "final_x": "3707399.60414",
    "final_y": "558042.886619",
    "longitude": "-89.98530414695107",
    "latitude": "30.02761186543648",
    "geocoded_column": {
      "latitude": "30.02761186543648",
      "longitude": "-89.98530414695107"
    }
  },
  {
    "service_request": "2023-1045607",
    "request_type": "Property Maintenance",
    "request_reason": "Property Maintenance",
    "date_created": "2023-10-24T13:24:19.000",
    "date_modified": "2023-10-24T13:24:19.000",
    "request_status": "Pending",
    "responsible_agency": "Department of Code Enforcement",
    "final_address": "8940 Tilford Rd",
    "address_councildis": "E",
    "status": "Pending",
    "rowid": "1045607",
    "final_x": "3708081.55422",
    "final_y": "557220.085979",
    "longitude": "-89.98317989224171",
    "latitude": "30.025327408316606",
    "geocoded_column": {
      "latitude": "30.025327408316606",
      "longitude": "-89.98317989224171"
    }
  },
  {
    "service_request": "2023-1045606",
    "request_type": "Property Maintenance",
    "request_reason": "Property Maintenance",
    "date_created": "2023-10-24T13:23:11.000",
    "date_modified": "2023-10-24T13:23:11.000",
    "request_status": "Pending",
    "responsible_agency": "Department of Code Enforcement",
    "final_address": "5238 Pasteur Blvd",
    "address_councildis": "D",
    "status": "Pending",
    "rowid": "1045606",
    "final_x": "3682892.18562",
    "final_y": "552052.530838",
    "longitude": "-90.06295549665019",
    "latitude": "30.01191058196064",
    "geocoded_column": {
      "latitude": "30.01191058196064",
      "longitude": "-90.06295549665019"
    }
  },
  {
    "service_request": "2023-1045605",
    "request_type": "Traffic Signals/Signs/Striping/Streetlights",
    "request_reason": "Road Surface Marking Maintenance-Parking Lane",
    "date_created": "2023-10-24T13:17:13.000",
    "date_modified": "2023-10-24T13:17:13.000",
    "request_status": "Pending",
    "responsible_agency": "Department of Public Works",
    "final_address": "927 Clouet St",
    "address_councildis": "C",
    "status": "Pending",
    "rowid": "1045605",
    "final_x": "3688894.66761",
    "final_y": "535422.002118",
    "longitude": "-90.04458211537795",
    "latitude": "29.965998242006062",
    "geocoded_column": {
      "latitude": "29.965998242006062",
      "longitude": "-90.04458211537795"
    }
  },