[
  {
    "service_request": "2025-1243740",
    "request_type": "Abandoned Vehicles",
    "request_reason": "Abandoned/Junk Vehicles",
    "date_created": "2025-12-03T23:58:16.000",
    "date_modified": "2025-12-03T23:58:17.000",
    "request_status": "Pending",
    "responsible_agency": "Department of Public Works",
    "final_address": "433 Huntlee Dr",
    "address_councildis": "C",
    "status": "Pending",
    "rowid": "1243740",
    "final_x": "3701804.71306",
    "final_y": "521914.131322",
    "longitude": "-90.00430760405457",
    "latitude": "29.928450799488612",
    "geocoded_column": {
      "latitude": "29.928450799488612",
      "longitude": "-90.00430760405457"
    }
  },
  {
    "service_request": "2025-1243739",
    "request_type": "Abandoned Vehicles",
    "request_reason": "Abandoned/Junk Vehicles",
    "date_created": "2025-12-03T23:56:27.000",
    "date_modified": "2025-12-03T23:56:28.000",
    "request_status": "Pending",
    "responsible_agency": "Department of Public Works",
    "final_address": "449 Huntlee Dr",
    "address_councildis": "C",
    "status": "Pending",
    "rowid": "1243739",
    "final_x": "3701797.71345",
    "final_y": "521687.522105",
    "longitude": "-90.00433799715283",
    "latitude": "29.927827925854167",
    "geocoded_column": {
      "latitude": "29.927827925854167",
      "longitude": "-90.00433799715283"
    }
  },
  {
    "service_request": "2025-1243738",
    "request_type": "Trash/Recycling",
    "request_reason": "Request a Large Item Pick Up",
    "date_created": "2025-12-03T23:44:26.000",
    "date_modified": "2025-12-03T23:44:29.000",
    "request_status": "Pending",
    "responsible_agency": "Department of Sanitation",
    "final_address": "424 Huntlee Dr",
    "address_councildis": "C",
    "status": "Assigned to Contractor",
    "contractor": "IV Waste",
    "rowid": "1243738",
    "final_x": "3701903.42845",
    "final_y": "522012.305722",
    "longitude": "-90.00399238759181",
    "latitude": "29.92871759640975",
    "geocoded_column": {
      "latitude": "29.92871759640975",
      "longitude": "-90.00399238759181"
    }
  },
  {
    "service_request": "2025-1243737",
    "request_type": "General Services",
    "request_reason": "General Service Request",
    "date_created": "2025-12-03T22:37:09.000",
    "date_modified": "2025-12-03T22:37:13.000",
    "request_status": "Pending",
    "responsible_agency": "Orleans Parish Communication District",
    "final_address": "3221 Annunciation St",
    "address_councildis": "B",
    "status": "Pending",
    "rowid": "1243737",
    "final_x": "3676111.39585",
    "final_y": "518967.434039",
    "longitude": "-90.08551724964165",
    "latitude": "29.921142757212728",
    "geocoded_column": {
      "latitude": "29.921142757212728",
      "longitude": "-90.08551724964165"
    }
  },
  {
    "service_request": "2025-1243736",
    "request_type": "Trash/Recycling",
    "request_reason": "Request a Large Item Pick Up",
    "date_created": "2025-12-03T22:11:58.000",
    "date_modified": "2025-12-03T22:12:00.000",
    "request_status": "Pending",
    "responsible_agency": "Department of Sanitation",
    "final_address": "8630 Lincoln Beach Blvd",
    "address_councildis": "E",
    "status": "Assigned to Contractor",
    "contractor": "Waste Pro",
    "rowid": "1243736",
    "final_x": "3703662.71351",
    "final_y": "563667.454561",
    "longitude": "-89.99690505094965",
    "latitude": "30.043197577015807",
    "geocoded_column": {
      "latitude": "30.043197577015807",
      "longitude": "-89.99690505094965"
    }
  },
  {
    "service_request": "2025-1243735",
    "request_type": "Trash/Recycling",
    "request_reason": "Request a Large Item Pick Up",
    "date_created": "2025-12-03T21:49:02.000",
    "date_modified": "2025-12-03T21:49:05.000",
    "request_status": "Pending",
    "responsible_agency": "Department of Sanitation",
    "final_address": "2113 Forstall St",
    "address_councildis": "E",
    "status": "Assigned to Contractor",
    "contractor": "Waste Pro",
    "rowid": "1243735",
    "final_x": "3697376.07978",
    "final_y": "538043.400137",
    "longitude": "-90.01770315219639",
    "latitude": "29.972941126644542",
    "geocoded_column": {
      "latitude": "29.972941126644542",
      "longitude": "-90.01770315219639"
    }
  },
  {
    "service_request": "2025-1243734",
    "request_type": "Safety & Permits",
    "request_reason": "Licenses & Permits",
    "date_created": "2025-12-03T21:12:15.000",
    "date_modified": "2025-12-03T21:12:18.000",
    "request_status": "Pending",
    "responsible_agency": "Safety and Permits",
    "final_address": "4400 Woodland Dr",
    "address_councildis": "C",
    "status": "Pending",
    "rowid": "1243734",
    "final_x": "3705720.00503",
    "final_y": "514122.752114",
    "longitude": "-89.99223584201249",
    "latitude": "29.906901753606423",
    "geocoded_column": {
      "latitude": "29.906901753606423",
      "longitude": "-89.99223584201249"
    }
  },
  {
    "service_request": "2025-1243733",
    "request_type": "Trash/Recycling",
    "request_reason": "Request a Large Item Pick Up",
    "date_created": "2025-12-03T21:04:20.000",
    "date_modified": "2025-12-03T21:04:22.000",
    "request_status": "Pending",
    "responsible_agency": "Department of Sanitation",
    "final_address": "524 Tupelo St",
    "address_councildis": "E",
    "status": "Assigned to Contractor",
    "contractor": "Waste Pro",
    "rowid": "1243733",
    "final_x": "3698703.15722",
    "final_y": "531454.189763",
    "longitude": "-90.01375166524693",
    "latitude": "29.954781186853918",
    "geocoded_column": {
      "latitude": "29.954781186853918",
      "longitude": "-90.01375166524693"
    }
  },
  {
    "service_request": "2025-1243732",
    "request_type": "Drainage",
    "request_reason": "Catch Basin Not Draining",
    "date_created": "2025-12-03T20:51:48.000",
    "date_modified": "2025-12-03T20:51:50.000",
    "request_status": "Pending",
    "responsible_agency": "Sewerage & Water Board",
    "final_address": "1930 Elysian Fields Ave",
    "address_councildis": "D",
    "status": "Pending",
    "rowid": "1243732",
    "final_x": "3684640.90677",
    "final_y": "539498.80129",
    "longitude": "-90.05787204363068",
    "latitude": "29.977338886850514",
    "geocoded_column": {
      "latitude": "29.977338886850514",
      "longitude": "-90.05787204363068"
    }
  },
  {
    "service_request": "2025-1243731",
    "request_type": "Abandoned Vehicles",
    "request_reason": "Abandoned/Junk Vehicles",
    "date_created": "2025-12-03T19:45:39.000",
    "date_modified": "2025-12-03T19:45:41.000",
    "request_status": "Pending",
    "responsible_agency": "Department of Public Works",
    "final_address": "4630 Virgilian St",
    "address_councildis": "D",
    "status": "Pending",
    "rowid": "1243731",
    "final_x": "3697482.29962",
    "final_y": "553217.800279",
    "longitude": "-90.01681707231836",
    "latitude": "30.014661787600016",
    "geocoded_column": {
      "latitude": "30.014661787600016",
      "longitude": "-90.01681707231836"
    }
  },
  {
    "service_request": "2025-1243730",
    "request_type": "Streetlights",
    "request_reason": "Streetlight Outage/Malfunction",
    "date_created": "2025-12-03T19:39:50.000",
    "date_modified": "2025-12-03T19:39:52.000",
    "request_status": "Pending",
    "responsible_agency": "Department of Public Works",
    "final_address": "6386 Argonne Blvd",
    "address_councildis": "A",
    "status": "Pending",
    "rowid": "1243730",
    "final_x": "3670337.6203",
    "final_y": "549829.55202",
    "longitude": "-90.102696253496",
    "latitude": "30.00617492161399",
    "geocoded_column": {
      "latitude": "30.00617492161399",
      "longitude": "-90.102696253496"
    }
  },
  {
    "service_request": "2025-1243729",
    "request_type": "Abandoned Vehicles",
    "request_reason": "Abandoned/Junk Vehicles",
    "date_created": "2025-12-03T19:38:18.000",
    "date_modified": "2025-12-03T19:38:20.000",
    "request_status": "Pending",
    "responsible_agency": "Department of Public Works",
    "final_address": "4630 Virgilian St",
    "address_councildis": "D",
    "status": "Pending",
    "rowid": "1243729",
    "final_x": "3697482.29962",
    "final_y": "553217.800279",
    "longitude": "-90.01681707231836",
    "latitude": "30.014661787600016",
    "geocoded_column": {
      "latitude": "30.014661787600016",
      "longitude": "-90.01681707231836"
    }
  },
  {
    "service_request": "2025-1243728",
    "request_type": "Streetlights",
    "request_reason": "Streetlight Outage/Malfunction",
    "date_created": "2025-12-03T19:35:36.000",
    "date_modified": "2025-12-03T19:35:38.000",
    "request_status": "Pending",
    "responsible_agency": "Department of Public Works",
    "final_address": "6778 Argonne Blvd",
    "address_councildis": "A",
    "status": "Pending",
    "rowid": "1243728",
    "final_x": "3670583.14017",
    "final_y": "552476.515286",
    "longitude": "-90.10183071847241",
    "latitude": "30.013445885746936",
    "geocoded_column": {
      "latitude": "30.013445885746936",
      "longitude": "-90.10183071847241"
    }
  },
  {
    "service_request": "2025-1243727",
    "request_type": "Trash/Recycling",
    "request_reason": "Order Recycling Cart",
    "date_created": "2025-12-03T18:01:37.000",
    "date_modified": "2025-12-03T18:01:38.000",
    "request_status": "Pending",
    "responsible_agency": "Department of Sanitation",
    "final_address": "3510 Baudin St",
    "address_councildis": "B",
    "status": "Pending",
    "rowid": "1243727",
    "final_x": "3671786.35246",
    "final_y": "535753.566407",
    "longitude": "-90.09859853890435",
    "latitude": "29.967427933799478",
    "geocoded_column": {
      "latitude": "29.967427933799478",
      "longitude": "-90.09859853890435"
    }
  },
  {
    "service_request": "2025-1243726",
    "request_type": "Streetlights",
    "request_reason": "Streetlight Outage/Malfunction",
    "date_created": "2025-12-03T17:30:38.000",
    "date_modified": "2025-12-03T17:30:40.000",
    "request_status": "Pending",
    "responsible_agency": "Department of Public Works",
    "final_address": "1205 Coliseum St",
    "address_councildis": "B",
    "status": "Pending",
    "rowid": "1243726",
    "final_x": "3680130.04968",
    "final_y": "525587.591421",
    "longitude": "-90.07260223682472",
    "latitude": "29.9392250696267",
    "geocoded_column": {
      "latitude": "29.9392250696267",
      "longitude": "-90.07260223682472"
    }
  },
  {
    "service_request": "2025-1243725",
    "request_type": "Trash/Recycling",
    "request_reason": "Replace Trash Cart",
    "date_created": "2025-12-03T17:09:00.000",
    "date_modified": "2025-12-03T17:09:02.000",
    "request_status": "Pending",
    "responsible_agency": "Department of Sanitation",
    "final_address": "4618 Carondelet St",
    "address_councildis": "B",
    "status": "Assigned to Contractor",
    "contractor": "IV Waste",
    "rowid": "1243725",
    "final_x": "3669913.31361",
    "final_y": "521064.270393",
    "longitude": "-90.10501092869085",
    "latitude": "29.92709253015877",
    "geocoded_column": {
      "latitude": "29.92709253015877",
      "longitude": "-90.10501092869085"
    }
  },
  {
    "service_request": "2025-1243724",
    "request_type": "Trash/Recycling",
    "request_reason": "Request a Large Item Pick Up",
    "date_created": "2025-12-03T16:58:40.000",
    "date_modified": "2025-12-03T16:58:41.000",
    "request_status": "Pending",
    "responsible_agency": "Department of Sanitation",
    "final_address": "1323 Nashville Ave",
    "address_councildis": "A",
    "status": "Assigned to Contractor",
    "contractor": "IV Waste",
    "rowid": "1243724",
    "final_x": "3665987.32948",
    "final_y": "520867.622969",
    "longitude": "-90.11741088160916",
    "latitude": "29.92666695067555",
    "geocoded_column": {
      "latitude": "29.92666695067555",
      "longitude": "-90.11741088160916"
    }
  },
  {
    "service_request": "2025-1243723",
    "request_type": "Roads and Streets",
    "request_reason": "Pothole",
    "date_created": "2025-12-03T16:48:13.000",
    "date_modified": "2025-12-03T16:48:16.000",
    "request_status": "Pending",
    "responsible_agency": "Department of Public Works",
    "final_address": "UNION ST & BARONNE ST",
    "address_councildis": "B",
    "status": "Pending",
    "rowid": "1243723",
    "final_x": "3680077.9",
    "final_y": "530140.68",
    "longitude": "-90.07260872083961",
    "latitude": "29.951746119626073",
    "geocoded_column": {
      "latitude": "29.951746119626073",
      "longitude": "-90.07260872083961"
    }
  },
  {
    "service_request": "2025-1243722",
    "request_type": "Abandoned Vehicles",
    "request_reason": "Abandoned/Junk Vehicles",
    "date_created": "2025-12-03T16:31:18.000",
    "date_modified": "2025-12-03T16:31:20.000",
    "request_status": "Pending",
    "responsible_agency": "Department of Public Works",
    "final_address": "3301 Touro St",
    "address_councildis": "D",
    "status": "Pending",
    "rowid": "1243722",
    "final_x": "3683591.15215",
    "final_y": "544755.048143",
    "longitude": "-90.06100317644629",
    "latitude": "29.9918238017377",
    "geocoded_column": {
      "latitude": "29.9918238017377",
      "longitude": "-90.06100317644629"
    }
  },
  {
    "service_request": "2025-1243721",
    "request_type": "General Services",
    "request_reason": "General Service Request",
    "date_created": "2025-12-03T16:26:41.000",
    "date_modified": "2025-12-03T16:28:39.000",
    "case_close_date": "2025-12-03T10:28:37.000",
    "request_status": "Closed",
    "responsible_agency": "Orleans Parish Communication District",
    "final_address": "1719 S Rendon St",
    "address_councildis": "B",
    "status": "Referred to External Agency",
    "rowid": "1243721",
    "final_x": "3669536.59809",
    "final_y": "530687.777218",
    "longitude": "-90.10587469716206",
    "latitude": "29.9535651591184",
    "geocoded_column": {
      "latitude": "29.9535651591184",
      "longitude": "-90.10587469716206"
    }
  },
  {
    "service_request": "2025-1243720",
    "request_type": "Trash/Recycling",
    "request_reason": "Request a Large Item Pick Up",
    "date_created": "2025-12-03T16:26:22.000",
    "date_modified": "2025-12-03T16:26:23.000",
    "request_status": "Pending",
    "responsible_agency": "Department of Sanitation",
    "final_address": "4202 S Derbigny St",
    "address_councildis": "B",
    "status": "Assigned to Contractor",
    "contractor": "IV Waste",
    "rowid": "1243720",
    "final_x": "3671006.52052",
    "final_y": "526280.367678",
    "longitude": "-90.10138291576014",
    "latitude": "29.941402846952975",
    "geocoded_column": {
      "latitude": "29.941402846952975",
      "longitude": "-90.10138291576014"
    }
  },
  {
    "service_request": "2025-1243719",
    "request_type": "Trash/Recycling",
    "request_reason": "Repair Trash Cart",
    "date_created": "2025-12-03T16:23:18.000",
    "date_modified": "2025-12-03T16:23:21.000",
    "request_status": "Pending",
    "responsible_agency": "Department of Sanitation",
    "final_address": "2005 Clouet St",
    "address_councildis": "D",
    "status": "Assigned to Contractor",
    "contractor": "IV Waste",
    "rowid": "1243719",
    "final_x": "3689941.03683",
    "final_y": "539429.81889",
    "longitude": "-90.04113498955452",
    "latitude": "29.976985924079482",
    "geocoded_column": {
      "latitude": "29.976985924079482",
      "longitude": "-90.04113498955452"
    }
  },
  {
    "service_request": "2025-1243718",
    "request_type": "Trash/Recycling",
    "request_reason": "Request a Large Item Pick Up",
    "date_created": "2025-12-03T16:19:35.000",
    "date_modified": "2025-12-03T16:19:37.000",
    "request_status": "Pending",
    "responsible_agency": "Department of Sanitation",
    "final_address": "7015 Pritchard Pl",
    "address_councildis": "B",
    "status": "Assigned to Contractor",
    "contractor": "IV Waste",
    "rowid": "1243718",
    "final_x": "3667939.76071",
    "final_y": "531221.117698",
    "longitude": "-90.11089888760296",
    "latitude": "29.95507860941571",
    "geocoded_column": {
      "latitude": "29.95507860941571",
      "longitude": "-90.11089888760296"
    }
  },
  {
    "service_request": "2025-1243717",
    "request_type": "Abandoned Vehicles",
    "request_reason": "Abandoned/Junk Vehicles",
    "date_created": "2025-12-03T16:15:32.000",
    "date_modified": "2025-12-03T16:15:34.000",
    "request_status": "Pending",
    "responsible_agency": "Department of Public Works",
    "final_address": "3419 Banks St",
    "address_councildis": "B",
    "status": "Pending",
    "rowid": "1243717",
    "final_x": "3672303.05601",
    "final_y": "535977.802951",
    "longitude": "-90.09695913573118",
    "latitude": "29.968029188969233",
    "geocoded_column": {
      "latitude": "29.968029188969233",
      "longitude": "-90.09695913573118"
    }
  },
  {
    "service_request": "2025-1243716",
    "request_type": "Trash/Recycling",
    "request_reason": "Repair Recycling Cart",
    "date_created": "2025-12-03T16:12:40.000",
    "date_modified": "2025-12-03T16:12:41.000",
    "request_status": "Pending",
    "responsible_agency": "Department of Sanitation",
    "final_address": "1420 New York St",
    "address_councildis": "D",
    "status": "Pending",
    "rowid": "1243716",
    "final_x": "3677989.41909",
    "final_y": "555531.692057",
    "longitude": "-90.07832503589452",
    "latitude": "30.021625567529593",
    "geocoded_column": {
      "latitude": "30.021625567529593",
      "longitude": "-90.07832503589452"
    }
  },
  {
    "service_request": "2025-1243715",
    "request_type": "Trash/Recycling",
    "request_reason": "Return Trash Cart",
    "date_created": "2025-12-03T16:10:52.000",
    "date_modified": "2025-12-03T16:10:53.000",
    "request_status": "Pending",
    "responsible_agency": "Department of Sanitation",
    "final_address": "1420 New York St",
    "address_councildis": "D",
    "status": "Assigned to Contractor",
    "contractor": "IV Waste",
    "rowid": "1243715",
    "final_x": "3677989.41909",
    "final_y": "555531.692057",
    "longitude": "-90.07832503589452",
    "latitude": "30.021625567529593",
    "geocoded_column": {
      "latitude": "30.021625567529593",
      "longitude": "-90.07832503589452"
    }
  },
  {
    "service_request": "2025-1243714",
    "request_type": "Abandoned Vehicles",
    "request_reason": "Abandoned/Junk Vehicles",
    "date_created": "2025-12-03T16:10:07.000",
    "date_modified": "2025-12-03T16:10:08.000",
    "request_status": "Pending",
    "responsible_agency": "Department of Public Works",
    "final_address": "2714 Felicity St",
    "address_councildis": "B",
    "status": "Pending",
    "rowid": "1243714",
    "final_x": "3675393.42856",
    "final_y": "527621.744575",
    "longitude": "-90.08748653383378",
    "latitude": "29.944960772136596",
    "geocoded_column": {
      "latitude": "29.944960772136596",
      "longitude": "-90.08748653383378"
    }
  },
  {
    "service_request": "2025-1243713",
    "request_type": "Trash/Recycling",
    "request_reason": "Request a Large Item Pick Up",
    "date_created": "2025-12-03T16:05:35.000",
    "date_modified": "2025-12-03T16:05:36.000",
    "request_status": "Pending",
    "responsible_agency": "Department of Sanitation",
    "final_address": "2822 N Dorgenois St",
    "address_councildis": "D",
    "status": "Assigned to Contractor",
    "contractor": "IV Waste",
    "rowid": "1243713",
    "final_x": "3688058.36182",
    "final_y": "541709.100876",
    "longitude": "-90.0470002502344",
    "latitude": "29.983311386787832",
    "geocoded_column": {
      "latitude": "29.983311386787832",
      "longitude": "-90.0470002502344"
    }
  },
  {
    "service_request": "2025-1243712",
    "request_type": "Trash/Recycling",
    "request_reason": "Replace Trash Cart",
    "date_created": "2025-12-03T16:01:43.000",
    "date_modified": "2025-12-03T16:01:45.000",
    "request_status": "Pending",
    "responsible_agency": "Department of Sanitation",
    "final_address": "7751 S Coronet Ct Apt C",
    "address_councildis": "E",
    "status": "Assigned to Contractor",
    "contractor": "Waste Pro",
    "rowid": "1243712",
    "final_x": "3702754.98468",
    "final_y": "557348.350875",
    "longitude": "-90.00000621866668",
    "latitude": "30.02585158751913",
    "geocoded_column": {
      "latitude": "30.02585158751913",
      "longitude": "-90.00000621866668"
    }
  },
  {
    "service_request": "2025-1243711",
    "request_type": "Trash/Recycling",
    "request_reason": "Replace Trash Cart",
    "date_created": "2025-12-03T16:01:22.000",
    "date_modified": "2025-12-03T16:01:26.000",
    "request_status": "Pending",
    "responsible_agency": "Department of Sanitation",
    "final_address": "7751 S Coronet Ct Apt D",
    "address_councildis": "E",
    "status": "Assigned to Contractor",
    "contractor": "Waste Pro",
    "rowid": "1243711",
    "final_x": "3702751.51242",
    "final_y": "557360.156443",
    "longitude": "-90.00001675639395",
    "latitude": "30.02588415936491",
    "geocoded_column": {
      "latitude": "30.02588415936491",
      "longitude": "-90.00001675639395"
    }
  },
  {
    "service_request": "2025-1243710",
    "request_type": "Trash/Recycling",
    "request_reason": "Replace Trash Cart",
    "date_created": "2025-12-03T16:00:15.000",
    "date_modified": "2025-12-03T16:00:31.000",
    "request_status": "Pending",
    "responsible_agency": "Department of Sanitation",
    "final_address": "7751 S Coronet Ct Apt A",
    "address_councildis": "E",
    "status": "Assigned to Contractor",
    "contractor": "Waste Pro",
    "rowid": "1243710",
    "final_x": "3702757.76247",
    "final_y": "557319.184219",
    "longitude": "-89.99999851371396",
    "latitude": "30.02577130160846",
    "geocoded_column": {
      "latitude": "30.02577130160846",
      "longitude": "-89.99999851371396"
    }
  },
  {
    "service_request": "2025-1243709",
    "request_type": "Trash/Recycling",
    "request_reason": "Replace Trash Cart",
    "date_created": "2025-12-03T16:00:11.000",
    "date_modified": "2025-12-03T16:00:15.000",
    "request_status": "Pending",
    "responsible_agency": "Department of Sanitation",
    "final_address": "7751 S Coronet Ct Apt B",
    "address_councildis": "E",
    "status": "Assigned to Contractor",
    "contractor": "Waste Pro",
    "rowid": "1243709",
    "final_x": "3702754.98468",
    "final_y": "557335.156443",
    "longitude": "-90.00000670381098",
    "latitude": "30.025815307929506",
    "geocoded_column": {
      "latitude": "30.025815307929506",
      "longitude": "-90.00000670381098"
    }
  },
  {
    "service_request": "2025-1243708",
    "request_type": "Trash/Recycling",
    "request_reason": "Request a Large Item Pick Up",
    "date_created": "2025-12-03T15:59:37.000",
    "date_modified": "2025-12-03T15:59:39.000",
    "request_status": "Pending",
    "responsible_agency": "Department of Sanitation",
    "final_address": "4613 Haydel St",
    "address_councildis": "E",
    "status": "Assigned to Contractor",
    "contractor": "Waste Pro",
    "rowid": "1243708",
    "final_x": "3699157.19338",
    "final_y": "553776.853463",
    "longitude": "-90.01150488012743",
    "latitude": "30.01614595260955",
    "geocoded_column": {
      "latitude": "30.01614595260955",
      "longitude": "-90.01150488012743"
    }
  },
  {
    "service_request": "2025-1243707",
    "request_type": "Trash/Recycling",
    "request_reason": "Replace Trash Cart",
    "date_created": "2025-12-03T15:57:31.000",
    "date_modified": "2025-12-03T15:57:32.000",
    "request_status": "Pending",
    "responsible_agency": "Department of Sanitation",
    "final_address": "7741 S Coronet Ct Apt C",
    "address_councildis": "E",
    "status": "Assigned to Contractor",
    "contractor": "Waste Pro",
    "rowid": "1243707",
    "final_x": "3702697.34577",
    "final_y": "557337.239771",
    "longitude": "-90.00018875714443",
    "latitude": "30.025822880325013",
    "geocoded_column": {
      "latitude": "30.025822880325013",
      "longitude": "-90.00018875714443"
    }
  },
  {
    "service_request": "2025-1243706",
    "request_type": "Trash/Recycling",
    "request_reason": "Replace Trash Cart",
    "date_created": "2025-12-03T15:57:26.000",
    "date_modified": "2025-12-03T15:57:28.000",
    "request_status": "Pending",
    "responsible_agency": "Department of Sanitation",
    "final_address": "7741 S Coronet Ct Apt D",
    "address_councildis": "E",
    "status": "Assigned to Contractor",
    "contractor": "Waste Pro",
    "rowid": "1243706",
    "final_x": "3702693.87351",
    "final_y": "557349.045339",
    "longitude": "-90.00019929492831",
    "latitude": "30.025855452156303",
    "geocoded_column": {
      "latitude": "30.025855452156303",
      "longitude": "-90.00019929492831"
    }
  },
  {
    "service_request": "2025-1243705",
    "request_type": "Trash/Recycling",
    "request_reason": "Replace Trash Cart",
    "date_created": "2025-12-03T15:55:42.000",
    "date_modified": "2025-12-03T15:55:43.000",
    "request_status": "Pending",
    "responsible_agency": "Department of Sanitation",
    "final_address": "7741 S Coronet Ct Apt B",
    "address_councildis": "E",
    "status": "Assigned to Contractor",
    "contractor": "Waste Pro",
    "rowid": "1243705",
    "final_x": "3702697.34577",
    "final_y": "557324.045339",
    "longitude": "-90.0001892422222",
    "latitude": "30.025786600734538",
    "geocoded_column": {
      "latitude": "30.025786600734538",
      "longitude": "-90.0001892422222"
    }
  },
  {
    "service_request": "2025-1243704",
    "request_type": "Trash/Recycling",
    "request_reason": "Replace Trash Cart",
    "date_created": "2025-12-03T15:55:37.000",
    "date_modified": "2025-12-03T15:55:38.000",
    "request_status": "Pending",
    "responsible_agency": "Department of Sanitation",
    "final_address": "7741 S Coronet Ct Apt A",
    "address_councildis": "E",
    "status": "Assigned to Contractor",
    "contractor": "Waste Pro",
    "rowid": "1243704",
    "final_x": "3702700.12356",
    "final_y": "557308.073115",
    "longitude": "-90.00018105204697",
    "latitude": "30.02574259442464",
    "geocoded_column": {
      "latitude": "30.02574259442464",
      "longitude": "-90.00018105204697"
    }
  },
  {
    "service_request": "2025-1243703",
    "request_type": "Safety & Permits",
    "request_reason": "Licenses & Permits",
    "date_created": "2025-12-03T15:52:50.000",
    "date_modified": "2025-12-03T15:52:51.000",
    "request_status": "Pending",
    "responsible_agency": "Safety and Permits",
    "final_address": "3801 Tchoupitoulas St",
    "address_councildis": "B",
    "status": "Pending",
    "rowid": "1243703",
    "final_x": "3673671.26804",
    "final_y": "517749.470262",
    "longitude": "-90.09326126339094",
    "latitude": "29.917866587178136",
    "geocoded_column": {
      "latitude": "29.917866587178136",
      "longitude": "-90.09326126339094"
    }
  },
  {
    "service_request": "2025-1243702",
    "request_type": "Safety & Permits",
    "request_reason": "Zoning Enforcement",
    "date_created": "2025-12-03T15:51:59.000",
    "date_modified": "2025-12-03T15:52:01.000",
    "request_status": "Pending",
    "responsible_agency": "Safety and Permits",
    "final_address": "2735 Palmer Ave",
    "address_councildis": "A",
    "status": "Pending",
    "rowid": "1243702",
    "final_x": "3666885.79047",
    "final_y": "526749.598398",
    "longitude": "-90.11437714804791",
    "latitude": "29.94281425857555",
    "geocoded_column": {
      "latitude": "29.94281425857555",
      "longitude": "-90.11437714804791"
    }
  },
  {
    "service_request": "2025-1243701",
    "request_type": "Trash/Recycling",
    "request_reason": "Replace Trash Cart",
    "date_created": "2025-12-03T15:50:39.000",
    "date_modified": "2025-12-03T15:50:41.000",
    "request_status": "Pending",
    "responsible_agency": "Department of Sanitation",
    "final_address": "7731 S Coronet Ct Apt D",
    "address_councildis": "E",
    "status": "Assigned to Contractor",
    "contractor": "Waste Pro",
    "rowid": "1243701",
    "final_x": "3702632.76241",
    "final_y": "557335.156443",
    "longitude": "-90.00039290704206",
    "latitude": "30.025819217901642",
    "geocoded_column": {
      "latitude": "30.025819217901642",
      "longitude": "-90.00039290704206"
    }
  },
  {
    "service_request": "2025-1243700",
    "request_type": "Trash/Recycling",
    "request_reason": "Replace Trash Cart",
    "date_created": "2025-12-03T15:50:22.000",
    "date_modified": "2025-12-03T15:50:24.000",
    "request_status": "Pending",
    "responsible_agency": "Department of Sanitation",
    "final_address": "7731 S Coronet Ct Apt C",
    "address_councildis": "E",
    "status": "Assigned to Contractor",
    "contractor": "Waste Pro",
    "rowid": "1243700",
    "final_x": "3702636.23466",
    "final_y": "557323.350875",
    "longitude": "-90.00038236923038",
    "latitude": "30.02578664608599",
    "geocoded_column": {
      "latitude": "30.02578664608599",
      "longitude": "-90.00038236923038"
    }
  },
  {
    "service_request": "2025-1243699",
    "request_type": "Trash/Recycling",
    "request_reason": "Replace Trash Cart",
    "date_created": "2025-12-03T15:49:22.000",
    "date_modified": "2025-12-03T15:49:23.000",
    "request_status": "Pending",
    "responsible_agency": "Department of Sanitation",
    "final_address": "2530 Calhoun St",
    "address_councildis": "A",
    "status": "Assigned to Contractor",
    "contractor": "IV Waste",
    "rowid": "1243699",
    "final_x": "3666242.07418",
    "final_y": "526278.572478",
    "longitude": "-90.11642531566282",
    "latitude": "29.941537902565965",
    "geocoded_column": {
      "latitude": "29.941537902565965",
      "longitude": "-90.11642531566282"
    }
  },
  {
    "service_request": "2025-1243698",
    "request_type": "Trash/Recycling",
    "request_reason": "Replace Trash Cart",
    "date_created": "2025-12-03T15:47:04.000",
    "date_modified": "2025-12-03T15:47:07.000",
    "request_status": "Pending",
    "responsible_agency": "Department of Sanitation",
    "final_address": "7731 S Coronet Ct Apt B",
    "address_councildis": "E",
    "status": "Assigned to Contractor",
    "contractor": "Waste Pro",
    "rowid": "1243698",
    "final_x": "3702636.23466",
    "final_y": "557310.156443",
    "longitude": "-90.0003828542375",
    "latitude": "30.025750366494595",
    "geocoded_column": {
      "latitude": "30.025750366494595",
      "longitude": "-90.0003828542375"
    }
  },
  {
    "service_request": "2025-1243697",
    "request_type": "Trash/Recycling",
    "request_reason": "Repair Trash Cart",
    "date_created": "2025-12-03T15:46:31.000",
    "date_modified": "2025-12-03T15:46:32.000",
    "request_status": "Pending",
    "responsible_agency": "Department of Sanitation",
    "final_address": "3001 Loyola Ave",
    "address_councildis": "B",
    "status": "Assigned to Contractor",
    "contractor": "IV Waste",
    "rowid": "1243697",
    "final_x": "3674023.18235",
    "final_y": "523878.26534",
    "longitude": "-90.09194087737079",
    "latitude": "29.9347083228249",
    "geocoded_column": {
      "latitude": "29.9347083228249",
      "longitude": "-90.09194087737079"
    }
  },
  {
    "service_request": "2025-1243696",
    "request_type": "Trash/Recycling",
    "request_reason": "Replace Trash Cart",
    "date_created": "2025-12-03T15:46:26.000",
    "date_modified": "2025-12-03T15:46:27.000",
    "request_status": "Pending",
    "responsible_agency": "Department of Sanitation",
    "final_address": "7731 S Coronet Ct Apt A",
    "address_councildis": "E",
    "status": "Assigned to Contractor",
    "contractor": "Waste Pro",
    "rowid": "1243696",
    "final_x": "3702639.01246",
    "final_y": "557294.184219",
    "longitude": "-90.00037466394821",
    "latitude": "30.025706360196146",
    "geocoded_column": {
      "latitude": "30.025706360196146",
      "longitude": "-90.00037466394821"
    }
  },
  {
    "service_request": "2025-1243695",
    "request_type": "Trash/Recycling",
    "request_reason": "Replace Trash Cart",
    "date_created": "2025-12-03T15:44:05.000",
    "date_modified": "2025-12-03T15:44:06.000",
    "request_status": "Pending",
    "responsible_agency": "Department of Sanitation",
    "final_address": "7721 S Coronet Ct Apt D",
    "address_councildis": "E",
    "status": "Assigned to Contractor",
    "contractor": "Waste Pro",
    "rowid": "1243695",
    "final_x": "3702576.51242",
    "final_y": "557317.795355",
    "longitude": "-90.00057128628795",
    "latitude": "30.025773280709185",
    "geocoded_column": {
      "latitude": "30.025773280709185",
      "longitude": "-90.00057128628795"
    }
  },
  {
    "service_request": "2025-1243694",
    "request_type": "Trash/Recycling",
    "request_reason": "Replace Trash Cart",
    "date_created": "2025-12-03T15:42:52.000",
    "date_modified": "2025-12-03T15:42:53.000",
    "request_status": "Pending",
    "responsible_agency": "Department of Sanitation",
    "final_address": "7721 S Coronet Ct Apt C",
    "address_councildis": "E",
    "status": "Assigned to Contractor",
    "contractor": "Waste Pro",
    "rowid": "1243694",
    "final_x": "3702579.98468",
    "final_y": "557305.989787",
    "longitude": "-90.00056074839127",
    "latitude": "30.025740708907257",
    "geocoded_column": {
      "latitude": "30.025740708907257",
      "longitude": "-90.00056074839127"
    }
  },
  {
    "service_request": "2025-1243693",
    "request_type": "Street and Traffic Signs",
    "request_reason": "Street Name Sign Damaged or Missing",
    "date_created": "2025-12-03T15:42:23.000",
    "date_modified": "2025-12-03T15:42:24.000",
    "request_status": "Pending",
    "responsible_agency": "Department of Public Works",
    "final_address": "BRUXELLES ST & FOY ST",
    "address_councildis": "D",
    "status": "Pending",
    "rowid": "1243693",
    "final_x": "3680000.4",
    "final_y": "546647.08",
    "longitude": "-90.07227983022638",
    "latitude": "29.997135364176792",
    "geocoded_column": {
      "latitude": "29.997135364176792",
      "longitude": "-90.07227983022638"
    }
  },
  {
    "service_request": "2025-1243692",
    "request_type": "Trash/Recycling",
    "request_reason": "Replace Trash Cart",
    "date_created": "2025-12-03T15:41:25.000",
    "date_modified": "2025-12-03T15:41:27.000",
    "request_status": "Pending",
    "responsible_agency": "Department of Sanitation",
    "final_address": "7721 S Coronet Ct Apt B",
    "address_councildis": "E",
    "status": "Assigned to Contractor",
    "contractor": "Waste Pro",
    "rowid": "1243692",
    "final_x": "3702579.98468",
    "final_y": "557292.795355",
    "longitude": "-90.00056123333327",
    "latitude": "30.02570442931495",
    "geocoded_column": {
      "latitude": "30.02570442931495",
      "longitude": "-90.00056123333327"
    }
  },
  {
    "service_request": "2025-1243691",
    "request_type": "Trash/Recycling",
    "request_reason": "Replace Trash Cart",
    "date_created": "2025-12-03T15:39:26.000",
    "date_modified": "2025-12-03T15:39:27.000",
    "request_status": "Pending",
    "responsible_agency": "Department of Sanitation",
    "final_address": "7721 S Coronet Ct Apt A",
    "address_councildis": "E",
    "status": "Assigned to Contractor",
    "contractor": "Waste Pro",
    "rowid": "1243691",
    "final_x": "3702582.76247",
    "final_y": "557276.823131",
    "longitude": "-90.00055304300061",
    "latitude": "30.02566042302758",
    "geocoded_column": {
      "latitude": "30.02566042302758",
      "longitude": "-90.00055304300061"
    }
  },
  {
    "service_request": "2025-1243690",
    "request_type": "Trash/Recycling",
    "request_reason": "Order Trash Cart",
    "date_created": "2025-12-03T15:38:02.000",
    "date_modified": "2025-12-03T15:38:04.000",
    "request_status": "Pending",
    "responsible_agency": "Department of Sanitation",
    "final_address": "1714 Tricou St",
    "address_councildis": "E",
    "status": "Assigned to Contractor",
    "contractor": "Waste Pro",
    "rowid": "1243690",
    "final_x": "3700997.30045",
    "final_y": "535310.396742",
    "longitude": "-90.00636667652387",
    "latitude": "29.965311531993546",
    "geocoded_column": {
      "latitude": "29.965311531993546",
      "longitude": "-90.00636667652387"
    }
  },
  {
    "service_request": "2025-1243689",
    "request_type": "Property Maintenance",
    "request_reason": "Property Maintenance",
    "date_created": "2025-12-03T15:32:24.000",
    "date_modified": "2025-12-03T15:59:12.000",
    "request_status": "Pending",
    "responsible_agency": "Department of Code Enforcement",
    "final_address": "3501 White Oak Ave",
    "address_councildis": "C",
    "status": "Pending",
    "rowid": "1243689",
    "final_x": "3703122.45732",
    "final_y": "514421.443699",
    "longitude": "-90.00042294326816",
    "latitude": "29.907806393443558",
    "geocoded_column": {
      "latitude": "29.907806393443558",
      "longitude": "-90.00042294326816"
    }
  },
  {
    "service_request": "2025-1243688",
    "request_type": "Roads and Streets",
    "request_reason": "Sidewalk Damaged or Missing",
    "date_created": "2025-12-03T15:31:25.000",
    "date_modified": "2025-12-03T15:31:26.000",
    "request_status": "Pending",
    "responsible_agency": "Department of Public Works",
    "final_address": "1276 Foy St",
    "address_councildis": "D",
    "status": "Pending",
    "rowid": "1243688",
    "final_x": "3677268.49717",
    "final_y": "546393.49352",
    "longitude": "-90.08091855730306",
    "latitude": "29.996520478444438",
    "geocoded_column": {
      "latitude": "29.996520478444438",
      "longitude": "-90.08091855730306"
    }
  },
  {
    "service_request": "2025-1243687",
    "request_type": "Abandoned Vehicles",
    "request_reason": "Abandoned/Junk Vehicles",
    "date_created": "2025-12-03T15:28:51.000",
    "date_modified": "2025-12-03T15:28:52.000",
    "request_status": "Pending",
    "responsible_agency": "Department of Public Works",
    "final_address": "2466 Allen Toussaint Blvd",
    "address_councildis": "D",
    "status": "Pending",
    "rowid": "1243687",
    "final_x": "3685544.80969",
    "final_y": "555830.797913",
    "longitude": "-90.05444151113943",
    "latitude": "30.022218295643775",
    "geocoded_column": {
      "latitude": "30.022218295643775",
      "longitude": "-90.05444151113943"
    }
  },
  {
    "service_request": "2025-1243686",
    "request_type": "Trash/Recycling",
    "request_reason": "Repair Recycling Cart",
    "date_created": "2025-12-03T15:20:49.000",
    "date_modified": "2025-12-03T15:20:51.000",
    "request_status": "Pending",
    "responsible_agency": "Department of Sanitation",
    "final_address": "1225 Arabella St",
    "address_councildis": "A",
    "status": "Pending",
    "rowid": "1243686",
    "final_x": "3666204.04033",
    "final_y": "520457.873592",
    "longitude": "-90.11674051512544",
    "latitude": "29.92553394413545",
    "geocoded_column": {
      "latitude": "29.92553394413545",
      "longitude": "-90.11674051512544"
    }
  },
  {
    "service_request": "2025-1243685",
    "request_type": "Streetlights",
    "request_reason": "Streetlight Outage/Malfunction",
    "date_created": "2025-12-03T15:19:20.000",
    "date_modified": "2025-12-03T15:19:21.000",
    "request_status": "Pending",
    "responsible_agency": "Department of Public Works",
    "final_address": "996 Allen Toussaint Blvd",
    "address_councildis": "A",
    "status": "Pending",
    "rowid": "1243685",
    "final_x": "3671459.22139",
    "final_y": "554377.811864",
    "longitude": "-90.09899804531074",
    "latitude": "30.018647856318736",
    "geocoded_column": {
      "latitude": "30.018647856318736",
      "longitude": "-90.09899804531074"
    }
  },
  {
    "service_request": "2025-1243684",
    "request_type": "Drainage",
    "request_reason": "Catch Basin Not Draining",
    "date_created": "2025-12-03T15:17:37.000",
    "date_modified": "2025-12-03T15:31:12.000",
    "request_status": "Pending",
    "responsible_agency": "Sewerage & Water Board",
    "final_address": "1276 Foy St",
    "address_councildis": "D",
    "status": "Pending",
    "rowid": "1243684",
    "final_x": "3677268.49717",
    "final_y": "546393.49352",
    "longitude": "-90.08091855730306",
    "latitude": "29.996520478444438",
    "geocoded_column": {
      "latitude": "29.996520478444438",
      "longitude": "-90.08091855730306"
    }
  },
  {
    "service_request": "2025-1243683",
    "request_type": "Trash/Recycling",
    "request_reason": "Missed Trash Pick-Up",
    "date_created": "2025-12-03T15:14:35.000",
    "date_modified": "2025-12-03T17:04:13.000",
    "case_close_date": "2025-12-03T11:04:11.000",
    "request_status": "Closed",
    "responsible_agency": "Department of Sanitation",
    "final_address": "4014 Franklin Ave",
    "address_councildis": "D",
    "status": "Invalid Request",
    "contractor": "IV Waste",
    "contractor_action": "Invalid",
    "rowid": "1243683",
    "final_x": "3686960.18588",
    "final_y": "547610.296594",
    "longitude": "-90.05026013936559",
    "latitude": "29.999571414909248",
    "geocoded_column": {
      "latitude": "29.999571414909248",
      "longitude": "-90.05026013936559"
    }
  },
  {
    "service_request": "2025-1243682",
    "request_type": "Trash/Recycling",
    "request_reason": "Illegal Dumping",
    "date_created": "2025-12-03T15:12:54.000",
    "date_modified": "2025-12-03T15:12:56.000",
    "request_status": "Pending",
    "responsible_agency": "Department of Sanitation",
    "final_address": "ROBERT E LEE BLVD & PEOPLES AVE",
    "address_councildis": "D",
    "status": "Pending",
    "rowid": "1243682",
    "final_x": "3687747.6",
    "final_y": "556048.88",
    "longitude": "-90.04747352425831",
    "latitude": "30.0227501546197",
    "geocoded_column": {
      "latitude": "30.0227501546197",
      "longitude": "-90.04747352425831"
    }
  },
  {
    "service_request": "2025-1243681",
    "request_type": "Property Maintenance",
    "request_reason": "Property Maintenance",
    "date_created": "2025-12-03T15:10:31.000",
    "date_modified": "2025-12-03T15:10:33.000",
    "request_status": "Pending",
    "responsible_agency": "Department of Code Enforcement",
    "final_address": "5101 Kendall Dr",
    "address_councildis": "D",
    "status": "Pending",
    "rowid": "1243681",
    "final_x": "3690290.71459",
    "final_y": "551990.71279",
    "longitude": "-90.03958267686068",
    "latitude": "30.011512987003485",
    "geocoded_column": {
      "latitude": "30.011512987003485",
      "longitude": "-90.03958267686068"
    }
  },
  {
    "service_request": "2025-1243680",
    "request_type": "Parks & Parkways",
    "request_reason": "Request Tree Service (Right of Way/Public Property)",
    "date_created": "2025-12-03T15:08:33.000",
    "date_modified": "2025-12-03T15:08:35.000",
    "request_status": "Pending",
    "responsible_agency": "Department of Parks & Parkway",
    "final_address": "6101 Perlita St",
    "address_councildis": "D",
    "status": "Pending",
    "rowid": "1243680",
    "final_x": "3678369.88834",
    "final_y": "554938.934872",
    "longitude": "-90.07714338735812",
    "latitude": "30.019984236904396",
    "geocoded_column": {
      "latitude": "30.019984236904396",
      "longitude": "-90.07714338735812"
    }
  },
  {
    "service_request": "2025-1243679",
    "request_type": "Trash/Recycling",
    "request_reason": "Request a Large Item Pick Up",
    "date_created": "2025-12-03T15:01:52.000",
    "date_modified": "2025-12-03T15:01:53.000",
    "request_status": "Pending",
    "responsible_agency": "Department of Sanitation",
    "final_address": "7541 Dogwood Dr",
    "address_councildis": "E",
    "status": "Assigned to Contractor",
    "contractor": "Waste Pro",
    "rowid": "1243679",
    "final_x": "3701393.11242",
    "final_y": "560903.280286",
    "longitude": "-90.00417922323612",
    "latitude": "30.035669769407324",
    "geocoded_column": {
      "latitude": "30.035669769407324",
      "longitude": "-90.00417922323612"
    }
  },
  {
    "service_request": "2025-1243678",
    "request_type": "Trash/Recycling",
    "request_reason": "Request a Large Item Pick Up",
    "date_created": "2025-12-03T15:01:11.000",
    "date_modified": "2025-12-03T15:01:17.000",
    "request_status": "Pending",
    "responsible_agency": "Department of Sanitation",
    "final_address": "12601 Carmel Pl",
    "address_councildis": "E",
    "status": "Assigned to Contractor",
    "contractor": "Waste Pro",
    "rowid": "1243678",
    "final_x": "3716475.57695",
    "final_y": "567050.42026",
    "longitude": "-89.95628304460487",
    "latitude": "30.05208222205913",
    "geocoded_column": {
      "latitude": "30.05208222205913",
      "longitude": "-89.95628304460487"
    }
  },
  {
    "service_request": "2025-1243677",
    "request_type": "Trash/Recycling",
    "request_reason": "Request a Large Item Pick Up",
    "date_created": "2025-12-03T14:54:21.000",
    "date_modified": "2025-12-03T15:26:31.000",
    "request_status": "Pending",
    "responsible_agency": "Department of Sanitation",
    "final_address": "2618 Cupid St",
    "address_councildis": "C",
    "status": "Assigned to Contractor",
    "contractor": "Richards Disposal",
    "rowid": "1243677",
    "final_x": "3700410.05136",
    "final_y": "521423.851385",
    "longitude": "-90.00872811303307",
    "latitude": "29.927147104449098",
    "geocoded_column": {
      "latitude": "29.927147104449098",
      "longitude": "-90.00872811303307"
    }
  },
  {
    "service_request": "2025-1243676",
    "request_type": "Streetlights",
    "request_reason": "Streetlight Outage/Malfunction",
    "date_created": "2025-12-03T14:53:32.000",
    "date_modified": "2025-12-03T14:53:33.000",
    "request_status": "Pending",
    "responsible_agency": "Department of Public Works",
    "final_address": "71 Maryland Dr",
    "address_councildis": "A",
    "status": "Pending",
    "rowid": "1243676",
    "final_x": "3663741.25325",
    "final_y": "541641.283852",
    "longitude": "-90.12380894989148",
    "latitude": "29.983853121367776",
    "geocoded_column": {
      "latitude": "29.983853121367776",
      "longitude": "-90.12380894989148"
    }
  },
  {
    "service_request": "2025-1243675",
    "request_type": "Trash/Recycling",
    "request_reason": "Request a Large Item Pick Up",
    "date_created": "2025-12-03T14:47:40.000",
    "date_modified": "2025-12-03T14:47:41.000",
    "request_status": "Pending",
    "responsible_agency": "Department of Sanitation",
    "final_address": "4921 Kendall Dr",
    "address_councildis": "D",
    "status": "Assigned to Contractor",
    "contractor": "IV Waste",
    "rowid": "1243675",
    "final_x": "3690352.07318",
    "final_y": "551606.831125",
    "longitude": "-90.03940251626499",
    "latitude": "30.01045554906606",
    "geocoded_column": {
      "latitude": "30.01045554906606",
      "longitude": "-90.03940251626499"
    }
  },
  {
    "service_request": "2025-1243674",
    "request_type": "Trash/Recycling",
    "request_reason": "Request a Large Item Pick Up",
    "date_created": "2025-12-03T14:47:15.000",
    "date_modified": "2025-12-03T14:47:17.000",
    "request_status": "Pending",
    "responsible_agency": "Department of Sanitation",
    "final_address": "224 Jewel St",
    "address_councildis": "D",
    "status": "Assigned to Contractor",
    "contractor": "IV Waste",
    "rowid": "1243674",
    "final_x": "3667252.381",
    "final_y": "555740.882905",
    "longitude": "-90.11224429474247",
    "latitude": "30.022519754616077",
    "geocoded_column": {
      "latitude": "30.022519754616077",
      "longitude": "-90.11224429474247"
    }
  },
  {
    "service_request": "2025-1243673",
    "request_type": "Trash/Recycling",
    "request_reason": "Request a Large Item Pick Up",
    "date_created": "2025-12-03T14:44:56.000",
    "date_modified": "2025-12-03T14:44:58.000",
    "request_status": "Pending",
    "responsible_agency": "Department of Sanitation",
    "final_address": "4901 Michoud Blvd",
    "address_councildis": "E",
    "status": "Assigned to Contractor",
    "contractor": "Waste Pro",
    "rowid": "1243673",
    "final_x": "3725089.9056",
    "final_y": "561155.121182",
    "longitude": "-89.92928446490467",
    "latitude": "30.035585125654556",
    "geocoded_column": {
      "latitude": "30.035585125654556",
      "longitude": "-89.92928446490467"
    }
  },
  {
    "service_request": "2025-1243672",
    "request_type": "Mosquito, Termite & Rodent Control",
    "request_reason": "Non-Rodent Complaint (Possums & Snakes)",
    "date_created": "2025-12-03T14:40:19.000",
    "date_modified": "2025-12-03T14:40:21.000",
    "request_status": "Pending",
    "responsible_agency": "Mosquito, Termite & Rodent Control Board",
    "final_address": "5900 Lincoln Beach Blvd",
    "address_councildis": "D",
    "status": "Pending",
    "rowid": "1243672",
    "final_x": "3694538.85008",
    "final_y": "559842.818013",
    "longitude": "-90.0258780542719",
    "latitude": "30.032970740685897",
    "geocoded_column": {
      "latitude": "30.032970740685897",
      "longitude": "-90.0258780542719"
    }
  },
  {
    "service_request": "2025-1243671",
    "request_type": "Trash/Recycling",
    "request_reason": "Request a Large Item Pick Up",
    "date_created": "2025-12-03T14:38:55.000",
    "date_modified": "2025-12-03T14:38:57.000",
    "request_status": "Pending",
    "responsible_agency": "Department of Sanitation",
    "final_address": "7103 Freret St",
    "address_councildis": "A",
    "status": "Assigned to Contractor",
    "contractor": "IV Waste",
    "rowid": "1243671",
    "final_x": "3663998.43578",
    "final_y": "525792.939517",
    "longitude": "-90.12352514740162",
    "latitude": "29.940267895288557",
    "geocoded_column": {
      "latitude": "29.940267895288557",
      "longitude": "-90.12352514740162"
    }
  },
  {
    "service_request": "2025-1243670",
    "request_type": "Abandoned Vehicles",
    "request_reason": "Abandoned/Junk Vehicles",
    "date_created": "2025-12-03T14:35:11.000",
    "date_modified": "2025-12-03T14:35:14.000",
    "request_status": "Pending",
    "responsible_agency": "Department of Public Works",
    "final_address": "2536 St Ann St",
    "address_councildis": "D",
    "status": "Pending",
    "rowid": "1243670",
    "final_x": "3677470.81902",
    "final_y": "536750.094536",
    "longitude": "-90.08061247861748",
    "latitude": "29.9699983926152",
    "geocoded_column": {
      "latitude": "29.9699983926152",
      "longitude": "-90.08061247861748"
    }
  },
  {
    "service_request": "2025-1243669",
    "request_type": "Trash/Recycling",
    "request_reason": "Order Trash Cart",
    "date_created": "2025-12-03T14:28:35.000",
    "date_modified": "2025-12-03T14:28:36.000",
    "request_status": "Pending",
    "responsible_agency": "Department of Sanitation",
    "final_address": "4225 Tchoupitoulas St",
    "address_councildis": "B",
    "status": "Assigned to Contractor",
    "contractor": "IV Waste",
    "rowid": "1243669",
    "final_x": "3671720.51598",
    "final_y": "517557.82687",
    "longitude": "-90.0994252420658",
    "latitude": "29.91739753510233",
    "geocoded_column": {
      "latitude": "29.91739753510233",
      "longitude": "-90.0994252420658"
    }
  },
  {
    "service_request": "2025-1243668",
    "request_type": "Trash/Recycling",
    "request_reason": "MIssed Recycling Pick-Up",
    "date_created": "2025-12-03T14:28:30.000",
    "date_modified": "2025-12-03T16:29:50.000",
    "case_close_date": "2025-12-03T10:29:49.000",
    "request_status": "Closed",
    "responsible_agency": "Department of Sanitation",
    "final_address": "2334 Iberville St B",
    "address_councildis": "B",
    "status": "Invalid Request",
    "contractor": "IV Waste",
    "contractor_action": "Invalid",
    "rowid": "1243668",
    "final_x": "3676707.65192",
    "final_y": "534575.404357",
    "longitude": "-90.08309757367498",
    "latitude": "29.964041652868673",
    "geocoded_column": {
      "latitude": "29.964041652868673",
      "longitude": "-90.08309757367498"
    }
  },
  {
    "service_request": "2025-1243667",
    "request_type": "Trash/Recycling",
    "request_reason": "Request a Large Item Pick Up",
    "date_created": "2025-12-03T14:27:57.000",
    "date_modified": "2025-12-03T14:27:59.000",
    "request_status": "Pending",
    "responsible_agency": "Department of Sanitation",
    "final_address": "4709 Coliseum St",
    "address_councildis": "B",
    "status": "Assigned to Contractor",
    "contractor": "IV Waste",
    "rowid": "1243667",
    "final_x": "3669742.06106",
    "final_y": "519738.286776",
    "longitude": "-90.10559637986229",
    "latitude": "29.923451543877018",
    "geocoded_column": {
      "latitude": "29.923451543877018",
      "longitude": "-90.10559637986229"
    }
  },
  {
    "service_request": "2025-1243666",
    "request_type": "Trash/Recycling",
    "request_reason": "Request a Large Item Pick Up",
    "date_created": "2025-12-03T14:26:06.000",
    "date_modified": "2025-12-03T14:26:08.000",
    "request_status": "Pending",
    "responsible_agency": "Department of Sanitation",
    "final_address": "3216 Grand-Route St John St",
    "address_councildis": "A",
    "status": "Assigned to Contractor",
    "contractor": "IV Waste",
    "rowid": "1243666",
    "final_x": "3676017.87265",
    "final_y": "540281.094859",
    "longitude": "-90.08507955191497",
    "latitude": "29.979751033046064",
    "geocoded_column": {
      "latitude": "29.979751033046064",
      "longitude": "-90.08507955191497"
    }
  },
  {
    "service_request": "2025-1243665",
    "request_type": "Trash/Recycling",
    "request_reason": "Request a Large Item Pick Up",
    "date_created": "2025-12-03T14:18:51.000",
    "date_modified": "2025-12-03T14:18:53.000",
    "request_status": "Pending",
    "responsible_agency": "Department of Sanitation",
    "final_address": "5317 Douglass St",
    "address_councildis": "E",
    "status": "Assigned to Contractor",
    "contractor": "Waste Pro",
    "rowid": "1243665",
    "final_x": "3696381.23191",
    "final_y": "531917.787075",
    "longitude": "-90.02106661305902",
    "latitude": "29.956129237803463",
    "geocoded_column": {
      "latitude": "29.956129237803463",
      "longitude": "-90.02106661305902"
    }
  },
  {
    "service_request": "2025-1243664",
    "request_type": "Trash/Recycling",
    "request_reason": "Return Recycling Cart",
    "date_created": "2025-12-03T14:09:37.000",
    "date_modified": "2025-12-03T14:09:38.000",
    "request_status": "Pending",
    "responsible_agency": "Department of Sanitation",
    "final_address": "2326 Jefferson Ave",
    "address_councildis": "A",
    "status": "Pending",
    "rowid": "1243664",
    "final_x": "3667862.77594",
    "final_y": "524233.742844",
    "longitude": "-90.11137726937628",
    "latitude": "29.935867851142337",
    "geocoded_column": {
      "latitude": "29.935867851142337",
      "longitude": "-90.11137726937628"
    }
  },
  {
    "service_request": "2025-1243663",
    "request_type": "Trash/Recycling",
    "request_reason": "Request a Large Item Pick Up",
    "date_created": "2025-12-03T13:52:45.000",
    "date_modified": "2025-12-03T13:52:47.000",
    "request_status": "Pending",
    "responsible_agency": "Department of Sanitation",
    "final_address": "8 Curtis Dr",
    "address_councildis": "E",
    "status": "Assigned to Contractor",
    "contractor": "Waste Pro",
    "rowid": "1243663",
    "final_x": "3697689.92637",
    "final_y": "560638.780766",
    "longitude": "-90.01589149649521",
    "latitude": "30.035060091539236",
    "geocoded_column": {
      "latitude": "30.035060091539236",
      "longitude": "-90.01589149649521"
    }
  },
  {
    "service_request": "2025-1243662",
    "request_type": "Trash/Recycling",
    "request_reason": "Return Trash Cart",
    "date_created": "2025-12-03T13:51:08.000",
    "date_modified": "2025-12-03T13:51:10.000",
    "request_status": "Pending",
    "responsible_agency": "Department of Sanitation",
    "final_address": "1934 Foucher St",
    "address_councildis": "B",
    "status": "Assigned to Contractor",
    "contractor": "IV Waste",
    "rowid": "1243662",
    "final_x": "3672965.40232",
    "final_y": "522567.842298",
    "longitude": "-90.09532497398654",
    "latitude": "29.931136552044457",
    "geocoded_column": {
      "latitude": "29.931136552044457",
      "longitude": "-90.09532497398654"
    }
  },
  {
    "service_request": "2025-1243661",
    "request_type": "Streetlights",
    "request_reason": "Streetlight Outage/Malfunction",
    "date_created": "2025-12-03T13:48:04.000",
    "date_modified": "2025-12-03T13:51:35.000",
    "request_status": "Pending",
    "responsible_agency": "Department of Public Works",
    "final_address": "4750 Lurline St",
    "address_councildis": "E",
    "status": "Pending",
    "rowid": "1243661",
    "final_x": "3711891.34194",
    "final_y": "556175.566234",
    "longitude": "-89.97118089057514",
    "latitude": "30.022331406338832",
    "geocoded_column": {
      "latitude": "30.022331406338832",
      "longitude": "-89.97118089057514"
    }
  },
  {
    "service_request": "2025-1243660",
    "request_type": "Trash/Recycling",
    "request_reason": "Illegal Dumping",
    "date_created": "2025-12-03T13:44:41.000",
    "date_modified": "2025-12-03T13:52:20.000",
    "request_status": "Pending",
    "responsible_agency": "Department of Sanitation",
    "final_address": "2535 Frenchmen St",
    "address_councildis": "D",
    "status": "Pending",
    "rowid": "1243660",
    "final_x": "3684177.94159",
    "final_y": "541718.46446",
    "longitude": "-90.05925628878542",
    "latitude": "29.983456343017487",
    "geocoded_column": {
      "latitude": "29.983456343017487",
      "longitude": "-90.05925628878542"
    }
  },
  {
    "service_request": "2025-1243658",
    "request_type": "Trash/Recycling",
    "request_reason": "Request a Large Item Pick Up",
    "date_created": "2025-12-03T13:43:51.000",
    "date_modified": "2025-12-03T13:43:54.000",
    "request_status": "Pending",
    "responsible_agency": "Department of Sanitation",
    "final_address": "7144 Deanne St",
    "address_councildis": "D",
    "status": "Assigned to Contractor",
    "contractor": "Waste Pro",
    "rowid": "1243658",
    "final_x": "3695406.21373",
    "final_y": "556874.93289",
    "longitude": "-90.02324434961942",
    "latitude": "30.024782946720794",
    "geocoded_column": {
      "latitude": "30.024782946720794",
      "longitude": "-90.02324434961942"
    }
  },
  {
    "service_request": "2025-1243659",
    "request_type": "Abandoned Vehicles",
    "request_reason": "Abandoned/Junk Vehicles",
    "date_created": "2025-12-03T13:43:51.000",
    "date_modified": "2025-12-03T14:25:20.000",
    "request_status": "Pending",
    "responsible_agency": "Department of Public Works",
    "final_address": "1800 BLK Amelia St",
    "address_councildis": "B",
    "status": "Pending",
    "rowid": "1243659",
    "final_x": "3672921.79979",
    "final_y": "522052.517691",
    "longitude": "-90.09548019622585",
    "latitude": "29.92972087093365",
    "geocoded_column": {
      "latitude": "29.92972087093365",
      "longitude": "-90.09548019622585"
    }
  },
  {
    "service_request": "2025-1243657",
    "request_type": "Trash/Recycling",
    "request_reason": "Order Second Trash Cart",
    "date_created": "2025-12-03T13:41:26.000",
    "date_modified": "2025-12-03T13:41:28.000",
    "request_status": "Pending",
    "responsible_agency": "Department of Sanitation",
    "final_address": "1321 S Rampart St",
    "address_councildis": "B",
    "status": "Assigned to Contractor",
    "contractor": "IV Waste",
    "rowid": "1243657",
    "final_x": "3677888.22242",
    "final_y": "526884.146494",
    "longitude": "-90.07963518190569",
    "latitude": "29.94285780061473",
    "geocoded_column": {
      "latitude": "29.94285780061473",
      "longitude": "-90.07963518190569"
    }
  },
  {
    "service_request": "2025-1243656",
    "request_type": "Trash/Recycling",
    "request_reason": "Order Second Trash Cart",
    "date_created": "2025-12-03T13:40:26.000",
    "date_modified": "2025-12-03T13:40:27.000",
    "request_status": "Pending",
    "responsible_agency": "Department of Sanitation",
    "final_address": "1319 S Rampart St",
    "address_councildis": "B",
    "status": "Assigned to Contractor",
    "contractor": "IV Waste",
    "rowid": "1243656",
    "final_x": "3677956.64507",
    "final_y": "526841.906686",
    "longitude": "-90.07942061448614",
    "latitude": "29.942739596469785",
    "geocoded_column": {
      "latitude": "29.942739596469785",
      "longitude": "-90.07942061448614"
    }
  },
  {
    "service_request": "2025-1243655",
    "request_type": "Trash/Recycling",
    "request_reason": "Request a Large Item Pick Up",
    "date_created": "2025-12-03T13:38:58.000",
    "date_modified": "2025-12-03T13:39:00.000",
    "request_status": "Pending",
    "responsible_agency": "Department of Sanitation",
    "final_address": "7525 Ligustrum Dr",
    "address_councildis": "E",
    "status": "Assigned to Contractor",
    "contractor": "Waste Pro",
    "rowid": "1243655",
    "final_x": "3701682.72593",
    "final_y": "560916.528286",
    "longitude": "-90.00326351321371",
    "latitude": "30.035696955801864",
    "geocoded_column": {
      "latitude": "30.035696955801864",
      "longitude": "-90.00326351321371"
    }
  },
  {
    "service_request": "2025-1243654",
    "request_type": "Trash/Recycling",
    "request_reason": "Request a Large Item Pick Up",
    "date_created": "2025-12-03T13:33:31.000",
    "date_modified": "2025-12-03T13:33:33.000",
    "request_status": "Pending",
    "responsible_agency": "Department of Sanitation",
    "final_address": "6119 West End Blvd",
    "address_councildis": "A",
    "status": "Assigned to Contractor",
    "contractor": "IV Waste",
    "rowid": "1243654",
    "final_x": "3666550.68775",
    "final_y": "548302.613586",
    "longitude": "-90.11471144752696",
    "latitude": "30.00208765935878",
    "geocoded_column": {
      "latitude": "30.00208765935878",
      "longitude": "-90.11471144752696"
    }
  },
  {
    "service_request": "2025-1243653",
    "request_type": "Trash/Recycling",
    "request_reason": "Repair Trash Cart",
    "date_created": "2025-12-03T13:33:23.000",
    "date_modified": "2025-12-03T13:33:24.000",
    "request_status": "Pending",
    "responsible_agency": "Department of Sanitation",
    "final_address": "8731 Aberdeen Rd",
    "address_councildis": "E",
    "status": "Assigned to Contractor",
    "contractor": "Waste Pro",
    "rowid": "1243653",
    "final_x": "3704733.24234",
    "final_y": "562391.166943",
    "longitude": "-89.99356892249472",
    "latitude": "30.039653915468524",
    "geocoded_column": {
      "latitude": "30.039653915468524",
      "longitude": "-89.99356892249472"
    }
  },
  {
    "service_request": "2025-1243651",
    "request_type": "Street and Traffic Signs",
    "request_reason": "Street Name Sign Damaged or Missing",
    "date_created": "2025-12-03T13:32:15.000",
    "date_modified": "2025-12-03T13:32:17.000",
    "request_status": "Pending",
    "responsible_agency": "Department of Public Works",
    "final_address": "CONGRESS DR & DEBORE CIR",
    "address_councildis": "D",
    "status": "Pending",
    "rowid": "1243651",
    "final_x": "3691926.0",
    "final_y": "553070.28",
    "longitude": "-90.0343774888481",
    "latitude": "30.014430525962094",
    "geocoded_column": {
      "latitude": "30.014430525962094",
      "longitude": "-90.0343774888481"
    }
  },
  {
    "service_request": "2025-1243650",
    "request_type": "Trash/Recycling",
    "request_reason": "Order Trash Cart",
    "date_created": "2025-12-03T13:29:56.000",
    "date_modified": "2025-12-03T13:29:58.000",
    "request_status": "Pending",
    "responsible_agency": "Department of Sanitation",
    "final_address": "4958 Sandalwood St",
    "address_councildis": "E",
    "status": "Assigned to Contractor",
    "contractor": "Waste Pro",
    "rowid": "1243650",
    "final_x": "3712019.27147",
    "final_y": "557489.007259",
    "longitude": "-89.97072731619062",
    "latitude": "30.02593866951812",
    "geocoded_column": {
      "latitude": "30.02593866951812",
      "longitude": "-89.97072731619062"
    }
  },
  {
    "service_request": "2025-1243649",
    "request_type": "Roads and Streets",
    "request_reason": "Sidewalk Damaged or Missing",
    "date_created": "2025-12-03T13:27:56.000",
    "date_modified": "2025-12-03T13:27:59.000",
    "request_status": "Pending",
    "responsible_agency": "Department of Public Works",
    "final_address": "4700 Bancroft Dr",
    "address_councildis": "D",
    "status": "Pending",
    "rowid": "1243649",
    "final_x": "3676246.40264",
    "final_y": "549545.853843",
    "longitude": "-90.08403872191354",
    "latitude": "30.005219034971283",
    "geocoded_column": {
      "latitude": "30.005219034971283",
      "longitude": "-90.08403872191354"
    }
  },
  {
    "service_request": "2025-1243648",
    "request_type": "Trash/Recycling",
    "request_reason": "Request a Large Item Pick Up",
    "date_created": "2025-12-03T13:22:51.000",
    "date_modified": "2025-12-03T13:22:53.000",
    "request_status": "Pending",
    "responsible_agency": "Department of Sanitation",
    "final_address": "5441 Urquhart St",
    "address_councildis": "E",
    "status": "Assigned to Contractor",
    "contractor": "Waste Pro",
    "rowid": "1243648",
    "final_x": "3697705.59242",
    "final_y": "534643.904646",
    "longitude": "-90.01678585117743",
    "latitude": "29.963583323530717",
    "geocoded_column": {
      "latitude": "29.963583323530717",
      "longitude": "-90.01678585117743"
    }
  },
  {
    "service_request": "2025-1243647",
    "request_type": "Trash/Recycling",
    "request_reason": "Order Recycling Cart",
    "date_created": "2025-12-03T13:21:33.000",
    "date_modified": "2025-12-03T13:21:35.000",
    "request_status": "Pending",
    "responsible_agency": "Department of Sanitation",
    "final_address": "2122 N Galvez St",
    "address_councildis": "D",
    "status": "Pending",
    "rowid": "1243647",
    "final_x": "3684470.40597",
    "final_y": "539913.303818",
    "longitude": "-90.05839597445943",
    "latitude": "29.978483840988005",
    "geocoded_column": {
      "latitude": "29.978483840988005",
      "longitude": "-90.05839597445943"
    }
  },
  {
    "service_request": "2025-1243646",
    "request_type": "Streetlights",
    "request_reason": "Streetlight Outage/Malfunction",
    "date_created": "2025-12-03T13:10:55.000",
    "date_modified": "2025-12-03T13:11:54.000",
    "request_status": "Pending",
    "responsible_agency": "Department of Public Works",
    "final_address": "6720 Dorian St",
    "address_councildis": "D",
    "status": "Pending",
    "rowid": "1243646",
    "final_x": "3696365.65328",
    "final_y": "555921.114649",
    "longitude": "-90.0202472343065",
    "latitude": "30.022130111293972",
    "geocoded_column": {
      "latitude": "30.022130111293972",
      "longitude": "-90.0202472343065"
    }
  },
  {
    "service_request": "2025-1243645",
    "request_type": "Trash/Recycling",
    "request_reason": "Request a Large Item Pick Up",
    "date_created": "2025-12-03T13:08:52.000",
    "date_modified": "2025-12-03T13:08:54.000",
    "request_status": "Pending",
    "responsible_agency": "Department of Sanitation",
    "final_address": "1236 Congress St",
    "address_councildis": "C",
    "status": "Assigned to Contractor",
    "contractor": "IV Waste",
    "rowid": "1243645",
    "final_x": "3690840.50537",
    "final_y": "536212.549447",
    "longitude": "-90.03840902226749",
    "latitude": "29.968111648935917",
    "geocoded_column": {
      "latitude": "29.968111648935917",
      "longitude": "-90.03840902226749"
    }
  },
  {
    "service_request": "2025-1243644",
    "request_type": "Trash/Recycling",
    "request_reason": "Request a Large Item Pick Up",
    "date_created": "2025-12-03T13:06:49.000",
    "date_modified": "2025-12-03T13:06:50.000",
    "request_status": "Pending",
    "responsible_agency": "Department of Sanitation",
    "final_address": "2741 Hudson Pl",
    "address_councildis": "C",
    "status": "Assigned to Contractor",
    "contractor": "Richards Disposal",
    "rowid": "1243644",
    "final_x": "3703311.64042",
    "final_y": "520604.01132",
    "longitude": "-89.9995987343133",
    "latitude": "29.924800278459884",
    "geocoded_column": {
      "latitude": "29.924800278459884",
      "longitude": "-89.9995987343133"
    }
  },
  {
    "service_request": "2025-1243643",
    "request_type": "Property Maintenance",
    "request_reason": "Property Maintenance",
    "date_created": "2025-12-03T13:04:24.000",
    "date_modified": "2025-12-03T13:04:25.000",
    "request_status": "Pending",
    "responsible_agency": "Department of Code Enforcement",
    "final_address": "9001 Adele St, New Orleans, Louisiana, 70127",
    "address_councildis": "E",
    "status": "Pending",
    "rowid": "1243643",
    "final_x": "3705726.71639",
    "final_y": "562580.349216",
    "longitude": "-89.99042226055359",
    "latitude": "30.040142114604574",
    "geocoded_column": {
      "latitude": "30.040142114604574",
      "longitude": "-89.99042226055359"
    }
  },
  {
    "service_request": "2025-1243642",
    "request_type": "Abandoned Vehicles",
    "request_reason": "Abandoned/Junk Vehicles",
    "date_created": "2025-12-03T13:04:03.000",
    "date_modified": "2025-12-03T13:04:04.000",
    "request_status": "Pending",
    "responsible_agency": "Department of Public Works",
    "final_address": "1632 Constantinople St",
    "address_councildis": "B",
    "status": "Pending",
    "rowid": "1243642",
    "final_x": "3672200.93537",
    "final_y": "521269.735481",
    "longitude": "-90.09778248928455",
    "latitude": "29.927589864883775",
    "geocoded_column": {
      "latitude": "29.927589864883775",
      "longitude": "-90.09778248928455"
    }
  },
  {
    "service_request": "2025-1243641",
    "request_type": "Trash/Recycling",
    "request_reason": "Order Trash Cart",
    "date_created": "2025-12-03T13:02:33.000",
    "date_modified": "2025-12-03T13:02:35.000",
    "request_status": "Pending",
    "responsible_agency": "Department of Sanitation",
    "final_address": "2433 Almonaster Ave",
    "address_councildis": "D",
    "status": "Assigned to Contractor",
    "contractor": "IV Waste",
    "rowid": "1243641",
    "final_x": "3688477.88566",
    "final_y": "541648.059916",
    "longitude": "-90.04567734605337",
    "latitude": "29.983130589398247",
    "geocoded_column": {
      "latitude": "29.983130589398247",
      "longitude": "-90.04567734605337"
    }
  },
  {
    "service_request": "2025-1243640",
    "request_type": "Trash/Recycling",
    "request_reason": "Order Trash Cart",
    "date_created": "2025-12-03T13:02:14.000",
    "date_modified": "2025-12-03T13:02:16.000",
    "request_status": "Pending",
    "responsible_agency": "Department of Sanitation",
    "final_address": "5063 Dreux Ave",
    "address_councildis": "D",
    "status": "Assigned to Contractor",
    "contractor": "IV Waste",
    "rowid": "1243640",
    "final_x": "3692394.58921",
    "final_y": "553556.695959",
    "longitude": "-90.03287954251304",
    "latitude": "30.01575337404368",
    "geocoded_column": {
      "latitude": "30.01575337404368",
      "longitude": "-90.03287954251304"
    }
  },
  {
    "service_request": "2025-1243639",
    "request_type": "Streetlights",
    "request_reason": "Streetlight Outage/Malfunction",
    "date_created": "2025-12-03T13:01:28.000",
    "date_modified": "2025-12-03T13:01:30.000",
    "request_status": "Pending",
    "responsible_agency": "Department of Public Works",
    "final_address": "10 Elysian Fields Ave",
    "address_councildis": "D",
    "status": "Pending",
    "rowid": "1243639",
    "final_x": "3683547.89602",
    "final_y": "552090.847318",
    "longitude": "-90.06088248659371",
    "latitude": "30.011995932794086",
    "geocoded_column": {
      "latitude": "30.011995932794086",
      "longitude": "-90.06088248659371"
    }
  },
  {
    "service_request": "2025-1243638",
    "request_type": "Trash/Recycling",
    "request_reason": "Request a Large Item Pick Up",
    "date_created": "2025-12-03T13:01:13.000",
    "date_modified": "2025-12-03T13:01:19.000",
    "request_status": "Pending",
    "responsible_agency": "Department of Sanitation",
    "final_address": "6007 Beechcraft St",
    "address_councildis": "D",
    "status": "Assigned to Contractor",
    "contractor": "Waste Pro",
    "rowid": "1243638",
    "final_x": "3696504.12567",
    "final_y": "553200.983511",
    "longitude": "-90.01990821821788",
    "latitude": "30.014646413997145",
    "geocoded_column": {
      "latitude": "30.014646413997145",
      "longitude": "-90.01990821821788"
    }
  },
  {
    "service_request": "2025-1243637",
    "request_type": "Streetlights",
    "request_reason": "Streetlight Outage/Malfunction",
    "date_created": "2025-12-03T12:58:50.000",
    "date_modified": "2025-12-03T13:58:28.000",
    "request_status": "Pending",
    "responsible_agency": "Department of Public Works",
    "final_address": "BROOKLYN AVE & CCC INBOUND",
    "status": "Pending",
    "rowid": "1243637",
    "final_x": "3686346.85",
    "final_y": "525582.26",
    "longitude": "-90.05297525084325",
    "latitude": "29.93902086475096",
    "geocoded_column": {
      "latitude": "29.93902086475096",
      "longitude": "-90.05297525084325"
    }
  },
  {
    "service_request": "2025-1243636",
    "request_type": "Trash/Recycling",
    "request_reason": "Request a Large Item Pick Up",
    "date_created": "2025-12-03T12:50:46.000",
    "date_modified": "2025-12-03T12:50:49.000",
    "request_status": "Pending",
    "responsible_agency": "Department of Sanitation",
    "final_address": "4631 Bancroft Dr",
    "address_councildis": "D",
    "status": "Assigned to Contractor",
    "contractor": "IV Waste",
    "rowid": "1243636",
    "final_x": "3676240.78613",
    "final_y": "549351.198739",
    "longitude": "-90.08406317035319",
    "latitude": "30.004683970853247",
    "geocoded_column": {
      "latitude": "30.004683970853247",
      "longitude": "-90.08406317035319"
    }
  },
  {
    "service_request": "2025-1243635",
    "request_type": "Trash/Recycling",
    "request_reason": "Request a Large Item Pick Up",
    "date_created": "2025-12-03T12:41:56.000",
    "date_modified": "2025-12-03T12:41:57.000",
    "request_status": "Pending",
    "responsible_agency": "Department of Sanitation",
    "final_address": "1620 Bordeaux St",
    "address_councildis": "B",
    "status": "Assigned to Contractor",
    "contractor": "IV Waste",
    "rowid": "1243635",
    "final_x": "3669322.72103",
    "final_y": "520936.318457",
    "longitude": "-90.10687960555161",
    "latitude": "29.92675809822399",
    "geocoded_column": {
      "latitude": "29.92675809822399",
      "longitude": "-90.10687960555161"
    }
  },
  {
    "service_request": "2025-1243634",
    "request_type": "Trash/Recycling",
    "request_reason": "Request a Large Item Pick Up",
    "date_created": "2025-12-03T12:41:02.000",
    "date_modified": "2025-12-03T12:41:03.000",
    "request_status": "Pending",
    "responsible_agency": "Department of Sanitation",
    "final_address": "2138 Lizardi St",
    "address_councildis": "E",
    "status": "Assigned to Contractor",
    "contractor": "Waste Pro",
    "rowid": "1243634",
    "final_x": "3697590.2936",
    "final_y": "538161.671305",
    "longitude": "-90.01702233675223",
    "latitude": "29.973259565148833",
    "geocoded_column": {
      "latitude": "29.973259565148833",
      "longitude": "-90.01702233675223"
    }
  },
  {
    "service_request": "2025-1243633",
    "request_type": "Trash/Recycling",
    "request_reason": "Request a Large Item Pick Up",
    "date_created": "2025-12-03T12:40:24.000",
    "date_modified": "2025-12-03T12:40:26.000",
    "request_status": "Pending",
    "responsible_agency": "Department of Sanitation",
    "final_address": "2228 Reynes St",
    "address_councildis": "E",
    "status": "Assigned to Contractor",
    "contractor": "Waste Pro",
    "rowid": "1243633",
    "final_x": "3697151.42429",
    "final_y": "538630.288009",
    "longitude": "-90.01839138304153",
    "latitude": "29.97456194792922",
    "geocoded_column": {
      "latitude": "29.97456194792922",
      "longitude": "-90.01839138304153"
    }
  },
  {
    "service_request": "2025-1243632",
    "request_type": "Abandoned Vehicles",
    "request_reason": "Abandoned/Junk Vehicles",
    "date_created": "2025-12-03T12:38:55.000",
    "date_modified": "2025-12-03T12:41:16.000",
    "request_status": "Pending",
    "responsible_agency": "Department of Public Works",
    "final_address": "1800 Alvar St",
    "address_councildis": "D",
    "status": "Inspected",
    "rowid": "1243632",
    "final_x": "3692110.78077",
    "final_y": "538047.842057",
    "longitude": "-90.03433175237394",
    "latitude": "29.973118520197957",
    "geocoded_column": {
      "latitude": "29.973118520197957",
      "longitude": "-90.03433175237394"
    }
  },
  {
    "service_request": "2025-1243631",
    "request_type": "Trash/Recycling",
    "request_reason": "Request a Large Item Pick Up",
    "date_created": "2025-12-03T12:36:20.000",
    "date_modified": "2025-12-03T12:36:22.000",
    "request_status": "Pending",
    "responsible_agency": "Department of Sanitation",
    "final_address": "7801 Arcadia Ln",
    "address_councildis": "E",
    "status": "Assigned to Contractor",
    "contractor": "Waste Pro",
    "rowid": "1243631",
    "final_x": "3712083.34046",
    "final_y": "567574.543012",
    "longitude": "-89.97014572979624",
    "latitude": "30.053667753238766",
    "geocoded_column": {
      "latitude": "30.053667753238766",
      "longitude": "-89.97014572979624"
    }
  },
  {
    "service_request": "2025-1243630",
    "request_type": "Streetlights",
    "request_reason": "Streetlight Outage/Malfunction",
    "date_created": "2025-12-03T12:35:14.000",
    "date_modified": "2025-12-03T12:35:16.000",
    "request_status": "Pending",
    "responsible_agency": "Department of Public Works",
    "final_address": "5410 Spain St",
    "address_councildis": "D",
    "status": "Pending",
    "rowid": "1243630",
    "final_x": "3684759.88834",
    "final_y": "552866.270679",
    "longitude": "-90.0570260014137",
    "latitude": "30.014091000397997",
    "geocoded_column": {
      "latitude": "30.014091000397997",
      "longitude": "-90.0570260014137"
    }
  },
  {
    "service_request": "2025-1243629",
    "request_type": "Trash/Recycling",
    "request_reason": "Request a Large Item Pick Up",
    "date_created": "2025-12-03T12:31:43.000",
    "date_modified": "2025-12-03T12:31:45.000",
    "request_status": "Pending",
    "responsible_agency": "Department of Sanitation",
    "final_address": "1246 Leboeuf St",
    "address_councildis": "C",
    "status": "Assigned to Contractor",
    "contractor": "Richards Disposal",
    "rowid": "1243629",
    "final_x": "3689748.69795",
    "final_y": "526740.032894",
    "longitude": "-90.04219406052997",
    "latitude": "29.942099387047424",
    "geocoded_column": {
      "latitude": "29.942099387047424",
      "longitude": "-90.04219406052997"
    }
  },
  {
    "service_request": "2025-1243628",
    "request_type": "Abandoned Vehicles",
    "request_reason": "Abandoned/Junk Vehicles",
    "date_created": "2025-12-03T12:31:22.000",
    "date_modified": "2025-12-03T12:31:24.000",
    "request_status": "Pending",
    "responsible_agency": "Department of Public Works",
    "final_address": "3343 Esplanade Ave",
    "address_councildis": "A",
    "status": "Pending",
    "rowid": "1243628",
    "final_x": "3675778.57781",
    "final_y": "540915.894027",
    "longitude": "-90.08581351461964",
    "latitude": "29.981503677945287",
    "geocoded_column": {
      "latitude": "29.981503677945287",
      "longitude": "-90.08581351461964"
    }
  },
  {
    "service_request": "2025-1243627",
    "request_type": "Abandoned Vehicles",
    "request_reason": "Abandoned/Junk Vehicles",
    "date_created": "2025-12-03T12:28:42.000",
    "date_modified": "2025-12-03T12:28:43.000",
    "request_status": "Pending",
    "responsible_agency": "Department of Public Works",
    "final_address": "4873 Tchoupitoulas St",
    "address_councildis": "B",
    "status": "Pending",
    "rowid": "1243627",
    "final_x": "3669099.27002",
    "final_y": "517274.975029",
    "longitude": "-90.10770860895748",
    "latitude": "29.91669713685114",
    "geocoded_column": {
      "latitude": "29.91669713685114",
      "longitude": "-90.10770860895748"
    }
  },
  {
    "service_request": "2025-1243626",
    "request_type": "Trash/Recycling",
    "request_reason": "Request a Large Item Pick Up",
    "date_created": "2025-12-03T12:27:48.000",
    "date_modified": "2025-12-03T12:27:50.000",
    "request_status": "Pending",
    "responsible_agency": "Department of Sanitation",
    "final_address": "1426 Prentiss Ave",
    "address_councildis": "D",
    "status": "Assigned to Contractor",
    "contractor": "IV Waste",
    "rowid": "1243626",
    "final_x": "3678012.32174",
    "final_y": "553252.095191",
    "longitude": "-90.07833156083458",
    "latitude": "30.015356811573028",
    "geocoded_column": {
      "latitude": "30.015356811573028",
      "longitude": "-90.07833156083458"
    }
  },
  {
    "service_request": "2025-1243625",
    "request_type": "Streetlights",
    "request_reason": "Streetlight Outage/Malfunction",
    "date_created": "2025-12-03T12:24:42.000",
    "date_modified": "2025-12-03T12:24:45.000",
    "request_status": "Pending",
    "responsible_agency": "Department of Public Works",
    "final_address": "2091 Hyman Pl",
    "address_councildis": "C",
    "status": "Pending",
    "rowid": "1243625",
    "final_x": "3701053.10001",
    "final_y": "522926.393467",
    "longitude": "-90.00664326995327",
    "latitude": "29.93125811931306",
    "geocoded_column": {
      "latitude": "29.93125811931306",
      "longitude": "-90.00664326995327"
    }
  },
  {
    "service_request": "2025-1243624",
    "request_type": "Trash/Recycling",
    "request_reason": "Request a Large Item Pick Up",
    "date_created": "2025-12-03T12:20:30.000",
    "date_modified": "2025-12-03T12:20:31.000",
    "request_status": "Pending",
    "responsible_agency": "Department of Sanitation",
    "final_address": "23 Winners Cir",
    "address_councildis": "E",
    "status": "Assigned to Contractor",
    "contractor": "Waste Pro",
    "rowid": "1243624",
    "final_x": "3715620.94303",
    "final_y": "570379.425831",
    "longitude": "-89.95885803958305",
    "latitude": "30.061263828928826",
    "geocoded_column": {
      "latitude": "30.061263828928826",
      "longitude": "-89.95885803958305"
    }
  },
  {
    "service_request": "2025-1243623",
    "request_type": "Trash/Recycling",
    "request_reason": "Request a Large Item Pick Up",
    "date_created": "2025-12-03T12:20:06.000",
    "date_modified": "2025-12-03T12:20:07.000",
    "request_status": "Pending",
    "responsible_agency": "Department of Sanitation",
    "final_address": "732 Fourth St",
    "address_councildis": "B",
    "status": "Assigned to Contractor",
    "contractor": "IV Waste",
    "rowid": "1243623",
    "final_x": "3677947.82677",
    "final_y": "519947.070776",
    "longitude": "-90.07968662323027",
    "latitude": "29.923781323341025",
    "geocoded_column": {
      "latitude": "29.923781323341025",
      "longitude": "-90.07968662323027"
    }
  },
  {
    "service_request": "2025-1243622",
    "request_type": "Property Maintenance",
    "request_reason": "Property Maintenance",
    "date_created": "2025-12-03T12:18:06.000",
    "date_modified": "2025-12-03T12:18:08.000",
    "request_status": "Pending",
    "responsible_agency": "Department of Code Enforcement",
    "final_address": "1 Alice Ct",
    "address_councildis": "E",
    "status": "Pending",
    "rowid": "1243622",
    "final_x": "3696817.55485",
    "final_y": "533879.761093",
    "longitude": "-90.01961783221792",
    "latitude": "29.961510225802815",
    "geocoded_column": {
      "latitude": "29.961510225802815",
      "longitude": "-90.01961783221792"
    }
  },
  {
    "service_request": "2025-1243621",
    "request_type": "Trash/Recycling",
    "request_reason": "Request a Large Item Pick Up",
    "date_created": "2025-12-03T12:17:47.000",
    "date_modified": "2025-12-03T12:17:48.000",
    "request_status": "Pending",
    "responsible_agency": "Department of Sanitation",
    "final_address": "721 Eighth St",
    "address_councildis": "B",
    "status": "Assigned to Contractor",
    "contractor": "IV Waste",
    "rowid": "1243621",
    "final_x": "3676881.06625",
    "final_y": "519133.622583",
    "longitude": "-90.08308201844969",
    "latitude": "29.921576652739812",
    "geocoded_column": {
      "latitude": "29.921576652739812",
      "longitude": "-90.08308201844969"
    }
  },
  {
    "service_request": "2025-1243620",
    "request_type": "Property Maintenance",
    "request_reason": "Property Maintenance",
    "date_created": "2025-12-03T12:17:25.000",
    "date_modified": "2025-12-03T12:17:27.000",
    "request_status": "Pending",
    "responsible_agency": "Department of Code Enforcement",
    "final_address": "5 Alice Ct",
    "address_councildis": "E",
    "status": "Pending",
    "rowid": "1243620",
    "final_x": "3696783.60669",
    "final_y": "533846.636549",
    "longitude": "-90.01972623332642",
    "latitude": "29.96142021521976",
    "geocoded_column": {
      "latitude": "29.96142021521976",
      "longitude": "-90.01972623332642"
    }
  },
  {
    "service_request": "2025-1243619",
    "request_type": "Trash/Recycling",
    "request_reason": "Illegal Dumping",
    "date_created": "2025-12-03T12:13:48.000",
    "date_modified": "2025-12-03T12:13:49.000",
    "request_status": "Pending",
    "responsible_agency": "Department of Sanitation",
    "final_address": "EGANIA ST & ALICE CT",
    "address_councildis": "E",
    "status": "Pending",
    "rowid": "1243619",
    "final_x": "3696744.9",
    "final_y": "533824.78",
    "longitude": "-90.0198492528786",
    "latitude": "29.96136133752697",
    "geocoded_column": {
      "latitude": "29.96136133752697",
      "longitude": "-90.0198492528786"
    }
  },
  {
    "service_request": "2025-1243618",
    "request_type": "Trash/Recycling",
    "request_reason": "Replace Trash Cart",
    "date_created": "2025-12-03T12:13:17.000",
    "date_modified": "2025-12-03T12:13:19.000",
    "request_status": "Pending",
    "responsible_agency": "Department of Sanitation",
    "final_address": "7625 Hampson St",
    "address_councildis": "A",
    "status": "Assigned to Contractor",
    "contractor": "IV Waste",
    "rowid": "1243618",
    "final_x": "3662003.67021",
    "final_y": "526047.215678",
    "longitude": "-90.12981453782322",
    "latitude": "29.94102483480446",
    "geocoded_column": {
      "latitude": "29.94102483480446",
      "longitude": "-90.12981453782322"
    }
  },
  {
    "service_request": "2025-1243617",
    "request_type": "Trash/Recycling",
    "request_reason": "Repair Trash Cart",
    "date_created": "2025-12-03T12:12:49.000",
    "date_modified": "2025-12-03T12:12:50.000",
    "request_status": "Pending",
    "responsible_agency": "Department of Sanitation",
    "final_address": "7627 Hampson St",
    "address_councildis": "A",
    "status": "Assigned to Contractor",
    "contractor": "IV Waste",
    "rowid": "1243617",
    "final_x": "3661988.90688",
    "final_y": "526060.782334",
    "longitude": "-90.1298606987137",
    "latitude": "29.941062565167286",
    "geocoded_column": {
      "latitude": "29.941062565167286",
      "longitude": "-90.1298606987137"
    }
  },
  {
    "service_request": "2025-1243616",
    "request_type": "Streetlights",
    "request_reason": "Streetlight Outage/Malfunction",
    "date_created": "2025-12-03T12:08:49.000",
    "date_modified": "2025-12-03T12:08:50.000",
    "request_status": "Pending",
    "responsible_agency": "Department of Public Works",
    "final_address": "3321 Clermont Dr",
    "address_councildis": "D",
    "status": "Pending",
    "rowid": "1243616",
    "final_x": "3686317.59062",
    "final_y": "545141.267855",
    "longitude": "-90.05237731072599",
    "latitude": "29.992802242917286",
    "geocoded_column": {
      "latitude": "29.992802242917286",
      "longitude": "-90.05237731072599"
    }
  },
  {
    "service_request": "2025-1243615",
    "request_type": "Abandoned Vehicles",
    "request_reason": "Abandoned/Junk Vehicles",
    "date_created": "2025-12-03T12:08:15.000",
    "date_modified": "2025-12-03T12:09:27.000",
    "request_status": "Pending",
    "responsible_agency": "Department of Public Works",
    "final_address": "4200 BLK Cleveland Ave",
    "address_councildis": "A",
    "status": "Pending",
    "rowid": "1243615",
    "final_x": "3670183.32364",
    "final_y": "538505.977238",
    "longitude": "-90.10356765745723",
    "latitude": "29.975043539116776",
    "geocoded_column": {
      "latitude": "29.975043539116776",
      "longitude": "-90.10356765745723"
    }
  },
  {
    "service_request": "2025-1243614",
    "request_type": "Mosquito, Termite & Rodent Control",
    "request_reason": "Rodent Complaint (Mice & Rats)",
    "date_created": "2025-12-03T12:03:58.000",
    "date_modified": "2025-12-03T12:03:59.000",
    "request_status": "Pending",
    "responsible_agency": "Mosquito, Termite & Rodent Control Board",
    "final_address": "5726 St Charles Ave",
    "address_councildis": "A",
    "status": "Pending",
    "rowid": "1243614",
    "final_x": "3666288.55757",
    "final_y": "522017.200314",
    "longitude": "-90.1164214428881",
    "latitude": "29.929819131740146",
    "geocoded_column": {
      "latitude": "29.929819131740146",
      "longitude": "-90.1164214428881"
    }
  },
  {
    "service_request": "2025-1243613",
    "request_type": "Trash/Recycling",
    "request_reason": "Request a Large Item Pick Up",
    "date_created": "2025-12-03T12:01:33.000",
    "date_modified": "2025-12-03T12:01:35.000",
    "request_status": "Pending",
    "responsible_agency": "Department of Sanitation",
    "final_address": "7001 Wayside Dr",
    "address_councildis": "E",
    "status": "Assigned to Contractor",
    "contractor": "Waste Pro",
    "rowid": "1243613",
    "final_x": "3717850.95193",
    "final_y": "567651.169956",
    "longitude": "-89.9519130600812",
    "latitude": "30.05368851598994",
    "geocoded_column": {
      "latitude": "30.05368851598994",
      "longitude": "-89.9519130600812"
    }
  },
  {
    "service_request": "2025-1243612",
    "request_type": "Trash/Recycling",
    "request_reason": "Replace Trash Cart",
    "date_created": "2025-12-03T11:57:10.000",
    "date_modified": "2025-12-03T11:57:12.000",
    "request_status": "Pending",
    "responsible_agency": "Department of Sanitation",
    "final_address": "4725 Camelot Dr",
    "address_councildis": "E",
    "status": "Assigned to Contractor",
    "contractor": "Waste Pro",
    "rowid": "1243612",
    "final_x": "3708453.6179",
    "final_y": "555525.928409",
    "longitude": "-89.98206736723847",
    "latitude": "30.020657076307543",
    "geocoded_column": {
      "latitude": "30.020657076307543",
      "longitude": "-89.98206736723847"
    }
  },
  {
    "service_request": "2025-1243611",
    "request_type": "Trash/Recycling",
    "request_reason": "Request a Large Item Pick Up",
    "date_created": "2025-12-03T11:56:59.000",
    "date_modified": "2025-12-03T11:57:02.000",
    "request_status": "Pending",
    "responsible_agency": "Department of Sanitation",
    "final_address": "7520 Brevard Ave",
    "address_councildis": "E",
    "status": "Assigned to Contractor",
    "contractor": "Waste Pro",
    "rowid": "1243611",
    "final_x": "3706483.06174",
    "final_y": "563141.610464",
    "longitude": "-89.98801116170256",
    "latitude": "30.041660965434193",
    "geocoded_column": {
      "latitude": "30.041660965434193",
      "longitude": "-89.98801116170256"
    }
  },
  {
    "service_request": "2025-1243610",
    "request_type": "Trash/Recycling",
    "request_reason": "Order Trash Cart",
    "date_created": "2025-12-03T11:56:25.000",
    "date_modified": "2025-12-03T11:56:26.000",
    "request_status": "Pending",
    "responsible_agency": "Department of Sanitation",
    "final_address": "2320 St Andrew St",
    "address_councildis": "B",
    "status": "Assigned to Contractor",
    "contractor": "IV Waste",
    "rowid": "1243610",
    "final_x": "3676412.18101",
    "final_y": "526336.21523",
    "longitude": "-90.08431426019715",
    "latitude": "29.94139549443261",
    "geocoded_column": {
      "latitude": "29.94139549443261",
      "longitude": "-90.08431426019715"
    }
  },
  {
    "service_request": "2025-1243609",
    "request_type": "Trash/Recycling",
    "request_reason": "Replace Trash Cart",
    "date_created": "2025-12-03T11:55:37.000",
    "date_modified": "2025-12-03T11:55:38.000",
    "request_status": "Pending",
    "responsible_agency": "Department of Sanitation",
    "final_address": "4232 Ulloa St",
    "address_councildis": "A",
    "status": "Assigned to Contractor",
    "contractor": "IV Waste",
    "rowid": "1243609",
    "final_x": "3668914.6505",
    "final_y": "537006.487112",
    "longitude": "-90.10762512634885",
    "latitude": "29.970957822648153",
    "geocoded_column": {
      "latitude": "29.970957822648153",
      "longitude": "-90.10762512634885"
    }
  },
  {
    "service_request": "2025-1243608",
    "request_type": "Streetlights",
    "request_reason": "Streetlight Outage/Malfunction",
    "date_created": "2025-12-03T11:54:55.000",
    "date_modified": "2025-12-03T11:54:56.000",
    "request_status": "Pending",
    "responsible_agency": "Department of Public Works",
    "final_address": "9025 Chef Menteur Hwy",
    "address_councildis": "E",
    "status": "Pending",
    "rowid": "1243608",
    "final_x": "3709057.09028",
    "final_y": "553977.663384",
    "longitude": "-89.98021836139539",
    "latitude": "30.01638036755462",
    "geocoded_column": {
      "latitude": "30.01638036755462",
      "longitude": "-89.98021836139539"
    }
  },
  {
    "service_request": "2025-1243607",
    "request_type": "Trash/Recycling",
    "request_reason": "Order Trash Cart",
    "date_created": "2025-12-03T11:54:15.000",
    "date_modified": "2025-12-03T11:54:18.000",
    "request_status": "Pending",
    "responsible_agency": "Department of Sanitation",
    "final_address": "2318 St Andrew St",
    "address_councildis": "B",
    "status": "Assigned to Contractor",
    "contractor": "IV Waste",
    "rowid": "1243607",
    "final_x": "3676418.69141",
    "final_y": "526328.982654",
    "longitude": "-90.08429395449754",
    "latitude": "29.941375412096342",
    "geocoded_column": {
      "latitude": "29.941375412096342",
      "longitude": "-90.08429395449754"
    }
  },
  {
    "service_request": "2025-1243606",
    "request_type": "Safety & Permits",
    "request_reason": "Licenses & Permits",
    "date_created": "2025-12-03T11:50:22.000",
    "date_modified": "2025-12-03T11:51:18.000",
    "request_status": "Pending",
    "responsible_agency": "Safety and Permits",
    "final_address": "2415 Lavender St",
    "address_councildis": "D",
    "status": "Pending",
    "rowid": "1243606",
    "final_x": "3686088.8399",
    "final_y": "546886.236305",
    "longitude": "-90.0530383034334",
    "latitude": "29.99760730954603",
    "geocoded_column": {
      "latitude": "29.99760730954603",
      "longitude": "-90.0530383034334"
    }
  },
  {
    "service_request": "2025-1243605",
    "request_type": "Trash/Recycling",
    "request_reason": "Repair Recycling Cart",
    "date_created": "2025-12-03T11:48:55.000",
    "date_modified": "2025-12-03T11:48:56.000",
    "request_status": "Pending",
    "responsible_agency": "Department of Sanitation",
    "final_address": "5005 Dauphine St",
    "address_councildis": "E",
    "status": "Pending",
    "rowid": "1243605",
    "final_x": "3695758.67158",
    "final_y": "533184.182596",
    "longitude": "-90.0229867073637",
    "latitude": "29.959630969448952",
    "geocoded_column": {
      "latitude": "29.959630969448952",
      "longitude": "-90.0229867073637"
    }
  },
  {
    "service_request": "2025-1243604",
    "request_type": "Trash/Recycling",
    "request_reason": "Replace Trash Cart",
    "date_created": "2025-12-03T11:47:11.000",
    "date_modified": "2025-12-03T13:39:35.000",
    "case_close_date": "2025-12-03T07:39:35.000",
    "request_status": "Closed",
    "responsible_agency": "Department of Sanitation",
    "final_address": "139 Chartres St",
    "address_councildis": "C",
    "status": "Invalid Request",
    "contractor": "IV Waste",
    "contractor_action": "Invalid",
    "rowid": "1243604",
    "final_x": "3681681.53442",
    "final_y": "530776.163138",
    "longitude": "-90.06752304849626",
    "latitude": "29.953444870401864",
    "geocoded_column": {
      "latitude": "29.953444870401864",
      "longitude": "-90.06752304849626"
    }
  },
  {
    "service_request": "2025-1243603",
    "request_type": "Trash/Recycling",
    "request_reason": "Request a Large Item Pick Up",
    "date_created": "2025-12-03T11:45:23.000",
    "date_modified": "2025-12-03T11:45:25.000",
    "request_status": "Pending",
    "responsible_agency": "Department of Sanitation",
    "final_address": "7263 Canal Blvd",
    "address_councildis": "D",
    "status": "Assigned to Contractor",
    "contractor": "IV Waste",
    "rowid": "1243603",
    "final_x": "3669371.82766",
    "final_y": "555282.053849",
    "longitude": "-90.10556286244523",
    "latitude": "30.021195863670865",
    "geocoded_column": {
      "latitude": "30.021195863670865",
      "longitude": "-90.10556286244523"
    }
  },
  {
    "service_request": "2025-1243602",
    "request_type": "Trash/Recycling",
    "request_reason": "Replace Recycling Cart",
    "date_created": "2025-12-03T11:42:22.000",
    "date_modified": "2025-12-03T11:42:23.000",
    "request_status": "Pending",
    "responsible_agency": "Department of Sanitation",
    "final_address": "4145 DHemecourt St",
    "address_councildis": "A",
    "status": "Pending",
    "rowid": "1243602",
    "final_x": "3669467.12743",
    "final_y": "537135.80468",
    "longitude": "-90.10587595281531",
    "latitude": "29.971297140941136",
    "geocoded_column": {
      "latitude": "29.971297140941136",
      "longitude": "-90.10587595281531"
    }
  },