[
  {
    "service_request": "2025-1221419",
    "request_type": "Trash/Recycling",
    "request_reason": "Replace Trash Cart",
    "date_created": "2025-08-25T23:46:40.000",
    "date_modified": "2025-08-25T23:46:49.000",
    "request_status": "Pending",
    "responsible_agency": "Department of Sanitation",
    "final_address": "717 Evelina St",
    "address_councildis": "C",
    "status": "Assigned to Contractor",
    "contractor": "Richards Disposal",
    "rowid": "1221419",
    "final_x": "3687668.62953",
    "final_y": "529460.512641",
    "longitude": "-90.04866497116821",
    "latitude": "29.94964406327142",
    "geocoded_column": {
      "latitude": "29.94964406327142",
      "longitude": "-90.04866497116821"
    }
  },
  {
    "service_request": "2025-1221418",
    "request_type": "Trash/Recycling",
    "request_reason": "Replace Recycling Cart",
    "date_created": "2025-08-25T22:35:00.000",
    "date_modified": "2025-08-25T22:35:02.000",
    "request_status": "Pending",
    "responsible_agency": "Department of Sanitation",
    "final_address": "715 Fourth St",
    "address_councildis": "B",
    "status": "Pending",
    "rowid": "1221418",
    "final_x": "3678093.96162",
    "final_y": "519887.687672",
    "longitude": "-90.07922738006148",
    "latitude": "29.92361364197693",
    "geocoded_column": {
      "latitude": "29.92361364197693",
      "longitude": "-90.07922738006148"
    }
  },
  {
    "service_request": "2025-1221417",
    "request_type": "Trash/Recycling",
    "request_reason": "Replace Recycling Cart",
    "date_created": "2025-08-25T22:28:22.000",
    "date_modified": "2025-08-25T22:28:24.000",
    "request_status": "Pending",
    "responsible_agency": "Department of Sanitation",
    "final_address": "715 Fourth St",
    "address_councildis": "B",
    "status": "Pending",
    "rowid": "1221417",
    "final_x": "3678093.96162",
    "final_y": "519887.687672",
    "longitude": "-90.07922738006148",
    "latitude": "29.92361364197693",
    "geocoded_column": {
      "latitude": "29.92361364197693",
      "longitude": "-90.07922738006148"
    }
  },
  {
    "service_request": "2025-1221416",
    "request_type": "Trash/Recycling",
    "request_reason": "Start Trash Service",
    "date_created": "2025-08-25T21:57:59.000",
    "date_modified": "2025-08-25T21:58:01.000",
    "request_status": "Pending",
    "responsible_agency": "Department of Sanitation",
    "final_address": "9722 W Rockton Circle",
    "address_councildis": "E",
    "status": "Assigned to Contractor",
    "contractor": "Waste Pro",
    "rowid": "1221416",
    "final_x": "3708085.31198",
    "final_y": "562398.730847",
    "longitude": "-89.9829751743305",
    "latitude": "30.039566519098944",
    "geocoded_column": {
      "latitude": "30.039566519098944",
      "longitude": "-89.9829751743305"
    }
  },
  {
    "service_request": "2025-1221414",
    "request_type": "Trash/Recycling",
    "request_reason": "Illegal Dumping",
    "date_created": "2025-08-25T21:53:11.000",
    "date_modified": "2025-08-25T21:53:12.000",
    "request_status": "Pending",
    "responsible_agency": "Department of Sanitation",
    "final_address": "6042 Florida Ave",
    "address_councildis": "E",
    "status": "Pending",
    "rowid": "1221414",
    "final_x": "3701566.53994",
    "final_y": "539066.83009",
    "longitude": "-90.00443148099005",
    "latitude": "29.975622224823052",
    "geocoded_column": {
      "latitude": "29.975622224823052",
      "longitude": "-90.00443148099005"
    }
  },
  {
    "service_request": "2025-1221413",
    "request_type": "Trash/Recycling",
    "request_reason": "Illegal Dumping",
    "date_created": "2025-08-25T21:49:08.000",
    "date_modified": "2025-08-25T21:49:11.000",
    "request_status": "Pending",
    "responsible_agency": "Department of Sanitation",
    "final_address": "2535 Gordon St",
    "address_councildis": "E",
    "status": "Pending",
    "rowid": "1221413",
    "final_x": "3701331.02404",
    "final_y": "538717.064265",
    "longitude": "-90.00518810435588",
    "latitude": "29.974668004396676",
    "geocoded_column": {
      "latitude": "29.974668004396676",
      "longitude": "-90.00518810435588"
    }
  },
  {
    "service_request": "2025-1221412",
    "request_type": "Trash/Recycling",
    "request_reason": "Request a Large Item Pick Up",
    "date_created": "2025-08-25T21:34:20.000",
    "date_modified": "2025-08-25T21:34:22.000",
    "request_status": "Pending",
    "responsible_agency": "Department of Sanitation",
    "final_address": "4144 Bienville Ave",
    "address_councildis": "A",
    "status": "Assigned to Contractor",
    "contractor": "IV Waste",
    "rowid": "1221412",
    "final_x": "3671241.0402",
    "final_y": "539128.786442",
    "longitude": "-90.10020593879095",
    "latitude": "29.976724797395963",
    "geocoded_column": {
      "latitude": "29.976724797395963",
      "longitude": "-90.10020593879095"
    }
  },
  {
    "service_request": "2025-1221411",
    "request_type": "Streetlights",
    "request_reason": "Streetlight Outage/Malfunction",
    "date_created": "2025-08-25T21:29:03.000",
    "date_modified": "2025-08-25T21:29:06.000",
    "request_status": "Pending",
    "responsible_agency": "Department of Public Works",
    "final_address": "7646 Founders Ct",
    "address_councildis": "E",
    "status": "Pending",
    "contractor": "Legacy Professional Services",
    "rowid": "1221411",
    "final_x": "3725458.20128",
    "final_y": "570992.439079",
    "longitude": "-89.92773925488763",
    "latitude": "30.062621228541882",
    "geocoded_column": {
      "latitude": "30.062621228541882",
      "longitude": "-89.92773925488763"
    }
  },
  {
    "service_request": "2025-1221410",
    "request_type": "Streetlights",
    "request_reason": "New Streetlight Request",
    "date_created": "2025-08-25T21:22:37.000",
    "date_modified": "2025-08-25T21:22:39.000",
    "request_status": "Pending",
    "responsible_agency": "Department of Public Works",
    "final_address": "220 Liberty Terrace Dr",
    "address_councildis": "D",
    "status": "Pending",
    "contractor": "Legacy Professional Services",
    "rowid": "1221410",
    "final_x": "3689518.70953",
    "final_y": "545650.822672",
    "longitude": "-90.04224744562075",
    "latitude": "29.994104547816892",
    "geocoded_column": {
      "latitude": "29.994104547816892",
      "longitude": "-90.04224744562075"
    }
  },
  {
    "service_request": "2025-1221409",
    "request_type": "Trash/Recycling",
    "request_reason": "Order Recycling Cart",
    "date_created": "2025-08-25T21:14:01.000",
    "date_modified": "2025-08-25T21:14:02.000",
    "request_status": "Pending",
    "responsible_agency": "Department of Sanitation",
    "final_address": "7113 Freret St",
    "address_councildis": "A",
    "status": "Pending",
    "rowid": "1221409",
    "final_x": "3663937.0937",
    "final_y": "525843.844605",
    "longitude": "-90.12371711831831",
    "latitude": "29.940409648767822",
    "geocoded_column": {
      "latitude": "29.940409648767822",
      "longitude": "-90.12371711831831"
    }
  },
  {
    "service_request": "2025-1221408",
    "request_type": "Trash/Recycling",
    "request_reason": "Repair Trash Cart",
    "date_created": "2025-08-25T21:13:38.000",
    "date_modified": "2025-08-25T21:13:40.000",
    "request_status": "Pending",
    "responsible_agency": "Department of Sanitation",
    "final_address": "4432 Fields St",
    "address_councildis": "C",
    "status": "Assigned to Contractor",
    "contractor": "Richards Disposal",
    "rowid": "1221408",
    "final_x": "3707598.54782",
    "final_y": "514570.444019",
    "longitude": "-89.9862904093771",
    "latitude": "29.908072162789903",
    "geocoded_column": {
      "latitude": "29.908072162789903",
      "longitude": "-89.9862904093771"
    }
  },
  {
    "service_request": "2025-1221407",
    "request_type": "Trash/Recycling",
    "request_reason": "Replace Trash Cart",
    "date_created": "2025-08-25T21:12:16.000",
    "date_modified": "2025-08-25T21:12:18.000",
    "request_status": "Pending",
    "responsible_agency": "Department of Sanitation",
    "final_address": "7113 Freret St",
    "address_councildis": "A",
    "status": "Assigned to Contractor",
    "contractor": "IV Waste",
    "rowid": "1221407",
    "final_x": "3663937.0937",
    "final_y": "525843.844605",
    "longitude": "-90.12371711831831",
    "latitude": "29.940409648767822",
    "geocoded_column": {
      "latitude": "29.940409648767822",
      "longitude": "-90.12371711831831"
    }
  },
  {
    "service_request": "2025-1221406",
    "request_type": "Trash/Recycling",
    "request_reason": "Request a Large Item Pick Up",
    "date_created": "2025-08-25T21:11:05.000",
    "date_modified": "2025-08-25T21:11:08.000",
    "request_status": "Pending",
    "responsible_agency": "Department of Sanitation",
    "final_address": "1431 St Andrew St",
    "address_councildis": "B",
    "status": "Assigned to Contractor",
    "contractor": "IV Waste",
    "rowid": "1221406",
    "final_x": "3678693.99733",
    "final_y": "523606.590203",
    "longitude": "-90.07720459705475",
    "latitude": "29.933821337076548",
    "geocoded_column": {
      "latitude": "29.933821337076548",
      "longitude": "-90.07720459705475"
    }
  },
  {
    "service_request": "2025-1221405",
    "request_type": "Trash/Recycling",
    "request_reason": "Request a Large Item Pick Up",
    "date_created": "2025-08-25T21:00:06.000",
    "date_modified": "2025-08-25T21:00:10.000",
    "request_status": "Pending",
    "responsible_agency": "Department of Sanitation",
    "final_address": "7922 Belfast St",
    "address_councildis": "A",
    "status": "Assigned to Contractor",
    "contractor": "IV Waste",
    "rowid": "1221405",
    "final_x": "3665982.53088",
    "final_y": "531951.321027",
    "longitude": "-90.11705463856988",
    "latitude": "29.957143699673566",
    "geocoded_column": {
      "latitude": "29.957143699673566",
      "longitude": "-90.11705463856988"
    }
  },
  {
    "service_request": "2025-1221404",
    "request_type": "Abandoned Vehicles",
    "request_reason": "Abandoned/Junk Vehicles",
    "date_created": "2025-08-25T20:54:04.000",
    "date_modified": "2025-08-25T20:54:07.000",
    "request_status": "Pending",
    "responsible_agency": "Department of Public Works",
    "final_address": "1800 Aubry St",
    "address_councildis": "D",
    "status": "Pending",
    "rowid": "1221404",
    "final_x": "3682209.79874",
    "final_y": "539103.835146",
    "longitude": "-90.06556408269893",
    "latitude": "29.976327052426377",
    "geocoded_column": {
      "latitude": "29.976327052426377",
      "longitude": "-90.06556408269893"
    }
  },
  {
    "service_request": "2025-1221403",
    "request_type": "Trash/Recycling",
    "request_reason": "Request a Large Item Pick Up",
    "date_created": "2025-08-25T20:53:00.000",
    "date_modified": "2025-08-25T20:53:02.000",
    "request_status": "Pending",
    "responsible_agency": "Department of Sanitation",
    "final_address": "1811 Laharpe St",
    "address_councildis": "D",
    "status": "Assigned to Contractor",
    "contractor": "IV Waste",
    "rowid": "1221403",
    "final_x": "3681308.59957",
    "final_y": "538018.292809",
    "longitude": "-90.06844818408219",
    "latitude": "29.973369573046497",
    "geocoded_column": {
      "latitude": "29.973369573046497",
      "longitude": "-90.06844818408219"
    }
  },
  {
    "service_request": "2025-1221402",
    "request_type": "Roads and Streets",
    "request_reason": "Pothole",
    "date_created": "2025-08-25T20:49:56.000",
    "date_modified": "2025-08-25T20:49:58.000",
    "request_status": "Pending",
    "responsible_agency": "Department of Public Works",
    "final_address": "7861 Symmes Ave",
    "address_councildis": "E",
    "status": "Pending",
    "rowid": "1221402",
    "final_x": "3707464.74596",
    "final_y": "565411.143714",
    "longitude": "-89.98482429350355",
    "latitude": "30.047869547764538",
    "geocoded_column": {
      "latitude": "30.047869547764538",
      "longitude": "-89.98482429350355"
    }
  },
  {
    "service_request": "2025-1221401",
    "request_type": "Streetlights",
    "request_reason": "Streetlight Outage/Malfunction",
    "date_created": "2025-08-25T20:46:15.000",
    "date_modified": "2025-08-25T20:46:17.000",
    "request_status": "Pending",
    "responsible_agency": "Department of Public Works",
    "final_address": "1900 Allen St",
    "address_councildis": "D",
    "status": "Pending",
    "contractor": "Legacy Professional Services",
    "rowid": "1221401",
    "final_x": "3682446.8893",
    "final_y": "539001.387722",
    "longitude": "-90.06481886251697",
    "latitude": "29.976038142656108",
    "geocoded_column": {
      "latitude": "29.976038142656108",
      "longitude": "-90.06481886251697"
    }
  },
  {
    "service_request": "2025-1221400",
    "request_type": "Trash/Recycling",
    "request_reason": "Request a Large Item Pick Up",
    "date_created": "2025-08-25T20:42:22.000",
    "date_modified": "2025-08-25T20:42:23.000",
    "request_status": "Pending",
    "responsible_agency": "Department of Sanitation",
    "final_address": "6824 Louis Xiv St",
    "address_councildis": "A",
    "status": "Assigned to Contractor",
    "contractor": "IV Waste",
    "rowid": "1221400",
    "final_x": "3668493.68922",
    "final_y": "552928.129751",
    "longitude": "-90.10841705341161",
    "latitude": "30.014749248448318",
    "geocoded_column": {
      "latitude": "30.014749248448318",
      "longitude": "-90.10841705341161"
    }
  },
  {
    "service_request": "2025-1221399",
    "request_type": "General Services",
    "request_reason": "General Service Request",
    "date_created": "2025-08-25T20:40:40.000",
    "date_modified": "2025-08-25T20:40:42.000",
    "request_status": "Pending",
    "responsible_agency": "Orleans Parish Communication District",
    "final_address": "5853 Argonne Blvd",
    "address_councildis": "A",
    "status": "Pending",
    "rowid": "1221399",
    "final_x": "3670138.47361",
    "final_y": "546216.856912",
    "longitude": "-90.10344791370485",
    "latitude": "29.996247147218956",
    "geocoded_column": {
      "latitude": "29.996247147218956",
      "longitude": "-90.10344791370485"
    }
  },
  {
    "service_request": "2025-1221398",
    "request_type": "Trash/Recycling",
    "request_reason": "Request a Large Item Pick Up",
    "date_created": "2025-08-25T20:37:35.000",
    "date_modified": "2025-08-25T20:37:37.000",
    "request_status": "Pending",
    "responsible_agency": "Department of Sanitation",
    "final_address": "2939 Joliet St",
    "address_councildis": "A",
    "status": "Assigned to Contractor",
    "contractor": "IV Waste",
    "rowid": "1221398",
    "final_x": "3665243.73472",
    "final_y": "534046.004229",
    "longitude": "-90.11931745982943",
    "latitude": "29.962924934990983",
    "geocoded_column": {
      "latitude": "29.962924934990983",
      "longitude": "-90.11931745982943"
    }
  },
  {
    "service_request": "2025-1221397",
    "request_type": "Trash/Recycling",
    "request_reason": "Order Second Trash Cart",
    "date_created": "2025-08-25T20:35:44.000",
    "date_modified": "2025-08-25T20:35:46.000",
    "request_status": "Pending",
    "responsible_agency": "Department of Sanitation",
    "final_address": "5853 Argonne Blvd",
    "address_councildis": "A",
    "status": "Assigned to Contractor",
    "contractor": "IV Waste",
    "rowid": "1221397",
    "final_x": "3670138.47361",
    "final_y": "546216.856912",
    "longitude": "-90.10344791370485",
    "latitude": "29.996247147218956",
    "geocoded_column": {
      "latitude": "29.996247147218956",
      "longitude": "-90.10344791370485"
    }
  },
  {
    "service_request": "2025-1221396",
    "request_type": "Trash/Recycling",
    "request_reason": "Replace Trash Cart",
    "date_created": "2025-08-25T20:34:54.000",
    "date_modified": "2025-08-25T20:34:56.000",
    "request_status": "Pending",
    "responsible_agency": "Department of Sanitation",
    "final_address": "53 Crane St",
    "address_councildis": "D",
    "status": "Assigned to Contractor",
    "contractor": "IV Waste",
    "rowid": "1221396",
    "final_x": "3672985.3108",
    "final_y": "555182.694617",
    "longitude": "-90.09414864096532",
    "latitude": "30.020815704425274",
    "geocoded_column": {
      "latitude": "30.020815704425274",
      "longitude": "-90.09414864096532"
    }
  },
  {
    "service_request": "2025-1221395",
    "request_type": "Streetlights",
    "request_reason": "Streetlight Outage/Malfunction",
    "date_created": "2025-08-25T20:23:27.000",
    "date_modified": "2025-08-25T20:23:29.000",
    "request_status": "Pending",
    "responsible_agency": "Department of Public Works",
    "final_address": "1224 N Rendon St",
    "address_councildis": "A",
    "status": "Pending",
    "contractor": "Legacy Professional Services",
    "rowid": "1221395",
    "final_x": "3676043.88859",
    "final_y": "539716.941962",
    "longitude": "-90.0850167946905",
    "latitude": "29.978199027210213",
    "geocoded_column": {
      "latitude": "29.978199027210213",
      "longitude": "-90.0850167946905"
    }
  },
  {
    "service_request": "2025-1221394",
    "request_type": "General Services",
    "request_reason": "General Service Request",
    "date_created": "2025-08-25T20:22:12.000",
    "date_modified": "2025-08-25T20:22:13.000",
    "request_status": "Pending",
    "responsible_agency": "Orleans Parish Communication District",
    "final_address": "505 S Genois St",
    "address_councildis": "B",
    "status": "Pending",
    "rowid": "1221394",
    "final_x": "3671554.21876",
    "final_y": "535881.310663",
    "longitude": "-90.09932727827552",
    "latitude": "29.96778606366794",
    "geocoded_column": {
      "latitude": "29.96778606366794",
      "longitude": "-90.09932727827552"
    }
  },
  {
    "service_request": "2025-1221393",
    "request_type": "Streetlights",
    "request_reason": "Streetlight Outage/Malfunction",
    "date_created": "2025-08-25T20:17:18.000",
    "date_modified": "2025-08-25T20:17:21.000",
    "request_status": "Pending",
    "responsible_agency": "Department of Public Works",
    "final_address": "2453 Oriole St",
    "address_councildis": "D",
    "status": "Pending",
    "contractor": "Legacy Professional Services",
    "rowid": "1221393",
    "final_x": "3684968.06242",
    "final_y": "558305.078044",
    "longitude": "-90.05617674571842",
    "latitude": "30.02903933542002",
    "geocoded_column": {
      "latitude": "30.02903933542002",
      "longitude": "-90.05617674571842"
    }
  },
  {
    "service_request": "2025-1221392",
    "request_type": "Trash/Recycling",
    "request_reason": "Order Trash Cart",
    "date_created": "2025-08-25T20:00:37.000",
    "date_modified": "2025-08-25T20:00:39.000",
    "request_status": "Pending",
    "responsible_agency": "Department of Sanitation",
    "final_address": "129 N Rendon St",
    "address_councildis": "B",
    "status": "Assigned to Contractor",
    "contractor": "IV Waste",
    "rowid": "1221392",
    "final_x": "3673699.21851",
    "final_y": "536747.590408",
    "longitude": "-90.0925236712219",
    "latitude": "29.970104347596102",
    "geocoded_column": {
      "latitude": "29.970104347596102",
      "longitude": "-90.0925236712219"
    }
  },
  {
    "service_request": "2025-1221391",
    "request_type": "Trash/Recycling",
    "request_reason": "Replace Recycling Cart",
    "date_created": "2025-08-25T19:43:49.000",
    "date_modified": "2025-08-25T19:43:52.000",
    "request_status": "Pending",
    "responsible_agency": "Department of Sanitation",
    "final_address": "301 Opelousas Ave",
    "address_councildis": "C",
    "status": "Pending",
    "rowid": "1221391",
    "final_x": "3686157.04777",
    "final_y": "528971.026496",
    "longitude": "-90.05345497529414",
    "latitude": "29.948344655645343",
    "geocoded_column": {
      "latitude": "29.948344655645343",
      "longitude": "-90.05345497529414"
    }
  },
  {
    "service_request": "2025-1221390",
    "request_type": "Trash/Recycling",
    "request_reason": "Request a Large Item Pick Up",
    "date_created": "2025-08-25T19:38:42.000",
    "date_modified": "2025-08-25T19:38:43.000",
    "request_status": "Pending",
    "responsible_agency": "Department of Sanitation",
    "final_address": "8014 Buffalo St",
    "address_councildis": "E",
    "status": "Assigned to Contractor",
    "contractor": "Waste Pro",
    "rowid": "1221390",
    "final_x": "3719144.27737",
    "final_y": "574269.26385",
    "longitude": "-89.94757225432365",
    "latitude": "30.07184257115492",
    "geocoded_column": {
      "latitude": "30.07184257115492",
      "longitude": "-89.94757225432365"
    }
  },
  {
    "service_request": "2025-1221389",
    "request_type": "Trash/Recycling",
    "request_reason": "Request a Large Item Pick Up",
    "date_created": "2025-08-25T19:35:31.000",
    "date_modified": "2025-08-25T19:35:35.000",
    "request_status": "Pending",
    "responsible_agency": "Department of Sanitation",
    "final_address": "11121 S Idlewood Ct",
    "address_councildis": "E",
    "status": "Assigned to Contractor",
    "contractor": "Waste Pro",
    "rowid": "1221389",
    "final_x": "3716156.87026",
    "final_y": "559366.633117",
    "longitude": "-89.95758195872506",
    "latitude": "30.03096545071214",
    "geocoded_column": {
      "latitude": "30.03096545071214",
      "longitude": "-89.95758195872506"
    }
  },
  {
    "service_request": "2025-1221388",
    "request_type": "Trash/Recycling",
    "request_reason": "Repair Trash Cart",
    "date_created": "2025-08-25T19:33:36.000",
    "date_modified": "2025-08-25T19:33:38.000",
    "request_status": "Pending",
    "responsible_agency": "Department of Sanitation",
    "final_address": "11121 S Idlewood Ct",
    "address_councildis": "E",
    "status": "Assigned to Contractor",
    "contractor": "Waste Pro",
    "rowid": "1221388",
    "final_x": "3716156.87026",
    "final_y": "559366.633117",
    "longitude": "-89.95758195872506",
    "latitude": "30.03096545071214",
    "geocoded_column": {
      "latitude": "30.03096545071214",
      "longitude": "-89.95758195872506"
    }
  },
  {
    "service_request": "2025-1221387",
    "request_type": "Trash/Recycling",
    "request_reason": "Request a Large Item Pick Up",
    "date_created": "2025-08-25T19:26:43.000",
    "date_modified": "2025-08-25T19:26:45.000",
    "request_status": "Pending",
    "responsible_agency": "Department of Sanitation",
    "final_address": "13020 Ashland Dr",
    "address_councildis": "E",
    "status": "Assigned to Contractor",
    "contractor": "Waste Pro",
    "rowid": "1221387",
    "final_x": "3717576.75954",
    "final_y": "567553.200996",
    "longitude": "-89.95278343391202",
    "latitude": "30.053428228146448",
    "geocoded_column": {
      "latitude": "30.053428228146448",
      "longitude": "-89.95278343391202"
    }
  },
  {
    "service_request": "2025-1221386",
    "request_type": "Parks & Parkways",
    "request_reason": "Request Tree Service (Right of Way/Public Property)",
    "date_created": "2025-08-25T19:23:31.000",
    "date_modified": "2025-08-25T19:23:33.000",
    "request_status": "Pending",
    "responsible_agency": "Department of Parks & Parkway",
    "final_address": "3103 Banks St",
    "address_councildis": "B",
    "status": "Pending",
    "rowid": "1221386",
    "final_x": "3673350.72456",
    "final_y": "535185.996422",
    "longitude": "-90.09367760722988",
    "latitude": "29.96582086266371",
    "geocoded_column": {
      "latitude": "29.96582086266371",
      "longitude": "-90.09367760722988"
    }
  },
  {
    "service_request": "2025-1221385",
    "request_type": "Trash/Recycling",
    "request_reason": "Order Recycling Cart",
    "date_created": "2025-08-25T19:06:41.000",
    "date_modified": "2025-08-25T19:06:44.000",
    "request_status": "Pending",
    "responsible_agency": "Department of Sanitation",
    "final_address": "1811 Laharpe St",
    "address_councildis": "D",
    "status": "Pending",
    "rowid": "1221385",
    "final_x": "3681308.59957",
    "final_y": "538018.292809",
    "longitude": "-90.06844818408219",
    "latitude": "29.973369573046497",
    "geocoded_column": {
      "latitude": "29.973369573046497",
      "longitude": "-90.06844818408219"
    }
  },
  {
    "service_request": "2025-1221384",
    "request_type": "Parks & Parkways",
    "request_reason": "Request Tree Service (Right of Way/Public Property)",
    "date_created": "2025-08-25T19:01:21.000",
    "date_modified": "2025-08-25T19:01:24.000",
    "request_status": "Pending",
    "responsible_agency": "Department of Parks & Parkway",
    "final_address": "2814 State St",
    "address_councildis": "A",
    "status": "Pending",
    "rowid": "1221384",
    "final_x": "3667108.10477",
    "final_y": "526843.290558",
    "longitude": "-90.11367209754397",
    "latitude": "29.9430653769519",
    "geocoded_column": {
      "latitude": "29.9430653769519",
      "longitude": "-90.11367209754397"
    }
  },
  {
    "service_request": "2025-1221383",
    "request_type": "Drainage",
    "request_reason": "Ditch and Culvert Maintenance",
    "date_created": "2025-08-25T18:57:30.000",
    "date_modified": "2025-08-25T18:57:32.000",
    "request_status": "Pending",
    "responsible_agency": "Department of Public Works",
    "final_address": "2517 Conti St",
    "address_councildis": "B",
    "status": "Pending",
    "rowid": "1221383",
    "final_x": "3676742.78318",
    "final_y": "535554.884422",
    "longitude": "-90.08295287913514",
    "latitude": "29.966733837000522",
    "geocoded_column": {
      "latitude": "29.966733837000522",
      "longitude": "-90.08295287913514"
    }
  },
  {
    "service_request": "2025-1221382",
    "request_type": "Trash/Recycling",
    "request_reason": "Request a Large Item Pick Up",
    "date_created": "2025-08-25T18:45:13.000",
    "date_modified": "2025-08-25T18:45:16.000",
    "request_status": "Pending",
    "responsible_agency": "Department of Sanitation",
    "final_address": "1220 Lowerline St",
    "address_councildis": "A",
    "status": "Assigned to Contractor",
    "contractor": "IV Waste",
    "rowid": "1221382",
    "final_x": "3663778.42227",
    "final_y": "527045.734398",
    "longitude": "-90.12417802971093",
    "latitude": "29.943719066504208",
    "geocoded_column": {
      "latitude": "29.943719066504208",
      "longitude": "-90.12417802971093"
    }
  },
  {
    "service_request": "2025-1221381",
    "request_type": "Streetlights",
    "request_reason": "Streetlight Outage/Malfunction",
    "date_created": "2025-08-25T18:36:21.000",
    "date_modified": "2025-08-25T18:36:24.000",
    "request_status": "Pending",
    "responsible_agency": "Department of Public Works",
    "final_address": "6365 General Diaz St",
    "address_councildis": "A",
    "status": "Pending",
    "contractor": "Legacy Professional Services",
    "rowid": "1221381",
    "final_x": "3669829.38209",
    "final_y": "549781.679316",
    "longitude": "-90.10430352887518",
    "latitude": "30.00605828757007",
    "geocoded_column": {
      "latitude": "30.00605828757007",
      "longitude": "-90.10430352887518"
    }
  },
  {
    "service_request": "2025-1221380",
    "request_type": "Trash/Recycling",
    "request_reason": "Order Recycling Cart",
    "date_created": "2025-08-25T18:12:56.000",
    "date_modified": "2025-08-25T18:12:57.000",
    "request_status": "Pending",
    "responsible_agency": "Department of Sanitation",
    "final_address": "6238 Cameron Blvd",
    "address_councildis": "D",
    "status": "Pending",
    "rowid": "1221380",
    "final_x": "3682161.994",
    "final_y": "556175.219674",
    "longitude": "-90.06511831671804",
    "latitude": "30.02326871079854",
    "geocoded_column": {
      "latitude": "30.02326871079854",
      "longitude": "-90.06511831671804"
    }
  },
  {
    "service_request": "2025-1221379",
    "request_type": "Trash/Recycling",
    "request_reason": "Replace Trash Cart",
    "date_created": "2025-08-25T18:06:01.000",
    "date_modified": "2025-08-25T18:06:03.000",
    "request_status": "Pending",
    "responsible_agency": "Department of Sanitation",
    "final_address": "3126 Orleans Ave",
    "address_councildis": "A",
    "status": "Assigned to Contractor",
    "contractor": "IV Waste",
    "rowid": "1221379",
    "final_x": "3675085.40917",
    "final_y": "538210.031305",
    "longitude": "-90.08809574223457",
    "latitude": "29.97408421510634",
    "geocoded_column": {
      "latitude": "29.97408421510634",
      "longitude": "-90.08809574223457"
    }
  },
  {
    "service_request": "2025-1221378",
    "request_type": "Roads and Streets",
    "request_reason": "Push-up/Pavement Expansion",
    "date_created": "2025-08-25T18:05:36.000",
    "date_modified": "2025-08-25T18:05:38.000",
    "request_status": "Pending",
    "responsible_agency": "Department of Public Works",
    "final_address": "7100 General Diaz St",
    "address_councildis": "A",
    "status": "Pending",
    "rowid": "1221378",
    "final_x": "3670068.35514",
    "final_y": "554267.537304",
    "longitude": "-90.10339643311849",
    "latitude": "30.018385764567693",
    "geocoded_column": {
      "latitude": "30.018385764567693",
      "longitude": "-90.10339643311849"
    }
  },
  {
    "service_request": "2025-1221377",
    "request_type": "General Services",
    "request_reason": "General Service Request",
    "date_created": "2025-08-25T18:00:53.000",
    "date_modified": "2025-08-25T18:00:55.000",
    "request_status": "Pending",
    "responsible_agency": "Orleans Parish Communication District",
    "final_address": "3700 BLK Paris Ave",
    "address_councildis": "D",
    "status": "Pending",
    "rowid": "1221377",
    "final_x": "3679671.49725",
    "final_y": "546065.917498",
    "longitude": "-90.0733390077031",
    "latitude": "29.995547321868234",
    "geocoded_column": {
      "latitude": "29.995547321868234",
      "longitude": "-90.0733390077031"
    }
  },
  {
    "service_request": "2025-1221376",
    "request_type": "General Services",
    "request_reason": "General Service Request",
    "date_created": "2025-08-25T17:56:57.000",
    "date_modified": "2025-08-25T17:56:59.000",
    "request_status": "Pending",
    "responsible_agency": "Orleans Parish Communication District",
    "final_address": "3537 Republic St",
    "address_councildis": "D",
    "status": "Pending",
    "rowid": "1221376",
    "final_x": "3680505.59976",
    "final_y": "545487.173648",
    "longitude": "-90.07072430093648",
    "latitude": "29.993930734999136",
    "geocoded_column": {
      "latitude": "29.993930734999136",
      "longitude": "-90.07072430093648"
    }
  },
  {
    "service_request": "2025-1221375",
    "request_type": "Trash/Recycling",
    "request_reason": "Repair Recycling Cart",
    "date_created": "2025-08-25T17:54:04.000",
    "date_modified": "2025-08-25T17:54:06.000",
    "request_status": "Pending",
    "responsible_agency": "Department of Sanitation",
    "final_address": "5378 Hawthorne Pl",
    "address_councildis": "A",
    "status": "Pending",
    "rowid": "1221375",
    "final_x": "3667727.0713",
    "final_y": "543059.059021",
    "longitude": "-90.11117178760257",
    "latitude": "29.987635231952666",
    "geocoded_column": {
      "latitude": "29.987635231952666",
      "longitude": "-90.11117178760257"
    }
  },
  {
    "service_request": "2025-1221374",
    "request_type": "Trash/Recycling",
    "request_reason": "Request a Large Item Pick Up",
    "date_created": "2025-08-25T17:47:14.000",
    "date_modified": "2025-08-25T17:47:15.000",
    "request_status": "Pending",
    "responsible_agency": "Department of Sanitation",
    "final_address": "4417 Elba St A",
    "address_councildis": "B",
    "status": "Assigned to Contractor",
    "contractor": "IV Waste",
    "rowid": "1221374",
    "final_x": "3669702.08826",
    "final_y": "530480.82733",
    "longitude": "-90.10535915043391",
    "latitude": "29.952991239319147",
    "geocoded_column": {
      "latitude": "29.952991239319147",
      "longitude": "-90.10535915043391"
    }
  },
  {
    "service_request": "2025-1221373",
    "request_type": "Trash/Recycling",
    "request_reason": "Request a Large Item Pick Up",
    "date_created": "2025-08-25T17:36:00.000",
    "date_modified": "2025-08-25T17:36:02.000",
    "request_status": "Pending",
    "responsible_agency": "Department of Sanitation",
    "final_address": "10810 Kinneil Rd",
    "address_councildis": "E",
    "status": "Assigned to Contractor",
    "contractor": "Waste Pro",
    "rowid": "1221373",
    "final_x": "3711138.22667",
    "final_y": "563981.390497",
    "longitude": "-89.97326777059305",
    "latitude": "30.043818918755456",
    "geocoded_column": {
      "latitude": "30.043818918755456",
      "longitude": "-89.97326777059305"
    }
  },
  {
    "service_request": "2025-1221372",
    "request_type": "Trash/Recycling",
    "request_reason": "Replace Recycling Cart",
    "date_created": "2025-08-25T17:34:24.000",
    "date_modified": "2025-08-25T17:34:26.000",
    "request_status": "Pending",
    "responsible_agency": "Department of Sanitation",
    "final_address": "2116 Simon Bolivar Ave",
    "address_councildis": "B",
    "status": "Pending",
    "rowid": "1221372",
    "final_x": "3676473.03637",
    "final_y": "525588.697853",
    "longitude": "-90.08414785702088",
    "latitude": "29.93933824359163",
    "geocoded_column": {
      "latitude": "29.93933824359163",
      "longitude": "-90.08414785702088"
    }
  },
  {
    "service_request": "2025-1221371",
    "request_type": "Trash/Recycling",
    "request_reason": "Replace Trash Cart",
    "date_created": "2025-08-25T17:33:19.000",
    "date_modified": "2025-08-25T17:33:21.000",
    "request_status": "Pending",
    "responsible_agency": "Department of Sanitation",
    "final_address": "2116 Simon Bolivar Ave",
    "address_councildis": "B",
    "status": "Assigned to Contractor",
    "contractor": "IV Waste",
    "rowid": "1221371",
    "final_x": "3676473.03637",
    "final_y": "525588.697853",
    "longitude": "-90.08414785702088",
    "latitude": "29.93933824359163",
    "geocoded_column": {
      "latitude": "29.93933824359163",
      "longitude": "-90.08414785702088"
    }
  },
  {
    "service_request": "2025-1221370",
    "request_type": "Trash/Recycling",
    "request_reason": "Replace Recycling Cart",
    "date_created": "2025-08-25T17:32:02.000",
    "date_modified": "2025-08-25T17:32:04.000",
    "request_status": "Pending",
    "responsible_agency": "Department of Sanitation",
    "final_address": "2114 Simon Bolivar Ave",
    "address_councildis": "B",
    "status": "Pending",
    "rowid": "1221370",
    "final_x": "3676473.03758",
    "final_y": "525576.195005",
    "longitude": "-90.08414828353308",
    "latitude": "29.93930386483447",
    "geocoded_column": {
      "latitude": "29.93930386483447",
      "longitude": "-90.08414828353308"
    }
  },
  {
    "service_request": "2025-1221369",
    "request_type": "Trash/Recycling",
    "request_reason": "Replace Recycling Cart",
    "date_created": "2025-08-25T17:30:16.000",
    "date_modified": "2025-08-25T17:30:18.000",
    "request_status": "Pending",
    "responsible_agency": "Department of Sanitation",
    "final_address": "1327 Gallier St",
    "address_councildis": "C",
    "status": "Pending",
    "rowid": "1221369",
    "final_x": "3690739.28611",
    "final_y": "536591.840519",
    "longitude": "-90.03871514211163",
    "latitude": "29.969157710776702",
    "geocoded_column": {
      "latitude": "29.969157710776702",
      "longitude": "-90.03871514211163"
    }
  },
  {
    "service_request": "2025-1221368",
    "request_type": "Trash/Recycling",
    "request_reason": "Replace Trash Cart",
    "date_created": "2025-08-25T17:28:37.000",
    "date_modified": "2025-08-25T17:28:39.000",
    "request_status": "Pending",
    "responsible_agency": "Department of Sanitation",
    "final_address": "1327 Gallier St",
    "address_councildis": "C",
    "status": "Assigned to Contractor",
    "contractor": "IV Waste",
    "rowid": "1221368",
    "final_x": "3690739.28611",
    "final_y": "536591.840519",
    "longitude": "-90.03871514211163",
    "latitude": "29.969157710776702",
    "geocoded_column": {
      "latitude": "29.969157710776702",
      "longitude": "-90.03871514211163"
    }
  },
  {
    "service_request": "2025-1221367",
    "request_type": "Abandoned Vehicles",
    "request_reason": "Abandoned/Junk Vehicles",
    "date_created": "2025-08-25T17:13:46.000",
    "date_modified": "2025-08-25T17:13:48.000",
    "request_status": "Pending",
    "responsible_agency": "Department of Public Works",
    "final_address": "8441 Cohn St",
    "address_councildis": "A",
    "status": "Pending",
    "rowid": "1221367",
    "final_x": "3662631.66887",
    "final_y": "531146.618178",
    "longitude": "-90.1276624177647",
    "latitude": "29.95502840356593",
    "geocoded_column": {
      "latitude": "29.95502840356593",
      "longitude": "-90.1276624177647"
    }
  },
  {
    "service_request": "2025-1221366",
    "request_type": "Property Maintenance",
    "request_reason": "Property Maintenance",
    "date_created": "2025-08-25T17:03:53.000",
    "date_modified": "2025-08-25T17:03:55.000",
    "request_status": "Pending",
    "responsible_agency": "Department of Code Enforcement",
    "final_address": "2403 St Ann St",
    "address_councildis": "D",
    "status": "Pending",
    "rowid": "1221366",
    "final_x": "3677998.63374",
    "final_y": "536453.506759",
    "longitude": "-90.07895584070688",
    "latitude": "29.96916700016541",
    "geocoded_column": {
      "latitude": "29.96916700016541",
      "longitude": "-90.07895584070688"
    }
  },
  {
    "service_request": "2025-1221365",
    "request_type": "Trash/Recycling",
    "request_reason": "Request a Large Item Pick Up",
    "date_created": "2025-08-25T16:59:36.000",
    "date_modified": "2025-08-25T16:59:38.000",
    "request_status": "Pending",
    "responsible_agency": "Department of Sanitation",
    "final_address": "1 Warbler St",
    "address_councildis": "D",
    "status": "Assigned to Contractor",
    "contractor": "IV Waste",
    "rowid": "1221365",
    "final_x": "3672391.36846",
    "final_y": "557104.511642",
    "longitude": "-90.09595975454364",
    "latitude": "30.02611765857735",
    "geocoded_column": {
      "latitude": "30.02611765857735",
      "longitude": "-90.09595975454364"
    }
  },
  {
    "service_request": "2025-1221364",
    "request_type": "General Services",
    "request_reason": "General Service Request",
    "date_created": "2025-08-25T16:59:13.000",
    "date_modified": "2025-08-25T16:59:14.000",
    "request_status": "Pending",
    "responsible_agency": "Orleans Parish Communication District",
    "final_address": "3003 S Carrollton Ave",
    "address_councildis": "B",
    "status": "Pending",
    "rowid": "1221364",
    "final_x": "3666457.89076",
    "final_y": "533070.85402",
    "longitude": "-90.11551602068805",
    "latitude": "29.960208165382127",
    "geocoded_column": {
      "latitude": "29.960208165382127",
      "longitude": "-90.11551602068805"
    }
  },
  {
    "service_request": "2025-1221363",
    "request_type": "Trash/Recycling",
    "request_reason": "Repair Trash Cart",
    "date_created": "2025-08-25T16:56:59.000",
    "date_modified": "2025-08-25T16:57:01.000",
    "request_status": "Pending",
    "responsible_agency": "Department of Sanitation",
    "final_address": "4014 Franklin Ave",
    "address_councildis": "D",
    "status": "Assigned to Contractor",
    "contractor": "IV Waste",
    "rowid": "1221363",
    "final_x": "3686960.18588",
    "final_y": "547610.296594",
    "longitude": "-90.05026013936559",
    "latitude": "29.999571414909248",
    "geocoded_column": {
      "latitude": "29.999571414909248",
      "longitude": "-90.05026013936559"
    }
  },
  {
    "service_request": "2025-1221362",
    "request_type": "Trash/Recycling",
    "request_reason": "Request a Large Item Pick Up",
    "date_created": "2025-08-25T16:55:45.000",
    "date_modified": "2025-08-25T16:55:47.000",
    "request_status": "Pending",
    "responsible_agency": "Department of Sanitation",
    "final_address": "620 Opelousas Ave",
    "address_councildis": "C",
    "status": "Assigned to Contractor",
    "contractor": "Richards Disposal",
    "rowid": "1221362",
    "final_x": "3687434.51382",
    "final_y": "529211.46336",
    "longitude": "-90.04941299029124",
    "latitude": "29.948966478114226",
    "geocoded_column": {
      "latitude": "29.948966478114226",
      "longitude": "-90.04941299029124"
    }
  },
  {
    "service_request": "2025-1221361",
    "request_type": "Roads and Streets",
    "request_reason": "Street Subsidence (Sinking)",
    "date_created": "2025-08-25T16:54:38.000",
    "date_modified": "2025-08-25T16:54:43.000",
    "request_status": "Pending",
    "responsible_agency": "Sewerage & Water Board",
    "final_address": "8400 Morrison Rd",
    "address_councildis": "E",
    "status": "Pending",
    "rowid": "1221361",
    "final_x": "3703975.33988",
    "final_y": "560798.307998",
    "longitude": "-89.9960228576583",
    "latitude": "30.03529852344912",
    "geocoded_column": {
      "latitude": "30.03529852344912",
      "longitude": "-89.9960228576583"
    }
  },
  {
    "service_request": "2025-1221360",
    "request_type": "Trash/Recycling",
    "request_reason": "Request a Large Item Pick Up",
    "date_created": "2025-08-25T16:53:37.000",
    "date_modified": "2025-08-25T16:53:39.000",
    "request_status": "Pending",
    "responsible_agency": "Department of Sanitation",
    "final_address": "6589 Wuerpel St",
    "address_councildis": "A",
    "status": "Assigned to Contractor",
    "contractor": "IV Waste",
    "rowid": "1221360",
    "final_x": "3667153.96263",
    "final_y": "551601.717781",
    "longitude": "-90.11269460001377",
    "latitude": "30.01114139254841",
    "geocoded_column": {
      "latitude": "30.01114139254841",
      "longitude": "-90.11269460001377"
    }
  },
  {
    "service_request": "2025-1221359",
    "request_type": "Trash/Recycling",
    "request_reason": "Request a Large Item Pick Up",
    "date_created": "2025-08-25T16:50:05.000",
    "date_modified": "2025-08-25T16:50:15.000",
    "request_status": "Pending",
    "responsible_agency": "Department of Sanitation",
    "final_address": "135 S St Patrick St",
    "address_councildis": "A",
    "status": "Assigned to Contractor",
    "contractor": "IV Waste",
    "rowid": "1221359",
    "final_x": "3668875.71975",
    "final_y": "539599.713162",
    "longitude": "-90.10766047163138",
    "latitude": "29.978089467652417",
    "geocoded_column": {
      "latitude": "29.978089467652417",
      "longitude": "-90.10766047163138"
    }
  },
  {
    "service_request": "2025-1221358",
    "request_type": "Street and Traffic Signs",
    "request_reason": "One Way Sign Missing or Damaged",
    "date_created": "2025-08-25T16:47:32.000",
    "date_modified": "2025-08-25T16:47:34.000",
    "request_status": "Pending",
    "responsible_agency": "Department of Public Works",
    "final_address": "VERRET ST & DIANA ST",
    "address_councildis": "C",
    "status": "Pending",
    "rowid": "1221358",
    "final_x": "3687266.8",
    "final_y": "527581.18",
    "longitude": "-90.05000018590201",
    "latitude": "29.944488920389773",
    "geocoded_column": {
      "latitude": "29.944488920389773",
      "longitude": "-90.05000018590201"
    }
  },
  {
    "service_request": "2025-1221357",
    "request_type": "Street and Traffic Signs",
    "request_reason": "Stop Sign Missing or Damaged",
    "date_created": "2025-08-25T16:46:58.000",
    "date_modified": "2025-08-25T16:47:00.000",
    "request_status": "Pending",
    "responsible_agency": "Department of Public Works",
    "final_address": "VERRET ST & DIANA ST",
    "address_councildis": "C",
    "status": "Pending",
    "rowid": "1221357",
    "final_x": "3687266.8",
    "final_y": "527581.18",
    "longitude": "-90.05000018590201",
    "latitude": "29.944488920389773",
    "geocoded_column": {
      "latitude": "29.944488920389773",
      "longitude": "-90.05000018590201"
    }
  },
  {
    "service_request": "2025-1221356",
    "request_type": "Trash/Recycling",
    "request_reason": "Request a Large Item Pick Up",
    "date_created": "2025-08-25T16:43:36.000",
    "date_modified": "2025-08-25T16:43:38.000",
    "request_status": "Pending",
    "responsible_agency": "Department of Sanitation",
    "final_address": "4301 Macarthur Blvd",
    "address_councildis": "C",
    "status": "Assigned to Contractor",
    "contractor": "Richards Disposal",
    "rowid": "1221356",
    "final_x": "3699759.81642",
    "final_y": "520296.22732",
    "longitude": "-90.01082180915984",
    "latitude": "29.924067178417154",
    "geocoded_column": {
      "latitude": "29.924067178417154",
      "longitude": "-90.01082180915984"
    }
  },
  {
    "service_request": "2025-1221355",
    "request_type": "Trash/Recycling",
    "request_reason": "Request a Large Item Pick Up",
    "date_created": "2025-08-25T16:37:15.000",
    "date_modified": "2025-08-25T16:37:17.000",
    "request_status": "Pending",
    "responsible_agency": "Department of Sanitation",
    "final_address": "1625 Annette St",
    "address_councildis": "D",
    "status": "Assigned to Contractor",
    "contractor": "IV Waste",
    "rowid": "1221355",
    "final_x": "3683069.80015",
    "final_y": "538238.144777",
    "longitude": "-90.06287825867639",
    "latitude": "29.973920513869214",
    "geocoded_column": {
      "latitude": "29.973920513869214",
      "longitude": "-90.06287825867639"
    }
  },
  {
    "service_request": "2025-1221354",
    "request_type": "Roads and Streets",
    "request_reason": "Sidewalk Damaged or Missing",
    "date_created": "2025-08-25T16:34:20.000",
    "date_modified": "2025-08-25T16:36:34.000",
    "request_status": "Pending",
    "responsible_agency": "Department of Public Works",
    "final_address": "New Orleans,LA",
    "address_councildis": "A",
    "status": "Pending",
    "rowid": "1221354",
    "final_x": "3665015.65242",
    "final_y": "522892.342139",
    "longitude": "-90.1204105578782",
    "latitude": "29.932262605146033",
    "geocoded_column": {
      "latitude": "29.932262605146033",
      "longitude": "-90.1204105578782"
    }
  },
  {
    "service_request": "2025-1221353",
    "request_type": "Abandoned Vehicles",
    "request_reason": "Abandoned/Junk Vehicles",
    "date_created": "2025-08-25T16:24:36.000",
    "date_modified": "2025-08-25T16:24:38.000",
    "request_status": "Pending",
    "responsible_agency": "Department of Public Works",
    "final_address": "4400 Majestic Oaks Dr",
    "address_councildis": "D",
    "status": "Pending",
    "rowid": "1221353",
    "final_x": "3697817.38346",
    "final_y": "552420.393302",
    "longitude": "-90.01578734614166",
    "latitude": "30.01245862857609",
    "geocoded_column": {
      "latitude": "30.01245862857609",
      "longitude": "-90.01578734614166"
    }
  },
  {
    "service_request": "2025-1221352",
    "request_type": "Trash/Recycling",
    "request_reason": "Repair Trash Cart",
    "date_created": "2025-08-25T16:22:04.000",
    "date_modified": "2025-08-25T16:22:06.000",
    "request_status": "Pending",
    "responsible_agency": "Department of Sanitation",
    "final_address": "3100 Eton St",
    "address_councildis": "C",
    "status": "Assigned to Contractor",
    "contractor": "Richards Disposal",
    "rowid": "1221352",
    "final_x": "3703985.75818",
    "final_y": "519504.923127",
    "longitude": "-89.99751123100454",
    "latitude": "29.921756574035864",
    "geocoded_column": {
      "latitude": "29.921756574035864",
      "longitude": "-89.99751123100454"
    }
  },
  {
    "service_request": "2025-1221351",
    "request_type": "Trash/Recycling",
    "request_reason": "Missed Trash Pick-Up",
    "date_created": "2025-08-25T16:20:07.000",
    "date_modified": "2025-08-25T19:11:42.000",
    "case_close_date": "2025-08-25T14:11:40.000",
    "request_status": "Closed",
    "responsible_agency": "Department of Sanitation",
    "final_address": "858 Hidalgo St",
    "address_councildis": "A",
    "status": "Invalid Request",
    "contractor": "IV Waste",
    "contractor_action": "Invalid Request",
    "rowid": "1221351",
    "final_x": "3669191.88871",
    "final_y": "543989.33531",
    "longitude": "-90.10651345683146",
    "latitude": "29.990150131936698",
    "geocoded_column": {
      "latitude": "29.990150131936698",
      "longitude": "-90.10651345683146"
    }
  },
  {
    "service_request": "2025-1221350",
    "request_type": "Abandoned Vehicles",
    "request_reason": "Abandoned/Junk Vehicles",
    "date_created": "2025-08-25T16:20:07.000",
    "date_modified": "2025-08-25T16:20:08.000",
    "request_status": "Pending",
    "responsible_agency": "Department of Public Works",
    "final_address": "4405 Majestic Oaks Dr",
    "address_councildis": "D",
    "status": "Pending",
    "rowid": "1221350",
    "final_x": "3698008.89309",
    "final_y": "552486.121494",
    "longitude": "-90.01517989692151",
    "latitude": "30.012633300068625",
    "geocoded_column": {
      "latitude": "30.012633300068625",
      "longitude": "-90.01517989692151"
    }
  },
  {
    "service_request": "2025-1221349",
    "request_type": "Trash/Recycling",
    "request_reason": "Request a Large Item Pick Up",
    "date_created": "2025-08-25T16:18:57.000",
    "date_modified": "2025-08-25T16:18:58.000",
    "request_status": "Pending",
    "responsible_agency": "Department of Sanitation",
    "final_address": "3118 Annette St",
    "address_councildis": "D",
    "status": "Assigned to Contractor",
    "contractor": "IV Waste",
    "rowid": "1221349",
    "final_x": "3682479.88584",
    "final_y": "544029.392782",
    "longitude": "-90.06453881117886",
    "latitude": "29.98986238854112",
    "geocoded_column": {
      "latitude": "29.98986238854112",
      "longitude": "-90.06453881117886"
    }
  },
  {
    "service_request": "2025-1221348",
    "request_type": "Trash/Recycling",
    "request_reason": "Request a Large Item Pick Up",
    "date_created": "2025-08-25T16:17:16.000",
    "date_modified": "2025-08-25T16:17:18.000",
    "request_status": "Pending",
    "responsible_agency": "Department of Sanitation",
    "final_address": "7162 Salem Dr",
    "address_councildis": "E",
    "status": "Assigned to Contractor",
    "contractor": "Waste Pro",
    "rowid": "1221348",
    "final_x": "3706310.98775",
    "final_y": "561400.684638",
    "longitude": "-89.98861954309818",
    "latitude": "30.03687966204513",
    "geocoded_column": {
      "latitude": "30.03687966204513",
      "longitude": "-89.98861954309818"
    }
  },
  {
    "service_request": "2025-1221347",
    "request_type": "Trash/Recycling",
    "request_reason": "Repair Trash Cart",
    "date_created": "2025-08-25T16:10:36.000",
    "date_modified": "2025-08-25T16:10:39.000",
    "request_status": "Pending",
    "responsible_agency": "Department of Sanitation",
    "final_address": "722 Fourth St",
    "address_councildis": "B",
    "status": "Assigned to Contractor",
    "contractor": "IV Waste",
    "rowid": "1221347",
    "final_x": "3678002.08718",
    "final_y": "519895.576888",
    "longitude": "-90.07951712141225",
    "latitude": "29.923638099384732",
    "geocoded_column": {
      "latitude": "29.923638099384732",
      "longitude": "-90.07951712141225"
    }
  },
  {
    "service_request": "2025-1221346",
    "request_type": "Streetlights",
    "request_reason": "Streetlight Outage/Malfunction",
    "date_created": "2025-08-25T16:09:15.000",
    "date_modified": "2025-08-25T16:09:16.000",
    "request_status": "Pending",
    "responsible_agency": "Department of Public Works",
    "final_address": "940 Taft Pl",
    "address_councildis": "A",
    "status": "Pending",
    "contractor": "Legacy Professional Services",
    "rowid": "1221346",
    "final_x": "3673917.80404",
    "final_y": "540379.195659",
    "longitude": "-90.09170907759717",
    "latitude": "29.980083515272582",
    "geocoded_column": {
      "latitude": "29.980083515272582",
      "longitude": "-90.09170907759717"
    }
  },
  {
    "service_request": "2025-1221345",
    "request_type": "Trash/Recycling",
    "request_reason": "Request a Large Item Pick Up",
    "date_created": "2025-08-25T16:09:05.000",
    "date_modified": "2025-08-25T16:09:07.000",
    "request_status": "Pending",
    "responsible_agency": "Department of Sanitation",
    "final_address": "11131 Ivy Ln",
    "address_councildis": "E",
    "status": "Assigned to Contractor",
    "contractor": "Waste Pro",
    "rowid": "1221345",
    "final_x": "3716083.64408",
    "final_y": "559984.394717",
    "longitude": "-89.95778991815816",
    "latitude": "30.032666464612525",
    "geocoded_column": {
      "latitude": "30.032666464612525",
      "longitude": "-89.95778991815816"
    }
  },
  {
    "service_request": "2025-1221344",
    "request_type": "Parks & Parkways",
    "request_reason": "Request Tree Service (Right of Way/Public Property)",
    "date_created": "2025-08-25T16:07:27.000",
    "date_modified": "2025-08-25T16:07:29.000",
    "request_status": "Pending",
    "responsible_agency": "Department of Parks & Parkway",
    "final_address": "3368 Esplanade Ave",
    "address_councildis": "A",
    "status": "Pending",
    "rowid": "1221344",
    "final_x": "3675552.58568",
    "final_y": "540901.820107",
    "longitude": "-90.08652778688347",
    "latitude": "29.981471742994145",
    "geocoded_column": {
      "latitude": "29.981471742994145",
      "longitude": "-90.08652778688347"
    }
  },
  {
    "service_request": "2025-1221343",
    "request_type": "Parks & Parkways",
    "request_reason": "Request Tree Service (Right of Way/Public Property)",
    "date_created": "2025-08-25T16:06:55.000",
    "date_modified": "2025-08-25T16:06:57.000",
    "request_status": "Pending",
    "responsible_agency": "Department of Parks & Parkway",
    "final_address": "566 Emerald St",
    "address_councildis": "D",
    "status": "Pending",
    "rowid": "1221343",
    "final_x": "3668670.38382",
    "final_y": "555083.274329",
    "longitude": "-90.10778595342697",
    "latitude": "30.02066993822661",
    "geocoded_column": {
      "latitude": "30.02066993822661",
      "longitude": "-90.10778595342697"
    }
  },
  {
    "service_request": "2025-1221342",
    "request_type": "Abandoned Vehicles",
    "request_reason": "Abandoned/Junk Vehicles",
    "date_created": "2025-08-25T16:03:22.000",
    "date_modified": "2025-08-25T16:03:28.000",
    "request_status": "Pending",
    "responsible_agency": "Department of Public Works",
    "final_address": "GRANT ST & PERRAULT WALK",
    "address_councildis": "E",
    "status": "Pending",
    "rowid": "1221342",
    "final_x": "3710005.2",
    "final_y": "554854.88",
    "longitude": "-89.97718997066148",
    "latitude": "30.018761552450034",
    "geocoded_column": {
      "latitude": "30.018761552450034",
      "longitude": "-89.97718997066148"
    }
  },
  {
    "service_request": "2025-1221341",
    "request_type": "Abandoned Vehicles",
    "request_reason": "Abandoned/Junk Vehicles",
    "date_created": "2025-08-25T16:01:08.000",
    "date_modified": "2025-08-25T16:01:11.000",
    "request_status": "Pending",
    "responsible_agency": "Department of Public Works",
    "final_address": "4700 Marque Dr",
    "address_councildis": "E",
    "status": "Pending",
    "rowid": "1221341",
    "final_x": "3710054.9539",
    "final_y": "555422.667737",
    "longitude": "-89.97701153218898",
    "latitude": "30.020321127989146",
    "geocoded_column": {
      "latitude": "30.020321127989146",
      "longitude": "-89.97701153218898"
    }
  },
  {
    "service_request": "2025-1221340",
    "request_type": "Trash/Recycling",
    "request_reason": "Replace Trash Cart",
    "date_created": "2025-08-25T16:00:04.000",
    "date_modified": "2025-08-25T16:00:06.000",
    "request_status": "Pending",
    "responsible_agency": "Department of Sanitation",
    "final_address": "2106 Dumaine St",
    "address_councildis": "D",
    "status": "Assigned to Contractor",
    "contractor": "IV Waste",
    "rowid": "1221340",
    "final_x": "3678977.43099",
    "final_y": "536079.362183",
    "longitude": "-90.07587769449385",
    "latitude": "29.968108731367728",
    "geocoded_column": {
      "latitude": "29.968108731367728",
      "longitude": "-90.07587769449385"
    }
  },
  {
    "service_request": "2025-1221339",
    "request_type": "Trash/Recycling",
    "request_reason": "Request a Large Item Pick Up",
    "date_created": "2025-08-25T15:56:49.000",
    "date_modified": "2025-08-25T15:56:51.000",
    "request_status": "Pending",
    "responsible_agency": "Department of Sanitation",
    "final_address": "3801 S Robertson St",
    "address_councildis": "B",
    "status": "Assigned to Contractor",
    "contractor": "IV Waste",
    "rowid": "1221339",
    "final_x": "3672210.0811",
    "final_y": "524644.717756",
    "longitude": "-90.09763872368487",
    "latitude": "29.936869705810558",
    "geocoded_column": {
      "latitude": "29.936869705810558",
      "longitude": "-90.09763872368487"
    }
  },
  {
    "service_request": "2025-1221338",
    "request_type": "Property Maintenance",
    "request_reason": "Property Maintenance",
    "date_created": "2025-08-25T15:55:02.000",
    "date_modified": "2025-08-25T15:55:05.000",
    "request_status": "Pending",
    "responsible_agency": "Department of Code Enforcement",
    "final_address": "1601 Deslonde St",
    "address_councildis": "E",
    "status": "Pending",
    "rowid": "1221338",
    "final_x": "3695952.45302",
    "final_y": "536299.501575",
    "longitude": "-90.02226223307687",
    "latitude": "29.968190897065245",
    "geocoded_column": {
      "latitude": "29.968190897065245",
      "longitude": "-90.02226223307687"
    }
  },
  {
    "service_request": "2025-1221337",
    "request_type": "Trash/Recycling",
    "request_reason": "Replace Trash Cart",
    "date_created": "2025-08-25T15:50:06.000",
    "date_modified": "2025-08-25T15:50:08.000",
    "request_status": "Pending",
    "responsible_agency": "Department of Sanitation",
    "final_address": "359 Broadway St",
    "address_councildis": "A",
    "status": "Assigned to Contractor",
    "contractor": "IV Waste",
    "rowid": "1221337",
    "final_x": "3661870.22867",
    "final_y": "522980.557563",
    "longitude": "-90.13033748883532",
    "latitude": "29.932596347443877",
    "geocoded_column": {
      "latitude": "29.932596347443877",
      "longitude": "-90.13033748883532"
    }
  },
  {
    "service_request": "2025-1221336",
    "request_type": "Trash/Recycling",
    "request_reason": "Repair Trash Cart",
    "date_created": "2025-08-25T15:49:18.000",
    "date_modified": "2025-08-25T15:49:20.000",
    "request_status": "Pending",
    "responsible_agency": "Department of Sanitation",
    "final_address": "4501 S Prieur St",
    "address_councildis": "B",
    "status": "Assigned to Contractor",
    "contractor": "IV Waste",
    "rowid": "1221336",
    "final_x": "3669802.85236",
    "final_y": "526884.868798",
    "longitude": "-90.10516268379413",
    "latitude": "29.94310055816512",
    "geocoded_column": {
      "latitude": "29.94310055816512",
      "longitude": "-90.10516268379413"
    }
  },
  {
    "service_request": "2025-1221335",
    "request_type": "Trash/Recycling",
    "request_reason": "Request a Large Item Pick Up",
    "date_created": "2025-08-25T15:49:15.000",
    "date_modified": "2025-08-25T15:49:17.000",
    "request_status": "Pending",
    "responsible_agency": "Department of Sanitation",
    "final_address": "708 Louisa St",
    "address_councildis": "C",
    "status": "Assigned to Contractor",
    "contractor": "IV Waste",
    "rowid": "1221335",
    "final_x": "3689163.96611",
    "final_y": "534468.660485",
    "longitude": "-90.04376556335832",
    "latitude": "29.963368554273792",
    "geocoded_column": {
      "latitude": "29.963368554273792",
      "longitude": "-90.04376556335832"
    }
  },
  {
    "service_request": "2025-1221334",
    "request_type": "Healthy Homes",
    "request_reason": "Healthy Homes",
    "date_created": "2025-08-25T15:49:03.000",
    "date_modified": "2025-08-25T15:58:18.000",
    "request_status": "Pending",
    "responsible_agency": "Department of Code Enforcement",
    "final_address": "624 Broadway St",
    "address_councildis": "A",
    "status": "Pending",
    "rowid": "1221334",
    "final_x": "3663050.40602",
    "final_y": "524925.380284",
    "longitude": "-90.1265470887364",
    "latitude": "29.93790987206495",
    "geocoded_column": {
      "latitude": "29.93790987206495",
      "longitude": "-90.1265470887364"
    }
  },
  {
    "service_request": "2025-1221333",
    "request_type": "Trash/Recycling",
    "request_reason": "Illegal Dumping",
    "date_created": "2025-08-25T15:48:02.000",
    "date_modified": "2025-08-25T15:48:04.000",
    "request_status": "Pending",
    "responsible_agency": "Department of Sanitation",
    "final_address": "8912 Bunker Hill Rd",
    "address_councildis": "E",
    "status": "Pending",
    "rowid": "1221333",
    "final_x": "3706565.02897",
    "final_y": "560008.844445",
    "longitude": "-89.98786837254939",
    "latitude": "30.03304444972771",
    "geocoded_column": {
      "latitude": "30.03304444972771",
      "longitude": "-89.98786837254939"
    }
  },
  {
    "service_request": "2025-1221332",
    "request_type": "Trash/Recycling",
    "request_reason": "Request a Large Item Pick Up",
    "date_created": "2025-08-25T15:47:21.000",
    "date_modified": "2025-08-25T15:47:23.000",
    "request_status": "Pending",
    "responsible_agency": "Department of Sanitation",
    "final_address": "1539 Leda St",
    "address_councildis": "A",
    "status": "Assigned to Contractor",
    "contractor": "IV Waste",
    "rowid": "1221332",
    "final_x": "3675692.67489",
    "final_y": "541808.949068",
    "longitude": "-90.08605413219205",
    "latitude": "29.983961842553548",
    "geocoded_column": {
      "latitude": "29.983961842553548",
      "longitude": "-90.08605413219205"
    }
  },
  {
    "service_request": "2025-1221331",
    "request_type": "Trash/Recycling",
    "request_reason": "Request a Large Item Pick Up",
    "date_created": "2025-08-25T15:44:03.000",
    "date_modified": "2025-08-25T15:44:04.000",
    "request_status": "Pending",
    "responsible_agency": "Department of Sanitation",
    "final_address": "10900 Roger Dr Apt C",
    "address_councildis": "E",
    "status": "Assigned to Contractor",
    "contractor": "Waste Pro",
    "rowid": "1221331",
    "final_x": "3711960.91794",
    "final_y": "563182.783456",
    "longitude": "-89.97069774822442",
    "latitude": "30.041596194904827",
    "geocoded_column": {
      "latitude": "30.041596194904827",
      "longitude": "-89.97069774822442"
    }
  },
  {
    "service_request": "2025-1221330",
    "request_type": "Parks & Parkways",
    "request_reason": "Request Tree Service (Right of Way/Public Property)",
    "date_created": "2025-08-25T15:42:03.000",
    "date_modified": "2025-08-25T15:42:05.000",
    "request_status": "Pending",
    "responsible_agency": "Department of Parks & Parkway",
    "final_address": "800 Henry Clay Ave",
    "address_councildis": "A",
    "status": "Pending",
    "rowid": "1221330",
    "final_x": "3663749.60346",
    "final_y": "519634.10796",
    "longitude": "-90.12451588528414",
    "latitude": "29.923340274741783",
    "geocoded_column": {
      "latitude": "29.923340274741783",
      "longitude": "-90.12451588528414"
    }
  },
  {
    "service_request": "2025-1221329",
    "request_type": "Trash/Recycling",
    "request_reason": "Dead Animal Pick Up",
    "date_created": "2025-08-25T15:39:52.000",
    "date_modified": "2025-08-25T15:39:54.000",
    "request_status": "Pending",
    "responsible_agency": "Department of Sanitation",
    "final_address": "530 Soniat St",
    "address_councildis": "B",
    "status": "Assigned to Contractor",
    "contractor": "IV Waste",
    "rowid": "1221329",
    "final_x": "3668260.27156",
    "final_y": "517474.810294",
    "longitude": "-90.11035011074858",
    "latitude": "29.9172712705173",
    "geocoded_column": {
      "latitude": "29.9172712705173",
      "longitude": "-90.11035011074858"
    }
  },
  {
    "service_request": "2025-1221328",
    "request_type": "Trash/Recycling",
    "request_reason": "Request a Large Item Pick Up",
    "date_created": "2025-08-25T15:39:34.000",
    "date_modified": "2025-08-25T15:39:36.000",
    "request_status": "Pending",
    "responsible_agency": "Department of Sanitation",
    "final_address": "2741 Gladiolus St",
    "address_councildis": "D",
    "status": "Assigned to Contractor",
    "contractor": "IV Waste",
    "rowid": "1221328",
    "final_x": "3688099.48335",
    "final_y": "547624.494034",
    "longitude": "-90.04666056481362",
    "latitude": "29.999575325051698",
    "geocoded_column": {
      "latitude": "29.999575325051698",
      "longitude": "-90.04666056481362"
    }
  },
  {
    "service_request": "2025-1221327",
    "request_type": "Trash/Recycling",
    "request_reason": "Request a Large Item Pick Up",
    "date_created": "2025-08-25T15:36:48.000",
    "date_modified": "2025-08-25T15:36:50.000",
    "request_status": "Pending",
    "responsible_agency": "Department of Sanitation",
    "final_address": "4517 Palmyra St",
    "address_councildis": "A",
    "status": "Assigned to Contractor",
    "contractor": "IV Waste",
    "rowid": "1221327",
    "final_x": "3669121.34625",
    "final_y": "538894.242698",
    "longitude": "-90.10690854189328",
    "latitude": "29.976142435148624",
    "geocoded_column": {
      "latitude": "29.976142435148624",
      "longitude": "-90.10690854189328"
    }
  },
  {
    "service_request": "2025-1221326",
    "request_type": "Trash/Recycling",
    "request_reason": "Order Recycling Cart",
    "date_created": "2025-08-25T15:35:49.000",
    "date_modified": "2025-08-25T15:35:52.000",
    "request_status": "Pending",
    "responsible_agency": "Department of Sanitation",
    "final_address": "5113 Clara St",
    "address_councildis": "B",
    "status": "Pending",
    "rowid": "1221326",
    "final_x": "3668415.42343",
    "final_y": "524948.320189",
    "longitude": "-90.10960845239097",
    "latitude": "29.937816492235363",
    "geocoded_column": {
      "latitude": "29.937816492235363",
      "longitude": "-90.10960845239097"
    }
  },
  {
    "service_request": "2025-1221325",
    "request_type": "Safety & Permits",
    "request_reason": "Zoning Enforcement",
    "date_created": "2025-08-25T15:34:49.000",
    "date_modified": "2025-08-25T15:40:22.000",
    "request_status": "Pending",
    "responsible_agency": "Safety and Permits",
    "final_address": "901 Flanders St",
    "address_councildis": "C",
    "status": "Pending",
    "rowid": "1221325",
    "final_x": "3696728.40227",
    "final_y": "528074.098495",
    "longitude": "-90.02010947312242",
    "latitude": "29.94554950356023",
    "geocoded_column": {
      "latitude": "29.94554950356023",
      "longitude": "-90.02010947312242"
    }
  },
  {
    "service_request": "2025-1221324",
    "request_type": "Trash/Recycling",
    "request_reason": "Order Trash Cart",
    "date_created": "2025-08-25T15:34:33.000",
    "date_modified": "2025-08-25T15:34:34.000",
    "request_status": "Pending",
    "responsible_agency": "Department of Sanitation",
    "final_address": "5113 Clara St",
    "address_councildis": "B",
    "status": "Assigned to Contractor",
    "contractor": "IV Waste",
    "rowid": "1221324",
    "final_x": "3668415.42343",
    "final_y": "524948.320189",
    "longitude": "-90.10960845239097",
    "latitude": "29.937816492235363",
    "geocoded_column": {
      "latitude": "29.937816492235363",
      "longitude": "-90.10960845239097"
    }
  },
  {
    "service_request": "2025-1221323",
    "request_type": "Streetlights",
    "request_reason": "Streetlight Outage/Malfunction",
    "date_created": "2025-08-25T15:33:25.000",
    "date_modified": "2025-08-25T15:33:28.000",
    "request_status": "Pending",
    "responsible_agency": "Department of Public Works",
    "final_address": "3412 Treasure St",
    "address_councildis": "D",
    "status": "Pending",
    "contractor": "Legacy Professional Services",
    "rowid": "1221323",
    "final_x": "3692247.04233",
    "final_y": "543512.035982",
    "longitude": "-90.0337056821774",
    "latitude": "29.988138848505116",
    "geocoded_column": {
      "latitude": "29.988138848505116",
      "longitude": "-90.0337056821774"
    }
  },
  {
    "service_request": "2025-1221322",
    "request_type": "Trash/Recycling",
    "request_reason": "Request a Large Item Pick Up",
    "date_created": "2025-08-25T15:32:10.000",
    "date_modified": "2025-08-25T15:32:12.000",
    "request_status": "Pending",
    "responsible_agency": "Department of Sanitation",
    "final_address": "5829 Elysian Fields Ave",
    "address_councildis": "D",
    "status": "Assigned to Contractor",
    "contractor": "IV Waste",
    "rowid": "1221322",
    "final_x": "3683694.57749",
    "final_y": "554556.255192",
    "longitude": "-90.06033252062421",
    "latitude": "30.018770423943142",
    "geocoded_column": {
      "latitude": "30.018770423943142",
      "longitude": "-90.06033252062421"
    }
  },
  {
    "service_request": "2025-1221321",
    "request_type": "Trash/Recycling",
    "request_reason": "Repair Trash Cart",
    "date_created": "2025-08-25T15:31:07.000",
    "date_modified": "2025-08-25T15:31:08.000",
    "request_status": "Pending",
    "responsible_agency": "Department of Sanitation",
    "final_address": "5901 Alfred St",
    "address_councildis": "D",
    "status": "Assigned to Contractor",
    "contractor": "IV Waste",
    "rowid": "1221321",
    "final_x": "3677269.94626",
    "final_y": "553981.2182",
    "longitude": "-90.08065193868211",
    "latitude": "30.01738397344859",
    "geocoded_column": {
      "latitude": "30.01738397344859",
      "longitude": "-90.08065193868211"
    }
  },
  {
    "service_request": "2025-1221320",
    "request_type": "Trash/Recycling",
    "request_reason": "Request a Large Item Pick Up",
    "date_created": "2025-08-25T15:30:12.000",
    "date_modified": "2025-08-25T15:30:15.000",
    "request_status": "Pending",
    "responsible_agency": "Department of Sanitation",
    "final_address": "2490 Dreux Ave",
    "address_councildis": "D",
    "status": "Assigned to Contractor",
    "contractor": "IV Waste",
    "rowid": "1221320",
    "final_x": "3686028.01974",
    "final_y": "552102.750422",
    "longitude": "-90.05304630878273",
    "latitude": "30.01195269918108",
    "geocoded_column": {
      "latitude": "30.01195269918108",
      "longitude": "-90.05304630878273"
    }
  },
  {
    "service_request": "2025-1221319",
    "request_type": "General Services",
    "request_reason": "General Service Request",
    "date_created": "2025-08-25T15:29:03.000",
    "date_modified": "2025-08-25T15:34:19.000",
    "case_close_date": "2025-08-25T10:34:18.000",
    "request_status": "Closed",
    "responsible_agency": "Orleans Parish Communication District",
    "final_address": "833 Poydras St",
    "address_councildis": "B",
    "status": "Question Answered.",
    "rowid": "1221319",
    "final_x": "3680011.55458",
    "final_y": "529610.537345",
    "longitude": "-90.07283662222024",
    "latitude": "29.950290412537097",
    "geocoded_column": {
      "latitude": "29.950290412537097",
      "longitude": "-90.07283662222024"
    }
  },
  {
    "service_request": "2025-1221318",
    "request_type": "Roads and Streets",
    "request_reason": "Abandoned Service Cut",
    "date_created": "2025-08-25T15:27:07.000",
    "date_modified": "2025-08-25T15:29:02.000",
    "request_status": "Pending",
    "responsible_agency": "Department of Public Works",
    "final_address": "2490 Dreux Ave",
    "address_councildis": "D",
    "status": "Pending",
    "rowid": "1221318",
    "final_x": "3686028.01974",
    "final_y": "552102.750422",
    "longitude": "-90.05304630878273",
    "latitude": "30.01195269918108",
    "geocoded_column": {
      "latitude": "30.01195269918108",
      "longitude": "-90.05304630878273"
    }
  },
  {
    "service_request": "2025-1221317",
    "request_type": "Trash/Recycling",
    "request_reason": "Repair Recycling Cart",
    "date_created": "2025-08-25T15:26:45.000",
    "date_modified": "2025-08-25T15:26:48.000",
    "request_status": "Pending",
    "responsible_agency": "Department of Sanitation",
    "final_address": "1907 Palmer Ave",
    "address_councildis": "A",
    "status": "Pending",
    "rowid": "1221317",
    "final_x": "3665781.5049",
    "final_y": "524000.40934",
    "longitude": "-90.11795572121702",
    "latitude": "29.935287123991213",
    "geocoded_column": {
      "latitude": "29.935287123991213",
      "longitude": "-90.11795572121702"
    }
  },
  {
    "service_request": "2025-1221316",
    "request_type": "Trash/Recycling",
    "request_reason": "Request a Large Item Pick Up",
    "date_created": "2025-08-25T15:23:16.000",
    "date_modified": "2025-08-25T15:23:17.000",
    "request_status": "Pending",
    "responsible_agency": "Department of Sanitation",
    "final_address": "1 Warbler St",
    "address_councildis": "D",
    "status": "Assigned to Contractor",
    "contractor": "IV Waste",
    "rowid": "1221316",
    "final_x": "3672391.36846",
    "final_y": "557104.511642",
    "longitude": "-90.09595975454364",
    "latitude": "30.02611765857735",
    "geocoded_column": {
      "latitude": "30.02611765857735",
      "longitude": "-90.09595975454364"
    }
  },
  {
    "service_request": "2025-1221315",
    "request_type": "Trash/Recycling",
    "request_reason": "Request a Large Item Pick Up",
    "date_created": "2025-08-25T15:20:36.000",
    "date_modified": "2025-08-25T15:20:37.000",
    "request_status": "Pending",
    "responsible_agency": "Department of Sanitation",
    "final_address": "2530 Burgundy St",
    "address_councildis": "C",
    "status": "Assigned to Contractor",
    "contractor": "IV Waste",
    "rowid": "1221315",
    "final_x": "3686816.98095",
    "final_y": "535686.901319",
    "longitude": "-90.05113401597889",
    "latitude": "29.966790713589614",
    "geocoded_column": {
      "latitude": "29.966790713589614",
      "longitude": "-90.05113401597889"
    }
  },
  {
    "service_request": "2025-1221314",
    "request_type": "Property Maintenance",
    "request_reason": "Property Maintenance",
    "date_created": "2025-08-25T15:20:29.000",
    "date_modified": "2025-08-25T15:20:35.000",
    "request_status": "Pending",
    "responsible_agency": "Department of Code Enforcement",
    "final_address": "1700 Reynes St",
    "address_councildis": "E",
    "status": "Pending",
    "rowid": "1221314",
    "final_x": "3696571.5489",
    "final_y": "536544.584327",
    "longitude": "-90.02029824385819",
    "latitude": "29.968845294907272",
    "geocoded_column": {
      "latitude": "29.968845294907272",
      "longitude": "-90.02029824385819"
    }
  },
  {
    "service_request": "2025-1221313",
    "request_type": "Trash/Recycling",
    "request_reason": "Request a Large Item Pick Up",
    "date_created": "2025-08-25T15:20:13.000",
    "date_modified": "2025-08-25T15:20:14.000",
    "request_status": "Pending",
    "responsible_agency": "Department of Sanitation",
    "final_address": "7162 Boston Dr",
    "address_councildis": "E",
    "status": "Assigned to Contractor",
    "contractor": "Waste Pro",
    "rowid": "1221313",
    "final_x": "3706081.16747",
    "final_y": "561282.188382",
    "longitude": "-89.98935021124147",
    "latitude": "30.036561258004742",
    "geocoded_column": {
      "latitude": "30.036561258004742",
      "longitude": "-89.98935021124147"
    }
  },
  {
    "service_request": "2025-1221312",
    "request_type": "Roads and Streets",
    "request_reason": "Abandoned Service Cut",
    "date_created": "2025-08-25T15:19:21.000",
    "date_modified": "2025-08-25T15:19:23.000",
    "request_status": "Pending",
    "responsible_agency": "Department of Public Works",
    "final_address": "218 Delaronde St",
    "address_councildis": "C",
    "status": "Pending",
    "rowid": "1221312",
    "final_x": "3686091.58466",
    "final_y": "530685.26989",
    "longitude": "-90.05360121866042",
    "latitude": "29.953060250632703",
    "geocoded_column": {
      "latitude": "29.953060250632703",
      "longitude": "-90.05360121866042"
    }
  },
  {
    "service_request": "2025-1221311",
    "request_type": "Trash/Recycling",
    "request_reason": "Request a Large Item Pick Up",
    "date_created": "2025-08-25T15:17:05.000",
    "date_modified": "2025-08-25T15:17:06.000",
    "request_status": "Pending",
    "responsible_agency": "Department of Sanitation",
    "final_address": "5028 E Lemans St",
    "address_councildis": "E",
    "status": "Assigned to Contractor",
    "contractor": "Waste Pro",
    "rowid": "1221311",
    "final_x": "3727241.69926",
    "final_y": "562810.264288",
    "longitude": "-89.92242011790297",
    "latitude": "30.040063409630758",
    "geocoded_column": {
      "latitude": "30.040063409630758",
      "longitude": "-89.92242011790297"
    }
  },
  {
    "service_request": "2025-1221310",
    "request_type": "Trash/Recycling",
    "request_reason": "Replace Trash Cart",
    "date_created": "2025-08-25T15:16:57.000",
    "date_modified": "2025-08-25T15:16:59.000",
    "request_status": "Pending",
    "responsible_agency": "Department of Sanitation",
    "final_address": "4346 Wellington Ave",
    "address_councildis": "D",
    "status": "Assigned to Contractor",
    "contractor": "IV Waste",
    "rowid": "1221310",
    "final_x": "3677154.53723",
    "final_y": "548412.33909",
    "longitude": "-90.08120886040687",
    "latitude": "30.00207501544259",
    "geocoded_column": {
      "latitude": "30.00207501544259",
      "longitude": "-90.08120886040687"
    }
  },
  {
    "service_request": "2025-1221309",
    "request_type": "Trash/Recycling",
    "request_reason": "Request a Large Item Pick Up",
    "date_created": "2025-08-25T15:16:19.000",
    "date_modified": "2025-08-25T15:16:25.000",
    "request_status": "Pending",
    "responsible_agency": "Department of Sanitation",
    "final_address": "4430 San Marco Rd",
    "address_councildis": "E",
    "status": "Assigned to Contractor",
    "contractor": "Waste Pro",
    "rowid": "1221309",
    "final_x": "3762402.92784",
    "final_y": "572914.649065",
    "longitude": "-89.81087825215171",
    "latitude": "30.06660854294502",
    "geocoded_column": {
      "latitude": "30.06660854294502",
      "longitude": "-89.81087825215171"
    }
  },
  {
    "service_request": "2025-1221308",
    "request_type": "Trash/Recycling",
    "request_reason": "Order Trash Cart",
    "date_created": "2025-08-25T15:15:01.000",
    "date_modified": "2025-08-25T15:15:04.000",
    "request_status": "Pending",
    "responsible_agency": "Department of Sanitation",
    "final_address": "3000 Royal St",
    "address_councildis": "C",
    "status": "Assigned to Contractor",
    "contractor": "IV Waste",
    "rowid": "1221308",
    "final_x": "3688135.98633",
    "final_y": "534573.426053",
    "longitude": "-90.04700808655522",
    "latitude": "29.96368839453506",
    "geocoded_column": {
      "latitude": "29.96368839453506",
      "longitude": "-90.04700808655522"
    }
  },
  {
    "service_request": "2025-1221307",
    "request_type": "Trash/Recycling",
    "request_reason": "Illegal Dumping",
    "date_created": "2025-08-25T15:12:16.000",
    "date_modified": "2025-08-25T15:12:17.000",
    "request_status": "Pending",
    "responsible_agency": "Department of Sanitation",
    "final_address": "1133 Casa Calvo St",
    "address_councildis": "C",
    "status": "Pending",
    "rowid": "1221307",
    "final_x": "3692060.52861",
    "final_y": "526985.558142",
    "longitude": "-90.03488635627258",
    "latitude": "29.942702666481143",
    "geocoded_column": {
      "latitude": "29.942702666481143",
      "longitude": "-90.03488635627258"
    }
  },
  {
    "service_request": "2025-1221306",
    "request_type": "Property Maintenance",
    "request_reason": "Property Maintenance",
    "date_created": "2025-08-25T15:10:46.000",
    "date_modified": "2025-08-25T15:10:49.000",
    "request_status": "Pending",
    "responsible_agency": "Department of Code Enforcement",
    "final_address": "2850 Mansfield Ave",
    "address_councildis": "C",
    "status": "Pending",
    "rowid": "1221306",
    "final_x": "3709244.17285",
    "final_y": "519320.216311",
    "longitude": "-89.98091970056818",
    "latitude": "29.921079085868833",
    "geocoded_column": {
      "latitude": "29.921079085868833",
      "longitude": "-89.98091970056818"
    }
  },
  {
    "service_request": "2025-1221305",
    "request_type": "Streetlights",
    "request_reason": "Streetlight Outage/Malfunction",
    "date_created": "2025-08-25T15:09:31.000",
    "date_modified": "2025-08-25T15:09:33.000",
    "request_status": "Pending",
    "responsible_agency": "Department of Public Works",
    "final_address": "1503 Elizardi Blvd",
    "address_councildis": "C",
    "status": "Pending",
    "contractor": "Legacy Professional Services",
    "rowid": "1221305",
    "final_x": "3694637.79626",
    "final_y": "525693.162877",
    "longitude": "-90.02679588127147",
    "latitude": "29.939068469038293",
    "geocoded_column": {
      "latitude": "29.939068469038293",
      "longitude": "-90.02679588127147"
    }
  },
  {
    "service_request": "2025-1221304",
    "request_type": "Safety & Permits",
    "request_reason": "Zoning Enforcement",
    "date_created": "2025-08-25T15:07:52.000",
    "date_modified": "2025-08-25T15:07:54.000",
    "request_status": "Pending",
    "responsible_agency": "Safety and Permits",
    "final_address": "3197 Desaix Blvd",
    "address_councildis": "D",
    "status": "Pending",
    "rowid": "1221304",
    "final_x": "3678319.52219",
    "final_y": "543672.706958",
    "longitude": "-90.07769261693035",
    "latitude": "29.989007641909453",
    "geocoded_column": {
      "latitude": "29.989007641909453",
      "longitude": "-90.07769261693035"
    }
  },
  {
    "service_request": "2025-1221303",
    "request_type": "Trash/Recycling",
    "request_reason": "Order Second Trash Cart",
    "date_created": "2025-08-25T15:05:26.000",
    "date_modified": "2025-08-25T15:05:28.000",
    "request_status": "Pending",
    "responsible_agency": "Department of Sanitation",
    "final_address": "52 Hawk St",
    "address_councildis": "D",
    "status": "Assigned to Contractor",
    "contractor": "IV Waste",
    "rowid": "1221303",
    "final_x": "3672679.64136",
    "final_y": "555690.687769",
    "longitude": "-90.095097123646",
    "latitude": "30.022221589214237",
    "geocoded_column": {
      "latitude": "30.022221589214237",
      "longitude": "-90.095097123646"
    }
  },
  {
    "service_request": "2025-1221302",
    "request_type": "Utility Poles",
    "request_reason": "Utility Pole Leaning",
    "date_created": "2025-08-25T15:02:24.000",
    "date_modified": "2025-08-25T15:02:27.000",
    "request_status": "Pending",
    "responsible_agency": "Utility Company Collective",
    "final_address": "1914 Dublin St",
    "address_councildis": "A",
    "status": "Pending",
    "rowid": "1221302",
    "final_x": "3663432.81063",
    "final_y": "530565.646146",
    "longitude": "-90.12515204360962",
    "latitude": "29.953407715314654",
    "geocoded_column": {
      "latitude": "29.953407715314654",
      "longitude": "-90.12515204360962"
    }
  },
  {
    "service_request": "2025-1221301",
    "request_type": "Trash/Recycling",
    "request_reason": "Request a Large Item Pick Up",
    "date_created": "2025-08-25T15:02:08.000",
    "date_modified": "2025-08-25T15:02:11.000",
    "request_status": "Pending",
    "responsible_agency": "Department of Sanitation",
    "final_address": "52 Hawk St",
    "address_councildis": "D",
    "status": "Assigned to Contractor",
    "contractor": "IV Waste",
    "rowid": "1221301",
    "final_x": "3672679.64136",
    "final_y": "555690.687769",
    "longitude": "-90.095097123646",
    "latitude": "30.022221589214237",
    "geocoded_column": {
      "latitude": "30.022221589214237",
      "longitude": "-90.095097123646"
    }
  },
  {
    "service_request": "2025-1221300",
    "request_type": "Trash/Recycling",
    "request_reason": "Illegal Dumping",
    "date_created": "2025-08-25T15:01:06.000",
    "date_modified": "2025-08-25T15:01:08.000",
    "request_status": "Pending",
    "responsible_agency": "Department of Sanitation",
    "final_address": "1800 BLK Old Roman St",
    "address_councildis": "D",
    "status": "Pending",
    "rowid": "1221300",
    "final_x": "3682401.06594",
    "final_y": "539259.842528",
    "longitude": "-90.06495455014746",
    "latitude": "29.976750198221154",
    "geocoded_column": {
      "latitude": "29.976750198221154",
      "longitude": "-90.06495455014746"
    }
  },
  {
    "service_request": "2025-1221299",
    "request_type": "Trash/Recycling",
    "request_reason": "Order Trash Cart",
    "date_created": "2025-08-25T14:59:40.000",
    "date_modified": "2025-08-25T14:59:42.000",
    "request_status": "Pending",
    "responsible_agency": "Department of Sanitation",
    "final_address": "100 Oaktree Dr",
    "address_councildis": "A",
    "status": "Assigned to Contractor",
    "contractor": "IV Waste",
    "rowid": "1221299",
    "final_x": "3665722.34996",
    "final_y": "544590.827087",
    "longitude": "-90.11745269957757",
    "latitude": "29.991905715834356",
    "geocoded_column": {
      "latitude": "29.991905715834356",
      "longitude": "-90.11745269957757"
    }
  },
  {
    "service_request": "2025-1221298",
    "request_type": "Trash/Recycling",
    "request_reason": "Request a Large Item Pick Up",
    "date_created": "2025-08-25T14:55:08.000",
    "date_modified": "2025-08-25T14:55:10.000",
    "request_status": "Pending",
    "responsible_agency": "Department of Sanitation",
    "final_address": "6205 Craigie Rd",
    "address_councildis": "E",
    "status": "Assigned to Contractor",
    "contractor": "Waste Pro",
    "rowid": "1221298",
    "final_x": "3696050.00182",
    "final_y": "558936.382172",
    "longitude": "-90.02113550161992",
    "latitude": "30.0304308912476",
    "geocoded_column": {
      "latitude": "30.0304308912476",
      "longitude": "-90.02113550161992"
    }
  },
  {
    "service_request": "2025-1221297",
    "request_type": "Trash/Recycling",
    "request_reason": "Request a Large Item Pick Up",
    "date_created": "2025-08-25T14:53:16.000",
    "date_modified": "2025-08-25T14:53:17.000",
    "request_status": "Pending",
    "responsible_agency": "Department of Sanitation",
    "final_address": "7432 Briarheath Dr",
    "address_councildis": "E",
    "status": "Assigned to Contractor",
    "contractor": "Waste Pro",
    "rowid": "1221297",
    "final_x": "3714300.75506",
    "final_y": "566868.280036",
    "longitude": "-89.96316380955287",
    "latitude": "30.051653097031366",
    "geocoded_column": {
      "latitude": "30.051653097031366",
      "longitude": "-89.96316380955287"
    }
  },
  {
    "service_request": "2025-1221296",
    "request_type": "Roads and Streets",
    "request_reason": "Pothole",
    "date_created": "2025-08-25T14:53:05.000",
    "date_modified": "2025-08-25T14:53:07.000",
    "request_status": "Pending",
    "responsible_agency": "Department of Public Works",
    "final_address": "7940 Mullet St",
    "address_councildis": "E",
    "status": "Pending",
    "rowid": "1221296",
    "final_x": "3698678.83677",
    "final_y": "561114.758686",
    "longitude": "-90.01274906534545",
    "latitude": "30.036337545926827",
    "geocoded_column": {
      "latitude": "30.036337545926827",
      "longitude": "-90.01274906534545"
    }
  },
  {
    "service_request": "2025-1221295",
    "request_type": "Roads and Streets",
    "request_reason": "Push-up/Pavement Expansion",
    "date_created": "2025-08-25T14:50:47.000",
    "date_modified": "2025-08-25T14:50:49.000",
    "request_status": "Pending",
    "responsible_agency": "Department of Public Works",
    "final_address": "HAYNE BLVD & CURTIS DR",
    "address_councildis": "E",
    "status": "Pending",
    "rowid": "1221295",
    "final_x": "3697608.6",
    "final_y": "561054.38",
    "longitude": "-90.01613340163446",
    "latitude": "30.036205399708216",
    "geocoded_column": {
      "latitude": "30.036205399708216",
      "longitude": "-90.01613340163446"
    }
  },
  {
    "service_request": "2025-1221294",
    "request_type": "Trash/Recycling",
    "request_reason": "Repair Recycling Cart",
    "date_created": "2025-08-25T14:47:46.000",
    "date_modified": "2025-08-25T14:47:47.000",
    "request_status": "Pending",
    "responsible_agency": "Department of Sanitation",
    "final_address": "1864 N Salcedo St",
    "address_councildis": "A",
    "status": "Pending",
    "rowid": "1221294",
    "final_x": "3677434.4251",
    "final_y": "543038.886861",
    "longitude": "-90.08051026487212",
    "latitude": "29.98729149711546",
    "geocoded_column": {
      "latitude": "29.98729149711546",
      "longitude": "-90.08051026487212"
    }
  },
  {
    "service_request": "2025-1221293",
    "request_type": "Trash/Recycling",
    "request_reason": "Order Second Trash Cart",
    "date_created": "2025-08-25T14:47:32.000",
    "date_modified": "2025-08-25T14:47:35.000",
    "request_status": "Pending",
    "responsible_agency": "Department of Sanitation",
    "final_address": "4531 Congress Dr",
    "address_councildis": "D",
    "status": "Assigned to Contractor",
    "contractor": "IV Waste",
    "rowid": "1221293",
    "final_x": "3692515.28899",
    "final_y": "551329.897237",
    "longitude": "-90.03257805608712",
    "latitude": "30.009626738155458",
    "geocoded_column": {
      "latitude": "30.009626738155458",
      "longitude": "-90.03257805608712"
    }
  },
  {
    "service_request": "2025-1221292",
    "request_type": "Trash/Recycling",
    "request_reason": "Replace Trash Cart",
    "date_created": "2025-08-25T14:46:07.000",
    "date_modified": "2025-08-25T14:46:09.000",
    "request_status": "Pending",
    "responsible_agency": "Department of Sanitation",
    "final_address": "3115 Louisiana Avenue Prkwy",
    "address_councildis": "B",
    "status": "Assigned to Contractor",
    "contractor": "IV Waste",
    "rowid": "1221292",
    "final_x": "3672102.00065",
    "final_y": "526719.145982",
    "longitude": "-90.09790932890124",
    "latitude": "29.94257691292881",
    "geocoded_column": {
      "latitude": "29.94257691292881",
      "longitude": "-90.09790932890124"
    }
  },
  {
    "service_request": "2025-1221291",
    "request_type": "Trash/Recycling",
    "request_reason": "Repair Trash Cart",
    "date_created": "2025-08-25T14:44:28.000",
    "date_modified": "2025-08-25T14:44:31.000",
    "request_status": "Pending",
    "responsible_agency": "Department of Sanitation",
    "final_address": "3113 Louisiana Avenue Prkwy",
    "address_councildis": "B",
    "status": "Assigned to Contractor",
    "contractor": "IV Waste",
    "rowid": "1221291",
    "final_x": "3672106.74049",
    "final_y": "526706.198846",
    "longitude": "-90.09789480483356",
    "latitude": "29.94254117201094",
    "geocoded_column": {
      "latitude": "29.94254117201094",
      "longitude": "-90.09789480483356"
    }
  },
  {
    "service_request": "2025-1221290",
    "request_type": "Parks & Parkways",
    "request_reason": "Request Tree Service (Right of Way/Public Property)",
    "date_created": "2025-08-25T14:42:54.000",
    "date_modified": "2025-08-25T14:53:11.000",
    "request_status": "Pending",
    "responsible_agency": "Department of Parks & Parkway",
    "final_address": "420 Julia St",
    "address_councildis": "B",
    "status": "Pending",
    "rowid": "1221290",
    "final_x": "3681541.45269",
    "final_y": "527696.448767",
    "longitude": "-90.06807274587679",
    "latitude": "29.944980947221936",
    "geocoded_column": {
      "latitude": "29.944980947221936",
      "longitude": "-90.06807274587679"
    }
  },
  {
    "service_request": "2025-1221289",
    "request_type": "Trash/Recycling",
    "request_reason": "Request a Large Item Pick Up",
    "date_created": "2025-08-25T14:40:01.000",
    "date_modified": "2025-08-25T14:40:03.000",
    "request_status": "Pending",
    "responsible_agency": "Department of Sanitation",
    "final_address": "5525 Wimbledon Ct",
    "address_councildis": "C",
    "status": "Assigned to Contractor",
    "contractor": "Richards Disposal",
    "rowid": "1221289",
    "final_x": "3704486.58474",
    "final_y": "518999.667831",
    "longitude": "-89.99594896277956",
    "latitude": "29.920351233040307",
    "geocoded_column": {
      "latitude": "29.920351233040307",
      "longitude": "-89.99594896277956"
    }
  },
  {
    "service_request": "2025-1221288",
    "request_type": "Safety & Permits",
    "request_reason": "Zoning Enforcement",
    "date_created": "2025-08-25T14:35:58.000",
    "date_modified": "2025-08-25T15:17:00.000",
    "case_close_date": "2025-08-25T10:16:59.000",
    "request_status": "Closed",
    "responsible_agency": "Safety and Permits",
    "final_address": "3600 Franklin Ave",
    "address_councildis": "D",
    "status": "Resolved",
    "rowid": "1221288",
    "final_x": "3687083.07618",
    "final_y": "546087.477328",
    "longitude": "-90.04992580742538",
    "latitude": "29.995380426774606",
    "geocoded_column": {
      "latitude": "29.995380426774606",
      "longitude": "-90.04992580742538"
    }
  },
  {
    "service_request": "2025-1221287",
    "request_type": "Property Maintenance",
    "request_reason": "Property Maintenance",
    "date_created": "2025-08-25T14:35:56.000",
    "date_modified": "2025-08-25T14:35:58.000",
    "request_status": "Pending",
    "responsible_agency": "Department of Code Enforcement",
    "final_address": "2831 Maurepas St",
    "address_councildis": "A",
    "status": "Pending",
    "rowid": "1221287",
    "final_x": "3678152.48757",
    "final_y": "540731.278731",
    "longitude": "-90.0783219925475",
    "latitude": "29.980924769686684",
    "geocoded_column": {
      "latitude": "29.980924769686684",
      "longitude": "-90.0783219925475"
    }
  },
  {
    "service_request": "2025-1221286",
    "request_type": "Trash/Recycling",
    "request_reason": "Request a Large Item Pick Up",
    "date_created": "2025-08-25T14:27:06.000",
    "date_modified": "2025-08-25T14:27:20.000",
    "request_status": "Pending",
    "responsible_agency": "Department of Sanitation",
    "final_address": "9916 E Wheaton Cir",
    "address_councildis": "E",
    "status": "Assigned to Contractor",
    "contractor": "Waste Pro",
    "rowid": "1221286",
    "final_x": "3709220.69445",
    "final_y": "562478.446239",
    "longitude": "-89.97938407963579",
    "latitude": "30.039748864963762",
    "geocoded_column": {
      "latitude": "30.039748864963762",
      "longitude": "-89.97938407963579"
    }
  },
  {
    "service_request": "2025-1221285",
    "request_type": "Abandoned Vehicles",
    "request_reason": "Abandoned/Junk Vehicles",
    "date_created": "2025-08-25T14:26:02.000",
    "date_modified": "2025-08-25T14:26:04.000",
    "request_status": "Pending",
    "responsible_agency": "Department of Public Works",
    "final_address": "1200 BLK Joliet St",
    "address_councildis": "A",
    "status": "Pending",
    "rowid": "1221285",
    "final_x": "3661025.74878",
    "final_y": "529463.878852",
    "longitude": "-90.13278901007068",
    "latitude": "29.95044777661061",
    "geocoded_column": {
      "latitude": "29.95044777661061",
      "longitude": "-90.13278901007068"
    }
  },
  {
    "service_request": "2025-1221284",
    "request_type": "Trash/Recycling",
    "request_reason": "Request a Large Item Pick Up",
    "date_created": "2025-08-25T14:21:03.000",
    "date_modified": "2025-08-25T15:03:06.000",
    "request_status": "Pending",
    "responsible_agency": "Department of Sanitation",
    "final_address": "7800 Trapier Ave",
    "address_councildis": "E",
    "status": "Pending",
    "rowid": "1221284",
    "final_x": "3706271.98065",
    "final_y": "563968.873761",
    "longitude": "-89.9886475685734",
    "latitude": "30.043942423601237",
    "geocoded_column": {
      "latitude": "30.043942423601237",
      "longitude": "-89.9886475685734"
    }
  },
  {
    "service_request": "2025-1221283",
    "request_type": "Trash/Recycling",
    "request_reason": "Order Trash Cart",
    "date_created": "2025-08-25T14:19:25.000",
    "date_modified": "2025-08-25T14:19:27.000",
    "request_status": "Pending",
    "responsible_agency": "Department of Sanitation",
    "final_address": "7646 Lafourche St",
    "address_councildis": "E",
    "status": "Assigned to Contractor",
    "contractor": "Waste Pro",
    "rowid": "1221283",
    "final_x": "3710100.12408",
    "final_y": "565628.094306",
    "longitude": "-89.9764869699961",
    "latitude": "30.048380531597676",
    "geocoded_column": {
      "latitude": "30.048380531597676",
      "longitude": "-89.9764869699961"
    }
  },
  {
    "service_request": "2025-1221282",
    "request_type": "Abandoned Vehicles",
    "request_reason": "Abandoned/Junk Vehicles",
    "date_created": "2025-08-25T14:18:17.000",
    "date_modified": "2025-08-25T14:18:19.000",
    "request_status": "Pending",
    "responsible_agency": "Department of Public Works",
    "final_address": "1318 Ursulines Ave",
    "address_councildis": "C",
    "status": "Pending",
    "rowid": "1221282",
    "final_x": "3681552.65954",
    "final_y": "535047.92935",
    "longitude": "-90.06778100406544",
    "latitude": "29.96519468652391",
    "geocoded_column": {
      "latitude": "29.96519468652391",
      "longitude": "-90.06778100406544"
    }
  },
  {
    "service_request": "2025-1221281",
    "request_type": "Trash/Recycling",
    "request_reason": "Request a Large Item Pick Up",
    "date_created": "2025-08-25T14:17:32.000",
    "date_modified": "2025-08-25T14:17:35.000",
    "request_status": "Pending",
    "responsible_agency": "Department of Sanitation",
    "final_address": "5819 Vicksburg St",
    "address_councildis": "A",
    "status": "Assigned to Contractor",
    "contractor": "IV Waste",
    "rowid": "1221281",
    "final_x": "3668853.27674",
    "final_y": "546078.09544",
    "longitude": "-90.10751246237432",
    "latitude": "29.995903468829738",
    "geocoded_column": {
      "latitude": "29.995903468829738",
      "longitude": "-90.10751246237432"
    }
  },