[
  {
    "service_request": "2022-927563",
    "request_type": "Traffic Signals/Signs/Striping/Streetlights",
    "request_reason": "Street Light Outage/Malfunction",
    "date_created": "2022-10-11T01:31:58.000",
    "date_modified": "2022-10-11T01:31:59.000",
    "request_status": "Pending",
    "responsible_agency": "Department of Public Works",
    "final_address": "1220 Amelia St",
    "address_councildis": "B",
    "status": "Pending",
    "contractor": "Legacy Professional Services",
    "rowid": "927563",
    "final_x": "3673468.88436",
    "final_y": "519653.442744",
    "longitude": "-90.09383506819195",
    "latitude": "29.923107924114237",
    "geocoded_column": {
      "latitude": "29.923107924114237",
      "longitude": "-90.09383506819195"
    }
  },
  {
    "service_request": "2022-927562",
    "request_type": "Traffic Signals/Signs/Striping/Streetlights",
    "request_reason": "Street Light Outage/Malfunction",
    "date_created": "2022-10-11T01:04:54.000",
    "date_modified": "2022-10-11T01:04:55.000",
    "request_status": "Pending",
    "responsible_agency": "Department of Public Works",
    "final_address": "3951 Camp St",
    "address_councildis": "B",
    "status": "Pending",
    "contractor": "Legacy Professional Services",
    "rowid": "927562",
    "final_x": "3672573.44404",
    "final_y": "519365.668151",
    "longitude": "-90.0966714385185",
    "latitude": "29.92234323980825",
    "geocoded_column": {
      "latitude": "29.92234323980825",
      "longitude": "-90.0966714385185"
    }
  },
  {
    "service_request": "2022-927559",
    "request_type": "Traffic Signals/Signs/Striping/Streetlights",
    "request_reason": "Street Light Outage/Malfunction",
    "date_created": "2022-10-10T22:42:36.000",
    "date_modified": "2022-10-10T22:42:37.000",
    "request_status": "Pending",
    "responsible_agency": "Department of Public Works",
    "final_address": "4800 Raymond Joseph Dr",
    "address_councildis": "E",
    "status": "Pending",
    "contractor": "Legacy Professional Services",
    "rowid": "927559",
    "final_x": "3703617.16906",
    "final_y": "555514.866841",
    "longitude": "-89.99734940039193",
    "latitude": "30.020782600196448",
    "geocoded_column": {
      "latitude": "30.020782600196448",
      "longitude": "-89.99734940039193"
    }
  },
  {
    "service_request": "2022-927558",
    "request_type": "Property Maintenance",
    "request_reason": "Property Maintenance",
    "date_created": "2022-10-10T22:41:46.000",
    "date_modified": "2022-10-10T22:41:46.000",
    "request_status": "Pending",
    "responsible_agency": "Department of Code Enforcement",
    "final_address": "4409 Coliseum St",
    "address_councildis": "B",
    "status": "Pending",
    "rowid": "927558",
    "final_x": "3670822.65972",
    "final_y": "519864.113656",
    "longitude": "-90.10218105753161",
    "latitude": "29.923765646853905",
    "geocoded_column": {
      "latitude": "29.923765646853905",
      "longitude": "-90.10218105753161"
    }
  },
  {
    "service_request": "2022-927557",
    "request_type": "Traffic Signals/Signs/Striping/Streetlights",
    "request_reason": "Street Light Outage/Malfunction",
    "date_created": "2022-10-10T22:41:40.000",
    "date_modified": "2022-10-10T22:41:41.000",
    "request_status": "Pending",
    "responsible_agency": "Department of Public Works",
    "final_address": "9325 Hammond St",
    "address_councildis": "E",
    "status": "Pending",
    "contractor": "Legacy Professional Services",
    "rowid": "927557",
    "final_x": "3709825.46891",
    "final_y": "556192.746778",
    "longitude": "-89.97770784031816",
    "latitude": "30.022446011533383",
    "geocoded_column": {
      "latitude": "30.022446011533383",
      "longitude": "-89.97770784031816"
    }
  },
  {
    "service_request": "2022-927556",
    "request_type": "Abandoned Vehicles",
    "request_reason": "Abandoned/Junk Vehicles",
    "date_created": "2022-10-10T22:24:01.000",
    "date_modified": "2022-10-10T22:24:01.000",
    "request_status": "Pending",
    "responsible_agency": "Department of Public Works",
    "final_address": "5700 Patton St",
    "address_councildis": "A",
    "status": "Pending",
    "rowid": "927556",
    "final_x": "3665576.0514",
    "final_y": "518257.375478",
    "longitude": "-90.11879651845207",
    "latitude": "29.919501583918105",
    "geocoded_column": {
      "latitude": "29.919501583918105",
      "longitude": "-90.11879651845207"
    }
  },
  {
    "service_request": "2022-927555",
    "request_type": "Trash/Recycling",
    "request_reason": "Missed Trash Pick-Up",
    "date_created": "2022-10-10T22:20:56.000",
    "date_modified": "2022-10-10T22:20:57.000",
    "request_status": "Pending",
    "responsible_agency": "Department of Sanitation",
    "final_address": "5615 Perrier St",
    "address_councildis": "A",
    "status": "Assigned to Contractor",
    "contractor": "Richards Disposal",
    "rowid": "927555",
    "final_x": "3666299.90919",
    "final_y": "520283.907384",
    "longitude": "-90.1164437175807",
    "latitude": "29.925052792732682",
    "geocoded_column": {
      "latitude": "29.925052792732682",
      "longitude": "-90.1164437175807"
    }
  },
  {
    "service_request": "2022-927554",
    "request_type": "Trash/Recycling",
    "request_reason": "Missed Trash Pick-Up",
    "date_created": "2022-10-10T22:17:35.000",
    "date_modified": "2022-10-10T22:17:36.000",
    "request_status": "Pending",
    "responsible_agency": "Department of Sanitation",
    "final_address": "1011 Treme St",
    "address_councildis": "C",
    "status": "Assigned to Contractor",
    "contractor": "Richards Disposal",
    "rowid": "927554",
    "final_x": "3681507.71624",
    "final_y": "534791.690438",
    "longitude": "-90.06793186874009",
    "latitude": "29.96449148215058",
    "geocoded_column": {
      "latitude": "29.96449148215058",
      "longitude": "-90.06793186874009"
    }
  },
  {
    "service_request": "2022-927553",
    "request_type": "Abandoned Vehicles",
    "request_reason": "Abandoned/Junk Vehicles",
    "date_created": "2022-10-10T22:10:00.000",
    "date_modified": "2022-10-10T22:10:00.000",
    "request_status": "Pending",
    "responsible_agency": "Department of Public Works",
    "final_address": "5700 Patton St",
    "address_councildis": "A",
    "status": "Pending",
    "rowid": "927553",
    "final_x": "3665576.0514",
    "final_y": "518257.375478",
    "longitude": "-90.11879651845207",
    "latitude": "29.919501583918105",
    "geocoded_column": {
      "latitude": "29.919501583918105",
      "longitude": "-90.11879651845207"
    }
  },
  {
    "service_request": "2022-927552",
    "request_type": "Abandoned Vehicles",
    "request_reason": "Abandoned/Junk Vehicles",
    "date_created": "2022-10-10T22:07:52.000",
    "date_modified": "2022-10-10T22:07:52.000",
    "request_status": "Pending",
    "responsible_agency": "Department of Public Works",
    "final_address": "5700 Patton St",
    "address_councildis": "A",
    "status": "Pending",
    "rowid": "927552",
    "final_x": "3665576.0514",
    "final_y": "518257.375478",
    "longitude": "-90.11879651845207",
    "latitude": "29.919501583918105",
    "geocoded_column": {
      "latitude": "29.919501583918105",
      "longitude": "-90.11879651845207"
    }
  },
  {
    "service_request": "2022-927551",
    "request_type": "Traffic Signals/Signs/Striping/Streetlights",
    "request_reason": "Street Light Outage/Malfunction",
    "date_created": "2022-10-10T21:53:07.000",
    "date_modified": "2022-10-10T21:53:08.000",
    "request_status": "Pending",
    "responsible_agency": "Department of Public Works",
    "final_address": "3419 Chartres St",
    "address_councildis": "C",
    "status": "Pending",
    "contractor": "Legacy Professional Services",
    "rowid": "927551",
    "final_x": "3689891.62076",
    "final_y": "533851.740037",
    "longitude": "-90.04148968224493",
    "latitude": "29.961649700522717",
    "geocoded_column": {
      "latitude": "29.961649700522717",
      "longitude": "-90.04148968224493"
    }
  },
  {
    "service_request": "2022-927549",
    "request_type": "Safety & Permits",
    "request_reason": "Licenses & Permits",
    "date_created": "2022-10-10T21:33:05.000",
    "date_modified": "2022-10-10T21:33:05.000",
    "request_status": "Pending",
    "responsible_agency": "Safety and Permits",
    "final_address": "1810 Moss St",
    "address_councildis": "A",
    "status": "Pending",
    "rowid": "927549",
    "final_x": "3675364.91233",
    "final_y": "543036.295885",
    "longitude": "-90.08704722026397",
    "latitude": "29.987346427830513",
    "geocoded_column": {
      "latitude": "29.987346427830513",
      "longitude": "-90.08704722026397"
    }
  },
  {
    "service_request": "2022-927548",
    "request_type": "Traffic Signals/Signs/Striping/Streetlights",
    "request_reason": "Street Light Outage/Malfunction",
    "date_created": "2022-10-10T21:19:06.000",
    "date_modified": "2022-10-10T21:19:07.000",
    "request_status": "Pending",
    "responsible_agency": "Department of Public Works",
    "final_address": "5135 Paris Ave",
    "address_councildis": "D",
    "status": "Pending",
    "contractor": "Legacy Professional Services",
    "rowid": "927548",
    "final_x": "3679331.82293",
    "final_y": "551424.954005",
    "longitude": "-90.07422598634398",
    "latitude": "30.010293028242707",
    "geocoded_column": {
      "latitude": "30.010293028242707",
      "longitude": "-90.07422598634398"
    }
  },
  {
    "service_request": "2022-927547",
    "request_type": "Traffic Signals/Signs/Striping/Streetlights",
    "request_reason": "Street Light Outage/Malfunction",
    "date_created": "2022-10-10T20:52:28.000",
    "date_modified": "2022-10-10T20:52:29.000",
    "request_status": "Pending",
    "responsible_agency": "Department of Public Works",
    "final_address": "700 Leboeuf St",
    "address_councildis": "C",
    "status": "Pending",
    "contractor": "Legacy Professional Services",
    "rowid": "927547",
    "final_x": "3689842.73526",
    "final_y": "528965.761856",
    "longitude": "-90.04181796058779",
    "latitude": "29.948216466081576",
    "geocoded_column": {
      "latitude": "29.948216466081576",
      "longitude": "-90.04181796058779"
    }
  },
  {
    "service_request": "2022-927546",
    "request_type": "Traffic Signals/Signs/Striping/Streetlights",
    "request_reason": "Street Light Outage/Malfunction",
    "date_created": "2022-10-10T20:49:46.000",
    "date_modified": "2022-10-10T20:49:47.000",
    "request_status": "Pending",
    "responsible_agency": "Department of Public Works",
    "final_address": "701 Whitney Ave",
    "address_councildis": "C",
    "status": "Pending",
    "contractor": "Legacy Professional Services",
    "rowid": "927546",
    "final_x": "3690124.28451",
    "final_y": "528962.432512",
    "longitude": "-90.04092911582786",
    "latitude": "29.94819858264727",
    "geocoded_column": {
      "latitude": "29.94819858264727",
      "longitude": "-90.04092911582786"
    }
  },
  {
    "service_request": "2022-927545",
    "request_type": "Traffic Signals/Signs/Striping/Streetlights",
    "request_reason": "Street Light Outage/Malfunction",
    "date_created": "2022-10-10T20:48:22.000",
    "date_modified": "2022-10-10T20:48:23.000",
    "request_status": "Pending",
    "responsible_agency": "Department of Public Works",
    "final_address": "701 Whitney Ave",
    "address_councildis": "C",
    "status": "Pending",
    "contractor": "Legacy Professional Services",
    "rowid": "927545",
    "final_x": "3690124.28451",
    "final_y": "528962.432512",
    "longitude": "-90.04092911582786",
    "latitude": "29.94819858264727",
    "geocoded_column": {
      "latitude": "29.94819858264727",
      "longitude": "-90.04092911582786"
    }
  },
  {
    "service_request": "2022-927544",
    "request_type": "Traffic Signals/Signs/Striping/Streetlights",
    "request_reason": "Additional signage",
    "date_created": "2022-10-10T20:44:10.000",
    "date_modified": "2022-10-10T20:44:10.000",
    "request_status": "Pending",
    "responsible_agency": "Department of Public Works",
    "final_address": "8701 Airline Hwy",
    "address_councildis": "A",
    "status": "Pending",
    "rowid": "927544",
    "final_x": "3666945.24378",
    "final_y": "537182.141704",
    "longitude": "-90.11383888598499",
    "latitude": "29.97149859377334",
    "geocoded_column": {
      "latitude": "29.97149859377334",
      "longitude": "-90.11383888598499"
    }
  },
  {
    "service_request": "2022-927543",
    "request_type": "Trash/Recycling",
    "request_reason": "Replace Trash Cart",
    "date_created": "2022-10-10T20:43:32.000",
    "date_modified": "2022-10-10T20:43:33.000",
    "request_status": "Pending",
    "responsible_agency": "Department of Sanitation",
    "final_address": "1126 Adams St, New Orleans, Louisiana, 70118",
    "address_councildis": "A",
    "status": "Assigned to Contractor",
    "contractor": "Richards Disposal",
    "rowid": "927543",
    "final_x": "3662941.20608",
    "final_y": "527321.918271",
    "longitude": "-90.12681217610627",
    "latitude": "29.944502750062995",
    "geocoded_column": {
      "latitude": "29.944502750062995",
      "longitude": "-90.12681217610627"
    }
  },
  {
    "service_request": "2022-927542",
    "request_type": "Traffic Signals/Signs/Striping/Streetlights",
    "request_reason": "Street Light Outage/Malfunction",
    "date_created": "2022-10-10T20:43:22.000",
    "date_modified": "2022-10-10T20:43:23.000",
    "request_status": "Pending",
    "responsible_agency": "Department of Public Works",
    "final_address": "310 Olivier St",
    "address_councildis": "C",
    "status": "Pending",
    "contractor": "Legacy Professional Services",
    "rowid": "927542",
    "final_x": "3687279.36278",
    "final_y": "530682.192834",
    "longitude": "-90.0498508526877",
    "latitude": "29.953015260142347",
    "geocoded_column": {
      "latitude": "29.953015260142347",
      "longitude": "-90.0498508526877"
    }
  },
  {
    "service_request": "2022-927541",
    "request_type": "Traffic Signals/Signs/Striping/Streetlights",
    "request_reason": "Street Light Outage/Malfunction",
    "date_created": "2022-10-10T20:42:19.000",
    "date_modified": "2022-10-10T20:42:20.000",
    "request_status": "Pending",
    "responsible_agency": "Department of Public Works",
    "final_address": "310 Olivier St",
    "address_councildis": "C",
    "status": "Pending",
    "contractor": "Legacy Professional Services",
    "rowid": "927541",
    "final_x": "3687279.36278",
    "final_y": "530682.192834",
    "longitude": "-90.0498508526877",
    "latitude": "29.953015260142347",
    "geocoded_column": {
      "latitude": "29.953015260142347",
      "longitude": "-90.0498508526877"
    }
  },
  {
    "service_request": "2022-927540",
    "request_type": "Trash/Recycling",
    "request_reason": "Request a Large Item Pick Up",
    "date_created": "2022-10-10T20:28:06.000",
    "date_modified": "2022-10-10T20:28:07.000",
    "request_status": "Pending",
    "responsible_agency": "Department of Sanitation",
    "final_address": "1813 Baronne St",
    "address_councildis": "B",
    "status": "Assigned to Contractor",
    "contractor": "Richards Disposal",
    "rowid": "927540",
    "final_x": "3677761.59349",
    "final_y": "525115.578749",
    "longitude": "-90.08009605150468",
    "latitude": "29.93799863247408",
    "geocoded_column": {
      "latitude": "29.93799863247408",
      "longitude": "-90.08009605150468"
    }
  },
  {
    "service_request": "2022-927539",
    "request_type": "Traffic Signals/Signs/Striping/Streetlights",
    "request_reason": "Traffic Signal Malfunctioning/Damaged",
    "date_created": "2022-10-10T20:26:57.000",
    "date_modified": "2022-10-10T20:26:58.000",
    "request_status": "Pending",
    "responsible_agency": "Department of Public Works",
    "final_address": "COMMON ST & CARONDELET ST",
    "address_councildis": "B",
    "status": "Pending",
    "rowid": "927539",
    "final_x": "3680610.3",
    "final_y": "530506.58",
    "longitude": "-90.07091492842618",
    "latitude": "29.952736103579674",
    "geocoded_column": {
      "latitude": "29.952736103579674",
      "longitude": "-90.07091492842618"
    }
  },
  {
    "service_request": "2022-927538",
    "request_type": "Trash/Recycling",
    "request_reason": "MIssed Recycling Pick-Up",
    "date_created": "2022-10-10T20:22:54.000",
    "date_modified": "2022-10-10T20:22:54.000",
    "request_status": "Pending",
    "responsible_agency": "Department of Sanitation",
    "final_address": "217 Delaronde St",
    "address_councildis": "C",
    "status": "Assigned to Contractor",
    "contractor": "Richards Disposal",
    "rowid": "927538",
    "final_x": "3686130.42722",
    "final_y": "530633.89325",
    "longitude": "-90.05348038307504",
    "latitude": "29.952917789547804",
    "geocoded_column": {
      "latitude": "29.952917789547804",
      "longitude": "-90.05348038307504"
    }
  },
  {
    "service_request": "2022-927537",
    "request_type": "Trash/Recycling",
    "request_reason": "Request a Large Item Pick Up",
    "date_created": "2022-10-10T20:19:52.000",
    "date_modified": "2022-10-10T20:19:53.000",
    "request_status": "Pending",
    "responsible_agency": "Department of Sanitation",
    "final_address": "6332 S Johnson St",
    "address_councildis": "A",
    "status": "Assigned to Contractor",
    "contractor": "Richards Disposal",
    "rowid": "927537",
    "final_x": "3666651.95322",
    "final_y": "527544.611775",
    "longitude": "-90.1150887442523",
    "latitude": "29.945007126928417",
    "geocoded_column": {
      "latitude": "29.945007126928417",
      "longitude": "-90.1150887442523"
    }
  },
  {
    "service_request": "2022-927536",
    "request_type": "Trash/Recycling",
    "request_reason": "Replace Trash Cart",
    "date_created": "2022-10-10T20:17:41.000",
    "date_modified": "2022-10-10T20:17:42.000",
    "request_status": "Pending",
    "responsible_agency": "Department of Sanitation",
    "final_address": "6332 S Johnson St",
    "address_councildis": "A",
    "status": "Assigned to Contractor",
    "contractor": "Richards Disposal",
    "rowid": "927536",
    "final_x": "3666651.95322",
    "final_y": "527544.611775",
    "longitude": "-90.1150887442523",
    "latitude": "29.945007126928417",
    "geocoded_column": {
      "latitude": "29.945007126928417",
      "longitude": "-90.1150887442523"
    }
  },
  {
    "service_request": "2022-927535",
    "request_type": "Roads/Drainage",
    "request_reason": "Leaking Hydrant",
    "date_created": "2022-10-10T20:15:33.000",
    "date_modified": "2022-10-10T20:15:34.000",
    "request_status": "Pending",
    "responsible_agency": "Department of Public Works",
    "final_address": "DUMAINE ST & N ROCHEBLAVE ST",
    "address_councildis": "D",
    "status": "Pending",
    "rowid": "927535",
    "final_x": "3677960.7",
    "final_y": "536904.18",
    "longitude": "-90.07906005881067",
    "latitude": "29.970407339379065",
    "geocoded_column": {
      "latitude": "29.970407339379065",
      "longitude": "-90.07906005881067"
    }
  },
  {
    "service_request": "2022-927534",
    "request_type": "Trash/Recycling",
    "request_reason": "Order Trash Cart",
    "date_created": "2022-10-10T20:15:05.000",
    "date_modified": "2022-10-10T20:15:06.000",
    "request_status": "Pending",
    "responsible_agency": "Department of Sanitation",
    "final_address": "4307 S Johnson St",
    "address_councildis": "B",
    "status": "Assigned to Contractor",
    "contractor": "Richards Disposal",
    "rowid": "927534",
    "final_x": "3670506.24423",
    "final_y": "527291.955199",
    "longitude": "-90.10292809432566",
    "latitude": "29.944199163879436",
    "geocoded_column": {
      "latitude": "29.944199163879436",
      "longitude": "-90.10292809432566"
    }
  },
  {
    "service_request": "2022-927533",
    "request_type": "Traffic Signals/Signs/Striping/Streetlights",
    "request_reason": "Street Light Outage/Malfunction",
    "date_created": "2022-10-10T20:10:13.000",
    "date_modified": "2022-10-10T20:10:14.000",
    "request_status": "Pending",
    "responsible_agency": "Department of Public Works",
    "final_address": "1234 Esplanade Ave",
    "address_councildis": "C",
    "status": "Pending",
    "contractor": "Legacy Professional Services",
    "rowid": "927533",
    "final_x": "3682303.73346",
    "final_y": "535690.692167",
    "longitude": "-90.06538669364366",
    "latitude": "29.966939232299",
    "geocoded_column": {
      "latitude": "29.966939232299",
      "longitude": "-90.06538669364366"
    }
  },
  {
    "service_request": "2022-927532",
    "request_type": "Traffic Signals/Signs/Striping/Streetlights",
    "request_reason": "Street Light Outage/Malfunction",
    "date_created": "2022-10-10T20:05:17.000",
    "date_modified": "2022-10-10T20:05:18.000",
    "request_status": "Pending",
    "responsible_agency": "Department of Public Works",
    "final_address": "1241 Esplanade Ave",
    "address_councildis": "C",
    "status": "Pending",
    "contractor": "Legacy Professional Services",
    "rowid": "927532",
    "final_x": "3682365.62588",
    "final_y": "535823.315591",
    "longitude": "-90.06518660214338",
    "latitude": "29.967302017720563",
    "geocoded_column": {
      "latitude": "29.967302017720563",
      "longitude": "-90.06518660214338"
    }
  },
  {
    "service_request": "2022-927531",
    "request_type": "Traffic Signals/Signs/Striping/Streetlights",
    "request_reason": "Street Light Outage/Malfunction",
    "date_created": "2022-10-10T20:03:10.000",
    "date_modified": "2022-10-10T20:03:11.000",
    "request_status": "Pending",
    "responsible_agency": "Department of Public Works",
    "final_address": "1227 Esplanade Ave",
    "address_councildis": "C",
    "status": "Pending",
    "contractor": "Legacy Professional Services",
    "rowid": "927531",
    "final_x": "3682458.19132",
    "final_y": "535751.679879",
    "longitude": "-90.06489678383166",
    "latitude": "29.967102226952356",
    "geocoded_column": {
      "latitude": "29.967102226952356",
      "longitude": "-90.06489678383166"
    }
  },
  {
    "service_request": "2022-927530",
    "request_type": "Traffic Signals/Signs/Striping/Streetlights",
    "request_reason": "Street Light Outage/Malfunction",
    "date_created": "2022-10-10T20:02:32.000",
    "date_modified": "2022-10-10T20:02:33.000",
    "request_status": "Pending",
    "responsible_agency": "Department of Public Works",
    "final_address": "1456 Verna St",
    "address_councildis": "A",
    "status": "Pending",
    "contractor": "Legacy Professional Services",
    "rowid": "927530",
    "final_x": "3675881.54465",
    "final_y": "541347.364364",
    "longitude": "-90.08547345615145",
    "latitude": "29.98268698968683",
    "geocoded_column": {
      "latitude": "29.98268698968683",
      "longitude": "-90.08547345615145"
    }
  },
  {
    "service_request": "2022-927529",
    "request_type": "Traffic Signals/Signs/Striping/Streetlights",
    "request_reason": "Street Light Outage/Malfunction",
    "date_created": "2022-10-10T20:01:02.000",
    "date_modified": "2022-10-10T20:01:03.000",
    "request_status": "Pending",
    "responsible_agency": "Department of Public Works",
    "final_address": "NAPOLEON AVE & PERRIER ST",
    "address_councildis": "B",
    "status": "Pending",
    "contractor": "Legacy Professional Services",
    "rowid": "927529",
    "final_x": "3670890.3",
    "final_y": "520067.98",
    "longitude": "-90.10196062554645",
    "latitude": "29.924324215792385",
    "geocoded_column": {
      "latitude": "29.924324215792385",
      "longitude": "-90.10196062554645"
    }
  },
  {
    "service_request": "2022-927528",
    "request_type": "Trash/Recycling",
    "request_reason": "MIssed Recycling Pick-Up",
    "date_created": "2022-10-10T19:56:21.000",
    "date_modified": "2022-10-10T19:56:22.000",
    "request_status": "Pending",
    "responsible_agency": "Department of Sanitation",
    "final_address": "3151 Chippewa St",
    "address_councildis": "B",
    "status": "Assigned to Contractor",
    "contractor": "Richards Disposal",
    "rowid": "927528",
    "final_x": "3676551.3179",
    "final_y": "518743.805879",
    "longitude": "-90.08413630679688",
    "latitude": "29.92051467152263",
    "geocoded_column": {
      "latitude": "29.92051467152263",
      "longitude": "-90.08413630679688"
    }
  },
  {
    "service_request": "2022-927527",
    "request_type": "Traffic Signals/Signs/Striping/Streetlights",
    "request_reason": "Street Light Outage/Malfunction",
    "date_created": "2022-10-10T19:51:46.000",
    "date_modified": "2022-10-10T19:52:10.000",
    "request_status": "Pending",
    "responsible_agency": "Department of Public Works",
    "final_address": "1716 Elysian Fields Ave",
    "address_councildis": "D",
    "status": "Pending",
    "contractor": "Legacy Professional Services",
    "rowid": "927527",
    "final_x": "3684726.92745",
    "final_y": "538647.795337",
    "longitude": "-90.05763028600205",
    "latitude": "29.974996285126107",
    "geocoded_column": {
      "latitude": "29.974996285126107",
      "longitude": "-90.05763028600205"
    }
  },
  {
    "service_request": "2022-927526",
    "request_type": "Roads/Drainage",
    "request_reason": "Service Cut",
    "date_created": "2022-10-10T19:49:45.000",
    "date_modified": "2022-10-10T19:50:13.000",
    "request_status": "Pending",
    "responsible_agency": "Department of Public Works",
    "final_address": "N RAMPART ST & CANAL ST & S RAMPART ST",
    "address_councildis": "C",
    "status": "Pending",
    "rowid": "927526",
    "final_x": "3680023.1",
    "final_y": "531616.58",
    "longitude": "-90.07273048367091",
    "latitude": "29.955806004744357",
    "geocoded_column": {
      "latitude": "29.955806004744357",
      "longitude": "-90.07273048367091"
    }
  },
  {
    "service_request": "2022-927524",
    "request_type": "Trash/Recycling",
    "request_reason": "Illegal Dumping",
    "date_created": "2022-10-10T19:27:04.000",
    "date_modified": "2022-10-10T19:27:04.000",
    "request_status": "Pending",
    "responsible_agency": "Department of Sanitation",
    "final_address": "714 River Oaks Dr",
    "address_councildis": "C",
    "status": "Pending",
    "rowid": "927524",
    "final_x": "3701510.18487",
    "final_y": "519724.544184",
    "longitude": "-90.00531746933835",
    "latitude": "29.92243958045404",
    "geocoded_column": {
      "latitude": "29.92243958045404",
      "longitude": "-90.00531746933835"
    }
  },
  {
    "service_request": "2022-927523",
    "request_type": "Roads/Drainage",
    "request_reason": "Debris in Roadway",
    "date_created": "2022-10-10T19:19:07.000",
    "date_modified": "2022-10-10T19:19:07.000",
    "request_status": "Pending",
    "responsible_agency": "Department of Public Works",
    "final_address": "1801 Governor Nicholls St",
    "address_councildis": "D",
    "status": "Pending",
    "rowid": "927523",
    "final_x": "3680579.55099",
    "final_y": "536339.522887",
    "longitude": "-90.07080908646411",
    "latitude": "29.968775642763724",
    "geocoded_column": {
      "latitude": "29.968775642763724",
      "longitude": "-90.07080908646411"
    }
  },
  {
    "service_request": "2022-927522",
    "request_type": "Abandoned Vehicles",
    "request_reason": "Abandoned/Junk Vehicles",
    "date_created": "2022-10-10T19:17:03.000",
    "date_modified": "2022-10-10T19:17:03.000",
    "request_status": "Pending",
    "responsible_agency": "Department of Public Works",
    "final_address": "326 S Cortez St",
    "address_councildis": "A",
    "status": "Pending",
    "rowid": "927522",
    "final_x": "3671480.62951",
    "final_y": "536756.164552",
    "longitude": "-90.0995299266907",
    "latitude": "29.970193796810985",
    "geocoded_column": {
      "latitude": "29.970193796810985",
      "longitude": "-90.0995299266907"
    }
  },
  {
    "service_request": "2022-927521",
    "request_type": "Trash/Recycling",
    "request_reason": "Request a Large Item Pick Up",
    "date_created": "2022-10-10T19:15:17.000",
    "date_modified": "2022-10-10T19:15:18.000",
    "request_status": "Pending",
    "responsible_agency": "Department of Sanitation",
    "final_address": "1723 Governor Nicholls St",
    "address_councildis": "D",
    "status": "Assigned to Contractor",
    "contractor": "Richards Disposal",
    "rowid": "927521",
    "final_x": "3680684.02248",
    "final_y": "536249.720263",
    "longitude": "-90.07048228499086",
    "latitude": "29.968525550849744",
    "geocoded_column": {
      "latitude": "29.968525550849744",
      "longitude": "-90.07048228499086"
    }
  },
  {
    "service_request": "2022-927520",
    "request_type": "Traffic Signals/Signs/Striping/Streetlights",
    "request_reason": "Traffic Signal Malfunctioning/Damaged",
    "date_created": "2022-10-10T19:11:48.000",
    "date_modified": "2022-10-10T19:11:49.000",
    "request_status": "Pending",
    "responsible_agency": "Department of Public Works",
    "final_address": "COMMON ST & CARONDELET ST",
    "address_councildis": "B",
    "status": "Pending",
    "rowid": "927520",
    "final_x": "3680610.3",
    "final_y": "530506.58",
    "longitude": "-90.07091492842618",
    "latitude": "29.952736103579674",
    "geocoded_column": {
      "latitude": "29.952736103579674",
      "longitude": "-90.07091492842618"
    }
  },
  {
    "service_request": "2022-927519",
    "request_type": "Trash/Recycling",
    "request_reason": "Missed Trash Pick-Up",
    "date_created": "2022-10-10T18:50:17.000",
    "date_modified": "2022-10-10T18:50:18.000",
    "request_status": "Pending",
    "responsible_agency": "Department of Sanitation",
    "final_address": "2400 Filmore Ave",
    "address_councildis": "D",
    "status": "Assigned to Contractor",
    "contractor": "Metro Disposal",
    "rowid": "927519",
    "final_x": "3685234.46364",
    "final_y": "552467.72591",
    "longitude": "-90.05554062793307",
    "latitude": "30.012980604678486",
    "geocoded_column": {
      "latitude": "30.012980604678486",
      "longitude": "-90.05554062793307"
    }
  },
  {
    "service_request": "2022-927518",
    "request_type": "Trash/Recycling",
    "request_reason": "Order Trash Cart",
    "date_created": "2022-10-10T18:43:48.000",
    "date_modified": "2022-10-10T18:43:49.000",
    "request_status": "Pending",
    "responsible_agency": "Department of Sanitation",
    "final_address": "4720 Tulip St",
    "address_councildis": "E",
    "status": "Assigned to Contractor",
    "contractor": "Metro Disposal",
    "rowid": "927518",
    "final_x": "3702032.13879",
    "final_y": "554166.761176",
    "longitude": "-90.00240707262056",
    "latitude": "30.017126544996252",
    "geocoded_column": {
      "latitude": "30.017126544996252",
      "longitude": "-90.00240707262056"
    }
  },
  {
    "service_request": "2022-927517",
    "request_type": "Trash/Recycling",
    "request_reason": "Change Size of Trash Cart",
    "date_created": "2022-10-10T18:30:05.000",
    "date_modified": "2022-10-10T18:30:05.000",
    "request_status": "Pending",
    "responsible_agency": "Department of Sanitation",
    "final_address": "916 Hidalgo St",
    "address_councildis": "A",
    "status": "Assigned to Contractor",
    "contractor": "Metro Disposal",
    "rowid": "927517",
    "final_x": "3669690.2354",
    "final_y": "543945.43035",
    "longitude": "-90.10494079308477",
    "latitude": "29.99001472773808",
    "geocoded_column": {
      "latitude": "29.99001472773808",
      "longitude": "-90.10494079308477"
    }
  },
  {
    "service_request": "2022-927516",
    "request_type": "Trash/Recycling",
    "request_reason": "Request a Large Item Pick Up",
    "date_created": "2022-10-10T18:24:51.000",
    "date_modified": "2022-10-10T18:24:52.000",
    "request_status": "Pending",
    "responsible_agency": "Department of Sanitation",
    "final_address": "13220 Hayne Blvd",
    "address_councildis": "E",
    "status": "Assigned to Contractor",
    "contractor": "Metro Disposal",
    "rowid": "927516",
    "final_x": "3715717.61298",
    "final_y": "571416.11524",
    "longitude": "-89.95851315232396",
    "latitude": "30.064111105894032",
    "geocoded_column": {
      "latitude": "30.064111105894032",
      "longitude": "-89.95851315232396"
    }
  },
  {
    "service_request": "2022-927515",
    "request_type": "Health Related Questions",
    "request_reason": "Noise Ordinance Complaint",
    "date_created": "2022-10-10T18:16:51.000",
    "date_modified": "2022-10-10T18:16:51.000",
    "request_status": "Pending",
    "responsible_agency": "Health Department",
    "final_address": "5723 Eads St. 70122",
    "status": "Pending",
    "rowid": "927515",
    "longitude": "0.0",
    "latitude": "0.0",
    "geocoded_column": {
      "latitude": "0.0",
      "longitude": "0.0"
    }
  },
  {
    "service_request": "2022-927514",
    "request_type": "Trash/Recycling",
    "request_reason": "Replace Trash Cart",
    "date_created": "2022-10-10T18:14:12.000",
    "date_modified": "2022-10-10T18:14:13.000",
    "request_status": "Pending",
    "responsible_agency": "Department of Sanitation",
    "final_address": "8736 Chef Menteur Hwy",
    "address_councildis": "E",
    "status": "Assigned to Contractor",
    "contractor": "Metro Disposal",
    "rowid": "927514",
    "final_x": "3707978.4204",
    "final_y": "553322.313687",
    "longitude": "-89.98365085069396",
    "latitude": "30.014613389690897",
    "geocoded_column": {
      "latitude": "30.014613389690897",
      "longitude": "-89.98365085069396"
    }
  },
  {
    "service_request": "2022-927513",
    "request_type": "Trash/Recycling",
    "request_reason": "Request a Large Item Pick Up",
    "date_created": "2022-10-10T18:14:02.000",
    "date_modified": "2022-10-10T18:14:02.000",
    "request_status": "Pending",
    "responsible_agency": "Department of Sanitation",
    "final_address": "1225 Marais St",
    "address_councildis": "C",
    "status": "Assigned to Contractor",
    "contractor": "Richards Disposal",
    "rowid": "927513",
    "final_x": "3681823.32463",
    "final_y": "535683.052295",
    "longitude": "-90.06690409115626",
    "latitude": "29.966932833807675",
    "geocoded_column": {
      "latitude": "29.966932833807675",
      "longitude": "-90.06690409115626"
    }
  },
  {
    "service_request": "2022-927512",
    "request_type": "Trash/Recycling",
    "request_reason": "Request a Large Item Pick Up",
    "date_created": "2022-10-10T18:13:49.000",
    "date_modified": "2022-10-10T18:13:50.000",
    "request_status": "Pending",
    "responsible_agency": "Department of Sanitation",
    "final_address": "8736 Chef Menteur Hwy",
    "address_councildis": "E",
    "status": "Assigned to Contractor",
    "contractor": "Metro Disposal",
    "rowid": "927512",
    "final_x": "3707978.4204",
    "final_y": "553322.313687",
    "longitude": "-89.98365085069396",
    "latitude": "30.014613389690897",
    "geocoded_column": {
      "latitude": "30.014613389690897",
      "longitude": "-89.98365085069396"
    }
  },
  {
    "service_request": "2022-927511",
    "request_type": "Trash/Recycling",
    "request_reason": "Replace Trash Cart",
    "date_created": "2022-10-10T18:08:44.000",
    "date_modified": "2022-10-10T18:08:44.000",
    "case_close_date": "2022-06-13T19:00:00.000",
    "request_status": "Pending",
    "responsible_agency": "Department of Sanitation",
    "final_address": "7816 Primrose Dr",
    "address_councildis": "E",
    "status": "Assigned to Contractor",
    "contractor": "Metro Disposal",
    "rowid": "927511",
    "final_x": "3701458.71063",
    "final_y": "561776.349855",
    "longitude": "-90.00393991236727",
    "latitude": "30.038068277625282",
    "geocoded_column": {
      "latitude": "30.038068277625282",
      "longitude": "-90.00393991236727"
    }
  },
  {
    "service_request": "2022-927510",
    "request_type": "Abandoned Vehicles",
    "request_reason": "Abandoned/Junk Vehicles",
    "date_created": "2022-10-10T18:06:41.000",
    "date_modified": "2022-10-10T18:06:41.000",
    "request_status": "Pending",
    "responsible_agency": "Department of Public Works",
    "final_address": "1435 Pauline St",
    "address_councildis": "D",
    "status": "Pending",
    "rowid": "927510",
    "final_x": "3691596.21308",
    "final_y": "536840.713096",
    "longitude": "-90.03600001645475",
    "latitude": "29.96981537274349",
    "geocoded_column": {
      "latitude": "29.96981537274349",
      "longitude": "-90.03600001645475"
    }
  },
  {
    "service_request": "2022-927509",
    "request_type": "Abandoned Vehicles",
    "request_reason": "Abandoned/Junk Vehicles",
    "date_created": "2022-10-10T18:05:00.000",
    "date_modified": "2022-10-10T18:16:08.000",
    "request_status": "Pending",
    "responsible_agency": "Department of Public Works",
    "final_address": "8540 Spruce St",
    "address_councildis": "A",
    "status": "Pending",
    "rowid": "927509",
    "final_x": "3662538.63303",
    "final_y": "531590.099715",
    "longitude": "-90.1279414602248",
    "latitude": "29.95625052568601",
    "geocoded_column": {
      "latitude": "29.95625052568601",
      "longitude": "-90.1279414602248"
    }
  },
  {
    "service_request": "2022-927508",
    "request_type": "Trash/Recycling",
    "request_reason": "Illegal Dumping",
    "date_created": "2022-10-10T18:04:17.000",
    "date_modified": "2022-10-10T18:04:17.000",
    "request_status": "Pending",
    "responsible_agency": "Department of Sanitation",
    "final_address": "3005 N Claiborne Ave",
    "address_councildis": "D",
    "status": "Pending",
    "rowid": "927508",
    "final_x": "3688991.55753",
    "final_y": "538054.952393",
    "longitude": "-90.04418259357315",
    "latitude": "29.97323493457048",
    "geocoded_column": {
      "latitude": "29.97323493457048",
      "longitude": "-90.04418259357315"
    }
  },
  {
    "service_request": "2022-927506",
    "request_type": "Trash/Recycling",
    "request_reason": "Illegal Dumping",
    "date_created": "2022-10-10T17:54:16.000",
    "date_modified": "2022-10-10T17:54:16.000",
    "request_status": "Pending",
    "responsible_agency": "Department of Sanitation",
    "final_address": "3016 N Johnson St",
    "address_councildis": "D",
    "status": "Pending",
    "rowid": "927506",
    "final_x": "3689415.84681",
    "final_y": "539405.18433",
    "longitude": "-90.04279457880779",
    "latitude": "29.976934462739326",
    "geocoded_column": {
      "latitude": "29.976934462739326",
      "longitude": "-90.04279457880779"
    }
  },
  {
    "service_request": "2022-927505",
    "request_type": "Taxi Issues",
    "request_reason": "Taxi Complaint",
    "date_created": "2022-10-10T17:49:10.000",
    "date_modified": "2022-10-10T17:49:11.000",
    "request_status": "Pending",
    "responsible_agency": "Ground Transportation Bureau",
    "status": "Pending",
    "rowid": "927505",
    "longitude": "0.0",
    "latitude": "0.0",
    "geocoded_column": {
      "latitude": "0.0",
      "longitude": "0.0"
    }
  },
  {
    "service_request": "2022-927504",
    "request_type": "Abandoned Vehicles",
    "request_reason": "Abandoned/Junk Vehicles",
    "date_created": "2022-10-10T17:43:26.000",
    "date_modified": "2022-10-10T17:43:26.000",
    "request_status": "Pending",
    "responsible_agency": "Department of Public Works",
    "final_address": "2420 Spain St",
    "address_councildis": "D",
    "status": "Pending",
    "rowid": "927504",
    "final_x": "3685689.7501",
    "final_y": "541407.133004",
    "longitude": "-90.05449218834279",
    "latitude": "29.982553983254686",
    "geocoded_column": {
      "latitude": "29.982553983254686",
      "longitude": "-90.05449218834279"
    }
  },
  {
    "service_request": "2022-927502",
    "request_type": "Roads/Drainage",
    "request_reason": "Pothole",
    "date_created": "2022-10-10T17:33:54.000",
    "date_modified": "2022-10-10T17:33:54.000",
    "request_status": "Pending",
    "responsible_agency": "Department of Public Works",
    "final_address": "5607 Annunciation St",
    "address_councildis": "A",
    "status": "Pending",
    "rowid": "927502",
    "final_x": "3665754.72",
    "final_y": "517583.224246",
    "longitude": "-90.11825511395456",
    "latitude": "29.917642670207297",
    "geocoded_column": {
      "latitude": "29.917642670207297",
      "longitude": "-90.11825511395456"
    }
  },
  {
    "service_request": "2022-927501",
    "request_type": "Traffic Signals/Signs/Striping/Streetlights",
    "request_reason": "Street Light Outage/Malfunction",
    "date_created": "2022-10-10T17:29:48.000",
    "date_modified": "2022-10-10T17:29:48.000",
    "request_status": "Pending",
    "responsible_agency": "Department of Public Works",
    "final_address": "PALM ST & DANTE ST",
    "address_councildis": "A",
    "status": "Pending",
    "contractor": "Legacy Professional Services",
    "rowid": "927501",
    "final_x": "3667180.6",
    "final_y": "535182.28",
    "longitude": "-90.11316284963266",
    "latitude": "29.965992749386018",
    "geocoded_column": {
      "latitude": "29.965992749386018",
      "longitude": "-90.11316284963266"
    }
  },
  {
    "service_request": "2022-927500",
    "request_type": "Trash/Recycling",
    "request_reason": "MIssed Recycling Pick-Up",
    "date_created": "2022-10-10T17:28:31.000",
    "date_modified": "2022-10-10T17:28:32.000",
    "request_status": "Pending",
    "responsible_agency": "Department of Sanitation",
    "final_address": "4724 Laurel St",
    "address_councildis": "B",
    "status": "Assigned to Contractor",
    "contractor": "Richards Disposal",
    "rowid": "927500",
    "final_x": "3669800.45351",
    "final_y": "517877.58591",
    "longitude": "-90.10547499583606",
    "latitude": "29.91833348525965",
    "geocoded_column": {
      "latitude": "29.91833348525965",
      "longitude": "-90.10547499583606"
    }
  },
  {
    "service_request": "2022-927499",
    "request_type": "Trash/Recycling",
    "request_reason": "Order Trash Cart",
    "date_created": "2022-10-10T17:28:06.000",
    "date_modified": "2022-10-10T17:28:07.000",
    "request_status": "Pending",
    "responsible_agency": "Department of Sanitation",
    "final_address": "1023 Frenchmen St",
    "address_councildis": "C",
    "status": "Assigned to Contractor",
    "contractor": "Metro Disposal",
    "rowid": "927499",
    "final_x": "3684634.56809",
    "final_y": "536107.626503",
    "longitude": "-90.05801127067996",
    "latitude": "29.968014531770297",
    "geocoded_column": {
      "latitude": "29.968014531770297",
      "longitude": "-90.05801127067996"
    }
  },
  {
    "service_request": "2022-927498",
    "request_type": "Trash/Recycling",
    "request_reason": "MIssed Recycling Pick-Up",
    "date_created": "2022-10-10T17:28:03.000",
    "date_modified": "2022-10-10T17:28:04.000",
    "request_status": "Pending",
    "responsible_agency": "Department of Sanitation",
    "final_address": "2515 N Rampart St",
    "address_councildis": "C",
    "status": "Assigned to Contractor",
    "contractor": "Metro Disposal",
    "rowid": "927498",
    "final_x": "3686650.49602",
    "final_y": "536102.920263",
    "longitude": "-90.05164507830017",
    "latitude": "29.967939742381322",
    "geocoded_column": {
      "latitude": "29.967939742381322",
      "longitude": "-90.05164507830017"
    }
  },
  {
    "service_request": "2022-927497",
    "request_type": "Trash/Recycling",
    "request_reason": "Repair Trash Cart",
    "date_created": "2022-10-10T17:27:59.000",
    "date_modified": "2022-10-10T17:28:00.000",
    "request_status": "Pending",
    "responsible_agency": "Department of Sanitation",
    "final_address": "126 Sherwood Forest Dr",
    "address_councildis": "A",
    "status": "Assigned to Contractor",
    "contractor": "Richards Disposal",
    "rowid": "927497",
    "final_x": "3673145.99374",
    "final_y": "541024.086923",
    "longitude": "-90.09412475355654",
    "latitude": "29.98187971911964",
    "geocoded_column": {
      "latitude": "29.98187971911964",
      "longitude": "-90.09412475355654"
    }
  },
  {
    "service_request": "2022-927496",
    "request_type": "Property Maintenance",
    "request_reason": "Property Maintenance",
    "date_created": "2022-10-10T17:14:12.000",
    "date_modified": "2022-10-10T17:14:12.000",
    "request_status": "Pending",
    "responsible_agency": "Department of Code Enforcement",
    "final_address": "7801 Shubert St",
    "address_councildis": "E",
    "status": "Pending",
    "rowid": "927496",
    "final_x": "3695638.45155",
    "final_y": "559314.124957",
    "longitude": "-90.02242234279099",
    "latitude": "30.031482492025",
    "geocoded_column": {
      "latitude": "30.031482492025",
      "longitude": "-90.02242234279099"
    }
  },
  {
    "service_request": "2022-927495",
    "request_type": "Trash/Recycling",
    "request_reason": "Missed Trash Pick-Up",
    "date_created": "2022-10-10T17:00:11.000",
    "date_modified": "2022-10-10T17:00:12.000",
    "request_status": "Pending",
    "responsible_agency": "Department of Sanitation",
    "final_address": "6207 Delord St, New Orleans, Louisiana, 70118",
    "address_councildis": "A",
    "status": "Assigned to Contractor",
    "contractor": "Richards Disposal",
    "rowid": "927495",
    "final_x": "3666507.74631",
    "final_y": "526302.546366",
    "longitude": "-90.11558572848548",
    "latitude": "29.94159606218611",
    "geocoded_column": {
      "latitude": "29.94159606218611",
      "longitude": "-90.11558572848548"
    }
  },
  {
    "service_request": "2022-927494",
    "request_type": "Trash/Recycling",
    "request_reason": "Order Trash Cart",
    "date_created": "2022-10-10T16:58:12.000",
    "date_modified": "2022-10-10T16:58:13.000",
    "request_status": "Pending",
    "responsible_agency": "Department of Sanitation",
    "final_address": "2604 Palmer Ave, New Orleans, Louisiana, 70118",
    "address_councildis": "A",
    "status": "Assigned to Contractor",
    "contractor": "Richards Disposal",
    "rowid": "927494",
    "final_x": "3666554.07719",
    "final_y": "526300.199614",
    "longitude": "-90.11543953082351",
    "latitude": "29.94158825539797",
    "geocoded_column": {
      "latitude": "29.94158825539797",
      "longitude": "-90.11543953082351"
    }
  },
  {
    "service_request": "2022-927493",
    "request_type": "Abandoned Vehicles",
    "request_reason": "Abandoned/Junk Vehicles",
    "date_created": "2022-10-10T16:57:20.000",
    "date_modified": "2022-10-10T16:57:21.000",
    "request_status": "Pending",
    "responsible_agency": "Department of Public Works",
    "final_address": "72 Neron Pl",
    "address_councildis": "A",
    "status": "Pending",
    "rowid": "927493",
    "final_x": "3665897.68436",
    "final_y": "529930.817601",
    "longitude": "-90.11739026354586",
    "latitude": "29.951590449771775",
    "geocoded_column": {
      "latitude": "29.951590449771775",
      "longitude": "-90.11739026354586"
    }
  },
  {
    "service_request": "2022-927492",
    "request_type": "Trash/Recycling",
    "request_reason": "Replace Trash Cart",
    "date_created": "2022-10-10T16:54:29.000",
    "date_modified": "2022-10-10T16:54:29.000",
    "request_status": "Pending",
    "responsible_agency": "Department of Sanitation",
    "final_address": "4313 Ulloa St",
    "address_councildis": "A",
    "status": "Assigned to Contractor",
    "contractor": "Richards Disposal",
    "rowid": "927492",
    "final_x": "3668807.29588",
    "final_y": "537231.169224",
    "longitude": "-90.10795657886655",
    "latitude": "29.97157878044144",
    "geocoded_column": {
      "latitude": "29.97157878044144",
      "longitude": "-90.10795657886655"
    }
  },
  {
    "service_request": "2022-927491",
    "request_type": "Trash/Recycling",
    "request_reason": "Repair Trash Cart",
    "date_created": "2022-10-10T16:43:55.000",
    "date_modified": "2022-10-10T16:43:55.000",
    "request_status": "Pending",
    "responsible_agency": "Department of Sanitation",
    "final_address": "315 N White St",
    "address_councildis": "B",
    "status": "Assigned to Contractor",
    "contractor": "Richards Disposal",
    "rowid": "927491",
    "final_x": "3675385.16744",
    "final_y": "536283.318855",
    "longitude": "-90.08721521138247",
    "latitude": "29.968777450648243",
    "geocoded_column": {
      "latitude": "29.968777450648243",
      "longitude": "-90.08721521138247"
    }
  },
  {
    "service_request": "2022-927490",
    "request_type": "Roads/Drainage",
    "request_reason": "Street Subsidence (Sinking)",
    "date_created": "2022-10-10T16:43:18.000",
    "date_modified": "2022-10-10T16:43:18.000",
    "request_status": "Pending",
    "responsible_agency": "Department of Public Works",
    "final_address": "9408 Palm St",
    "address_councildis": "A",
    "status": "Pending",
    "rowid": "927490",
    "final_x": "3664198.11546",
    "final_y": "537835.589001",
    "longitude": "-90.12249295035443",
    "latitude": "29.97337546338181",
    "geocoded_column": {
      "latitude": "29.97337546338181",
      "longitude": "-90.12249295035443"
    }
  },
  {
    "service_request": "2022-927489",
    "request_type": "Property Maintenance",
    "request_reason": "Property Maintenance",
    "date_created": "2022-10-10T16:42:25.000",
    "date_modified": "2022-10-10T16:42:25.000",
    "request_status": "Pending",
    "responsible_agency": "Department of Code Enforcement",
    "final_address": "1420 Charbonnet St",
    "address_councildis": "E",
    "status": "Pending",
    "rowid": "927489",
    "final_x": "3698889.86039",
    "final_y": "534910.40167",
    "longitude": "-90.01303638214634",
    "latitude": "29.96427862746914",
    "geocoded_column": {
      "latitude": "29.96427862746914",
      "longitude": "-90.01303638214634"
    }
  },
  {
    "service_request": "2022-927488",
    "request_type": "Trash/Recycling",
    "request_reason": "Request a Large Item Pick Up",
    "date_created": "2022-10-10T16:40:42.000",
    "date_modified": "2022-10-10T16:40:42.000",
    "request_status": "Pending",
    "responsible_agency": "Department of Sanitation",
    "final_address": "MICHOUD BLVD & SIX FLAGS PKWY",
    "address_councildis": "E",
    "status": "Assigned to Contractor",
    "contractor": "Metro Disposal",
    "rowid": "927488",
    "final_x": "3724634.1",
    "final_y": "566081.38",
    "longitude": "-89.9305342809073",
    "latitude": "30.04914564884181",
    "geocoded_column": {
      "latitude": "30.04914564884181",
      "longitude": "-89.9305342809073"
    }
  },
  {
    "service_request": "2022-927487",
    "request_type": "Roads/Drainage",
    "request_reason": "Street Flooding / Drainage",
    "date_created": "2022-10-10T16:36:56.000",
    "date_modified": "2022-10-10T16:36:56.000",
    "request_status": "Pending",
    "responsible_agency": "Department of Public Works",
    "final_address": "9217 Palm St",
    "address_councildis": "A",
    "status": "Pending",
    "rowid": "927487",
    "final_x": "3664815.53792",
    "final_y": "537403.788424",
    "longitude": "-90.1205574286545",
    "latitude": "29.972170200701587",
    "geocoded_column": {
      "latitude": "29.972170200701587",
      "longitude": "-90.1205574286545"
    }
  },
  {
    "service_request": "2022-927486",
    "request_type": "Trash/Recycling",
    "request_reason": "Order Recycling Cart",
    "date_created": "2022-10-10T16:36:44.000",
    "date_modified": "2022-10-10T16:36:45.000",
    "request_status": "Pending",
    "responsible_agency": "Department of Sanitation",
    "final_address": "2528 Upperline St",
    "address_councildis": "B",
    "status": "Pending",
    "rowid": "927486",
    "final_x": "3669134.17844",
    "final_y": "524151.996348",
    "longitude": "-90.10736617670433",
    "latitude": "29.935605731640305",
    "geocoded_column": {
      "latitude": "29.935605731640305",
      "longitude": "-90.10736617670433"
    }
  },
  {
    "service_request": "2022-927485",
    "request_type": "Trash/Recycling",
    "request_reason": "Missed Trash Pick-Up",
    "date_created": "2022-10-10T16:35:05.000",
    "date_modified": "2022-10-10T16:35:06.000",
    "request_status": "Pending",
    "responsible_agency": "Department of Sanitation",
    "final_address": "1265 Foy St",
    "address_councildis": "D",
    "status": "Assigned to Contractor",
    "contractor": "Metro Disposal",
    "rowid": "927485",
    "final_x": "3677159.06824",
    "final_y": "546457.531473",
    "longitude": "-90.08126202631274",
    "latitude": "29.99669984859133",
    "geocoded_column": {
      "latitude": "29.99669984859133",
      "longitude": "-90.08126202631274"
    }
  },
  {
    "service_request": "2022-927484",
    "request_type": "Trash/Recycling",
    "request_reason": "Repair Trash Cart",
    "date_created": "2022-10-10T16:25:48.000",
    "date_modified": "2022-10-10T16:25:49.000",
    "request_status": "Pending",
    "responsible_agency": "Department of Sanitation",
    "final_address": "1530 Hermosa St",
    "address_councildis": "C",
    "status": "Assigned to Contractor",
    "contractor": "Richards Disposal",
    "rowid": "927484",
    "final_x": "3687634.80911",
    "final_y": "525695.586173",
    "longitude": "-90.04890501094886",
    "latitude": "29.939292838442885",
    "geocoded_column": {
      "latitude": "29.939292838442885",
      "longitude": "-90.04890501094886"
    }
  },
  {
    "service_request": "2022-927483",
    "request_type": "Trash/Recycling",
    "request_reason": "Request a Large Item Pick Up",
    "date_created": "2022-10-10T16:23:53.000",
    "date_modified": "2022-10-10T16:23:53.000",
    "request_status": "Pending",
    "responsible_agency": "Department of Sanitation",
    "final_address": "916 Florida Blvd",
    "address_councildis": "A",
    "status": "Assigned to Contractor",
    "contractor": "Metro Disposal",
    "rowid": "927483",
    "final_x": "3669840.35514",
    "final_y": "545143.305295",
    "longitude": "-90.10442602293853",
    "latitude": "29.993304045915306",
    "geocoded_column": {
      "latitude": "29.993304045915306",
      "longitude": "-90.10442602293853"
    }
  },
  {
    "service_request": "2022-927482",
    "request_type": "Roads/Drainage",
    "request_reason": "Debris in Roadway",
    "date_created": "2022-10-10T16:22:36.000",
    "date_modified": "2022-10-10T16:22:37.000",
    "request_status": "Pending",
    "responsible_agency": "Department of Public Works",
    "final_address": "4000 BLK Perrier St",
    "address_councildis": "B",
    "status": "Pending",
    "rowid": "927482",
    "final_x": "3672212.54366",
    "final_y": "520198.247777",
    "longitude": "-90.0977823171258",
    "latitude": "29.924643272933203",
    "geocoded_column": {
      "latitude": "29.924643272933203",
      "longitude": "-90.0977823171258"
    }
  },
  {
    "service_request": "2022-927481",
    "request_type": "Trash/Recycling",
    "request_reason": "Repair Trash Cart",
    "date_created": "2022-10-10T16:14:53.000",
    "date_modified": "2022-10-10T16:14:54.000",
    "request_status": "Pending",
    "responsible_agency": "Department of Sanitation",
    "final_address": "1509 Richland Rd",
    "address_councildis": "C",
    "status": "Assigned to Contractor",
    "contractor": "Richards Disposal",
    "rowid": "927481",
    "final_x": "3697867.46416",
    "final_y": "525656.525821",
    "longitude": "-90.01660081953771",
    "latitude": "29.938866075348155",
    "geocoded_column": {
      "latitude": "29.938866075348155",
      "longitude": "-90.01660081953771"
    }
  },
  {
    "service_request": "2022-927480",
    "request_type": "Trash/Recycling",
    "request_reason": "Repair Trash Cart",
    "date_created": "2022-10-10T16:00:11.000",
    "date_modified": "2022-10-10T16:00:11.000",
    "request_status": "Pending",
    "responsible_agency": "Department of Sanitation",
    "final_address": "2123 N Johnson St",
    "address_councildis": "D",
    "status": "Assigned to Contractor",
    "contractor": "Metro Disposal",
    "rowid": "927480",
    "final_x": "3684482.99369",
    "final_y": "539708.286154",
    "longitude": "-90.05836342280374",
    "latitude": "29.97791972915184",
    "geocoded_column": {
      "latitude": "29.97791972915184",
      "longitude": "-90.05836342280374"
    }
  },
  {
    "service_request": "2022-927479",
    "request_type": "Roads/Drainage",
    "request_reason": "Street Flooding / Drainage",
    "date_created": "2022-10-10T15:58:08.000",
    "date_modified": "2022-10-10T15:58:09.000",
    "request_status": "Pending",
    "responsible_agency": "Department of Public Works",
    "final_address": "800 BLK Homer Plessy Way",
    "address_councildis": "C",
    "status": "Pending",
    "rowid": "927479",
    "final_x": "3687823.50161",
    "final_y": "535266.109045",
    "longitude": "-90.04797034147244",
    "latitude": "29.965602673742872",
    "geocoded_column": {
      "latitude": "29.965602673742872",
      "longitude": "-90.04797034147244"
    }
  },
  {
    "service_request": "2022-927478",
    "request_type": "Trash/Recycling",
    "request_reason": "MIssed Recycling Pick-Up",
    "date_created": "2022-10-10T15:56:01.000",
    "date_modified": "2022-10-10T15:56:01.000",
    "request_status": "Pending",
    "responsible_agency": "Department of Sanitation",
    "final_address": "5620 Berkley Dr",
    "address_councildis": "C",
    "status": "Assigned to Contractor",
    "contractor": "Richards Disposal",
    "rowid": "927478",
    "final_x": "3704689.73681",
    "final_y": "518198.01791",
    "longitude": "-89.99533726034052",
    "latitude": "29.91814045152805",
    "geocoded_column": {
      "latitude": "29.91814045152805",
      "longitude": "-89.99533726034052"
    }
  },
  {
    "service_request": "2022-927477",
    "request_type": "Trash/Recycling",
    "request_reason": "Order Recycling Cart",
    "date_created": "2022-10-10T15:52:44.000",
    "date_modified": "2022-10-10T15:52:45.000",
    "request_status": "Pending",
    "responsible_agency": "Department of Sanitation",
    "final_address": "6414 Music St",
    "address_councildis": "D",
    "status": "Pending",
    "rowid": "927477",
    "final_x": "3685162.64322",
    "final_y": "556790.763802",
    "longitude": "-90.05561523682371",
    "latitude": "30.024869569281854",
    "geocoded_column": {
      "latitude": "30.024869569281854",
      "longitude": "-90.05561523682371"
    }
  },
  {
    "service_request": "2022-927476",
    "request_type": "Parks & Parkways",
    "request_reason": "Tree Stump (removal, grind)",
    "date_created": "2022-10-10T15:50:23.000",
    "date_modified": "2022-10-10T15:50:23.000",
    "request_status": "Pending",
    "responsible_agency": "Department of Parks & Parkway",
    "final_address": "1000 S Peters St",
    "address_councildis": "B",
    "status": "Pending",
    "rowid": "927476",
    "final_x": "3682329.9165",
    "final_y": "526507.410366",
    "longitude": "-90.0656248601228",
    "latitude": "29.94168752696711",
    "geocoded_column": {
      "latitude": "29.94168752696711",
      "longitude": "-90.0656248601228"
    }
  },
  {
    "service_request": "2022-927475",
    "request_type": "Abandoned Vehicles",
    "request_reason": "Abandoned/Junk Vehicles",
    "date_created": "2022-10-10T15:50:01.000",
    "date_modified": "2022-10-10T15:50:01.000",
    "request_status": "Pending",
    "responsible_agency": "Department of Public Works",
    "final_address": "2632 Comet St",
    "address_councildis": "C",
    "status": "Pending",
    "rowid": "927475",
    "final_x": "3699876.38442",
    "final_y": "521199.909049",
    "longitude": "-90.01042091341756",
    "latitude": "29.92654829270694",
    "geocoded_column": {
      "latitude": "29.92654829270694",
      "longitude": "-90.01042091341756"
    }
  },
  {
    "service_request": "2022-927473",
    "request_type": "Abandoned Vehicles",
    "request_reason": "Abandoned/Junk Vehicles",
    "date_created": "2022-10-10T15:44:40.000",
    "date_modified": "2022-10-10T15:44:40.000",
    "request_status": "Pending",
    "responsible_agency": "Department of Public Works",
    "final_address": "400 Elmira Ave",
    "address_councildis": "C",
    "status": "Pending",
    "rowid": "927473",
    "final_x": "3688275.27452",
    "final_y": "530286.594881",
    "longitude": "-90.04672023477495",
    "latitude": "29.95189679045698",
    "geocoded_column": {
      "latitude": "29.95189679045698",
      "longitude": "-90.04672023477495"
    }
  },
  {
    "service_request": "2022-927472",
    "request_type": "Abandoned Vehicles",
    "request_reason": "Abandoned/Junk Vehicles",
    "date_created": "2022-10-10T15:41:15.000",
    "date_modified": "2022-10-10T15:41:15.000",
    "request_status": "Pending",
    "responsible_agency": "Department of Public Works",
    "final_address": "1254 N Villere St",
    "address_councildis": "C",
    "status": "Pending",
    "rowid": "927472",
    "final_x": "3681741.05583",
    "final_y": "535987.455047",
    "longitude": "-90.0671532733442",
    "latitude": "29.967772336615024",
    "geocoded_column": {
      "latitude": "29.967772336615024",
      "longitude": "-90.0671532733442"
    }
  },
  {
    "service_request": "2022-927471",
    "request_type": "Trash/Recycling",
    "request_reason": "Missed Trash Pick-Up",
    "date_created": "2022-10-10T15:35:38.000",
    "date_modified": "2022-10-10T15:35:38.000",
    "request_status": "Pending",
    "responsible_agency": "Department of Sanitation",
    "final_address": "3539 Oliver St",
    "address_councildis": "C",
    "status": "Assigned to Contractor",
    "contractor": "Richards Disposal",
    "rowid": "927471",
    "final_x": "3714218.19179",
    "final_y": "517655.62239",
    "longitude": "-89.96528186124544",
    "latitude": "29.916339679095497",
    "geocoded_column": {
      "latitude": "29.916339679095497",
      "longitude": "-89.96528186124544"
    }
  },
  {
    "service_request": "2022-927470",
    "request_type": "Abandoned Vehicles",
    "request_reason": "Abandoned/Junk Vehicles",
    "date_created": "2022-10-10T15:30:34.000",
    "date_modified": "2022-10-10T15:30:34.000",
    "request_status": "Pending",
    "responsible_agency": "Department of Public Works",
    "final_address": "1722 N Tonti St",
    "address_councildis": "D",
    "status": "Pending",
    "rowid": "927470",
    "final_x": "3680806.66722",
    "final_y": "540012.789643",
    "longitude": "-90.06996393761757",
    "latitude": "29.978868973802165",
    "geocoded_column": {
      "latitude": "29.978868973802165",
      "longitude": "-90.06996393761757"
    }
  },
  {
    "service_request": "2022-927469",
    "request_type": "Trash/Recycling",
    "request_reason": "Request a Large Item Pick Up",
    "date_created": "2022-10-10T15:25:22.000",
    "date_modified": "2022-10-10T15:25:22.000",
    "request_status": "Pending",
    "responsible_agency": "Department of Sanitation",
    "final_address": "13300 Granville St",
    "address_councildis": "E",
    "status": "Assigned to Contractor",
    "contractor": "Metro Disposal",
    "rowid": "927469",
    "final_x": "3725170.52755",
    "final_y": "561927.022111",
    "longitude": "-89.9289997928431",
    "latitude": "30.037704818952445",
    "geocoded_column": {
      "latitude": "30.037704818952445",
      "longitude": "-89.9289997928431"
    }
  },
  {
    "service_request": "2022-927468",
    "request_type": "Trash/Recycling",
    "request_reason": "Replace Recycling Cart",
    "date_created": "2022-10-10T15:23:36.000",
    "date_modified": "2022-10-10T15:23:36.000",
    "request_status": "Pending",
    "responsible_agency": "Department of Sanitation",
    "final_address": "48 Neron Pl",
    "address_councildis": "A",
    "status": "Pending",
    "rowid": "927468",
    "final_x": "3665493.80884",
    "final_y": "530321.454146",
    "longitude": "-90.11865243683334",
    "latitude": "29.952676351916075",
    "geocoded_column": {
      "latitude": "29.952676351916075",
      "longitude": "-90.11865243683334"
    }
  },
  {
    "service_request": "2022-927467",
    "request_type": "Property Maintenance",
    "request_reason": "Property Maintenance",
    "date_created": "2022-10-10T15:22:25.000",
    "date_modified": "2022-10-10T15:22:25.000",
    "request_status": "Pending",
    "responsible_agency": "Department of Code Enforcement",
    "final_address": "8926 Forshey St",
    "address_councildis": "A",
    "status": "Pending",
    "rowid": "927467",
    "final_x": "3664710.99872",
    "final_y": "535961.134471",
    "longitude": "-90.12093579036345",
    "latitude": "29.968206421889406",
    "geocoded_column": {
      "latitude": "29.968206421889406",
      "longitude": "-90.12093579036345"
    }
  },
  {
    "service_request": "2022-927466",
    "request_type": "Trash/Recycling",
    "request_reason": "Request a Large Item Pick Up",
    "date_created": "2022-10-10T15:19:37.000",
    "date_modified": "2022-10-10T15:19:37.000",
    "request_status": "Pending",
    "responsible_agency": "Department of Sanitation",
    "final_address": "3138 Hudson Pl",
    "address_councildis": "C",
    "status": "Assigned to Contractor",
    "contractor": "Richards Disposal",
    "rowid": "927466",
    "final_x": "3702991.71818",
    "final_y": "519111.303479",
    "longitude": "-90.00066341805007",
    "latitude": "29.920706082952442",
    "geocoded_column": {
      "latitude": "29.920706082952442",
      "longitude": "-90.00066341805007"
    }
  },
  {
    "service_request": "2022-927463",
    "request_type": "Trash/Recycling",
    "request_reason": "MIssed Recycling Pick-Up",
    "date_created": "2022-10-10T15:13:54.000",
    "date_modified": "2022-10-10T15:13:54.000",
    "request_status": "Pending",
    "responsible_agency": "Department of Sanitation",
    "final_address": "3122 Hamilton St",
    "address_councildis": "A",
    "status": "Assigned to Contractor",
    "contractor": "Richards Disposal",
    "rowid": "927463",
    "final_x": "3664036.48359",
    "final_y": "535942.806919",
    "longitude": "-90.12306655849386",
    "latitude": "29.96817563412154",
    "geocoded_column": {
      "latitude": "29.96817563412154",
      "longitude": "-90.12306655849386"
    }
  },
  {
    "service_request": "2022-927462",
    "request_type": "Traffic Signals/Signs/Striping/Streetlights",
    "request_reason": "Traffic Signal Malfunctioning/Damaged",
    "date_created": "2022-10-10T15:13:19.000",
    "date_modified": "2022-10-10T15:13:19.000",
    "request_status": "Pending",
    "responsible_agency": "Department of Public Works",
    "final_address": "6325 Cromwell Pl",
    "address_councildis": "A",
    "status": "Pending",
    "rowid": "927462",
    "final_x": "3665234.09645",
    "final_y": "524212.116412",
    "longitude": "-90.11967681803249",
    "latitude": "29.93588520510346",
    "geocoded_column": {
      "latitude": "29.93588520510346",
      "longitude": "-90.11967681803249"
    }
  },
  {
    "service_request": "2022-927461",
    "request_type": "Trash/Recycling",
    "request_reason": "Missed Trash Pick-Up",
    "date_created": "2022-10-10T15:13:17.000",
    "date_modified": "2022-10-10T15:13:17.000",
    "request_status": "Pending",
    "responsible_agency": "Department of Sanitation",
    "final_address": "828 Harmony St, New Orleans, Louisiana, 70115",
    "address_councildis": "B",
    "status": "Assigned to Contractor",
    "contractor": "Richards Disposal",
    "rowid": "927461",
    "final_x": "3674392.68948",
    "final_y": "522702.053818",
    "longitude": "-90.09081461402943",
    "latitude": "29.931463110514738",
    "geocoded_column": {
      "latitude": "29.931463110514738",
      "longitude": "-90.09081461402943"
    }
  },
  {
    "service_request": "2022-927460",
    "request_type": "Roads/Drainage",
    "request_reason": "Accessibility Ramps, Curbs and Sidewalk Repair",
    "date_created": "2022-10-10T15:10:25.000",
    "date_modified": "2022-10-10T15:10:25.000",
    "request_status": "Pending",
    "responsible_agency": "Department of Public Works",
    "final_address": "1603 Hollygrove St",
    "address_councildis": "A",
    "status": "Pending",
    "rowid": "927460",
    "final_x": "3660614.9767",
    "final_y": "531553.883587",
    "longitude": "-90.13401695048411",
    "latitude": "29.956206445962014",
    "geocoded_column": {
      "latitude": "29.956206445962014",
      "longitude": "-90.13401695048411"
    }
  },
  {
    "service_request": "2022-927459",
    "request_type": "Abandoned Vehicles",
    "request_reason": "Abandoned/Junk Vehicles",
    "date_created": "2022-10-10T15:10:08.000",
    "date_modified": "2022-10-10T15:10:08.000",
    "request_status": "Pending",
    "responsible_agency": "Department of Public Works",
    "final_address": "MARTIN LUTHER KING JR BLVD & S ROBERTSON ST",
    "address_councildis": "B",
    "status": "Pending",
    "rowid": "927459",
    "final_x": "3676125.5",
    "final_y": "527432.28",
    "longitude": "-90.08518167380313",
    "latitude": "29.94441790048263",
    "geocoded_column": {
      "latitude": "29.94441790048263",
      "longitude": "-90.08518167380313"
    }
  },
  {
    "service_request": "2022-927458",
    "request_type": "Trash/Recycling",
    "request_reason": "Request a Large Item Pick Up",
    "date_created": "2022-10-10T15:08:01.000",
    "date_modified": "2022-10-10T15:08:02.000",
    "request_status": "Pending",
    "responsible_agency": "Department of Sanitation",
    "final_address": "1115 Robert E Lee Blvd",
    "address_councildis": "D",
    "status": "Assigned to Contractor",
    "contractor": "Metro Disposal",
    "rowid": "927458",
    "final_x": "3674601.99643",
    "final_y": "554716.942168",
    "longitude": "-90.0890563599312",
    "latitude": "30.01948687942195",
    "geocoded_column": {
      "latitude": "30.01948687942195",
      "longitude": "-90.0890563599312"
    }
  },
  {
    "service_request": "2022-927457",
    "request_type": "Trash/Recycling",
    "request_reason": "Missed Trash Pick-Up",
    "date_created": "2022-10-10T15:05:49.000",
    "date_modified": "2022-10-10T15:05:50.000",
    "request_status": "Pending",
    "responsible_agency": "Department of Sanitation",
    "final_address": "2116 Chartres St, New Orleans, Louisiana, 70116",
    "address_councildis": "C",
    "status": "Assigned to Contractor",
    "contractor": "Metro Disposal",
    "rowid": "927457",
    "final_x": "3684875.33154",
    "final_y": "534459.265733",
    "longitude": "-90.05730890241797",
    "latitude": "29.963474739350968",
    "geocoded_column": {
      "latitude": "29.963474739350968",
      "longitude": "-90.05730890241797"
    }
  },
  {
    "service_request": "2022-927456",
    "request_type": "Trash/Recycling",
    "request_reason": "MIssed Recycling Pick-Up",
    "date_created": "2022-10-10T15:03:45.000",
    "date_modified": "2022-10-10T15:03:45.000",
    "request_status": "Pending",
    "responsible_agency": "Department of Sanitation",
    "final_address": "1217 St Mary St",
    "address_councildis": "B",
    "status": "Assigned to Contractor",
    "contractor": "Richards Disposal",
    "rowid": "927456",
    "final_x": "3679407.8349",
    "final_y": "523265.183419",
    "longitude": "-90.07496288117927",
    "latitude": "29.932861044042042",
    "geocoded_column": {
      "latitude": "29.932861044042042",
      "longitude": "-90.07496288117927"
    }
  },
  {
    "service_request": "2022-927455",
    "request_type": "Property Maintenance",
    "request_reason": "Property Maintenance",
    "date_created": "2022-10-10T15:02:16.000",
    "date_modified": "2022-10-10T15:02:16.000",
    "request_status": "Pending",
    "responsible_agency": "Department of Code Enforcement",
    "final_address": "6952 W Laverne St",
    "address_councildis": "D",
    "status": "Pending",
    "rowid": "927455",
    "final_x": "3695863.3224",
    "final_y": "556459.486682",
    "longitude": "-90.02181499513752",
    "latitude": "30.023626249002156",
    "geocoded_column": {
      "latitude": "30.023626249002156",
      "longitude": "-90.02181499513752"
    }
  },
  {
    "service_request": "2022-927454",
    "request_type": "Trash/Recycling",
    "request_reason": "MIssed Recycling Pick-Up",
    "date_created": "2022-10-10T15:00:55.000",
    "date_modified": "2022-10-10T15:00:56.000",
    "request_status": "Pending",
    "responsible_agency": "Department of Sanitation",
    "final_address": "1217 St Mary St",
    "address_councildis": "B",
    "status": "Assigned to Contractor",
    "contractor": "Richards Disposal",
    "rowid": "927454",
    "final_x": "3679407.8349",
    "final_y": "523265.183419",
    "longitude": "-90.07496288117927",
    "latitude": "29.932861044042042",
    "geocoded_column": {
      "latitude": "29.932861044042042",
      "longitude": "-90.07496288117927"
    }
  },
  {
    "service_request": "2022-927453",
    "request_type": "Trash/Recycling",
    "request_reason": "Replace Trash Cart",
    "date_created": "2022-10-10T14:59:06.000",
    "date_modified": "2022-10-10T14:59:07.000",
    "request_status": "Pending",
    "responsible_agency": "Department of Sanitation",
    "final_address": "316 Saint Joseph St., New Orleans 70130",
    "status": "Assigned to Contractor",
    "rowid": "927453",
    "longitude": "0.0",
    "latitude": "0.0",
    "geocoded_column": {
      "latitude": "0.0",
      "longitude": "0.0"
    }
  },
  {
    "service_request": "2022-927452",
    "request_type": "Trash/Recycling",
    "request_reason": "Illegal Dumping",
    "date_created": "2022-10-10T14:58:55.000",
    "date_modified": "2022-10-10T14:58:55.000",
    "request_status": "Pending",
    "responsible_agency": "Department of Sanitation",
    "final_address": "1940 Hermosa St",
    "address_councildis": "C",
    "status": "Pending",
    "rowid": "927452",
    "final_x": "3687966.38582",
    "final_y": "524118.417148",
    "longitude": "-90.04791404253241",
    "latitude": "29.934945931989343",
    "geocoded_column": {
      "latitude": "29.934945931989343",
      "longitude": "-90.04791404253241"
    }
  },
  {
    "service_request": "2022-927451",
    "request_type": "Roads/Drainage",
    "request_reason": "Pothole",
    "date_created": "2022-10-10T14:58:18.000",
    "date_modified": "2022-10-10T14:58:19.000",
    "request_status": "Pending",
    "responsible_agency": "Department of Public Works",
    "final_address": "5136 De Montluzin St",
    "address_councildis": "D",
    "status": "Pending",
    "rowid": "927451",
    "final_x": "3686991.00873",
    "final_y": "551850.885782",
    "longitude": "-90.05001273456456",
    "latitude": "30.01123054300761",
    "geocoded_column": {
      "latitude": "30.01123054300761",
      "longitude": "-90.05001273456456"
    }
  },
  {
    "service_request": "2022-927450",
    "request_type": "Roads/Drainage",
    "request_reason": "Pothole",
    "date_created": "2022-10-10T14:56:59.000",
    "date_modified": "2022-10-10T14:57:00.000",
    "request_status": "Pending",
    "responsible_agency": "Department of Public Works",
    "final_address": "S CLAIBORNE AVE & JENA ST",
    "address_councildis": "B",
    "status": "Pending",
    "rowid": "927450",
    "final_x": "3669962.0",
    "final_y": "525756.98",
    "longitude": "-90.10469839722614",
    "latitude": "29.939994538331103",
    "geocoded_column": {
      "latitude": "29.939994538331103",
      "longitude": "-90.10469839722614"
    }
  },
  {
    "service_request": "2022-927449",
    "request_type": "Trash/Recycling",
    "request_reason": "Illegal Dumping",
    "date_created": "2022-10-10T14:56:44.000",
    "date_modified": "2022-10-10T14:56:44.000",
    "request_status": "Pending",
    "responsible_agency": "Department of Sanitation",
    "final_address": "1940 Hermosa St",
    "address_councildis": "C",
    "status": "Pending",
    "rowid": "927449",
    "final_x": "3687966.38582",
    "final_y": "524118.417148",
    "longitude": "-90.04791404253241",
    "latitude": "29.934945931989343",
    "geocoded_column": {
      "latitude": "29.934945931989343",
      "longitude": "-90.04791404253241"
    }
  },
  {
    "service_request": "2022-927448",
    "request_type": "Trash/Recycling",
    "request_reason": "Order Trash Cart",
    "date_created": "2022-10-10T14:55:44.000",
    "date_modified": "2022-10-10T14:55:45.000",
    "request_status": "Pending",
    "responsible_agency": "Department of Sanitation",
    "final_address": "6800 Norwood Ct",
    "address_councildis": "E",
    "status": "Assigned to Contractor",
    "contractor": "Metro Disposal",
    "rowid": "927448",
    "final_x": "3701143.67767",
    "final_y": "556868.639834",
    "longitude": "-90.00511527160405",
    "latitude": "30.024584022556084",
    "geocoded_column": {
      "latitude": "30.024584022556084",
      "longitude": "-90.00511527160405"
    }
  },
  {
    "service_request": "2022-927447",
    "request_type": "Parks & Parkways",
    "request_reason": "Tree Stump (removal, grind)",
    "date_created": "2022-10-10T14:50:13.000",
    "date_modified": "2022-10-10T14:50:13.000",
    "request_status": "Pending",
    "responsible_agency": "Department of Parks & Parkway",
    "final_address": "800 S Peters St",
    "address_councildis": "B",
    "status": "Pending",
    "rowid": "927447",
    "final_x": "3682301.38101",
    "final_y": "527506.459391",
    "longitude": "-90.0656800571895",
    "latitude": "29.94443544510293",
    "geocoded_column": {
      "latitude": "29.94443544510293",
      "longitude": "-90.0656800571895"
    }
  },
  {
    "service_request": "2022-927446",
    "request_type": "Trash/Recycling",
    "request_reason": "Missed Trash Pick-Up",
    "date_created": "2022-10-10T14:47:51.000",
    "date_modified": "2022-10-10T14:47:52.000",
    "request_status": "Pending",
    "responsible_agency": "Department of Sanitation",
    "final_address": "6232 Delord St",
    "address_councildis": "A",
    "status": "Assigned to Contractor",
    "contractor": "Richards Disposal",
    "rowid": "927446",
    "final_x": "3666373.76826",
    "final_y": "526284.533822",
    "longitude": "-90.11600932979306",
    "latitude": "29.9415504479423",
    "geocoded_column": {
      "latitude": "29.9415504479423",
      "longitude": "-90.11600932979306"
    }
  },
  {
    "service_request": "2022-927445",
    "request_type": "Traffic Signals/Signs/Striping/Streetlights",
    "request_reason": "Street Light Outage/Malfunction",
    "date_created": "2022-10-10T14:47:21.000",
    "date_modified": "2022-10-10T14:47:22.000",
    "request_status": "Pending",
    "responsible_agency": "Department of Public Works",
    "final_address": "5820 Tullis Dr",
    "address_councildis": "C",
    "status": "Pending",
    "contractor": "Legacy Professional Services",
    "rowid": "927445",
    "final_x": "3705486.29649",
    "final_y": "513083.841841",
    "longitude": "-89.99301179840062",
    "latitude": "29.904052624478098",
    "geocoded_column": {
      "latitude": "29.904052624478098",
      "longitude": "-89.99301179840062"
    }
  },
  {
    "service_request": "2022-927444",
    "request_type": "Traffic Signals/Signs/Striping/Streetlights",
    "request_reason": "Street Light Outage/Malfunction",
    "date_created": "2022-10-10T14:45:58.000",
    "date_modified": "2022-10-10T14:48:46.000",
    "request_status": "Pending",
    "responsible_agency": "Department of Public Works",
    "final_address": "3641 Rue Colette",
    "address_councildis": "C",
    "status": "Pending",
    "contractor": "Legacy Professional Services",
    "rowid": "927444",
    "final_x": "3704450.70148",
    "final_y": "516976.842549",
    "longitude": "-89.99613674243642",
    "latitude": "29.914790312731657",
    "geocoded_column": {
      "latitude": "29.914790312731657",
      "longitude": "-89.99613674243642"
    }
  },
  {
    "service_request": "2022-927443",
    "request_type": "Roads/Drainage",
    "request_reason": "Pothole",
    "date_created": "2022-10-10T14:41:22.000",
    "date_modified": "2022-10-10T14:41:23.000",
    "request_status": "Pending",
    "responsible_agency": "Department of Public Works",
    "final_address": "N JOHNSON ST & ELYSIAN FIELDS AVE",
    "address_councildis": "D",
    "status": "Pending",
    "rowid": "927443",
    "final_x": "3684698.0",
    "final_y": "539616.98",
    "longitude": "-90.057687569301",
    "latitude": "29.977662089315622",
    "geocoded_column": {
      "latitude": "29.977662089315622",
      "longitude": "-90.057687569301"
    }
  },
  {
    "service_request": "2022-927442",
    "request_type": "Roads/Drainage",
    "request_reason": "Pothole",
    "date_created": "2022-10-10T14:40:02.000",
    "date_modified": "2022-10-10T14:40:03.000",
    "request_status": "Pending",
    "responsible_agency": "Department of Public Works",
    "final_address": "1528 Franklin Ave",
    "address_councildis": "C",
    "status": "Pending",
    "rowid": "927442",
    "final_x": "3687458.27036",
    "final_y": "538224.000329",
    "longitude": "-90.0490190268025",
    "latitude": "29.97374710099205",
    "geocoded_column": {
      "latitude": "29.97374710099205",
      "longitude": "-90.0490190268025"
    }
  },
  {
    "service_request": "2022-927441",
    "request_type": "Roads/Drainage",
    "request_reason": "Pothole",
    "date_created": "2022-10-10T14:39:11.000",
    "date_modified": "2022-10-10T14:39:12.000",
    "request_status": "Pending",
    "responsible_agency": "Department of Public Works",
    "final_address": "4700 BLK De Montluzin St",
    "address_councildis": "D",
    "status": "Pending",
    "rowid": "927441",
    "final_x": "3687139.47017",
    "final_y": "550645.265623",
    "longitude": "-90.04958636069179",
    "latitude": "30.007910955804793",
    "geocoded_column": {
      "latitude": "30.007910955804793",
      "longitude": "-90.04958636069179"
    }
  },
  {
    "service_request": "2022-927440",
    "request_type": "Roads/Drainage",
    "request_reason": "Pothole",
    "date_created": "2022-10-10T14:37:12.000",
    "date_modified": "2022-10-10T14:37:13.000",
    "request_status": "Pending",
    "responsible_agency": "Department of Public Works",
    "final_address": "3819 Fairmont Dr",
    "address_councildis": "D",
    "status": "Pending",
    "rowid": "927440",
    "final_x": "3685142.61506",
    "final_y": "546591.883793",
    "longitude": "-90.05603776194496",
    "latitude": "29.996826982622444",
    "geocoded_column": {
      "latitude": "29.996826982622444",
      "longitude": "-90.05603776194496"
    }
  },
  {
    "service_request": "2022-927439",
    "request_type": "Roads/Drainage",
    "request_reason": "Pothole",
    "date_created": "2022-10-10T14:35:40.000",
    "date_modified": "2022-10-10T14:35:58.000",
    "case_close_date": "2022-07-06T19:00:00.000",
    "request_status": "Pending",
    "responsible_agency": "Department of Public Works",
    "final_address": "2401 Jasmine St",
    "address_councildis": "D",
    "rowid": "927439",
    "final_x": "3685607.42934",
    "final_y": "548018.73621",
    "longitude": "-90.05451913634228",
    "latitude": "30.000736058041092",
    "geocoded_column": {
      "latitude": "30.000736058041092",
      "longitude": "-90.05451913634228"
    }
  },
  {
    "service_request": "2022-927438",
    "request_type": "Roads/Drainage",
    "request_reason": "Pothole",
    "date_created": "2022-10-10T14:34:39.000",
    "date_modified": "2022-10-10T14:34:39.000",
    "request_status": "Pending",
    "responsible_agency": "Department of Public Works",
    "final_address": "200 S Murat St",
    "address_councildis": "A",
    "status": "Pending",
    "rowid": "927438",
    "final_x": "3669453.39367",
    "final_y": "539006.379402",
    "longitude": "-90.10585604175023",
    "latitude": "29.976440996812592",
    "geocoded_column": {
      "latitude": "29.976440996812592",
      "longitude": "-90.10585604175023"
    }
  },
  {
    "service_request": "2022-927437",
    "request_type": "Traffic Signals/Signs/Striping/Streetlights",
    "request_reason": "Street Light Outage/Malfunction",
    "date_created": "2022-10-10T14:33:13.000",
    "date_modified": "2022-10-10T14:33:14.000",
    "request_status": "Pending",
    "responsible_agency": "Department of Public Works",
    "final_address": "13735 Dwyer Blvd",
    "address_councildis": "E",
    "status": "Pending",
    "contractor": "Legacy Professional Services",
    "rowid": "927437",
    "final_x": "3727118.79757",
    "final_y": "562527.671712",
    "longitude": "-89.92281951401296",
    "latitude": "30.039290557752558",
    "geocoded_column": {
      "latitude": "30.039290557752558",
      "longitude": "-89.92281951401296"
    }
  },
  {
    "service_request": "2022-927436",
    "request_type": "Trash/Recycling",
    "request_reason": "Request a Large Item Pick Up",
    "date_created": "2022-10-10T14:26:15.000",
    "date_modified": "2022-10-10T14:26:16.000",
    "request_status": "Pending",
    "responsible_agency": "Department of Sanitation",
    "final_address": "3400 Derby Pl",
    "address_councildis": "A",
    "status": "Assigned to Contractor",
    "contractor": "Metro Disposal",
    "rowid": "927436",
    "final_x": "3677316.97499",
    "final_y": "542859.890381",
    "longitude": "-90.08088742832194",
    "latitude": "29.986802849573426",
    "geocoded_column": {
      "latitude": "29.986802849573426",
      "longitude": "-90.08088742832194"
    }
  },
  {
    "service_request": "2022-927435",
    "request_type": "Trash/Recycling",
    "request_reason": "Request a Large Item Pick Up",
    "date_created": "2022-10-10T14:22:25.000",
    "date_modified": "2022-10-10T14:22:25.000",
    "request_status": "Pending",
    "responsible_agency": "Department of Sanitation",
    "final_address": "2600 Bienville Ave",
    "address_councildis": "B",
    "status": "Assigned to Contractor",
    "contractor": "Richards Disposal",
    "rowid": "927435",
    "final_x": "3676189.97512",
    "final_y": "535362.459462",
    "longitude": "-90.08470526799579",
    "latitude": "29.966221309130145",
    "geocoded_column": {
      "latitude": "29.966221309130145",
      "longitude": "-90.08470526799579"
    }
  },
  {
    "service_request": "2022-927434",
    "request_type": "Roads/Drainage",
    "request_reason": "Damaged Sidewalk",
    "date_created": "2022-10-10T14:20:10.000",
    "date_modified": "2022-10-10T14:20:10.000",
    "request_status": "Pending",
    "responsible_agency": "Department of Public Works",
    "final_address": "338 Lafayette St",
    "address_councildis": "B",
    "status": "Pending",
    "rowid": "927434",
    "final_x": "3681851.93512",
    "final_y": "528597.93152",
    "longitude": "-90.0670610041549",
    "latitude": "29.94745029138929",
    "geocoded_column": {
      "latitude": "29.94745029138929",
      "longitude": "-90.0670610041549"
    }
  },
  {
    "service_request": "2022-927433",
    "request_type": "Trash/Recycling",
    "request_reason": "Request a Large Item Pick Up",
    "date_created": "2022-10-10T14:19:00.000",
    "date_modified": "2022-10-10T14:19:00.000",
    "request_status": "Pending",
    "responsible_agency": "Department of Sanitation",
    "final_address": "2029 Pace Blvd",
    "address_councildis": "C",
    "status": "Assigned to Contractor",
    "contractor": "Richards Disposal",
    "rowid": "927433",
    "final_x": "3694393.71933",
    "final_y": "523021.174715",
    "longitude": "-90.02766258246656",
    "latitude": "29.93172906703603",
    "geocoded_column": {
      "latitude": "29.93172906703603",
      "longitude": "-90.02766258246656"
    }
  },
  {
    "service_request": "2022-927432",
    "request_type": "Roads/Drainage",
    "request_reason": "Damaged Sidewalk",
    "date_created": "2022-10-10T14:10:41.000",
    "date_modified": "2022-10-10T14:10:41.000",
    "request_status": "Pending",
    "responsible_agency": "Department of Public Works",
    "final_address": "1042 Verret St",
    "address_councildis": "C",
    "status": "Pending",
    "rowid": "927432",
    "final_x": "3687299.31926",
    "final_y": "527631.251199",
    "longitude": "-90.04989574263476",
    "latitude": "29.944625597666757",
    "geocoded_column": {
      "latitude": "29.944625597666757",
      "longitude": "-90.04989574263476"
    }
  },
  {
    "service_request": "2022-927431",
    "request_type": "Property Maintenance",
    "request_reason": "Property Maintenance",
    "date_created": "2022-10-10T14:06:34.000",
    "date_modified": "2022-10-10T14:06:34.000",
    "request_status": "Pending",
    "responsible_agency": "Department of Code Enforcement",
    "final_address": "5184 Metropolitan Dr",
    "address_councildis": "D",
    "status": "Pending",
    "rowid": "927431",
    "final_x": "3690229.19241",
    "final_y": "552664.976534",
    "longitude": "-90.03975300075561",
    "latitude": "30.013368872906554",
    "geocoded_column": {
      "latitude": "30.013368872906554",
      "longitude": "-90.03975300075561"
    }
  },
  {
    "service_request": "2022-927430",
    "request_type": "Parks & Parkways",
    "request_reason": "Request Tree Service (Right of Way/Public Property)",
    "date_created": "2022-10-10T14:04:29.000",
    "date_modified": "2022-10-10T14:04:40.000",
    "request_status": "Pending",
    "responsible_agency": "Department of Parks & Parkway",
    "final_address": "NAPOLEON AVE & MAGAZINE ST",
    "address_councildis": "B",
    "status": "Pending",
    "rowid": "927430",
    "final_x": "3671020.9",
    "final_y": "518790.98",
    "longitude": "-90.10159169802714",
    "latitude": "29.92080901243947",
    "geocoded_column": {
      "latitude": "29.92080901243947",
      "longitude": "-90.10159169802714"
    }
  },
  {
    "service_request": "2022-927429",
    "request_type": "Property Maintenance",
    "request_reason": "Property Maintenance",
    "date_created": "2022-10-10T14:03:05.000",
    "date_modified": "2022-10-10T14:03:05.000",
    "request_status": "Pending",
    "responsible_agency": "Department of Code Enforcement",
    "final_address": "2223 Independence St",
    "address_councildis": "D",
    "status": "Pending",
    "rowid": "927429",
    "final_x": "3692057.68419",
    "final_y": "539813.069706",
    "longitude": "-90.03443624513646",
    "latitude": "29.977973923020002",
    "geocoded_column": {
      "latitude": "29.977973923020002",
      "longitude": "-90.03443624513646"
    }
  },
  {
    "service_request": "2022-927428",
    "request_type": "Trash/Recycling",
    "request_reason": "Request a Large Item Pick Up",
    "date_created": "2022-10-10T14:02:42.000",
    "date_modified": "2022-10-10T14:02:42.000",
    "request_status": "Pending",
    "responsible_agency": "Department of Sanitation",
    "final_address": "940 Picheloup Pl",
    "address_councildis": "A",
    "status": "Assigned to Contractor",
    "contractor": "Richards Disposal",
    "rowid": "927428",
    "final_x": "3673663.02356",
    "final_y": "540559.663243",
    "longitude": "-90.09250760978878",
    "latitude": "29.980587328081185",
    "geocoded_column": {
      "latitude": "29.980587328081185",
      "longitude": "-90.09250760978878"
    }
  },
  {
    "service_request": "2022-927427",
    "request_type": "Property Maintenance",
    "request_reason": "Property Maintenance",
    "date_created": "2022-10-10T14:00:52.000",
    "date_modified": "2022-10-10T14:00:52.000",
    "request_status": "Pending",
    "responsible_agency": "Department of Code Enforcement",
    "final_address": "2220 Pauline St",
    "address_councildis": "D",
    "status": "Pending",
    "rowid": "927427",
    "final_x": "3692242.69904",
    "final_y": "539777.186826",
    "longitude": "-90.03385319085329",
    "latitude": "29.97786948981616",
    "geocoded_column": {
      "latitude": "29.97786948981616",
      "longitude": "-90.03385319085329"
    }
  },
  {
    "service_request": "2022-927426",
    "request_type": "Trash/Recycling",
    "request_reason": "Missed Trash Pick-Up",
    "date_created": "2022-10-10T14:00:13.000",
    "date_modified": "2022-10-10T14:00:14.000",
    "request_status": "Pending",
    "responsible_agency": "Department of Sanitation",
    "final_address": "4631 St Charles Ave",
    "address_councildis": "B",
    "status": "Assigned to Contractor",
    "contractor": "Richards Disposal",
    "rowid": "927426",
    "final_x": "3669803.52225",
    "final_y": "520842.875449",
    "longitude": "-90.10536500240015",
    "latitude": "29.926487000403203",
    "geocoded_column": {
      "latitude": "29.926487000403203",
      "longitude": "-90.10536500240015"
    }
  },
  {
    "service_request": "2022-927425",
    "request_type": "Roads/Drainage",
    "request_reason": "Catch Basin - Broken/Damage",
    "date_created": "2022-10-10T13:57:02.000",
    "date_modified": "2022-10-10T13:57:02.000",
    "request_status": "Pending",
    "responsible_agency": "Department of Public Works",
    "final_address": "7525 Edward St",
    "address_councildis": "E",
    "status": "Pending",
    "rowid": "927425",
    "final_x": "3701215.26545",
    "final_y": "560710.253726",
    "longitude": "-90.00474832042549",
    "latitude": "30.035144692770455",
    "geocoded_column": {
      "latitude": "30.035144692770455",
      "longitude": "-90.00474832042549"
    }
  },
  {
    "service_request": "2022-927424",
    "request_type": "Property Maintenance",
    "request_reason": "Property Maintenance",
    "date_created": "2022-10-10T13:53:04.000",
    "date_modified": "2022-10-10T13:53:04.000",
    "request_status": "Pending",
    "responsible_agency": "Department of Code Enforcement",
    "final_address": "4534 St Charles Ave",
    "address_councildis": "B",
    "status": "Pending",
    "rowid": "927424",
    "final_x": "3670184.821",
    "final_y": "520659.885113",
    "longitude": "-90.1041675414532",
    "latitude": "29.925972593873865",
    "geocoded_column": {
      "latitude": "29.925972593873865",
      "longitude": "-90.1041675414532"
    }
  },
  {
    "service_request": "2022-927423",
    "request_type": "Trash/Recycling",
    "request_reason": "MIssed Recycling Pick-Up",
    "date_created": "2022-10-10T13:52:53.000",
    "date_modified": "2022-10-10T13:52:53.000",
    "request_status": "Pending",
    "responsible_agency": "Department of Sanitation",
    "final_address": "6120 Story St",
    "address_councildis": "A",
    "status": "Assigned to Contractor",
    "contractor": "Richards Disposal",
    "rowid": "927423",
    "final_x": "3666816.73722",
    "final_y": "526365.780478",
    "longitude": "-90.11460805531601",
    "latitude": "29.9417609026127",
    "geocoded_column": {
      "latitude": "29.9417609026127",
      "longitude": "-90.11460805531601"
    }
  },
  {
    "service_request": "2022-927422",
    "request_type": "Parks & Parkways",
    "request_reason": "Request Tree Service (Right of Way/Public Property)",
    "date_created": "2022-10-10T13:50:29.000",
    "date_modified": "2022-10-10T13:50:29.000",
    "request_status": "Pending",
    "responsible_agency": "Department of Parks & Parkway",
    "final_address": "1131 Fourth St",
    "address_councildis": "B",
    "status": "Pending",
    "contractor": "Legacy Professional Services",
    "rowid": "927422",
    "final_x": "3677218.12718",
    "final_y": "521233.383801",
    "longitude": "-90.08194567671121",
    "latitude": "29.927340198795825",
    "geocoded_column": {
      "latitude": "29.927340198795825",
      "longitude": "-90.08194567671121"
    }
  },
  {
    "service_request": "2022-927421",
    "request_type": "Property Maintenance",
    "request_reason": "Property Maintenance",
    "date_created": "2022-10-10T13:50:18.000",
    "date_modified": "2022-10-10T13:50:19.000",
    "request_status": "Pending",
    "responsible_agency": "Department of Code Enforcement",
    "final_address": "1424 Baronne St",
    "address_councildis": "B",
    "status": "Pending",
    "rowid": "927421",
    "final_x": "3678522.29205",
    "final_y": "526091.015614",
    "longitude": "-90.07766071274543",
    "latitude": "29.94065786237343",
    "geocoded_column": {
      "latitude": "29.94065786237343",
      "longitude": "-90.07766071274543"
    }
  },
  {
    "service_request": "2022-927420",
    "request_type": "Trash/Recycling",
    "request_reason": "Illegal Dumping",
    "date_created": "2022-10-10T13:49:54.000",
    "date_modified": "2022-10-10T13:49:54.000",
    "request_status": "Pending",
    "responsible_agency": "Department of Code Enforcement",
    "final_address": "1424 Baronne St",
    "address_councildis": "B",
    "status": "Pending",
    "rowid": "927420",
    "final_x": "3678522.29205",
    "final_y": "526091.015614",
    "longitude": "-90.07766071274543",
    "latitude": "29.94065786237343",
    "geocoded_column": {
      "latitude": "29.94065786237343",
      "longitude": "-90.07766071274543"
    }
  },
  {
    "service_request": "2022-927419",
    "request_type": "Traffic Signals/Signs/Striping/Streetlights",
    "request_reason": "Street Light Outage/Malfunction",
    "date_created": "2022-10-10T13:48:53.000",
    "date_modified": "2022-10-10T13:48:54.000",
    "request_status": "Pending",
    "responsible_agency": "Department of Public Works",
    "final_address": "1133 Fourth St",
    "address_councildis": "B",
    "status": "Pending",
    "contractor": "Legacy Professional Services",
    "rowid": "927419",
    "final_x": "3677192.55387",
    "final_y": "521269.726009",
    "longitude": "-90.08202515245979",
    "latitude": "29.927440895984773",
    "geocoded_column": {
      "latitude": "29.927440895984773",
      "longitude": "-90.08202515245979"
    }
  },
  {
    "service_request": "2022-927418",
    "request_type": "Trash/Recycling",
    "request_reason": "Request a Large Item Pick Up",
    "date_created": "2022-10-10T13:48:35.000",
    "date_modified": "2022-10-10T13:48:36.000",
    "request_status": "Pending",
    "responsible_agency": "Department of Sanitation",
    "final_address": "3341 Saint Philip St, New Orleans, Louisiana, 70119",
    "status": "Assigned to Contractor",
    "rowid": "927418",
    "longitude": "0.0",
    "latitude": "0.0",
    "geocoded_column": {
      "latitude": "0.0",
      "longitude": "0.0"
    }
  },
  {
    "service_request": "2022-927417",
    "request_type": "Roads/Drainage",
    "request_reason": "Street Subsidence (Sinking)",
    "date_created": "2022-10-10T13:45:46.000",
    "date_modified": "2022-10-10T13:45:46.000",
    "request_status": "Pending",
    "responsible_agency": "Department of Public Works",
    "final_address": "5400 Annunciation St",
    "address_councildis": "A",
    "status": "Pending",
    "rowid": "927417",
    "final_x": "3666387.25108",
    "final_y": "517524.85599",
    "longitude": "-90.11626051515978",
    "latitude": "29.917463717070916",
    "geocoded_column": {
      "latitude": "29.917463717070916",
      "longitude": "-90.11626051515978"
    }
  },