[
  {
    "service_request": "2022-894792",
    "request_type": "Property Maintenance",
    "request_reason": "Property Maintenance",
    "date_created": "2022-06-27T01:00:52.000",
    "date_modified": "2022-06-27T01:00:52.000",
    "request_status": "Pending",
    "responsible_agency": "Department of Code Enforcement",
    "final_address": "4547 Paris Ave",
    "address_councildis": "D",
    "status": "Pending",
    "rowid": "894792",
    "final_x": "3679474.95663",
    "final_y": "549643.643604",
    "longitude": "-90.07383563396391",
    "latitude": "30.005390737943145",
    "geocoded_column": {
      "latitude": "30.005390737943145",
      "longitude": "-90.07383563396391"
    }
  },
  {
    "service_request": "2022-894791",
    "request_type": "Trash/Recycling",
    "request_reason": "Replace Trash Cart",
    "date_created": "2022-06-26T22:29:41.000",
    "date_modified": "2022-06-26T22:29:42.000",
    "request_status": "Pending",
    "responsible_agency": "Department of Sanitation",
    "final_address": "4721 Nighthart St",
    "address_councildis": "E",
    "status": "Assigned to Contractor",
    "contractor": "Metro Disposal",
    "rowid": "894791",
    "final_x": "3716212.90399",
    "final_y": "556869.44201",
    "longitude": "-89.95749964338819",
    "latitude": "30.02409732212641",
    "geocoded_column": {
      "latitude": "30.02409732212641",
      "longitude": "-89.95749964338819"
    }
  },
  {
    "service_request": "2022-894790",
    "request_type": "Abandoned Vehicles",
    "request_reason": "Abandoned/Junk Vehicles",
    "date_created": "2022-06-26T21:39:01.000",
    "date_modified": "2022-06-26T21:39:02.000",
    "request_status": "Pending",
    "responsible_agency": "Department of Public Works",
    "final_address": "11086 Chef Menteur Hwy",
    "address_councildis": "E",
    "status": "Pending",
    "rowid": "894790",
    "final_x": "3716395.48152",
    "final_y": "555715.977689",
    "longitude": "-89.95696651931216",
    "latitude": "30.02091972424529",
    "geocoded_column": {
      "latitude": "30.02091972424529",
      "longitude": "-89.95696651931216"
    }
  },
  {
    "service_request": "2022-894789",
    "request_type": "Property Maintenance",
    "request_reason": "Property Maintenance",
    "date_created": "2022-06-26T21:30:08.000",
    "date_modified": "2022-06-26T21:30:08.000",
    "request_status": "Pending",
    "responsible_agency": "Department of Code Enforcement",
    "final_address": "5497 Canal Blvd",
    "address_councildis": "A",
    "status": "Pending",
    "rowid": "894789",
    "final_x": "3668291.71783",
    "final_y": "543797.117838",
    "longitude": "-90.10936335462512",
    "latitude": "29.989648069717173",
    "geocoded_column": {
      "latitude": "29.989648069717173",
      "longitude": "-90.10936335462512"
    }
  },
  {
    "service_request": "2022-894788",
    "request_type": "Property Maintenance",
    "request_reason": "Property Maintenance",
    "date_created": "2022-06-26T21:29:14.000",
    "date_modified": "2022-06-26T21:29:14.000",
    "request_status": "Pending",
    "responsible_agency": "Department of Code Enforcement",
    "final_address": "24 Virginia Ct",
    "address_councildis": "A",
    "status": "Pending",
    "rowid": "894788",
    "final_x": "3668860.94862",
    "final_y": "542042.679052",
    "longitude": "-90.10762458853111",
    "latitude": "29.98480723037842",
    "geocoded_column": {
      "latitude": "29.98480723037842",
      "longitude": "-90.10762458853111"
    }
  },
  {
    "service_request": "2022-894787",
    "request_type": "Roads/Drainage",
    "request_reason": "Pothole",
    "date_created": "2022-06-26T21:25:49.000",
    "date_modified": "2022-06-26T21:25:49.000",
    "request_status": "Pending",
    "responsible_agency": "Department of Public Works",
    "final_address": "716 Navarre St",
    "address_councildis": "A",
    "status": "Pending",
    "rowid": "894787",
    "final_x": "3668400.24122",
    "final_y": "543777.694542",
    "longitude": "-90.10902121396461",
    "latitude": "29.989591474364836",
    "geocoded_column": {
      "latitude": "29.989591474364836",
      "longitude": "-90.10902121396461"
    }
  },
  {
    "service_request": "2022-894786",
    "request_type": "Roads/Drainage",
    "request_reason": "Pothole",
    "date_created": "2022-06-26T21:24:46.000",
    "date_modified": "2022-06-26T21:24:46.000",
    "request_status": "Pending",
    "responsible_agency": "Department of Public Works",
    "final_address": "965 Navarre St",
    "address_councildis": "A",
    "status": "Pending",
    "rowid": "894786",
    "final_x": "3670335.99034",
    "final_y": "543731.92763",
    "longitude": "-90.10290826236762",
    "latitude": "29.98940861754111",
    "geocoded_column": {
      "latitude": "29.98940861754111",
      "longitude": "-90.10290826236762"
    }
  },
  {
    "service_request": "2022-894785",
    "request_type": "Trash/Recycling",
    "request_reason": "Request a Large Item Pick Up",
    "date_created": "2022-06-26T21:13:06.000",
    "date_modified": "2022-06-26T21:13:07.000",
    "request_status": "Pending",
    "responsible_agency": "Department of Sanitation",
    "final_address": "125 N Miro St, New Orleans, Louisiana, 70119",
    "address_councildis": "D",
    "status": "Assigned to Contractor",
    "contractor": "Metro Disposal",
    "rowid": "894785",
    "final_x": "3690222.97033",
    "final_y": "540140.010635",
    "longitude": "-90.04021924332929",
    "latitude": "29.978929953674253",
    "geocoded_column": {
      "latitude": "29.978929953674253",
      "longitude": "-90.04021924332929"
    }
  },
  {
    "service_request": "2022-894784",
    "request_type": "Traffic Signals/Signs/Striping/Streetlights",
    "request_reason": "Street Light Outage/Malfunction",
    "date_created": "2022-06-26T21:06:30.000",
    "date_modified": "2022-06-26T21:06:31.000",
    "request_status": "Pending",
    "responsible_agency": "Department of Public Works",
    "final_address": "625 Harmony St",
    "address_councildis": "B",
    "status": "Pending",
    "contractor": "Royal Engineering",
    "rowid": "894784",
    "final_x": "3676563.44673",
    "final_y": "518576.681847",
    "longitude": "-90.08410377302829",
    "latitude": "29.920054770657895",
    "geocoded_column": {
      "latitude": "29.920054770657895",
      "longitude": "-90.08410377302829"
    }
  },
  {
    "service_request": "2022-894783",
    "request_type": "Abandoned Vehicles",
    "request_reason": "Abandoned/Junk Vehicles",
    "date_created": "2022-06-26T21:00:24.000",
    "date_modified": "2022-06-26T21:00:24.000",
    "request_status": "Pending",
    "responsible_agency": "Department of Public Works",
    "final_address": "313 Atlantic Ave",
    "address_councildis": "C",
    "status": "Pending",
    "rowid": "894783",
    "final_x": "3688792.22147",
    "final_y": "530598.50125",
    "longitude": "-90.04507689353375",
    "latitude": "29.95273845495151",
    "geocoded_column": {
      "latitude": "29.95273845495151",
      "longitude": "-90.04507689353375"
    }
  },
  {
    "service_request": "2022-894781",
    "request_type": "Trash/Recycling",
    "request_reason": "Request a Large Item Pick Up",
    "date_created": "2022-06-26T20:52:08.000",
    "date_modified": "2022-06-26T20:52:09.000",
    "request_status": "Pending",
    "responsible_agency": "Department of Sanitation",
    "final_address": "1318 Deslonde St",
    "address_councildis": "E",
    "status": "Assigned to Contractor",
    "contractor": "Metro Disposal",
    "rowid": "894781",
    "final_x": "3695592.42115",
    "final_y": "535328.159622",
    "longitude": "-90.02343429031347",
    "latitude": "29.965531374249323",
    "geocoded_column": {
      "latitude": "29.965531374249323",
      "longitude": "-90.02343429031347"
    }
  },
  {
    "service_request": "2022-894780",
    "request_type": "Abandoned Vehicles",
    "request_reason": "Abandoned/Junk Vehicles",
    "date_created": "2022-06-26T20:49:21.000",
    "date_modified": "2022-06-26T20:49:21.000",
    "request_status": "Pending",
    "responsible_agency": "Department of Public Works",
    "final_address": "2114 Foucher St A",
    "address_councildis": "B",
    "status": "Pending",
    "rowid": "894780",
    "final_x": "3672840.25153",
    "final_y": "523029.991291",
    "longitude": "-90.09570430128277",
    "latitude": "29.932411029919553",
    "geocoded_column": {
      "latitude": "29.932411029919553",
      "longitude": "-90.09570430128277"
    }
  },
  {
    "service_request": "2022-894779",
    "request_type": "Traffic Signals/Signs/Striping/Streetlights",
    "request_reason": "Street Light Outage/Malfunction",
    "date_created": "2022-06-26T20:48:09.000",
    "date_modified": "2022-06-26T20:48:10.000",
    "request_status": "Pending",
    "responsible_agency": "Department of Public Works",
    "final_address": "1533 N Claiborne Ave",
    "address_councildis": "D",
    "status": "Pending",
    "contractor": "Royal Engineering",
    "rowid": "894779",
    "final_x": "3681746.75688",
    "final_y": "537452.184776",
    "longitude": "-90.0670841519177",
    "latitude": "29.97179966503234",
    "geocoded_column": {
      "latitude": "29.97179966503234",
      "longitude": "-90.0670841519177"
    }
  },
  {
    "service_request": "2022-894778",
    "request_type": "Property Maintenance",
    "request_reason": "Property Maintenance",
    "date_created": "2022-06-26T20:47:33.000",
    "date_modified": "2022-06-26T20:47:33.000",
    "request_status": "Pending",
    "responsible_agency": "Department of Code Enforcement",
    "final_address": "1657 N Villere St",
    "address_councildis": "C",
    "status": "Pending",
    "rowid": "894778",
    "final_x": "3682982.85647",
    "final_y": "537308.788424",
    "longitude": "-90.06318538120917",
    "latitude": "29.971367756762",
    "geocoded_column": {
      "latitude": "29.971367756762",
      "longitude": "-90.06318538120917"
    }
  },
  {
    "service_request": "2022-894777",
    "request_type": "Trash/Recycling",
    "request_reason": "Missed Trash Pick-Up",
    "date_created": "2022-06-26T20:32:38.000",
    "date_modified": "2022-06-26T20:32:39.000",
    "request_status": "Pending",
    "responsible_agency": "Department of Sanitation",
    "final_address": "4133 Iberville St",
    "address_councildis": "A",
    "status": "Assigned to Contractor",
    "contractor": "Richards Disposal",
    "rowid": "894777",
    "final_x": "3671141.79239",
    "final_y": "538911.087434",
    "longitude": "-90.10052679253299",
    "latitude": "29.976129135351396",
    "geocoded_column": {
      "latitude": "29.976129135351396",
      "longitude": "-90.10052679253299"
    }
  },
  {
    "service_request": "2022-894776",
    "request_type": "Trash/Recycling",
    "request_reason": "Order Recycling Cart",
    "date_created": "2022-06-26T20:20:01.000",
    "date_modified": "2022-06-26T20:20:01.000",
    "request_status": "Pending",
    "responsible_agency": "Department of Sanitation",
    "final_address": "814 Voisin St",
    "address_councildis": "A",
    "status": "Pending",
    "rowid": "894776",
    "final_x": "3668765.95854",
    "final_y": "543160.844685",
    "longitude": "-90.10788685031893",
    "latitude": "29.98788459839696",
    "geocoded_column": {
      "latitude": "29.98788459839696",
      "longitude": "-90.10788685031893"
    }
  },
  {
    "service_request": "2022-894775",
    "request_type": "Abandoned Vehicles",
    "request_reason": "Abandoned/Junk Vehicles",
    "date_created": "2022-06-26T19:53:45.000",
    "date_modified": "2022-06-26T19:53:45.000",
    "request_status": "Pending",
    "responsible_agency": "Department of Public Works",
    "final_address": "623 Tupelo St",
    "address_councildis": "E",
    "status": "Pending",
    "rowid": "894775",
    "final_x": "3698936.03114",
    "final_y": "531768.243395",
    "longitude": "-90.01300491634468",
    "latitude": "29.95563734700739",
    "geocoded_column": {
      "latitude": "29.95563734700739",
      "longitude": "-90.01300491634468"
    }
  },
  {
    "service_request": "2022-894774",
    "request_type": "Traffic Signals/Signs/Striping/Streetlights",
    "request_reason": "Traffic Sign Missing/Damaged",
    "date_created": "2022-06-26T19:36:46.000",
    "date_modified": "2022-06-26T19:36:46.000",
    "request_status": "Pending",
    "responsible_agency": "Department of Public Works",
    "final_address": "600 Josephine St",
    "address_councildis": "B",
    "status": "Pending",
    "rowid": "894774",
    "final_x": "3680192.27682",
    "final_y": "520875.777529",
    "longitude": "-90.07256945569856",
    "latitude": "29.92626725118973",
    "geocoded_column": {
      "latitude": "29.92626725118973",
      "longitude": "-90.07256945569856"
    }
  },
  {
    "service_request": "2022-894773",
    "request_type": "Roads/Drainage",
    "request_reason": "Street Flooding / Drainage",
    "date_created": "2022-06-26T19:07:39.000",
    "date_modified": "2022-06-26T19:07:39.000",
    "request_status": "Pending",
    "responsible_agency": "Department of Public Works",
    "final_address": "4741 Chantilly Dr",
    "address_councildis": "E",
    "status": "Pending",
    "rowid": "894773",
    "final_x": "3700969.19351",
    "final_y": "554137.012248",
    "longitude": "-90.00576661142252",
    "latitude": "30.01707865202684",
    "geocoded_column": {
      "latitude": "30.01707865202684",
      "longitude": "-90.00576661142252"
    }
  },
  {
    "service_request": "2022-894772",
    "request_type": "Trash/Recycling",
    "request_reason": "Replace Trash Cart",
    "date_created": "2022-06-26T18:59:55.000",
    "date_modified": "2022-06-26T18:59:56.000",
    "request_status": "Pending",
    "responsible_agency": "Department of Sanitation",
    "final_address": "4741 Chantilly Dr",
    "address_councildis": "E",
    "status": "Assigned to Contractor",
    "contractor": "Metro Disposal",
    "rowid": "894772",
    "final_x": "3700969.19351",
    "final_y": "554137.012248",
    "longitude": "-90.00576661142252",
    "latitude": "30.01707865202684",
    "geocoded_column": {
      "latitude": "30.01707865202684",
      "longitude": "-90.00576661142252"
    }
  },
  {
    "service_request": "2022-894771",
    "request_type": "Property Maintenance",
    "request_reason": "Property Maintenance",
    "date_created": "2022-06-26T18:39:07.000",
    "date_modified": "2022-06-26T18:39:07.000",
    "request_status": "Pending",
    "responsible_agency": "Department of Code Enforcement",
    "final_address": "1940 Industry St",
    "address_councildis": "D",
    "status": "Pending",
    "rowid": "894771",
    "final_x": "3682549.99324",
    "final_y": "542745.532685",
    "longitude": "-90.06436227269263",
    "latitude": "29.986330091606916",
    "geocoded_column": {
      "latitude": "29.986330091606916",
      "longitude": "-90.06436227269263"
    }
  },
  {
    "service_request": "2022-894770",
    "request_type": "Trash/Recycling",
    "request_reason": "MIssed Recycling Pick-Up",
    "date_created": "2022-06-26T18:28:19.000",
    "date_modified": "2022-06-26T18:28:19.000",
    "request_status": "Pending",
    "responsible_agency": "Department of Sanitation",
    "final_address": "933 Nashville Ave",
    "address_councildis": "A",
    "status": "Assigned to Contractor",
    "contractor": "Richards Disposal",
    "rowid": "894770",
    "final_x": "3665726.26592",
    "final_y": "519580.189048",
    "longitude": "-90.11827808732289",
    "latitude": "29.923134527572838",
    "geocoded_column": {
      "latitude": "29.923134527572838",
      "longitude": "-90.11827808732289"
    }
  },
  {
    "service_request": "2022-894769",
    "request_type": "Trash/Recycling",
    "request_reason": "Request a Large Item Pick Up",
    "date_created": "2022-06-26T17:52:31.000",
    "date_modified": "2022-06-26T17:52:32.000",
    "request_status": "Pending",
    "responsible_agency": "Department of Sanitation",
    "final_address": "1835 Adams St",
    "address_councildis": "A",
    "status": "Assigned to Contractor",
    "contractor": "Richards Disposal",
    "rowid": "894769",
    "final_x": "3664708.08544",
    "final_y": "529120.268352",
    "longitude": "-90.1211735323162",
    "latitude": "29.949396359099737",
    "geocoded_column": {
      "latitude": "29.949396359099737",
      "longitude": "-90.1211735323162"
    }
  },
  {
    "service_request": "2022-894768",
    "request_type": "Trash/Recycling",
    "request_reason": "Request a Large Item Pick Up",
    "date_created": "2022-06-26T17:51:10.000",
    "date_modified": "2022-06-26T17:51:10.000",
    "request_status": "Pending",
    "responsible_agency": "Department of Sanitation",
    "final_address": "5207 N Robertson St",
    "address_councildis": "E",
    "status": "Assigned to Contractor",
    "contractor": "Metro Disposal",
    "rowid": "894768",
    "final_x": "3697053.78877",
    "final_y": "535660.883654",
    "longitude": "-90.01880732490967",
    "latitude": "29.966400230042886",
    "geocoded_column": {
      "latitude": "29.966400230042886",
      "longitude": "-90.01880732490967"
    }
  },
  {
    "service_request": "2022-894767",
    "request_type": "Property Maintenance",
    "request_reason": "Property Maintenance",
    "date_created": "2022-06-26T17:40:21.000",
    "date_modified": "2022-06-26T17:40:21.000",
    "request_status": "Pending",
    "responsible_agency": "Department of Code Enforcement",
    "final_address": "8522 Edinburgh St",
    "address_councildis": "A",
    "status": "Pending",
    "rowid": "894767",
    "final_x": "3666254.12922",
    "final_y": "535500.51079",
    "longitude": "-90.11607795376247",
    "latitude": "29.966894873612727",
    "geocoded_column": {
      "latitude": "29.966894873612727",
      "longitude": "-90.11607795376247"
    }
  },
  {
    "service_request": "2022-894766",
    "request_type": "Trash/Recycling",
    "request_reason": "Request a Large Item Pick Up",
    "date_created": "2022-06-26T17:34:48.000",
    "date_modified": "2022-06-26T17:34:49.000",
    "request_status": "Pending",
    "responsible_agency": "Department of Sanitation",
    "final_address": "1709 Ursulines Ave",
    "address_councildis": "D",
    "status": "Assigned to Contractor",
    "contractor": "Richards Disposal",
    "rowid": "894766",
    "final_x": "3680586.44239",
    "final_y": "535930.868999",
    "longitude": "-90.07080154283888",
    "latitude": "29.96765177605821",
    "geocoded_column": {
      "latitude": "29.96765177605821",
      "longitude": "-90.07080154283888"
    }
  },
  {
    "service_request": "2022-894765",
    "request_type": "Mosquito, Termite & Rodent Control",
    "request_reason": "Rodent Complaint (Rats)",
    "date_created": "2022-06-26T17:33:37.000",
    "date_modified": "2022-06-26T17:33:37.000",
    "request_status": "Pending",
    "responsible_agency": "Mosquito, Termite & Rodent Control Board",
    "final_address": "3510 Joliet St",
    "address_councildis": "A",
    "status": "Pending",
    "rowid": "894765",
    "final_x": "3666458.78311",
    "final_y": "535498.66247",
    "longitude": "-90.11543171623734",
    "latitude": "29.96688381174484",
    "geocoded_column": {
      "latitude": "29.96688381174484",
      "longitude": "-90.11543171623734"
    }
  },
  {
    "service_request": "2022-894764",
    "request_type": "Abandoned Vehicles",
    "request_reason": "Vehicle Blocking Your Driveway",
    "date_created": "2022-06-26T16:37:51.000",
    "date_modified": "2022-06-26T16:37:51.000",
    "request_status": "Pending",
    "responsible_agency": "Department of Public Works",
    "final_address": "2676 Wisteria St",
    "address_councildis": "D",
    "status": "Pending",
    "rowid": "894764",
    "final_x": "3687621.90108",
    "final_y": "548347.23829",
    "longitude": "-90.04814365178576",
    "latitude": "30.00157734700328",
    "geocoded_column": {
      "latitude": "30.00157734700328",
      "longitude": "-90.04814365178576"
    }
  },
  {
    "service_request": "2022-894763",
    "request_type": "Trash/Recycling",
    "request_reason": "Missed Trash Pick-Up",
    "date_created": "2022-06-26T16:10:35.000",
    "date_modified": "2022-06-26T16:10:35.000",
    "request_status": "Pending",
    "responsible_agency": "Department of Sanitation",
    "final_address": "2831 Audubon St",
    "address_councildis": "B",
    "status": "Assigned to Contractor",
    "contractor": "Richards Disposal",
    "rowid": "894763",
    "final_x": "3667694.17434",
    "final_y": "531295.870018",
    "longitude": "-90.11167184375363",
    "latitude": "29.955291355719048",
    "geocoded_column": {
      "latitude": "29.955291355719048",
      "longitude": "-90.11167184375363"
    }
  },
  {
    "service_request": "2022-894762",
    "request_type": "Traffic Signals/Signs/Striping/Streetlights",
    "request_reason": "Street Light Outage/Malfunction",
    "date_created": "2022-06-26T16:07:08.000",
    "date_modified": "2022-06-26T16:07:08.000",
    "request_status": "Pending",
    "responsible_agency": "Department of Public Works",
    "final_address": "871 Topaz St",
    "address_councildis": "D",
    "status": "Pending",
    "contractor": "Royal Engineering",
    "rowid": "894762",
    "final_x": "3670730.00161",
    "final_y": "556772.790298",
    "longitude": "-90.10122075241216",
    "latitude": "30.025254770092427",
    "geocoded_column": {
      "latitude": "30.025254770092427",
      "longitude": "-90.10122075241216"
    }
  },
  {
    "service_request": "2022-894761",
    "request_type": "Trash/Recycling",
    "request_reason": "Request a Large Item Pick Up",
    "date_created": "2022-06-26T16:03:52.000",
    "date_modified": "2022-06-26T16:03:53.000",
    "request_status": "Pending",
    "responsible_agency": "Department of Sanitation",
    "final_address": "2213 Short St",
    "address_councildis": "A",
    "status": "Assigned to Contractor",
    "contractor": "Richards Disposal",
    "rowid": "894761",
    "final_x": "3664754.18887",
    "final_y": "530709.832642",
    "longitude": "-90.12097485923927",
    "latitude": "29.953765804941913",
    "geocoded_column": {
      "latitude": "29.953765804941913",
      "longitude": "-90.12097485923927"
    }
  },
  {
    "service_request": "2022-894760",
    "request_type": "Safety & Permits",
    "request_reason": "Construction permit",
    "date_created": "2022-06-26T15:46:03.000",
    "date_modified": "2022-06-26T15:46:03.000",
    "request_status": "Pending",
    "responsible_agency": "Department of Code Enforcement",
    "status": "Pending",
    "rowid": "894760",
    "longitude": "0.0",
    "latitude": "0.0",
    "geocoded_column": {
      "latitude": "0.0",
      "longitude": "0.0"
    }
  },
  {
    "service_request": "2022-894759",
    "request_type": "Roads/Drainage",
    "request_reason": "Pothole",
    "date_created": "2022-06-26T15:31:29.000",
    "date_modified": "2022-06-26T15:31:29.000",
    "request_status": "Pending",
    "responsible_agency": "Department of Public Works",
    "final_address": "7500 Willow St",
    "address_councildis": "A",
    "status": "Pending",
    "rowid": "894759",
    "final_x": "3663944.07315",
    "final_y": "527462.694655",
    "longitude": "-90.1236411250706",
    "latitude": "29.944860766007665",
    "geocoded_column": {
      "latitude": "29.944860766007665",
      "longitude": "-90.1236411250706"
    }
  },
  {
    "service_request": "2022-894758",
    "request_type": "Trash/Recycling",
    "request_reason": "Request a Large Item Pick Up",
    "date_created": "2022-06-26T15:21:16.000",
    "date_modified": "2022-06-26T15:21:16.000",
    "request_status": "Pending",
    "responsible_agency": "Department of Sanitation",
    "final_address": "2401 Hudson Pl",
    "address_councildis": "C",
    "status": "Assigned to Contractor",
    "contractor": "Richards Disposal",
    "rowid": "894758",
    "final_x": "3703553.35134",
    "final_y": "522409.46169",
    "longitude": "-89.99876936005093",
    "latitude": "29.929756901182433",
    "geocoded_column": {
      "latitude": "29.929756901182433",
      "longitude": "-89.99876936005093"
    }
  },
  {
    "service_request": "2022-894757",
    "request_type": "Trash/Recycling",
    "request_reason": "Request a Large Item Pick Up",
    "date_created": "2022-06-26T14:53:57.000",
    "date_modified": "2022-06-26T14:53:57.000",
    "request_status": "Pending",
    "responsible_agency": "Department of Sanitation",
    "final_address": "7800 Birch St",
    "address_councildis": "A",
    "status": "Assigned to Contractor",
    "contractor": "Richards Disposal",
    "rowid": "894757",
    "final_x": "3663674.87546",
    "final_y": "528650.568384",
    "longitude": "-90.12445149951424",
    "latitude": "29.948134849134266",
    "geocoded_column": {
      "latitude": "29.948134849134266",
      "longitude": "-90.12445149951424"
    }
  },
  {
    "service_request": "2022-894756",
    "request_type": "Trash/Recycling",
    "request_reason": "Replace Recycling Cart",
    "date_created": "2022-06-26T14:44:16.000",
    "date_modified": "2022-06-26T14:44:16.000",
    "request_status": "Pending",
    "responsible_agency": "Department of Sanitation",
    "final_address": "221 S Genois St",
    "address_councildis": "B",
    "status": "Pending",
    "rowid": "894756",
    "final_x": "3672170.85627",
    "final_y": "536748.918728",
    "longitude": "-90.09735036031731",
    "latitude": "29.970153419346236",
    "geocoded_column": {
      "latitude": "29.970153419346236",
      "longitude": "-90.09735036031731"
    }
  },
  {
    "service_request": "2022-894755",
    "request_type": "Trash/Recycling",
    "request_reason": "Missed Trash Pick-Up",
    "date_created": "2022-06-26T14:16:31.000",
    "date_modified": "2022-06-26T14:16:32.000",
    "request_status": "Pending",
    "responsible_agency": "Department of Sanitation",
    "final_address": "6029 Benjamin St",
    "address_councildis": "A",
    "status": "Assigned to Contractor",
    "contractor": "Richards Disposal",
    "rowid": "894755",
    "final_x": "3665364.08672",
    "final_y": "522329.234234",
    "longitude": "-90.11932941369143",
    "latitude": "29.930704090542395",
    "geocoded_column": {
      "latitude": "29.930704090542395",
      "longitude": "-90.11932941369143"
    }
  },
  {
    "service_request": "2022-894754",
    "request_type": "Traffic Signals/Signs/Striping/Streetlights",
    "request_reason": "Traffic Signal Malfunctioning/Damaged",
    "date_created": "2022-06-26T14:09:08.000",
    "date_modified": "2022-06-26T14:09:08.000",
    "request_status": "Pending",
    "responsible_agency": "Department of Public Works",
    "final_address": "TCHOUPITOULAS EXIT & CONVENTION CENTER BLVD",
    "address_councildis": "B",
    "status": "Pending",
    "rowid": "894754",
    "final_x": "3682768.74",
    "final_y": "525563.53",
    "longitude": "-90.06427241156194",
    "latitude": "29.93907881483633",
    "geocoded_column": {
      "latitude": "29.93907881483633",
      "longitude": "-90.06427241156194"
    }
  },
  {
    "service_request": "2022-894753",
    "request_type": "Trash/Recycling",
    "request_reason": "Request a Large Item Pick Up",
    "date_created": "2022-06-26T13:59:12.000",
    "date_modified": "2022-06-26T14:00:04.000",
    "request_status": "Pending",
    "responsible_agency": "Department of Sanitation",
    "final_address": "115 Sherwood Forest Dr",
    "address_councildis": "A",
    "status": "Assigned to Contractor",
    "contractor": "Richards Disposal",
    "rowid": "894753",
    "final_x": "3673249.70254",
    "final_y": "541190.763148",
    "longitude": "-90.09379149639427",
    "latitude": "29.982334937207074",
    "geocoded_column": {
      "latitude": "29.982334937207074",
      "longitude": "-90.09379149639427"
    }
  },
  {
    "service_request": "2022-894752",
    "request_type": "Trash/Recycling",
    "request_reason": "Replace Trash Cart",
    "date_created": "2022-06-26T13:33:42.000",
    "date_modified": "2022-06-26T13:33:43.000",
    "request_status": "Pending",
    "responsible_agency": "Department of Sanitation",
    "final_address": "2420 Prancer St, New Orleans, Louisiana, 70131",
    "address_councildis": "C",
    "status": "Assigned to Contractor",
    "contractor": "Richards Disposal",
    "rowid": "894752",
    "final_x": "3699956.30391",
    "final_y": "522402.950458",
    "longitude": "-90.01012477611968",
    "latitude": "29.929853704507913",
    "geocoded_column": {
      "latitude": "29.929853704507913",
      "longitude": "-90.01012477611968"
    }
  },
  {
    "service_request": "2022-894751",
    "request_type": "Trash/Recycling",
    "request_reason": "Request a Large Item Pick Up",
    "date_created": "2022-06-26T12:34:19.000",
    "date_modified": "2022-06-26T12:34:19.000",
    "request_status": "Pending",
    "responsible_agency": "Department of Sanitation",
    "final_address": "4626 Magnolia St",
    "address_councildis": "B",
    "status": "Assigned to Contractor",
    "contractor": "Richards Disposal",
    "rowid": "894751",
    "final_x": "3669485.65614",
    "final_y": "524609.227196",
    "longitude": "-90.10624109621071",
    "latitude": "29.936852624277382",
    "geocoded_column": {
      "latitude": "29.936852624277382",
      "longitude": "-90.10624109621071"
    }
  },
  {
    "service_request": "2022-894750",
    "request_type": "Safety & Permits",
    "request_reason": "Short term Rental (Enforcement)",
    "date_created": "2022-06-26T12:33:49.000",
    "date_modified": "2022-06-26T12:33:49.000",
    "request_status": "Pending",
    "responsible_agency": "Safety and Permits",
    "final_address": "1245 St Bernard Ave",
    "address_councildis": "C",
    "status": "Pending",
    "rowid": "894750",
    "final_x": "3682976.07797",
    "final_y": "536460.879623",
    "longitude": "-90.06323647066438",
    "latitude": "29.969036507578892",
    "geocoded_column": {
      "latitude": "29.969036507578892",
      "longitude": "-90.06323647066438"
    }
  },
  {
    "service_request": "2022-894749",
    "request_type": "Safety & Permits",
    "request_reason": "Short term Rental (Enforcement)",
    "date_created": "2022-06-26T12:31:17.000",
    "date_modified": "2022-06-26T12:31:17.000",
    "request_status": "Pending",
    "responsible_agency": "Safety and Permits",
    "final_address": "1239 St Bernard Ave",
    "address_councildis": "C",
    "status": "Pending",
    "rowid": "894749",
    "final_x": "3683000.63855",
    "final_y": "536434.335623",
    "longitude": "-90.06315983599944",
    "latitude": "29.96896277216402",
    "geocoded_column": {
      "latitude": "29.96896277216402",
      "longitude": "-90.06315983599944"
    }
  },
  {
    "service_request": "2022-894748",
    "request_type": "Property Maintenance",
    "request_reason": "Property Maintenance",
    "date_created": "2022-06-26T12:31:10.000",
    "date_modified": "2022-06-26T12:31:10.000",
    "request_status": "Pending",
    "responsible_agency": "Department of Code Enforcement",
    "final_address": "4882 Annunciation St",
    "address_councildis": "B",
    "status": "Pending",
    "rowid": "894748",
    "final_x": "3668996.6955",
    "final_y": "517474.57535",
    "longitude": "-90.10802564031307",
    "latitude": "29.917248991389574",
    "geocoded_column": {
      "latitude": "29.917248991389574",
      "longitude": "-90.10802564031307"
    }
  },
  {
    "service_request": "2022-894747",
    "request_type": "Abandoned Vehicles",
    "request_reason": "Abandoned/Junk Vehicles",
    "date_created": "2022-06-26T12:14:16.000",
    "date_modified": "2022-06-26T12:14:16.000",
    "request_status": "Pending",
    "responsible_agency": "Department of Public Works",
    "final_address": "11141 Whiteside Rd",
    "address_councildis": "E",
    "status": "Pending",
    "rowid": "894747",
    "final_x": "3711841.8268",
    "final_y": "565118.889506",
    "longitude": "-89.97100136752428",
    "latitude": "30.046923600214036",
    "geocoded_column": {
      "latitude": "30.046923600214036",
      "longitude": "-89.97100136752428"
    }
  },
  {
    "service_request": "2022-894746",
    "request_type": "Abandoned Vehicles",
    "request_reason": "Abandoned/Junk Vehicles",
    "date_created": "2022-06-26T11:26:08.000",
    "date_modified": "2022-06-26T11:26:08.000",
    "request_status": "Pending",
    "responsible_agency": "Department of Public Works",
    "final_address": "2312 Fourth St",
    "address_councildis": "B",
    "status": "Pending",
    "rowid": "894746",
    "final_x": "3674729.1988",
    "final_y": "524852.820476",
    "longitude": "-90.08967860001657",
    "latitude": "29.93736698069933",
    "geocoded_column": {
      "latitude": "29.93736698069933",
      "longitude": "-90.08967860001657"
    }
  },
  {
    "service_request": "2022-894745",
    "request_type": "Trash/Recycling",
    "request_reason": "Order Recycling Cart",
    "date_created": "2022-06-26T11:22:44.000",
    "date_modified": "2022-06-26T11:22:44.000",
    "request_status": "Pending",
    "responsible_agency": "Department of Sanitation",
    "final_address": "1125 Independence St",
    "address_councildis": "C",
    "status": "Pending",
    "rowid": "894745",
    "final_x": "3691056.7976",
    "final_y": "535779.111111",
    "longitude": "-90.03774144248248",
    "latitude": "29.96691312315675",
    "geocoded_column": {
      "latitude": "29.96691312315675",
      "longitude": "-90.03774144248248"
    }
  },
  {
    "service_request": "2022-894744",
    "request_type": "Mosquito, Termite & Rodent Control",
    "request_reason": "Non-Rodent Complaint (Mice, Possums, Snakes)",
    "date_created": "2022-06-26T11:11:45.000",
    "date_modified": "2022-06-26T11:11:45.000",
    "request_status": "Pending",
    "responsible_agency": "Mosquito, Termite & Rodent Control Board",
    "final_address": "1900 Tupelo St",
    "address_councildis": "E",
    "status": "Pending",
    "rowid": "894744",
    "final_x": "3700565.56733",
    "final_y": "536227.408519",
    "longitude": "-90.00769655660997",
    "latitude": "29.96784672511984",
    "geocoded_column": {
      "latitude": "29.96784672511984",
      "longitude": "-90.00769655660997"
    }
  },
  {
    "service_request": "2022-894743",
    "request_type": "Trash/Recycling",
    "request_reason": "Dead Animal Pick Up",
    "date_created": "2022-06-26T11:01:52.000",
    "date_modified": "2022-06-26T11:01:53.000",
    "request_status": "Pending",
    "responsible_agency": "Department of Sanitation",
    "status": "Assigned to Contractor",
    "rowid": "894743",
    "longitude": "0.0",
    "latitude": "0.0",
    "geocoded_column": {
      "latitude": "0.0",
      "longitude": "0.0"
    }
  },
  {
    "service_request": "2022-894742",
    "request_type": "Roads/Drainage",
    "request_reason": "Pothole",
    "date_created": "2022-06-26T10:50:31.000",
    "date_modified": "2022-06-26T10:50:31.000",
    "request_status": "Pending",
    "responsible_agency": "Department of Public Works",
    "final_address": "4819 Patterson St",
    "address_councildis": "C",
    "status": "Pending",
    "rowid": "894742",
    "final_x": "3702108.03722",
    "final_y": "524485.913404",
    "longitude": "-90.00325584287303",
    "latitude": "29.93551262801482",
    "geocoded_column": {
      "latitude": "29.93551262801482",
      "longitude": "-90.00325584287303"
    }
  },
  {
    "service_request": "2022-894741",
    "request_type": "Trash/Recycling",
    "request_reason": "Repair Recycling Cart",
    "date_created": "2022-06-26T10:34:02.000",
    "date_modified": "2022-06-26T10:34:02.000",
    "request_status": "Pending",
    "responsible_agency": "Department of Sanitation",
    "final_address": "431 Adams St",
    "address_councildis": "A",
    "status": "Pending",
    "rowid": "894741",
    "final_x": "3661358.45171",
    "final_y": "525460.161405",
    "longitude": "-90.13187105498139",
    "latitude": "29.93942924027447",
    "geocoded_column": {
      "latitude": "29.93942924027447",
      "longitude": "-90.13187105498139"
    }
  },
  {
    "service_request": "2022-894740",
    "request_type": "Trash/Recycling",
    "request_reason": "Request a Large Item Pick Up",
    "date_created": "2022-06-26T10:25:36.000",
    "date_modified": "2022-06-26T10:25:37.000",
    "request_status": "Pending",
    "responsible_agency": "Department of Sanitation",
    "final_address": "4429 Chestnut St",
    "address_councildis": "B",
    "status": "Assigned to Contractor",
    "contractor": "Richards Disposal",
    "rowid": "894740",
    "final_x": "3670682.73294",
    "final_y": "519528.900151",
    "longitude": "-90.10263412172787",
    "latitude": "29.92284804965455",
    "geocoded_column": {
      "latitude": "29.92284804965455",
      "longitude": "-90.10263412172787"
    }
  },
  {
    "service_request": "2022-894738",
    "request_type": "Trash/Recycling",
    "request_reason": "Repair Trash Cart",
    "date_created": "2022-06-26T10:19:25.000",
    "date_modified": "2022-06-26T10:19:25.000",
    "request_status": "Pending",
    "responsible_agency": "Department of Sanitation",
    "final_address": "3400 Plymouth Pl",
    "address_councildis": "C",
    "status": "Assigned to Contractor",
    "contractor": "Richards Disposal",
    "rowid": "894738",
    "final_x": "3702856.89886",
    "final_y": "518654.746423",
    "longitude": "-90.00110573300731",
    "latitude": "29.91945501911085",
    "geocoded_column": {
      "latitude": "29.91945501911085",
      "longitude": "-90.00110573300731"
    }
  },
  {
    "service_request": "2022-894737",
    "request_type": "Roads/Drainage",
    "request_reason": "Catch Basin - Clogged",
    "date_created": "2022-06-26T10:17:41.000",
    "date_modified": "2022-06-26T10:17:41.000",
    "request_status": "Pending",
    "responsible_agency": "Department of Public Works",
    "final_address": "108 Neil Ave",
    "address_councildis": "C",
    "status": "Pending",
    "rowid": "894737",
    "final_x": "3705948.17387",
    "final_y": "518833.316855",
    "longitude": "-89.99134160368092",
    "latitude": "29.91984683768692",
    "geocoded_column": {
      "latitude": "29.91984683768692",
      "longitude": "-89.99134160368092"
    }
  },
  {
    "service_request": "2022-894736",
    "request_type": "Trash/Recycling",
    "request_reason": "Missed Trash Pick-Up",
    "date_created": "2022-06-26T09:57:52.000",
    "date_modified": "2022-06-26T09:57:52.000",
    "request_status": "Pending",
    "responsible_agency": "Department of Sanitation",
    "final_address": "134 N Alexander St",
    "address_councildis": "A",
    "status": "Assigned to Contractor",
    "contractor": "Richards Disposal",
    "rowid": "894736",
    "final_x": "3670253.93831",
    "final_y": "539432.27457",
    "longitude": "-90.10331323336244",
    "latitude": "29.97758845966334",
    "geocoded_column": {
      "latitude": "29.97758845966334",
      "longitude": "-90.10331323336244"
    }
  },
  {
    "service_request": "2022-894734",
    "request_type": "Parks & Parkways",
    "request_reason": "Request Tree Service (Right of Way/Public Property)",
    "date_created": "2022-06-26T09:56:29.000",
    "date_modified": "2022-06-26T09:56:29.000",
    "request_status": "Pending",
    "responsible_agency": "Department of Parks & Parkway",
    "final_address": "3960 Peach Tree Ct",
    "address_councildis": "C",
    "status": "Pending",
    "rowid": "894734",
    "final_x": "3704044.46174",
    "final_y": "512796.735281",
    "longitude": "-89.9975727753838",
    "latitude": "29.903309475002168",
    "geocoded_column": {
      "latitude": "29.903309475002168",
      "longitude": "-89.9975727753838"
    }
  },
  {
    "service_request": "2022-894733",
    "request_type": "Parks & Parkways",
    "request_reason": "Request Grass Cutting Service (City Owned Property)",
    "date_created": "2022-06-26T09:43:03.000",
    "date_modified": "2022-06-26T09:43:03.000",
    "request_status": "Pending",
    "responsible_agency": "Department of Parks & Parkway",
    "final_address": "4020 Lennox Blvd",
    "address_councildis": "C",
    "status": "Pending",
    "rowid": "894733",
    "final_x": "3700927.57981",
    "final_y": "515729.61202",
    "longitude": "-90.00730243884323",
    "latitude": "29.91147343540129",
    "geocoded_column": {
      "latitude": "29.91147343540129",
      "longitude": "-90.00730243884323"
    }
  },
  {
    "service_request": "2022-894732",
    "request_type": "Roads/Drainage",
    "request_reason": "Pothole",
    "date_created": "2022-06-26T09:33:10.000",
    "date_modified": "2022-06-26T09:33:10.000",
    "request_status": "Pending",
    "responsible_agency": "Department of Public Works",
    "final_address": "6624 Center St",
    "address_councildis": "A",
    "status": "Pending",
    "rowid": "894732",
    "final_x": "3664890.512",
    "final_y": "552138.97039",
    "longitude": "-90.11982780360692",
    "latitude": "30.012684755351284",
    "geocoded_column": {
      "latitude": "30.012684755351284",
      "longitude": "-90.11982780360692"
    }
  },
  {
    "service_request": "2022-894731",
    "request_type": "Abandoned Vehicles",
    "request_reason": "Abandoned/Junk Vehicles",
    "date_created": "2022-06-26T09:30:23.000",
    "date_modified": "2022-06-26T09:30:23.000",
    "request_status": "Pending",
    "responsible_agency": "Department of Public Works",
    "final_address": "430 36Th St",
    "address_councildis": "A",
    "status": "Pending",
    "rowid": "894731",
    "final_x": "3664615.52647",
    "final_y": "551910.943446",
    "longitude": "-90.12070423487854",
    "latitude": "30.012065765459873",
    "geocoded_column": {
      "latitude": "30.012065765459873",
      "longitude": "-90.12070423487854"
    }
  },
  {
    "service_request": "2022-894730",
    "request_type": "Traffic Signals/Signs/Striping/Streetlights",
    "request_reason": "Traffic Signal Malfunctioning/Damaged",
    "date_created": "2022-06-26T09:28:45.000",
    "date_modified": "2022-06-26T09:28:45.000",
    "request_status": "Pending",
    "responsible_agency": "Department of Public Works",
    "final_address": "Earhart Blvd & S Norman C Francis Pkwy, New Orleans, Louisiana, 70125",
    "address_councildis": "B",
    "status": "Pending",
    "rowid": "894730",
    "final_x": "3669903.8",
    "final_y": "531879.48",
    "longitude": "-90.10467487626596",
    "latitude": "29.956831128087114",
    "geocoded_column": {
      "latitude": "29.956831128087114",
      "longitude": "-90.10467487626596"
    }
  },
  {
    "service_request": "2022-894729",
    "request_type": "Traffic Signals/Signs/Striping/Streetlights",
    "request_reason": "Street Name Sign Damaged or Missing",
    "date_created": "2022-06-26T09:21:47.000",
    "date_modified": "2022-06-26T09:21:47.000",
    "request_status": "Pending",
    "responsible_agency": "Department of Public Works",
    "final_address": "1000 BLK Saint Roch Ave",
    "address_councildis": "C",
    "status": "Pending",
    "rowid": "894729",
    "final_x": "3686506.81068",
    "final_y": "536243.772773",
    "longitude": "-90.05209386664617",
    "latitude": "29.96833145621026",
    "geocoded_column": {
      "latitude": "29.96833145621026",
      "longitude": "-90.05209386664617"
    }
  },
  {
    "service_request": "2022-894728",
    "request_type": "Traffic Signals/Signs/Striping/Streetlights",
    "request_reason": "Street Name Sign Damaged or Missing",
    "date_created": "2022-06-26T09:20:06.000",
    "date_modified": "2022-06-26T09:20:06.000",
    "request_status": "Pending",
    "responsible_agency": "Department of Public Works",
    "final_address": "2700 BLK Saint Roch Ave",
    "address_councildis": "D",
    "status": "Pending",
    "rowid": "894728",
    "final_x": "3685929.3594",
    "final_y": "542967.233735",
    "longitude": "-90.05368035465511",
    "latitude": "29.98683635210112",
    "geocoded_column": {
      "latitude": "29.98683635210112",
      "longitude": "-90.05368035465511"
    }
  },
  {
    "service_request": "2022-894727",
    "request_type": "Property Maintenance",
    "request_reason": "Property Maintenance",
    "date_created": "2022-06-26T09:17:42.000",
    "date_modified": "2022-06-26T09:17:42.000",
    "request_status": "Pending",
    "responsible_agency": "Department of Code Enforcement",
    "final_address": "1348 Holiday Pl",
    "address_councildis": "C",
    "status": "Pending",
    "rowid": "894727",
    "final_x": "3699058.39517",
    "final_y": "526235.427198",
    "longitude": "-90.01281987531748",
    "latitude": "29.940420168421085",
    "geocoded_column": {
      "latitude": "29.940420168421085",
      "longitude": "-90.01281987531748"
    }
  },
  {
    "service_request": "2022-894726",
    "request_type": "Trash/Recycling",
    "request_reason": "Order Recycling Cart",
    "date_created": "2022-06-26T08:55:19.000",
    "date_modified": "2022-06-26T08:55:19.000",
    "request_status": "Pending",
    "responsible_agency": "Department of Sanitation",
    "final_address": "3302 Napoleon Ave",
    "address_councildis": "B",
    "status": "Pending",
    "rowid": "894726",
    "final_x": "3670140.84801",
    "final_y": "526944.172542",
    "longitude": "-90.10409353624746",
    "latitude": "29.943253658321904",
    "geocoded_column": {
      "latitude": "29.943253658321904",
      "longitude": "-90.10409353624746"
    }
  },
  {
    "service_request": "2022-894725",
    "request_type": "Trash/Recycling",
    "request_reason": "Replace Trash Cart",
    "date_created": "2022-06-26T08:50:29.000",
    "date_modified": "2022-06-26T08:50:30.000",
    "request_status": "Pending",
    "responsible_agency": "Department of Sanitation",
    "final_address": "1704 S Dupre St",
    "address_councildis": "B",
    "status": "Assigned to Contractor",
    "contractor": "Richards Disposal",
    "rowid": "894725",
    "final_x": "3670756.15739",
    "final_y": "530055.979521",
    "longitude": "-90.10204527000269",
    "latitude": "29.951791944625775",
    "geocoded_column": {
      "latitude": "29.951791944625775",
      "longitude": "-90.10204527000269"
    }
  },
  {
    "service_request": "2022-894724",
    "request_type": "Trash/Recycling",
    "request_reason": "Repair Trash Cart",
    "date_created": "2022-06-26T08:42:25.000",
    "date_modified": "2022-06-26T08:42:25.000",
    "request_status": "Pending",
    "responsible_agency": "Department of Sanitation",
    "final_address": "4850 Read Blvd",
    "address_councildis": "E",
    "status": "Assigned to Contractor",
    "contractor": "Metro Disposal",
    "rowid": "894724",
    "final_x": "3712602.74718",
    "final_y": "556810.45385",
    "longitude": "-89.96890915955319",
    "latitude": "30.02405382422736",
    "geocoded_column": {
      "latitude": "30.02405382422736",
      "longitude": "-89.96890915955319"
    }
  },
  {
    "service_request": "2022-894723",
    "request_type": "Trash/Recycling",
    "request_reason": "Order Recycling Cart",
    "date_created": "2022-06-26T08:12:42.000",
    "date_modified": "2022-06-26T08:12:42.000",
    "request_status": "Pending",
    "responsible_agency": "Department of Sanitation",
    "final_address": "6223 General Diaz St",
    "address_councildis": "A",
    "status": "Pending",
    "rowid": "894723",
    "final_x": "3669735.57652",
    "final_y": "548698.667667",
    "longitude": "-90.10463657315809",
    "latitude": "30.00308314996494",
    "geocoded_column": {
      "latitude": "30.00308314996494",
      "longitude": "-90.10463657315809"
    }
  },
  {
    "service_request": "2022-894722",
    "request_type": "Trash/Recycling",
    "request_reason": "Repair Recycling Cart",
    "date_created": "2022-06-26T07:30:29.000",
    "date_modified": "2022-06-26T07:30:29.000",
    "request_status": "Pending",
    "responsible_agency": "Department of Sanitation",
    "final_address": "121 Elmira Ave",
    "address_councildis": "C",
    "status": "Pending",
    "rowid": "894722",
    "final_x": "3688226.60636",
    "final_y": "531222.519426",
    "longitude": "-90.04684072578077",
    "latitude": "29.954471763641905",
    "geocoded_column": {
      "latitude": "29.954471763641905",
      "longitude": "-90.04684072578077"
    }
  },
  {
    "service_request": "2022-894721",
    "request_type": "Trash/Recycling",
    "request_reason": "Order Trash Cart",
    "date_created": "2022-06-26T07:29:48.000",
    "date_modified": "2022-06-26T07:29:49.000",
    "request_status": "Pending",
    "responsible_agency": "Department of Sanitation",
    "final_address": "2036 Gallier St",
    "address_councildis": "D",
    "status": "Assigned to Contractor",
    "contractor": "Metro Disposal",
    "rowid": "894721",
    "final_x": "3691325.08208",
    "final_y": "539338.392266",
    "longitude": "-90.03676701537982",
    "latitude": "29.976691543447334",
    "geocoded_column": {
      "latitude": "29.976691543447334",
      "longitude": "-90.03676701537982"
    }
  },
  {
    "service_request": "2022-894720",
    "request_type": "Trash/Recycling",
    "request_reason": "Replace Trash Cart",
    "date_created": "2022-06-26T02:19:01.000",
    "date_modified": "2022-06-26T02:19:01.000",
    "request_status": "Pending",
    "responsible_agency": "Department of Sanitation",
    "final_address": "4342 Sybil St",
    "address_councildis": "D",
    "status": "Assigned to Contractor",
    "contractor": "Metro Disposal",
    "rowid": "894720",
    "final_x": "3679006.35029",
    "final_y": "548430.605522",
    "longitude": "-90.07535813718778",
    "latitude": "30.002069470380302",
    "geocoded_column": {
      "latitude": "30.002069470380302",
      "longitude": "-90.07535813718778"
    }
  },
  {
    "service_request": "2022-894719",
    "request_type": "Trash/Recycling",
    "request_reason": "Missed Trash Pick-Up",
    "date_created": "2022-06-26T01:09:53.000",
    "date_modified": "2022-06-26T01:09:53.000",
    "request_status": "Pending",
    "responsible_agency": "Department of Sanitation",
    "final_address": "5015 St Claude Ave",
    "address_councildis": "E",
    "status": "Assigned to Contractor",
    "contractor": "Metro Disposal",
    "rowid": "894719",
    "final_x": "3696113.05085",
    "final_y": "534351.361221",
    "longitude": "-90.02182547915295",
    "latitude": "29.962829149857008",
    "geocoded_column": {
      "latitude": "29.962829149857008",
      "longitude": "-90.02182547915295"
    }
  },
  {
    "service_request": "2022-894718",
    "request_type": "Traffic Signals/Signs/Striping/Streetlights",
    "request_reason": "Street Light Outage/Malfunction",
    "date_created": "2022-06-26T00:43:03.000",
    "date_modified": "2022-06-26T00:43:04.000",
    "request_status": "Pending",
    "responsible_agency": "Department of Public Works",
    "final_address": "8019 Marquis St",
    "address_councildis": "E",
    "status": "Pending",
    "contractor": "Royal Engineering",
    "rowid": "894718",
    "final_x": "3710498.10635",
    "final_y": "567451.157732",
    "longitude": "-89.97516083049378",
    "latitude": "30.053380254178283",
    "geocoded_column": {
      "latitude": "30.053380254178283",
      "longitude": "-89.97516083049378"
    }
  },
  {
    "service_request": "2022-894717",
    "request_type": "Abandoned Vehicles",
    "request_reason": "Abandoned/Junk Vehicles",
    "date_created": "2022-06-25T23:35:55.000",
    "date_modified": "2022-06-25T23:35:55.000",
    "request_status": "Pending",
    "responsible_agency": "Department of Public Works",
    "final_address": "3100 General Meyer Ave",
    "address_councildis": "C",
    "status": "Pending",
    "rowid": "894717",
    "final_x": "3695485.9064",
    "final_y": "526559.001022",
    "longitude": "-90.02408707530869",
    "latitude": "29.941422607079744",
    "geocoded_column": {
      "latitude": "29.941422607079744",
      "longitude": "-90.02408707530869"
    }
  },
  {
    "service_request": "2022-894716",
    "request_type": "Traffic Signals/Signs/Striping/Streetlights",
    "request_reason": "Street Light Outage/Malfunction",
    "date_created": "2022-06-25T23:28:21.000",
    "date_modified": "2022-06-25T23:28:22.000",
    "request_status": "Pending",
    "responsible_agency": "Department of Public Works",
    "final_address": "6001 Woodland Hwy",
    "address_councildis": "C",
    "status": "Pending",
    "contractor": "Royal Engineering",
    "rowid": "894716",
    "final_x": "3705934.84919",
    "final_y": "514368.845811",
    "longitude": "-89.99154868222467",
    "latitude": "29.90757151102874",
    "geocoded_column": {
      "latitude": "29.90757151102874",
      "longitude": "-89.99154868222467"
    }
  },
  {
    "service_request": "2022-894712",
    "request_type": "Abandoned Vehicles",
    "request_reason": "Abandoned/Junk Vehicles",
    "date_created": "2022-06-25T23:15:05.000",
    "date_modified": "2022-06-25T23:15:05.000",
    "request_status": "Pending",
    "responsible_agency": "Department of Public Works",
    "final_address": "3054 General De Gaulle Dr",
    "address_councildis": "C",
    "status": "Pending",
    "rowid": "894712",
    "final_x": "3695409.81814",
    "final_y": "521271.256953",
    "longitude": "-90.02451798840401",
    "latitude": "29.926885514571467",
    "geocoded_column": {
      "latitude": "29.926885514571467",
      "longitude": "-90.02451798840401"
    }
  },
  {
    "service_request": "2022-894711",
    "request_type": "Property Maintenance",
    "request_reason": "Property Maintenance",
    "date_created": "2022-06-25T23:13:08.000",
    "date_modified": "2022-06-25T23:13:08.000",
    "request_status": "Pending",
    "responsible_agency": "Department of Code Enforcement",
    "final_address": "3054 General De Gaulle Dr",
    "address_councildis": "C",
    "status": "Pending",
    "rowid": "894711",
    "final_x": "3695409.81814",
    "final_y": "521271.256953",
    "longitude": "-90.02451798840401",
    "latitude": "29.926885514571467",
    "geocoded_column": {
      "latitude": "29.926885514571467",
      "longitude": "-90.02451798840401"
    }
  },
  {
    "service_request": "2022-894709",
    "request_type": "Roads/Drainage",
    "request_reason": "Street Subsidence (Sinking)",
    "date_created": "2022-06-25T23:09:38.000",
    "date_modified": "2022-06-25T23:09:38.000",
    "request_status": "Pending",
    "responsible_agency": "Department of Public Works",
    "final_address": "14 Pinehurst Dr",
    "address_councildis": "C",
    "status": "Pending",
    "rowid": "894709",
    "final_x": "3715112.91154",
    "final_y": "515862.484148",
    "longitude": "-89.96252550916604",
    "latitude": "29.91137977902502",
    "geocoded_column": {
      "latitude": "29.91137977902502",
      "longitude": "-89.96252550916604"
    }
  },
  {
    "service_request": "2022-894710",
    "request_type": "Roads/Drainage",
    "request_reason": "Street Subsidence (Sinking)",
    "date_created": "2022-06-25T23:09:38.000",
    "date_modified": "2022-06-25T23:09:38.000",
    "request_status": "Pending",
    "responsible_agency": "Department of Public Works",
    "final_address": "14 Pinehurst Dr",
    "address_councildis": "C",
    "status": "Pending",
    "rowid": "894710",
    "final_x": "3715112.91154",
    "final_y": "515862.484148",
    "longitude": "-89.96252550916604",
    "latitude": "29.91137977902502",
    "geocoded_column": {
      "latitude": "29.91137977902502",
      "longitude": "-89.96252550916604"
    }
  },
  {
    "service_request": "2022-894708",
    "request_type": "Roads/Drainage",
    "request_reason": "Street Subsidence (Sinking)",
    "date_created": "2022-06-25T23:09:37.000",
    "date_modified": "2022-06-25T23:09:37.000",
    "request_status": "Pending",
    "responsible_agency": "Department of Public Works",
    "final_address": "14 Pinehurst Dr",
    "address_councildis": "C",
    "status": "Pending",
    "rowid": "894708",
    "final_x": "3715112.91154",
    "final_y": "515862.484148",
    "longitude": "-89.96252550916604",
    "latitude": "29.91137977902502",
    "geocoded_column": {
      "latitude": "29.91137977902502",
      "longitude": "-89.96252550916604"
    }
  },
  {
    "service_request": "2022-894707",
    "request_type": "Property Maintenance",
    "request_reason": "Property Maintenance",
    "date_created": "2022-06-25T23:00:07.000",
    "date_modified": "2022-06-25T23:00:07.000",
    "request_status": "Pending",
    "responsible_agency": "Department of Code Enforcement",
    "final_address": "6001 Woodland Hwy",
    "address_councildis": "C",
    "status": "Pending",
    "rowid": "894707",
    "final_x": "3705934.84919",
    "final_y": "514368.845811",
    "longitude": "-89.99154868222467",
    "latitude": "29.90757151102874",
    "geocoded_column": {
      "latitude": "29.90757151102874",
      "longitude": "-89.99154868222467"
    }
  },
  {
    "service_request": "2022-894706",
    "request_type": "Trash/Recycling",
    "request_reason": "Illegal Dumping",
    "date_created": "2022-06-25T22:57:45.000",
    "date_modified": "2022-06-25T22:57:45.000",
    "request_status": "Pending",
    "responsible_agency": "Department of Sanitation",
    "final_address": "6001 Woodland Hwy",
    "address_councildis": "C",
    "status": "Pending",
    "rowid": "894706",
    "final_x": "3705934.84919",
    "final_y": "514368.845811",
    "longitude": "-89.99154868222467",
    "latitude": "29.90757151102874",
    "geocoded_column": {
      "latitude": "29.90757151102874",
      "longitude": "-89.99154868222467"
    }
  },
  {
    "service_request": "2022-894705",
    "request_type": "Parks & Parkways",
    "request_reason": "Request Tree Service (Right of Way/Public Property)",
    "date_created": "2022-06-25T22:53:07.000",
    "date_modified": "2022-06-25T22:53:07.000",
    "request_status": "Pending",
    "responsible_agency": "Department of Parks & Parkway",
    "final_address": "4100 Macarthur Blvd",
    "address_councildis": "C",
    "status": "Pending",
    "rowid": "894705",
    "final_x": "3698899.01104",
    "final_y": "520530.325048",
    "longitude": "-90.01353053873082",
    "latitude": "29.924738157678203",
    "geocoded_column": {
      "latitude": "29.924738157678203",
      "longitude": "-90.01353053873082"
    }
  },
  {
    "service_request": "2022-894704",
    "request_type": "Safety & Permits",
    "request_reason": "Licenses & Permits",
    "date_created": "2022-06-25T22:25:07.000",
    "date_modified": "2022-06-25T22:25:07.000",
    "request_status": "Pending",
    "responsible_agency": "Safety and Permits",
    "status": "Pending",
    "rowid": "894704",
    "longitude": "0.0",
    "latitude": "0.0",
    "geocoded_column": {
      "latitude": "0.0",
      "longitude": "0.0"
    }
  },
  {
    "service_request": "2022-894701",
    "request_type": "Trash/Recycling",
    "request_reason": "Missed Trash Pick-Up",
    "date_created": "2022-06-25T20:47:58.000",
    "date_modified": "2022-06-25T20:47:59.000",
    "request_status": "Pending",
    "responsible_agency": "Department of Sanitation",
    "final_address": "5901 Brighton Pl",
    "address_councildis": "C",
    "status": "Assigned to Contractor",
    "contractor": "Richards Disposal",
    "rowid": "894701",
    "final_x": "3705653.85809",
    "final_y": "520023.15372",
    "longitude": "-89.99222664990286",
    "latitude": "29.923127950565007",
    "geocoded_column": {
      "latitude": "29.923127950565007",
      "longitude": "-89.99222664990286"
    }
  },
  {
    "service_request": "2022-894700",
    "request_type": "Trash/Recycling",
    "request_reason": "Replace Trash Cart",
    "date_created": "2022-06-25T20:38:56.000",
    "date_modified": "2022-06-25T20:38:57.000",
    "request_status": "Pending",
    "responsible_agency": "Department of Sanitation",
    "final_address": "961 Harding Dr",
    "address_councildis": "A",
    "status": "Assigned to Contractor",
    "contractor": "Richards Disposal",
    "rowid": "894700",
    "final_x": "3674342.14088",
    "final_y": "540185.099915",
    "longitude": "-90.09037549243301",
    "latitude": "29.979537168531873",
    "geocoded_column": {
      "latitude": "29.979537168531873",
      "longitude": "-90.09037549243301"
    }
  },
  {
    "service_request": "2022-894699",
    "request_type": "Safety & Permits",
    "request_reason": "Short term Rental (Enforcement)",
    "date_created": "2022-06-25T20:34:42.000",
    "date_modified": "2022-06-25T20:34:42.000",
    "request_status": "Pending",
    "responsible_agency": "Safety and Permits",
    "final_address": "1805 Henriette Delille St",
    "address_councildis": "C",
    "status": "Pending",
    "rowid": "894699",
    "final_x": "3683573.27932",
    "final_y": "536218.138119",
    "longitude": "-90.06135898025833",
    "latitude": "29.96835083720696",
    "geocoded_column": {
      "latitude": "29.96835083720696",
      "longitude": "-90.06135898025833"
    }
  },
  {
    "service_request": "2022-894698",
    "request_type": "Trash/Recycling",
    "request_reason": "Missed Trash Pick-Up",
    "date_created": "2022-06-25T20:12:48.000",
    "date_modified": "2022-06-25T20:12:49.000",
    "request_status": "Pending",
    "responsible_agency": "Department of Sanitation",
    "final_address": "1001 Lamanche St",
    "address_councildis": "E",
    "status": "Assigned to Contractor",
    "contractor": "Metro Disposal",
    "rowid": "894698",
    "final_x": "3698290.17245",
    "final_y": "533265.899524",
    "longitude": "-90.01498988632088",
    "latitude": "29.95977581818476",
    "geocoded_column": {
      "latitude": "29.95977581818476",
      "longitude": "-90.01498988632088"
    }
  },
  {
    "service_request": "2022-894697",
    "request_type": "Trash/Recycling",
    "request_reason": "Replace Trash Cart",
    "date_created": "2022-06-25T19:52:06.000",
    "date_modified": "2022-06-25T19:52:07.000",
    "request_status": "Pending",
    "responsible_agency": "Department of Sanitation",
    "final_address": "4031 Ulloa St, New Orleans, Louisiana, 70119",
    "address_councildis": "A",
    "status": "Assigned to Contractor",
    "contractor": "Richards Disposal",
    "rowid": "894697",
    "final_x": "3669861.37946",
    "final_y": "536370.184583",
    "longitude": "-90.10465677361671",
    "latitude": "29.96918032368568",
    "geocoded_column": {
      "latitude": "29.96918032368568",
      "longitude": "-90.10465677361671"
    }
  },
  {
    "service_request": "2022-894696",
    "request_type": "Property Maintenance",
    "request_reason": "Property Maintenance",
    "date_created": "2022-06-25T18:48:51.000",
    "date_modified": "2022-06-25T18:48:51.000",
    "request_status": "Pending",
    "responsible_agency": "Department of Code Enforcement",
    "final_address": "4911 Miles Dr",
    "address_councildis": "D",
    "status": "Pending",
    "rowid": "894696",
    "final_x": "3680258.03989",
    "final_y": "549509.306579",
    "longitude": "-90.07136637701485",
    "latitude": "30.004997668215562",
    "geocoded_column": {
      "latitude": "30.004997668215562",
      "longitude": "-90.07136637701485"
    }
  },
  {
    "service_request": "2022-894695",
    "request_type": "Traffic Signals/Signs/Striping/Streetlights",
    "request_reason": "Street Light Outage/Malfunction",
    "date_created": "2022-06-25T18:38:20.000",
    "date_modified": "2022-06-25T18:38:21.000",
    "request_status": "Pending",
    "responsible_agency": "Department of Public Works",
    "final_address": "500 Canal St",
    "address_councildis": "B",
    "status": "Pending",
    "contractor": "Royal Engineering",
    "rowid": "894695",
    "final_x": "3681620.18831",
    "final_y": "530215.835265",
    "longitude": "-90.06773629521233",
    "latitude": "29.95190602147896",
    "geocoded_column": {
      "latitude": "29.95190602147896",
      "longitude": "-90.06773629521233"
    }
  },
  {
    "service_request": "2022-894693",
    "request_type": "Abandoned Vehicles",
    "request_reason": "Abandoned/Junk Vehicles",
    "date_created": "2022-06-25T18:10:12.000",
    "date_modified": "2022-06-25T18:10:12.000",
    "request_status": "Pending",
    "responsible_agency": "Department of Public Works",
    "final_address": "1434 Japonica St",
    "address_councildis": "D",
    "status": "Pending",
    "rowid": "894693",
    "final_x": "3693977.52931",
    "final_y": "536232.585735",
    "longitude": "-90.02850150244653",
    "latitude": "29.96806888859753",
    "geocoded_column": {
      "latitude": "29.96806888859753",
      "longitude": "-90.02850150244653"
    }
  },
  {
    "service_request": "2022-894692",
    "request_type": "Abandoned Vehicles",
    "request_reason": "Abandoned/Junk Vehicles",
    "date_created": "2022-06-25T18:07:37.000",
    "date_modified": "2022-06-25T18:07:37.000",
    "request_status": "Pending",
    "responsible_agency": "Department of Public Works",
    "final_address": "1434 Japonica St",
    "address_councildis": "D",
    "status": "Pending",
    "rowid": "894692",
    "final_x": "3693977.52931",
    "final_y": "536232.585735",
    "longitude": "-90.02850150244653",
    "latitude": "29.96806888859753",
    "geocoded_column": {
      "latitude": "29.96806888859753",
      "longitude": "-90.02850150244653"
    }
  },
  {
    "service_request": "2022-894691",
    "request_type": "Trash/Recycling",
    "request_reason": "Repair Trash Cart",
    "date_created": "2022-06-25T17:36:27.000",
    "date_modified": "2022-06-25T17:36:28.000",
    "request_status": "Pending",
    "responsible_agency": "Department of Sanitation",
    "final_address": "3824 Mistletoe St",
    "address_councildis": "A",
    "status": "Assigned to Contractor",
    "contractor": "Richards Disposal",
    "rowid": "894691",
    "final_x": "3665389.8905",
    "final_y": "538009.436617",
    "longitude": "-90.11872324412427",
    "latitude": "29.973818803939952",
    "geocoded_column": {
      "latitude": "29.973818803939952",
      "longitude": "-90.11872324412427"
    }
  },
  {
    "service_request": "2022-894690",
    "request_type": "Trash/Recycling",
    "request_reason": "Order Trash Cart",
    "date_created": "2022-06-25T17:31:16.000",
    "date_modified": "2022-06-25T17:31:17.000",
    "request_status": "Pending",
    "responsible_agency": "Department of Sanitation",
    "final_address": "3115 Nashville Ave",
    "address_councildis": "A",
    "status": "Assigned to Contractor",
    "contractor": "Richards Disposal",
    "rowid": "894690",
    "final_x": "3667854.37741",
    "final_y": "527247.868607",
    "longitude": "-90.11130229989087",
    "latitude": "29.944155972620834",
    "geocoded_column": {
      "latitude": "29.944155972620834",
      "longitude": "-90.11130229989087"
    }
  },
  {
    "service_request": "2022-894689",
    "request_type": "Trash/Recycling",
    "request_reason": "Order Trash Cart",
    "date_created": "2022-06-25T17:20:18.000",
    "date_modified": "2022-06-25T17:20:19.000",
    "request_status": "Pending",
    "responsible_agency": "Department of Sanitation",
    "final_address": "2835 Annunciation St",
    "address_councildis": "B",
    "status": "Assigned to Contractor",
    "contractor": "Richards Disposal",
    "rowid": "894689",
    "final_x": "3677367.46536",
    "final_y": "519752.157688",
    "longitude": "-90.0815253361009",
    "latitude": "29.92326282217254",
    "geocoded_column": {
      "latitude": "29.92326282217254",
      "longitude": "-90.0815253361009"
    }
  },
  {
    "service_request": "2022-894688",
    "request_type": "Trash/Recycling",
    "request_reason": "Repair Trash Cart",
    "date_created": "2022-06-25T17:19:18.000",
    "date_modified": "2022-06-25T17:19:18.000",
    "request_status": "Pending",
    "responsible_agency": "Department of Sanitation",
    "final_address": "2833 Annunciation St",
    "address_councildis": "B",
    "status": "Assigned to Contractor",
    "contractor": "Richards Disposal",
    "rowid": "894688",
    "final_x": "3677387.15573",
    "final_y": "519763.848952",
    "longitude": "-90.08146277784546",
    "latitude": "29.923294377856873",
    "geocoded_column": {
      "latitude": "29.923294377856873",
      "longitude": "-90.08146277784546"
    }
  },
  {
    "service_request": "2022-894685",
    "request_type": "Parks & Parkways",
    "request_reason": "Request Tree Service (Right of Way/Public Property)",
    "date_created": "2022-06-25T17:15:22.000",
    "date_modified": "2022-06-25T17:15:22.000",
    "request_status": "Pending",
    "responsible_agency": "Department of Parks & Parkway",
    "final_address": "1548 N Johnson St",
    "address_councildis": "D",
    "status": "Pending",
    "rowid": "894685",
    "final_x": "3680921.31323",
    "final_y": "538347.703689",
    "longitude": "-90.0696598399971",
    "latitude": "29.974287088782535",
    "geocoded_column": {
      "latitude": "29.974287088782535",
      "longitude": "-90.0696598399971"
    }
  },
  {
    "service_request": "2022-894684",
    "request_type": "Property Maintenance",
    "request_reason": "Property Maintenance",
    "date_created": "2022-06-25T16:36:37.000",
    "date_modified": "2022-06-25T16:36:37.000",
    "request_status": "Pending",
    "responsible_agency": "Department of Code Enforcement",
    "final_address": "1600 S Rampart St",
    "address_councildis": "B",
    "status": "Pending",
    "rowid": "894684",
    "final_x": "3677605.62517",
    "final_y": "526140.802686",
    "longitude": "-90.08055306919913",
    "latitude": "29.940822349850926",
    "geocoded_column": {
      "latitude": "29.940822349850926",
      "longitude": "-90.08055306919913"
    }
  },
  {
    "service_request": "2022-894683",
    "request_type": "Abandoned Vehicles",
    "request_reason": "Abandoned/Junk Vehicles",
    "date_created": "2022-06-25T16:35:19.000",
    "date_modified": "2022-06-25T16:35:19.000",
    "request_status": "Pending",
    "responsible_agency": "Department of Public Works",
    "final_address": "1625 S Liberty St",
    "address_councildis": "B",
    "status": "Pending",
    "rowid": "894683",
    "final_x": "3676584.22952",
    "final_y": "526602.251518",
    "longitude": "-90.08376190962011",
    "latitude": "29.94212184861056",
    "geocoded_column": {
      "latitude": "29.94212184861056",
      "longitude": "-90.08376190962011"
    }
  },
  {
    "service_request": "2022-894682",
    "request_type": "Trash/Recycling",
    "request_reason": "MIssed Recycling Pick-Up",
    "date_created": "2022-06-25T16:18:05.000",
    "date_modified": "2022-06-25T16:18:06.000",
    "request_status": "Pending",
    "responsible_agency": "Department of Sanitation",
    "final_address": "1415 Nashville Ave, New Orleans, Louisiana, 70115",
    "address_councildis": "A",
    "status": "Assigned to Contractor",
    "contractor": "Richards Disposal",
    "rowid": "894682",
    "final_x": "3666063.34528",
    "final_y": "521127.906745",
    "longitude": "-90.11716219868727",
    "latitude": "29.927380430600902",
    "geocoded_column": {
      "latitude": "29.927380430600902",
      "longitude": "-90.11716219868727"
    }
  },
  {
    "service_request": "2022-894681",
    "request_type": "Trash/Recycling",
    "request_reason": "Missed Trash Pick-Up",
    "date_created": "2022-06-25T16:04:24.000",
    "date_modified": "2022-06-25T16:04:25.000",
    "request_status": "Pending",
    "responsible_agency": "Department of Sanitation",
    "final_address": "1724 Clio St",
    "address_councildis": "B",
    "status": "Assigned to Contractor",
    "contractor": "Richards Disposal",
    "rowid": "894681",
    "final_x": "3679138.50799",
    "final_y": "526693.81171",
    "longitude": "-90.0756943257652",
    "latitude": "29.942296769216746",
    "geocoded_column": {
      "latitude": "29.942296769216746",
      "longitude": "-90.0756943257652"
    }
  },
  {
    "service_request": "2022-894680",
    "request_type": "Abandoned Vehicles",
    "request_reason": "Abandoned/Junk Vehicles",
    "date_created": "2022-06-25T15:59:53.000",
    "date_modified": "2022-06-25T15:59:53.000",
    "request_status": "Pending",
    "responsible_agency": "Department of Public Works",
    "final_address": "3109 Allen St",
    "address_councildis": "D",
    "status": "Pending",
    "rowid": "894680",
    "final_x": "3682247.55279",
    "final_y": "543966.333774",
    "longitude": "-90.06527489165462",
    "latitude": "29.989696070345712",
    "geocoded_column": {
      "latitude": "29.989696070345712",
      "longitude": "-90.06527489165462"
    }
  },
  {
    "service_request": "2022-894679",
    "request_type": "Health Related Questions",
    "request_reason": "Noise Ordinance Complaint",
    "date_created": "2022-06-25T15:57:42.000",
    "date_modified": "2022-06-25T15:57:42.000",
    "request_status": "Pending",
    "responsible_agency": "Health Department",
    "final_address": "316 Chartres St, New Orleans, Louisiana, 70130",
    "address_councildis": "C",
    "status": "Pending",
    "rowid": "894679",
    "final_x": "3682048.77532",
    "final_y": "531162.123394",
    "longitude": "-90.06634998337161",
    "latitude": "29.954494970034958",
    "geocoded_column": {
      "latitude": "29.954494970034958",
      "longitude": "-90.06634998337161"
    }
  },
  {
    "service_request": "2022-894678",
    "request_type": "Trash/Recycling",
    "request_reason": "Missed Trash Pick-Up",
    "date_created": "2022-06-25T15:44:11.000",
    "date_modified": "2022-06-25T15:44:12.000",
    "request_status": "Pending",
    "responsible_agency": "Department of Sanitation",
    "final_address": "4342 Genoa St",
    "address_councildis": "E",
    "status": "Assigned to Contractor",
    "contractor": "Metro Disposal",
    "rowid": "894678",
    "final_x": "3761023.01449",
    "final_y": "573632.229994",
    "longitude": "-89.81521020552164",
    "latitude": "30.06863190042958",
    "geocoded_column": {
      "latitude": "30.06863190042958",
      "longitude": "-89.81521020552164"
    }
  },
  {
    "service_request": "2022-894677",
    "request_type": "Trash/Recycling",
    "request_reason": "Order Trash Cart",
    "date_created": "2022-06-25T15:41:19.000",
    "date_modified": "2022-06-25T15:41:20.000",
    "request_status": "Pending",
    "responsible_agency": "Department of Sanitation",
    "final_address": "29 S Oak Ridge Ct",
    "address_councildis": "E",
    "status": "Assigned to Contractor",
    "contractor": "Metro Disposal",
    "rowid": "894677",
    "final_x": "3713853.86104",
    "final_y": "567820.232804",
    "longitude": "-89.96454034292587",
    "latitude": "30.054285264073794",
    "geocoded_column": {
      "latitude": "30.054285264073794",
      "longitude": "-89.96454034292587"
    }
  },
  {
    "service_request": "2022-894676",
    "request_type": "Property Maintenance",
    "request_reason": "Property Maintenance",
    "date_created": "2022-06-25T15:34:28.000",
    "date_modified": "2022-06-25T15:34:28.000",
    "request_status": "Pending",
    "responsible_agency": "Department of Code Enforcement",
    "final_address": "4146 Toulouse St",
    "address_councildis": "A",
    "status": "Pending",
    "rowid": "894676",
    "final_x": "3671879.83073",
    "final_y": "539955.569162",
    "longitude": "-90.09816028653898",
    "latitude": "29.97897925082577",
    "geocoded_column": {
      "latitude": "29.97897925082577",
      "longitude": "-90.09816028653898"
    }
  },
  {
    "service_request": "2022-894675",
    "request_type": "Trash/Recycling",
    "request_reason": "Request a Large Item Pick Up",
    "date_created": "2022-06-25T15:29:17.000",
    "date_modified": "2022-06-25T15:29:18.000",
    "request_status": "Pending",
    "responsible_agency": "Department of Sanitation",
    "final_address": "4811 Laurel St, New Orleans, Louisiana, 70115",
    "address_councildis": "B",
    "status": "Assigned to Contractor",
    "contractor": "Richards Disposal",
    "rowid": "894675",
    "final_x": "3669564.81569",
    "final_y": "517947.160886",
    "longitude": "-90.1062164285032",
    "latitude": "29.918531735444063",
    "geocoded_column": {
      "latitude": "29.918531735444063",
      "longitude": "-90.1062164285032"
    }
  },
  {
    "service_request": "2022-894674",
    "request_type": "Property Maintenance",
    "request_reason": "Property Maintenance",
    "date_created": "2022-06-25T15:14:12.000",
    "date_modified": "2022-06-25T15:14:13.000",
    "request_status": "Pending",
    "responsible_agency": "Department of Code Enforcement",
    "final_address": "4156 Toulouse St",
    "address_councildis": "A",
    "status": "Pending",
    "rowid": "894674",
    "final_x": "3671806.00833",
    "final_y": "540006.050123",
    "longitude": "-90.09839172811525",
    "latitude": "29.97912024419698",
    "geocoded_column": {
      "latitude": "29.97912024419698",
      "longitude": "-90.09839172811525"
    }
  },
  {
    "service_request": "2022-894673",
    "request_type": "Roads/Drainage",
    "request_reason": "Pothole",
    "date_created": "2022-06-25T15:07:30.000",
    "date_modified": "2022-06-25T15:07:30.000",
    "request_status": "Pending",
    "responsible_agency": "Department of Public Works",
    "final_address": "4400 General De Gaulle Dr",
    "address_councildis": "C",
    "status": "Pending",
    "rowid": "894673",
    "final_x": "3699878.24752",
    "final_y": "518449.277686",
    "longitude": "-90.01051527285452",
    "latitude": "29.918984939986817",
    "geocoded_column": {
      "latitude": "29.918984939986817",
      "longitude": "-90.01051527285452"
    }
  },
  {
    "service_request": "2022-894672",
    "request_type": "EMS",
    "request_reason": "EMS Lost & Found",
    "date_created": "2022-06-25T15:06:02.000",
    "date_modified": "2022-06-25T15:15:22.000",
    "request_status": "Pending",
    "responsible_agency": "Emergency Medical Services",
    "status": "Pending",
    "rowid": "894672",
    "longitude": "0.0",
    "latitude": "0.0",
    "geocoded_column": {
      "latitude": "0.0",
      "longitude": "0.0"
    }
  },
  {
    "service_request": "2022-894671",
    "request_type": "Parks & Parkways",
    "request_reason": "Request Tree Service (Right of Way/Public Property)",
    "date_created": "2022-06-25T15:05:37.000",
    "date_modified": "2022-06-25T15:42:16.000",
    "request_status": "Pending",
    "responsible_agency": "Department of Parks & Parkway",
    "final_address": "111 Danny Dr",
    "address_councildis": "C",
    "status": "Pending",
    "rowid": "894671",
    "final_x": "3701890.02417",
    "final_y": "524490.812924",
    "longitude": "-90.0039439274478",
    "latitude": "29.93553305667189",
    "geocoded_column": {
      "latitude": "29.93553305667189",
      "longitude": "-90.0039439274478"
    }
  },
  {
    "service_request": "2022-894670",
    "request_type": "Trash/Recycling",
    "request_reason": "Order Trash Cart",
    "date_created": "2022-06-25T14:55:59.000",
    "date_modified": "2022-06-25T14:55:59.000",
    "request_status": "Pending",
    "responsible_agency": "Department of Sanitation",
    "final_address": "New Orleans,LA",
    "status": "Assigned to Contractor",
    "rowid": "894670",
    "longitude": "0.0",
    "latitude": "0.0",
    "geocoded_column": {
      "latitude": "0.0",
      "longitude": "0.0"
    }
  },
  {
    "service_request": "2022-894669",
    "request_type": "Trash/Recycling",
    "request_reason": "Illegal Dumping",
    "date_created": "2022-06-25T14:47:45.000",
    "date_modified": "2022-06-25T14:47:45.000",
    "request_status": "Pending",
    "responsible_agency": "Department of Sanitation",
    "final_address": "LAKE FOREST BLVD & BENTLEY DR",
    "address_councildis": "E",
    "status": "Pending",
    "rowid": "894669",
    "final_x": "3703797.7",
    "final_y": "556934.38",
    "longitude": "-89.99672666027483",
    "latitude": "30.024679924624056",
    "geocoded_column": {
      "latitude": "30.024679924624056",
      "longitude": "-89.99672666027483"
    }
  },
  {
    "service_request": "2022-894668",
    "request_type": "Trash/Recycling",
    "request_reason": "Missed Trash Pick-Up",
    "date_created": "2022-06-25T14:39:14.000",
    "date_modified": "2022-06-25T14:39:15.000",
    "request_status": "Pending",
    "responsible_agency": "Department of Sanitation",
    "final_address": "6026 Benjamin St",
    "address_councildis": "A",
    "status": "Assigned to Contractor",
    "contractor": "Richards Disposal",
    "rowid": "894668",
    "final_x": "3665360.39456",
    "final_y": "522127.85913",
    "longitude": "-90.11934780455478",
    "latitude": "29.930150480305272",
    "geocoded_column": {
      "latitude": "29.930150480305272",
      "longitude": "-90.11934780455478"
    }
  },
  {
    "service_request": "2022-894667",
    "request_type": "Traffic Signals/Signs/Striping/Streetlights",
    "request_reason": "Street Light Outage/Malfunction",
    "date_created": "2022-06-25T14:29:12.000",
    "date_modified": "2022-06-25T14:29:12.000",
    "request_status": "Pending",
    "responsible_agency": "Department of Public Works",
    "final_address": "PINE ST & ST CHARLES AVE",
    "address_councildis": "A",
    "status": "Pending",
    "contractor": "Royal Engineering",
    "rowid": "894667",
    "final_x": "3662751.3",
    "final_y": "524904.38",
    "longitude": "-90.12749209375382",
    "latitude": "29.937860786442457",
    "geocoded_column": {
      "latitude": "29.937860786442457",
      "longitude": "-90.12749209375382"
    }
  },
  {
    "service_request": "2022-894666",
    "request_type": "Trash/Recycling",
    "request_reason": "Order Trash Cart",
    "date_created": "2022-06-25T14:24:14.000",
    "date_modified": "2022-06-25T14:24:15.000",
    "request_status": "Pending",
    "responsible_agency": "Department of Sanitation",
    "final_address": "1723 France St",
    "address_councildis": "D",
    "status": "Assigned to Contractor",
    "contractor": "Metro Disposal",
    "rowid": "894666",
    "final_x": "3693028.62454",
    "final_y": "537592.43092",
    "longitude": "-90.03144937415514",
    "latitude": "29.97183765860941",
    "geocoded_column": {
      "latitude": "29.97183765860941",
      "longitude": "-90.03144937415514"
    }
  },
  {
    "service_request": "2022-894664",
    "request_type": "Trash/Recycling",
    "request_reason": "Request a Large Item Pick Up",
    "date_created": "2022-06-25T14:17:36.000",
    "date_modified": "2022-06-25T14:17:37.000",
    "request_status": "Pending",
    "responsible_agency": "Department of Sanitation",
    "final_address": "440 Belleville St",
    "address_councildis": "C",
    "status": "Assigned to Contractor",
    "contractor": "Richards Disposal",
    "rowid": "894664",
    "final_x": "3687901.58838",
    "final_y": "530013.871937",
    "longitude": "-90.04790981564601",
    "latitude": "29.95115842806222",
    "geocoded_column": {
      "latitude": "29.95115842806222",
      "longitude": "-90.04790981564601"
    }
  },
  {
    "service_request": "2022-894663",
    "request_type": "Trash/Recycling",
    "request_reason": "Missed Trash Pick-Up",
    "date_created": "2022-06-25T14:04:35.000",
    "date_modified": "2022-06-25T14:04:35.000",
    "request_status": "Pending",
    "responsible_agency": "Department of Sanitation",
    "final_address": "883 Navarre St",
    "address_councildis": "A",
    "status": "Assigned to Contractor",
    "contractor": "Metro Disposal",
    "rowid": "894663",
    "final_x": "3669372.46785",
    "final_y": "543816.225614",
    "longitude": "-90.10594891040328",
    "latitude": "29.989668822165346",
    "geocoded_column": {
      "latitude": "29.989668822165346",
      "longitude": "-90.10594891040328"
    }
  },
  {
    "service_request": "2022-894662",
    "request_type": "Trash/Recycling",
    "request_reason": "Request a Large Item Pick Up",
    "date_created": "2022-06-25T13:57:27.000",
    "date_modified": "2022-06-25T13:57:28.000",
    "request_status": "Pending",
    "responsible_agency": "Department of Sanitation",
    "final_address": "2911 Calhoun St",
    "address_councildis": "A",
    "status": "Assigned to Contractor",
    "contractor": "Richards Disposal",
    "rowid": "894662",
    "final_x": "3666810.93345",
    "final_y": "527336.082495",
    "longitude": "-90.1145937956294",
    "latitude": "29.944429090135536",
    "geocoded_column": {
      "latitude": "29.944429090135536",
      "longitude": "-90.1145937956294"
    }
  },
  {
    "service_request": "2022-894661",
    "request_type": "Parks & Parkways",
    "request_reason": "Request Tree Service (Right of Way/Public Property)",
    "date_created": "2022-06-25T13:54:48.000",
    "date_modified": "2022-06-25T13:54:48.000",
    "request_status": "Pending",
    "responsible_agency": "Department of Parks & Parkway",
    "final_address": "626 Pacific Ave",
    "address_councildis": "C",
    "status": "Pending",
    "rowid": "894661",
    "final_x": "3688516.13564",
    "final_y": "529212.669056",
    "longitude": "-90.0459978084752",
    "latitude": "29.948936424147856",
    "geocoded_column": {
      "latitude": "29.948936424147856",
      "longitude": "-90.0459978084752"
    }
  },
  {
    "service_request": "2022-894660",
    "request_type": "Abandoned Vehicles",
    "request_reason": "Abandoned/Junk Vehicles",
    "date_created": "2022-06-25T13:24:22.000",
    "date_modified": "2022-06-25T13:24:22.000",
    "request_status": "Pending",
    "responsible_agency": "Department of Public Works",
    "final_address": "2568 Gladiolus St",
    "address_councildis": "D",
    "status": "Pending",
    "rowid": "894660",
    "final_x": "3686862.16175",
    "final_y": "547458.797201",
    "longitude": "-90.05057515810041",
    "latitude": "29.999157864060315",
    "geocoded_column": {
      "latitude": "29.999157864060315",
      "longitude": "-90.05057515810041"
    }
  },
  {
    "service_request": "2022-894659",
    "request_type": "Trash/Recycling",
    "request_reason": "Repair Trash Cart",
    "date_created": "2022-06-25T13:12:16.000",
    "date_modified": "2022-06-25T13:12:17.000",
    "request_status": "Pending",
    "responsible_agency": "Department of Sanitation",
    "final_address": "515 S Olympia St",
    "address_councildis": "A",
    "status": "Assigned to Contractor",
    "contractor": "Richards Disposal",
    "rowid": "894659",
    "final_x": "3668288.96398",
    "final_y": "538270.909641",
    "longitude": "-90.10955848353275",
    "latitude": "29.974452949702766",
    "geocoded_column": {
      "latitude": "29.974452949702766",
      "longitude": "-90.10955848353275"
    }
  },
  {
    "service_request": "2022-894658",
    "request_type": "Trash/Recycling",
    "request_reason": "Request a Large Item Pick Up",
    "date_created": "2022-06-25T13:08:35.000",
    "date_modified": "2022-06-25T13:08:36.000",
    "request_status": "Pending",
    "responsible_agency": "Department of Sanitation",
    "final_address": "2008 Carondelet St Apt B",
    "address_councildis": "B",
    "status": "Assigned to Contractor",
    "contractor": "Richards Disposal",
    "rowid": "894658",
    "final_x": "3677847.84456",
    "final_y": "524416.87238",
    "longitude": "-90.07984788037253",
    "latitude": "29.93607482572252",
    "geocoded_column": {
      "latitude": "29.93607482572252",
      "longitude": "-90.07984788037253"
    }
  },
  {
    "service_request": "2022-894657",
    "request_type": "Property Maintenance",
    "request_reason": "Property Maintenance",
    "date_created": "2022-06-25T13:04:57.000",
    "date_modified": "2022-06-25T13:04:57.000",
    "request_status": "Pending",
    "responsible_agency": "Department of Code Enforcement",
    "final_address": "5134 Gallier Dr",
    "address_councildis": "D",
    "status": "Pending",
    "rowid": "894657",
    "final_x": "3691625.24112",
    "final_y": "552822.619798",
    "longitude": "-90.03533659852478",
    "latitude": "30.013758923840555",
    "geocoded_column": {
      "latitude": "30.013758923840555",
      "longitude": "-90.03533659852478"
    }
  },
  {
    "service_request": "2022-894656",
    "request_type": "Property Maintenance",
    "request_reason": "Property Maintenance",
    "date_created": "2022-06-25T12:56:27.000",
    "date_modified": "2022-06-25T12:56:27.000",
    "request_status": "Pending",
    "responsible_agency": "Department of Code Enforcement",
    "final_address": "8002 Plum St",
    "address_councildis": "A",
    "status": "Pending",
    "rowid": "894656",
    "final_x": "3662439.11226",
    "final_y": "528363.258048",
    "longitude": "-90.12836286598905",
    "latitude": "29.947380628837305",
    "geocoded_column": {
      "latitude": "29.947380628837305",
      "longitude": "-90.12836286598905"
    }
  },
  {
    "service_request": "2022-894655",
    "request_type": "Property Maintenance",
    "request_reason": "Property Maintenance",
    "date_created": "2022-06-25T12:55:30.000",
    "date_modified": "2022-06-25T12:55:30.000",
    "request_status": "Pending",
    "responsible_agency": "Department of Code Enforcement",
    "final_address": "304 S Norman C Francis Prkwy",
    "address_councildis": "B",
    "status": "Pending",
    "rowid": "894655",
    "final_x": "3672808.34068",
    "final_y": "535954.493639",
    "longitude": "-90.09536422052561",
    "latitude": "29.967950095181894",
    "geocoded_column": {
      "latitude": "29.967950095181894",
      "longitude": "-90.09536422052561"
    }
  },
  {
    "service_request": "2022-894654",
    "request_type": "Trash/Recycling",
    "request_reason": "Repair Trash Cart",
    "date_created": "2022-06-25T12:50:45.000",
    "date_modified": "2022-06-25T12:50:46.000",
    "request_status": "Pending",
    "responsible_agency": "Department of Sanitation",
    "final_address": "2557 Valence St",
    "address_councildis": "B",
    "status": "Assigned to Contractor",
    "contractor": "Richards Disposal",
    "rowid": "894654",
    "final_x": "3669442.96308",
    "final_y": "524225.625212",
    "longitude": "-90.10638884845046",
    "latitude": "29.935799099417487",
    "geocoded_column": {
      "latitude": "29.935799099417487",
      "longitude": "-90.10638884845046"
    }
  },
  {
    "service_request": "2022-894653",
    "request_type": "Trash/Recycling",
    "request_reason": "Request a Large Item Pick Up",
    "date_created": "2022-06-25T12:45:13.000",
    "date_modified": "2022-06-25T12:45:18.000",
    "request_status": "Pending",
    "responsible_agency": "Department of Sanitation",
    "final_address": "5817 Providence Pl",
    "address_councildis": "D",
    "status": "Assigned to Contractor",
    "contractor": "Metro Disposal",
    "rowid": "894653",
    "final_x": "3688323.76316",
    "final_y": "554734.43356",
    "longitude": "-90.04569965967916",
    "latitude": "30.019118124660263",
    "geocoded_column": {
      "latitude": "30.019118124660263",
      "longitude": "-90.04569965967916"
    }
  },
  {
    "service_request": "2022-894652",
    "request_type": "Safety & Permits",
    "request_reason": "Licenses & Permits",
    "date_created": "2022-06-25T12:45:00.000",
    "date_modified": "2022-06-25T12:45:58.000",
    "request_status": "Pending",
    "responsible_agency": "Safety and Permits",
    "final_address": "1040 St Charles Ave",
    "address_councildis": "B",
    "status": "Pending",
    "rowid": "894652",
    "final_x": "3680111.27343",
    "final_y": "526788.123774",
    "longitude": "-90.07261981368443",
    "latitude": "29.942526702567477",
    "geocoded_column": {
      "latitude": "29.942526702567477",
      "longitude": "-90.07261981368443"
    }
  },
  {
    "service_request": "2022-894651",
    "request_type": "Trash/Recycling",
    "request_reason": "Request a Large Item Pick Up",
    "date_created": "2022-06-25T12:44:56.000",
    "date_modified": "2022-06-25T12:44:56.000",
    "request_status": "Pending",
    "responsible_agency": "Department of Sanitation",
    "final_address": "8317 Belfast St, New Orleans, Louisiana, 70118",
    "address_councildis": "A",
    "status": "Assigned to Contractor",
    "contractor": "Richards Disposal",
    "rowid": "894651",
    "final_x": "3664979.68916",
    "final_y": "532982.294468",
    "longitude": "-90.12018684999636",
    "latitude": "29.960007771583083",
    "geocoded_column": {
      "latitude": "29.960007771583083",
      "longitude": "-90.12018684999636"
    }
  },
  {
    "service_request": "2022-894650",
    "request_type": "Abandoned Vehicles",
    "request_reason": "Abandoned/Junk Vehicles",
    "date_created": "2022-06-25T12:31:16.000",
    "date_modified": "2022-06-25T12:31:16.000",
    "request_status": "Pending",
    "responsible_agency": "Department of Public Works",
    "final_address": "2912 Baudin St",
    "address_councildis": "B",
    "status": "Pending",
    "rowid": "894650",
    "final_x": "3673510.69262",
    "final_y": "534434.259845",
    "longitude": "-90.0931981257771",
    "latitude": "29.963749080023298",
    "geocoded_column": {
      "latitude": "29.963749080023298",
      "longitude": "-90.0931981257771"
    }
  },
  {
    "service_request": "2022-894649",
    "request_type": "Property Maintenance",
    "request_reason": "Property Maintenance",
    "date_created": "2022-06-25T12:25:27.000",
    "date_modified": "2022-06-25T12:25:27.000",
    "request_status": "Pending",
    "responsible_agency": "Department of Code Enforcement",
    "final_address": "3435 Magnolia St",
    "address_councildis": "B",
    "status": "Pending",
    "rowid": "894649",
    "final_x": "3672308.92468",
    "final_y": "525047.432637",
    "longitude": "-90.09731295431787",
    "latitude": "29.93797410960176",
    "geocoded_column": {
      "latitude": "29.93797410960176",
      "longitude": "-90.09731295431787"
    }
  },
  {
    "service_request": "2022-894648",
    "request_type": "Property Maintenance",
    "request_reason": "Property Maintenance",
    "date_created": "2022-06-25T12:22:59.000",
    "date_modified": "2022-06-25T12:22:59.000",
    "request_status": "Pending",
    "responsible_agency": "Department of Code Enforcement",
    "final_address": "1023 N Rocheblave St",
    "address_councildis": "D",
    "status": "Pending",
    "rowid": "894648",
    "final_x": "3678276.80117",
    "final_y": "537375.66516",
    "longitude": "-90.07804546341599",
    "latitude": "29.97169424411098",
    "geocoded_column": {
      "latitude": "29.97169424411098",
      "longitude": "-90.07804546341599"
    }
  },
  {
    "service_request": "2022-894646",
    "request_type": "Property Maintenance",
    "request_reason": "Property Maintenance",
    "date_created": "2022-06-25T12:14:57.000",
    "date_modified": "2022-06-25T12:14:57.000",
    "request_status": "Pending",
    "responsible_agency": "Department of Code Enforcement",
    "final_address": "5209 Dauphine St",
    "address_councildis": "E",
    "status": "Pending",
    "rowid": "894646",
    "final_x": "3696328.65571",
    "final_y": "533006.075588",
    "longitude": "-90.02119327813423",
    "latitude": "29.959123303085068",
    "geocoded_column": {
      "latitude": "29.959123303085068",
      "longitude": "-90.02119327813423"
    }
  },
  {
    "service_request": "2022-894645",
    "request_type": "Trash/Recycling",
    "request_reason": "MIssed Recycling Pick-Up",
    "date_created": "2022-06-25T12:05:36.000",
    "date_modified": "2022-06-25T12:05:36.000",
    "request_status": "Pending",
    "responsible_agency": "Department of Sanitation",
    "final_address": "7464 Pitt St",
    "address_councildis": "A",
    "status": "Assigned to Contractor",
    "contractor": "Richards Disposal",
    "rowid": "894645",
    "final_x": "3660905.44326",
    "final_y": "523731.671163",
    "longitude": "-90.13335841899696",
    "latitude": "29.934689490373415",
    "geocoded_column": {
      "latitude": "29.934689490373415",
      "longitude": "-90.13335841899696"
    }
  },
  {
    "service_request": "2022-894644",
    "request_type": "Trash/Recycling",
    "request_reason": "Missed Trash Pick-Up",
    "date_created": "2022-06-25T12:00:13.000",
    "date_modified": "2022-06-25T12:00:14.000",
    "request_status": "Pending",
    "responsible_agency": "Department of Sanitation",
    "final_address": "8231 Lomond Rd, New Orleans, Louisiana, 70126",
    "address_councildis": "E",
    "status": "Assigned to Contractor",
    "contractor": "Metro Disposal",
    "rowid": "894644",
    "final_x": "3702948.9242",
    "final_y": "561782.128991",
    "longitude": "-89.9992302800815",
    "latitude": "30.03803654468898",
    "geocoded_column": {
      "latitude": "30.03803654468898",
      "longitude": "-89.9992302800815"
    }
  },
  {
    "service_request": "2022-894643",
    "request_type": "Trash/Recycling",
    "request_reason": "Missed Trash Pick-Up",
    "date_created": "2022-06-25T11:54:45.000",
    "date_modified": "2022-06-25T11:54:45.000",
    "request_status": "Pending",
    "responsible_agency": "Department of Sanitation",
    "final_address": "3621 Live Oak St",
    "address_councildis": "A",
    "status": "Assigned to Contractor",
    "contractor": "Richards Disposal",
    "rowid": "894643",
    "final_x": "3664551.72941",
    "final_y": "537873.627401",
    "longitude": "-90.12137488923305",
    "latitude": "29.973469776860757",
    "geocoded_column": {
      "latitude": "29.973469776860757",
      "longitude": "-90.12137488923305"
    }
  },
  {
    "service_request": "2022-894642",
    "request_type": "Health Related Questions",
    "request_reason": "Request Health Records (Immunization, Lead and Health)",
    "date_created": "2022-06-25T11:54:19.000",
    "date_modified": "2022-06-25T11:54:19.000",
    "request_status": "Pending",
    "responsible_agency": "Health Department",
    "status": "Pending",
    "rowid": "894642",
    "longitude": "0.0",
    "latitude": "0.0",
    "geocoded_column": {
      "latitude": "0.0",
      "longitude": "0.0"
    }
  },
  {
    "service_request": "2022-894641",
    "request_type": "Abandoned Vehicles",
    "request_reason": "Abandoned/Junk Vehicles",
    "date_created": "2022-06-25T11:53:22.000",
    "date_modified": "2022-06-25T11:53:22.000",
    "request_status": "Pending",
    "responsible_agency": "Department of Public Works",
    "final_address": "2 Bullard Ave",
    "address_councildis": "E",
    "status": "Pending",
    "rowid": "894641",
    "final_x": "3714863.16491",
    "final_y": "565872.545571",
    "longitude": "-89.96142391020803",
    "latitude": "30.048896730232507",
    "geocoded_column": {
      "latitude": "30.048896730232507",
      "longitude": "-89.96142391020803"
    }
  },
  {
    "service_request": "2022-894640",
    "request_type": "Parks & Parkways",
    "request_reason": "Request Tree Service (Right of Way/Public Property)",
    "date_created": "2022-06-25T11:46:37.000",
    "date_modified": "2022-06-25T11:46:37.000",
    "request_status": "Pending",
    "responsible_agency": "Department of Parks & Parkway",
    "final_address": "803 Taft Pl",
    "address_councildis": "A",
    "status": "Pending",
    "rowid": "894640",
    "final_x": "3673718.27483",
    "final_y": "539497.11905",
    "longitude": "-90.09236944779335",
    "latitude": "29.97766404958502",
    "geocoded_column": {
      "latitude": "29.97766404958502",
      "longitude": "-90.09236944779335"
    }
  },