[
  {
    "service_request": "2023-960450",
    "request_type": "Health Related Request",
    "request_reason": "Noise Ordinance Complaint",
    "date_created": "2023-01-05T01:51:36.000",
    "date_modified": "2023-01-05T01:51:36.000",
    "request_status": "Pending",
    "responsible_agency": "Health Department",
    "final_address": "1009 N Claiborne Ave, New Orleans, Louisiana, 70116",
    "address_councildis": "D",
    "status": "Pending",
    "rowid": "960450",
    "final_x": "3680417.66101",
    "final_y": "535635.218886",
    "longitude": "-90.07134484150656",
    "latitude": "29.966843952035386",
    "geocoded_column": {
      "latitude": "29.966843952035386",
      "longitude": "-90.07134484150656"
    }
  },
  {
    "service_request": "2023-960449",
    "request_type": "Trash/Recycling",
    "request_reason": "Missed Trash Pick-Up",
    "date_created": "2023-01-05T01:33:48.000",
    "date_modified": "2023-01-05T01:33:49.000",
    "request_status": "Pending",
    "responsible_agency": "Department of Sanitation",
    "final_address": "230 S Dupre St",
    "address_councildis": "B",
    "status": "Assigned to Contractor",
    "contractor": "Richards Disposal",
    "rowid": "960449",
    "final_x": "3674228.30376",
    "final_y": "535051.024774",
    "longitude": "-90.09091085887941",
    "latitude": "29.96542360081309",
    "geocoded_column": {
      "latitude": "29.96542360081309",
      "longitude": "-90.09091085887941"
    }
  },
  {
    "service_request": "2023-960448",
    "request_type": "Trash/Recycling",
    "request_reason": "Illegal Dumping",
    "date_created": "2023-01-04T23:56:11.000",
    "date_modified": "2023-01-04T23:56:11.000",
    "request_status": "Pending",
    "responsible_agency": "Department of Sanitation",
    "final_address": "1000 Poland Ave",
    "address_councildis": "C",
    "status": "Pending",
    "rowid": "960448",
    "final_x": "3692887.71689",
    "final_y": "534630.660166",
    "longitude": "-90.03200061116067",
    "latitude": "29.963698237428737",
    "geocoded_column": {
      "latitude": "29.963698237428737",
      "longitude": "-90.03200061116067"
    }
  },
  {
    "service_request": "2023-960447",
    "request_type": "Trash/Recycling",
    "request_reason": "Missed Trash Pick-Up",
    "date_created": "2023-01-04T23:50:45.000",
    "date_modified": "2023-01-04T23:50:46.000",
    "request_status": "Pending",
    "responsible_agency": "Department of Sanitation",
    "final_address": "6954 Memphis St",
    "address_councildis": "A",
    "status": "Assigned to Contractor",
    "contractor": "IV Waste",
    "rowid": "960447",
    "final_x": "3669684.10273",
    "final_y": "553719.380631",
    "longitude": "-90.10462910469525",
    "latitude": "30.01688986358228",
    "geocoded_column": {
      "latitude": "30.01688986358228",
      "longitude": "-90.10462910469525"
    }
  },
  {
    "service_request": "2023-960446",
    "request_type": "Traffic Signals/Signs/Striping/Streetlights",
    "request_reason": "Traffic Signal Malfunctioning/Damaged",
    "date_created": "2023-01-04T23:39:05.000",
    "date_modified": "2023-01-04T23:39:05.000",
    "request_status": "Pending",
    "responsible_agency": "Department of Public Works",
    "final_address": "1732 Canal St",
    "address_councildis": "B",
    "status": "Pending",
    "rowid": "960446",
    "final_x": "3678077.02344",
    "final_y": "532761.38554",
    "longitude": "-90.07883593699057",
    "latitude": "29.959012560646276",
    "geocoded_column": {
      "latitude": "29.959012560646276",
      "longitude": "-90.07883593699057"
    }
  },
  {
    "service_request": "2023-960445",
    "request_type": "Trash/Recycling",
    "request_reason": "Missed Trash Pick-Up",
    "date_created": "2023-01-04T22:57:39.000",
    "date_modified": "2023-01-04T22:57:40.000",
    "request_status": "Pending",
    "responsible_agency": "Department of Sanitation",
    "final_address": "628 S Gayoso St",
    "address_councildis": "B",
    "status": "Assigned to Contractor",
    "contractor": "Richards Disposal",
    "rowid": "960445",
    "final_x": "3673072.44974",
    "final_y": "534072.977605",
    "longitude": "-90.09459438990443",
    "latitude": "29.962768709496356",
    "geocoded_column": {
      "latitude": "29.962768709496356",
      "longitude": "-90.09459438990443"
    }
  },
  {
    "service_request": "2023-960444",
    "request_type": "Trash/Recycling",
    "request_reason": "MIssed Recycling Pick-Up",
    "date_created": "2023-01-04T22:57:06.000",
    "date_modified": "2023-01-04T22:57:07.000",
    "request_status": "Pending",
    "responsible_agency": "Department of Sanitation",
    "final_address": "474 Pine St",
    "address_councildis": "A",
    "status": "Assigned to Contractor",
    "contractor": "Richards Disposal",
    "rowid": "960444",
    "final_x": "3662271.71021",
    "final_y": "524353.757756",
    "longitude": "-90.12902447629864",
    "latitude": "29.936360618508427",
    "geocoded_column": {
      "latitude": "29.936360618508427",
      "longitude": "-90.12902447629864"
    }
  },
  {
    "service_request": "2023-960443",
    "request_type": "Trash/Recycling",
    "request_reason": "Missed Trash Pick-Up",
    "date_created": "2023-01-04T22:49:38.000",
    "date_modified": "2023-01-04T22:49:38.000",
    "request_status": "Pending",
    "responsible_agency": "Department of Sanitation",
    "final_address": "474 Pine St",
    "address_councildis": "A",
    "status": "Assigned to Contractor",
    "contractor": "Richards Disposal",
    "rowid": "960443",
    "final_x": "3662271.71021",
    "final_y": "524353.757756",
    "longitude": "-90.12902447629864",
    "latitude": "29.936360618508427",
    "geocoded_column": {
      "latitude": "29.936360618508427",
      "longitude": "-90.12902447629864"
    }
  },
  {
    "service_request": "2023-960441",
    "request_type": "Trash/Recycling",
    "request_reason": "MIssed Recycling Pick-Up",
    "date_created": "2023-01-04T22:47:24.000",
    "date_modified": "2023-01-04T22:47:25.000",
    "request_status": "Pending",
    "responsible_agency": "Department of Sanitation",
    "final_address": "4314 Constance St",
    "address_councildis": "B",
    "status": "Assigned to Contractor",
    "contractor": "Richards Disposal",
    "rowid": "960441",
    "final_x": "3671369.63879",
    "final_y": "518409.089654",
    "longitude": "-90.10050385622883",
    "latitude": "29.919748622650197",
    "geocoded_column": {
      "latitude": "29.919748622650197",
      "longitude": "-90.10050385622883"
    }
  },
  {
    "service_request": "2023-960440",
    "request_type": "Abandoned Vehicles",
    "request_reason": "Vehicle Blocking Your Driveway",
    "date_created": "2023-01-04T22:46:35.000",
    "date_modified": "2023-01-04T22:46:35.000",
    "request_status": "Pending",
    "responsible_agency": "Department of Public Works",
    "final_address": "2523 Gravier St",
    "address_councildis": "B",
    "status": "Pending",
    "rowid": "960440",
    "final_x": "3674753.67995",
    "final_y": "533009.331396",
    "longitude": "-90.08932174257129",
    "latitude": "29.959793956332224",
    "geocoded_column": {
      "latitude": "29.959793956332224",
      "longitude": "-90.08932174257129"
    }
  },
  {
    "service_request": "2023-960439",
    "request_type": "Trash/Recycling",
    "request_reason": "Missed Trash Pick-Up",
    "date_created": "2023-01-04T22:46:06.000",
    "date_modified": "2023-01-04T22:46:07.000",
    "request_status": "Pending",
    "responsible_agency": "Department of Sanitation",
    "final_address": "4314 Constance St",
    "address_councildis": "B",
    "status": "Assigned to Contractor",
    "contractor": "Richards Disposal",
    "rowid": "960439",
    "final_x": "3671369.63879",
    "final_y": "518409.089654",
    "longitude": "-90.10050385622883",
    "latitude": "29.919748622650197",
    "geocoded_column": {
      "latitude": "29.919748622650197",
      "longitude": "-90.10050385622883"
    }
  },
  {
    "service_request": "2023-960438",
    "request_type": "Health Related Request",
    "request_reason": "Noise Ordinance Complaint",
    "date_created": "2023-01-04T22:44:33.000",
    "date_modified": "2023-01-04T22:44:33.000",
    "request_status": "Pending",
    "responsible_agency": "Health Department",
    "final_address": "4905 Freret St",
    "address_councildis": "B",
    "status": "Pending",
    "rowid": "960438",
    "final_x": "3669079.20276",
    "final_y": "523940.63398",
    "longitude": "-90.1075468743388",
    "latitude": "29.935026170281322",
    "geocoded_column": {
      "latitude": "29.935026170281322",
      "longitude": "-90.1075468743388"
    }
  },
  {
    "service_request": "2023-960437",
    "request_type": "Abandoned Vehicles",
    "request_reason": "Vehicle Blocking Your Driveway",
    "date_created": "2023-01-04T22:42:42.000",
    "date_modified": "2023-01-04T22:42:42.000",
    "request_status": "Pending",
    "responsible_agency": "Department of Public Works",
    "final_address": "2523 Gravier St",
    "address_councildis": "B",
    "status": "Pending",
    "rowid": "960437",
    "final_x": "3674753.67995",
    "final_y": "533009.331396",
    "longitude": "-90.08932174257129",
    "latitude": "29.959793956332224",
    "geocoded_column": {
      "latitude": "29.959793956332224",
      "longitude": "-90.08932174257129"
    }
  },
  {
    "service_request": "2023-960436",
    "request_type": "Taxi Issues",
    "request_reason": "Taxi Lost & Found Item",
    "date_created": "2023-01-04T22:23:39.000",
    "date_modified": "2023-01-04T22:23:40.000",
    "request_status": "Pending",
    "responsible_agency": "Ground Transportation Bureau",
    "final_address": "601 Loyola Ave",
    "address_councildis": "B",
    "status": "Pending",
    "rowid": "960436",
    "final_x": "3678884.56987",
    "final_y": "529323.933185",
    "longitude": "-90.07640497564194",
    "latitude": "29.949536388012802",
    "geocoded_column": {
      "latitude": "29.949536388012802",
      "longitude": "-90.07640497564194"
    }
  },
  {
    "service_request": "2023-960435",
    "request_type": "Trash/Recycling",
    "request_reason": "Missed Trash Pick-Up",
    "date_created": "2023-01-04T22:18:25.000",
    "date_modified": "2023-01-04T22:18:26.000",
    "request_status": "Pending",
    "responsible_agency": "Department of Sanitation",
    "final_address": "7436 Garfield St",
    "address_councildis": "A",
    "status": "Assigned to Contractor",
    "contractor": "Richards Disposal",
    "rowid": "960435",
    "final_x": "3661307.65741",
    "final_y": "523780.626107",
    "longitude": "-90.13208700933133",
    "latitude": "29.934812512841887",
    "geocoded_column": {
      "latitude": "29.934812512841887",
      "longitude": "-90.13208700933133"
    }
  },
  {
    "service_request": "2023-960434",
    "request_type": "Trash/Recycling",
    "request_reason": "Missed Trash Pick-Up",
    "date_created": "2023-01-04T22:11:00.000",
    "date_modified": "2023-01-04T22:11:01.000",
    "request_status": "Pending",
    "responsible_agency": "Department of Sanitation",
    "final_address": "3804 Banks St",
    "address_councildis": "B",
    "status": "Assigned to Contractor",
    "contractor": "Richards Disposal",
    "rowid": "960434",
    "final_x": "3671261.47943",
    "final_y": "536622.649287",
    "longitude": "-90.10022656499471",
    "latitude": "29.969833161380564",
    "geocoded_column": {
      "latitude": "29.969833161380564",
      "longitude": "-90.10022656499471"
    }
  },
  {
    "service_request": "2023-960433",
    "request_type": "Trash/Recycling",
    "request_reason": "Missed Trash Pick-Up",
    "date_created": "2023-01-04T22:08:04.000",
    "date_modified": "2023-01-04T22:08:05.000",
    "request_status": "Pending",
    "responsible_agency": "Department of Sanitation",
    "final_address": "4526 S Prieur St",
    "address_councildis": "B",
    "status": "Assigned to Contractor",
    "contractor": "Richards Disposal",
    "rowid": "960433",
    "final_x": "3669635.26791",
    "final_y": "526748.011902",
    "longitude": "-90.10569642030242",
    "latitude": "29.94272918416584",
    "geocoded_column": {
      "latitude": "29.94272918416584",
      "longitude": "-90.10569642030242"
    }
  },
  {
    "service_request": "2023-960432",
    "request_type": "Trash/Recycling",
    "request_reason": "Missed Trash Pick-Up",
    "date_created": "2023-01-04T22:05:09.000",
    "date_modified": "2023-01-04T22:05:10.000",
    "request_status": "Pending",
    "responsible_agency": "Department of Sanitation",
    "final_address": "725 Aline St",
    "address_councildis": "B",
    "status": "Assigned to Contractor",
    "contractor": "Richards Disposal",
    "rowid": "960432",
    "final_x": "3675018.22094",
    "final_y": "518096.189046",
    "longitude": "-90.08899778418561",
    "latitude": "29.918779801457212",
    "geocoded_column": {
      "latitude": "29.918779801457212",
      "longitude": "-90.08899778418561"
    }
  },
  {
    "service_request": "2023-960431",
    "request_type": "Abandoned Vehicles",
    "request_reason": "Abandoned/Junk Vehicles",
    "date_created": "2023-01-04T22:02:09.000",
    "date_modified": "2023-01-04T22:02:09.000",
    "request_status": "Pending",
    "responsible_agency": "Department of Public Works",
    "final_address": "330 S Bernadotte St",
    "address_councildis": "A",
    "status": "Pending",
    "rowid": "960431",
    "final_x": "3668198.20423",
    "final_y": "539198.477898",
    "longitude": "-90.10981384470726",
    "latitude": "29.977006115700448",
    "geocoded_column": {
      "latitude": "29.977006115700448",
      "longitude": "-90.10981384470726"
    }
  },
  {
    "service_request": "2023-960430",
    "request_type": "Trash/Recycling",
    "request_reason": "Missed Trash Pick-Up",
    "date_created": "2023-01-04T21:57:04.000",
    "date_modified": "2023-01-04T21:57:04.000",
    "request_status": "Pending",
    "responsible_agency": "Department of Sanitation",
    "final_address": "New Orleans, Louisiana",
    "status": "Assigned to Contractor",
    "rowid": "960430",
    "longitude": "0.0",
    "latitude": "0.0",
    "geocoded_column": {
      "latitude": "0.0",
      "longitude": "0.0"
    }
  },
  {
    "service_request": "2023-960429",
    "request_type": "Trash/Recycling",
    "request_reason": "Missed Trash Pick-Up",
    "date_created": "2023-01-04T21:55:27.000",
    "date_modified": "2023-01-04T21:55:27.000",
    "request_status": "Pending",
    "responsible_agency": "Department of Sanitation",
    "final_address": "4007 Banks St",
    "address_councildis": "A",
    "status": "Assigned to Contractor",
    "contractor": "Richards Disposal",
    "rowid": "960429",
    "final_x": "3670716.78062",
    "final_y": "537201.82004",
    "longitude": "-90.10192712256583",
    "latitude": "29.971441793088083",
    "geocoded_column": {
      "latitude": "29.971441793088083",
      "longitude": "-90.10192712256583"
    }
  },
  {
    "service_request": "2023-960428",
    "request_type": "Trash/Recycling",
    "request_reason": "Replace Trash Cart",
    "date_created": "2023-01-04T21:48:52.000",
    "date_modified": "2023-01-04T21:48:53.000",
    "request_status": "Pending",
    "responsible_agency": "Department of Sanitation",
    "final_address": "1425 Desire St",
    "address_councildis": "C",
    "status": "Assigned to Contractor",
    "contractor": "IV Waste",
    "rowid": "960428",
    "final_x": "3690548.47593",
    "final_y": "536999.81524",
    "longitude": "-90.03930318194155",
    "latitude": "29.970285424008754",
    "geocoded_column": {
      "latitude": "29.970285424008754",
      "longitude": "-90.03930318194155"
    }
  },
  {
    "service_request": "2023-960427",
    "request_type": "Trash/Recycling",
    "request_reason": "Missed Trash Pick-Up",
    "date_created": "2023-01-04T21:46:15.000",
    "date_modified": "2023-01-04T21:46:15.000",
    "request_status": "Pending",
    "responsible_agency": "Department of Sanitation",
    "final_address": "329 Lowerline St",
    "address_councildis": "A",
    "status": "Assigned to Contractor",
    "contractor": "Richards Disposal",
    "rowid": "960427",
    "final_x": "3661536.41658",
    "final_y": "523552.803195",
    "longitude": "-90.13137236076453",
    "latitude": "29.93417947531416",
    "geocoded_column": {
      "latitude": "29.93417947531416",
      "longitude": "-90.13137236076453"
    }
  },
  {
    "service_request": "2023-960426",
    "request_type": "Trash/Recycling",
    "request_reason": "Missed Trash Pick-Up",
    "date_created": "2023-01-04T21:39:18.000",
    "date_modified": "2023-01-04T21:39:18.000",
    "request_status": "Pending",
    "responsible_agency": "Department of Sanitation",
    "final_address": "441 Audubon St, New Orleans, Louisiana, 70118",
    "address_councildis": "A",
    "status": "Assigned to Contractor",
    "contractor": "Richards Disposal",
    "rowid": "960426",
    "final_x": "3662365.72871",
    "final_y": "523172.159099",
    "longitude": "-90.1287668705638",
    "latitude": "29.93310887776141",
    "geocoded_column": {
      "latitude": "29.93310887776141",
      "longitude": "-90.1287668705638"
    }
  },
  {
    "service_request": "2023-960425",
    "request_type": "Trash/Recycling",
    "request_reason": "Missed Trash Pick-Up",
    "date_created": "2023-01-04T21:36:46.000",
    "date_modified": "2023-01-04T21:36:47.000",
    "request_status": "Pending",
    "responsible_agency": "Department of Sanitation",
    "final_address": "7409 Spruce St",
    "address_councildis": "A",
    "status": "Assigned to Contractor",
    "contractor": "Richards Disposal",
    "rowid": "960425",
    "final_x": "3665199.88064",
    "final_y": "529277.096833",
    "longitude": "-90.1196154634946",
    "latitude": "29.94981327211562",
    "geocoded_column": {
      "latitude": "29.94981327211562",
      "longitude": "-90.1196154634946"
    }
  },
  {
    "service_request": "2023-960424",
    "request_type": "Trash/Recycling",
    "request_reason": "Missed Trash Pick-Up",
    "date_created": "2023-01-04T21:33:32.000",
    "date_modified": "2023-01-04T21:33:33.000",
    "request_status": "Pending",
    "responsible_agency": "Department of Sanitation",
    "final_address": "2301 Upperline St",
    "address_councildis": "B",
    "status": "Assigned to Contractor",
    "contractor": "Richards Disposal",
    "rowid": "960424",
    "final_x": "3669194.01857",
    "final_y": "523248.974011",
    "longitude": "-90.10720776624389",
    "latitude": "29.93312094951154",
    "geocoded_column": {
      "latitude": "29.93312094951154",
      "longitude": "-90.10720776624389"
    }
  },
  {
    "service_request": "2023-960423",
    "request_type": "Trash/Recycling",
    "request_reason": "Request a Large Item Pick Up",
    "date_created": "2023-01-04T21:33:19.000",
    "date_modified": "2023-01-04T21:33:19.000",
    "request_status": "Pending",
    "responsible_agency": "Department of Sanitation",
    "final_address": "5934 Annunciation St",
    "address_councildis": "A",
    "status": "Assigned to Contractor",
    "contractor": "Richards Disposal",
    "rowid": "960423",
    "final_x": "3664570.63853",
    "final_y": "517719.421046",
    "longitude": "-90.12198807069457",
    "latitude": "29.91805164170748",
    "geocoded_column": {
      "latitude": "29.91805164170748",
      "longitude": "-90.12198807069457"
    }
  },
  {
    "service_request": "2023-960422",
    "request_type": "Trash/Recycling",
    "request_reason": "Missed Trash Pick-Up",
    "date_created": "2023-01-04T21:31:57.000",
    "date_modified": "2023-01-04T21:31:58.000",
    "request_status": "Pending",
    "responsible_agency": "Department of Sanitation",
    "final_address": "7522 Jeannette St",
    "address_councildis": "A",
    "status": "Assigned to Contractor",
    "contractor": "Richards Disposal",
    "rowid": "960422",
    "final_x": "3664069.328",
    "final_y": "527748.667711",
    "longitude": "-90.12323612034218",
    "latitude": "29.945643463521094",
    "geocoded_column": {
      "latitude": "29.945643463521094",
      "longitude": "-90.12323612034218"
    }
  },
  {
    "service_request": "2023-960421",
    "request_type": "Trash/Recycling",
    "request_reason": "Missed Trash Pick-Up",
    "date_created": "2023-01-04T21:31:39.000",
    "date_modified": "2023-01-04T21:31:40.000",
    "request_status": "Pending",
    "responsible_agency": "Department of Sanitation",
    "final_address": "1205 N Rendon St, New Orleans, Louisiana, 70119",
    "status": "Assigned to Contractor",
    "rowid": "960421",
    "longitude": "0.0",
    "latitude": "0.0",
    "geocoded_column": {
      "latitude": "0.0",
      "longitude": "0.0"
    }
  },
  {
    "service_request": "2023-960420",
    "request_type": "Trash/Recycling",
    "request_reason": "Missed Trash Pick-Up",
    "date_created": "2023-01-04T21:27:29.000",
    "date_modified": "2023-01-04T21:27:29.000",
    "request_status": "Pending",
    "responsible_agency": "Department of Sanitation",
    "final_address": "3970 Laurel St",
    "address_councildis": "B",
    "status": "Assigned to Contractor",
    "contractor": "Richards Disposal",
    "rowid": "960420",
    "final_x": "3672669.74062",
    "final_y": "518136.516278",
    "longitude": "-90.09640935248312",
    "latitude": "29.91896060610928",
    "geocoded_column": {
      "latitude": "29.91896060610928",
      "longitude": "-90.09640935248312"
    }
  },
  {
    "service_request": "2023-960419",
    "request_type": "Trash/Recycling",
    "request_reason": "Replace Trash Cart",
    "date_created": "2023-01-04T21:26:29.000",
    "date_modified": "2023-01-04T21:26:30.000",
    "request_status": "Pending",
    "responsible_agency": "Department of Sanitation",
    "final_address": "14 Grand Canyon Dr",
    "address_councildis": "C",
    "status": "Assigned to Contractor",
    "contractor": "Richards Disposal",
    "rowid": "960419",
    "final_x": "3699632.24247",
    "final_y": "517457.553526",
    "longitude": "-90.01132789547145",
    "latitude": "29.916265843205856",
    "geocoded_column": {
      "latitude": "29.916265843205856",
      "longitude": "-90.01132789547145"
    }
  },
  {
    "service_request": "2023-960418",
    "request_type": "Trash/Recycling",
    "request_reason": "Missed Trash Pick-Up",
    "date_created": "2023-01-04T21:16:42.000",
    "date_modified": "2023-01-04T21:16:43.000",
    "request_status": "Pending",
    "responsible_agency": "Department of Sanitation",
    "final_address": "4121 Baronne St",
    "address_councildis": "B",
    "status": "Assigned to Contractor",
    "contractor": "Richards Disposal",
    "rowid": "960418",
    "final_x": "3671683.69563",
    "final_y": "521725.642362",
    "longitude": "-90.09939979488092",
    "latitude": "29.928858788318095",
    "geocoded_column": {
      "latitude": "29.928858788318095",
      "longitude": "-90.09939979488092"
    }
  },
  {
    "service_request": "2023-960417",
    "request_type": "Trash/Recycling",
    "request_reason": "Missed Trash Pick-Up",
    "date_created": "2023-01-04T21:15:56.000",
    "date_modified": "2023-01-04T21:15:57.000",
    "request_status": "Pending",
    "responsible_agency": "Department of Sanitation",
    "final_address": "4616 Magazine St",
    "address_councildis": "B",
    "status": "Assigned to Contractor",
    "contractor": "Richards Disposal",
    "rowid": "960417",
    "final_x": "3670161.87649",
    "final_y": "518649.255671",
    "longitude": "-90.10430804816343",
    "latitude": "29.920444678645406",
    "geocoded_column": {
      "latitude": "29.920444678645406",
      "longitude": "-90.10430804816343"
    }
  },
  {
    "service_request": "2023-960416",
    "request_type": "Roads/Drainage",
    "request_reason": "Pothole",
    "date_created": "2023-01-04T21:15:33.000",
    "date_modified": "2023-01-04T21:15:33.000",
    "request_status": "Pending",
    "responsible_agency": "Department of Public Works",
    "final_address": "1917 Annette St",
    "address_councildis": "D",
    "status": "Pending",
    "rowid": "960416",
    "final_x": "3682982.6502",
    "final_y": "539264.348426",
    "longitude": "-90.06311756962596",
    "latitude": "29.976744873333352",
    "geocoded_column": {
      "latitude": "29.976744873333352",
      "longitude": "-90.06311756962596"
    }
  },
  {
    "service_request": "2023-960415",
    "request_type": "Trash/Recycling",
    "request_reason": "MIssed Recycling Pick-Up",
    "date_created": "2023-01-04T21:15:23.000",
    "date_modified": "2023-01-04T21:15:23.000",
    "request_status": "Pending",
    "responsible_agency": "Department of Sanitation",
    "final_address": "2619 St Charles Ave",
    "address_councildis": "B",
    "status": "Assigned to Contractor",
    "contractor": "Richards Disposal",
    "rowid": "960415",
    "final_x": "3676239.41755",
    "final_y": "522838.518715",
    "longitude": "-90.08498001706973",
    "latitude": "29.93178315197769",
    "geocoded_column": {
      "latitude": "29.93178315197769",
      "longitude": "-90.08498001706973"
    }
  },
  {
    "service_request": "2023-960414",
    "request_type": "Trash/Recycling",
    "request_reason": "Replace Trash Cart",
    "date_created": "2023-01-04T21:12:04.000",
    "date_modified": "2023-01-04T21:12:05.000",
    "request_status": "Pending",
    "responsible_agency": "Department of Sanitation",
    "final_address": "4900 Constance St",
    "address_councildis": "B",
    "status": "Assigned to Contractor",
    "contractor": "Richards Disposal",
    "rowid": "960414",
    "final_x": "3668938.35873",
    "final_y": "518167.990646",
    "longitude": "-90.10818637476068",
    "latitude": "29.91915738019517",
    "geocoded_column": {
      "latitude": "29.91915738019517",
      "longitude": "-90.10818637476068"
    }
  },
  {
    "service_request": "2023-960413",
    "request_type": "Trash/Recycling",
    "request_reason": "MIssed Recycling Pick-Up",
    "date_created": "2023-01-04T21:10:03.000",
    "date_modified": "2023-01-04T21:10:04.000",
    "request_status": "Pending",
    "responsible_agency": "Department of Sanitation",
    "final_address": "1213 N Robertson St",
    "address_councildis": "D",
    "status": "Assigned to Contractor",
    "contractor": "Richards Disposal",
    "rowid": "960413",
    "final_x": "3681289.44981",
    "final_y": "536031.065031",
    "longitude": "-90.06857793693486",
    "latitude": "29.967905963108247",
    "geocoded_column": {
      "latitude": "29.967905963108247",
      "longitude": "-90.06857793693486"
    }
  },
  {
    "service_request": "2023-960412",
    "request_type": "Trash/Recycling",
    "request_reason": "Missed Trash Pick-Up",
    "date_created": "2023-01-04T21:09:48.000",
    "date_modified": "2023-01-04T21:09:48.000",
    "request_status": "Pending",
    "responsible_agency": "Department of Sanitation",
    "final_address": "5200 Atlanta St",
    "address_councildis": "B",
    "status": "Assigned to Contractor",
    "contractor": "Richards Disposal",
    "rowid": "960412",
    "final_x": "3667983.80449",
    "final_y": "520661.062009",
    "longitude": "-90.11111548717626",
    "latitude": "29.92604056837358",
    "geocoded_column": {
      "latitude": "29.92604056837358",
      "longitude": "-90.11111548717626"
    }
  },
  {
    "service_request": "2023-960411",
    "request_type": "Trash/Recycling",
    "request_reason": "Missed Trash Pick-Up",
    "date_created": "2023-01-04T21:08:33.000",
    "date_modified": "2023-01-04T21:08:34.000",
    "request_status": "Pending",
    "responsible_agency": "Department of Sanitation",
    "final_address": "822 Valmont St",
    "address_councildis": "B",
    "status": "Assigned to Contractor",
    "contractor": "Richards Disposal",
    "rowid": "960411",
    "final_x": "3667409.36071",
    "final_y": "518456.696886",
    "longitude": "-90.1130029540767",
    "latitude": "29.919996095484482",
    "geocoded_column": {
      "latitude": "29.919996095484482",
      "longitude": "-90.1130029540767"
    }
  },
  {
    "service_request": "2023-960410",
    "request_type": "Trash/Recycling",
    "request_reason": "Missed Trash Pick-Up",
    "date_created": "2023-01-04T21:08:08.000",
    "date_modified": "2023-01-04T21:08:08.000",
    "request_status": "Pending",
    "responsible_agency": "Department of Sanitation",
    "final_address": "5200 Atlanta St",
    "address_councildis": "B",
    "status": "Assigned to Contractor",
    "contractor": "Richards Disposal",
    "rowid": "960410",
    "final_x": "3667983.80449",
    "final_y": "520661.062009",
    "longitude": "-90.11111548717626",
    "latitude": "29.92604056837358",
    "geocoded_column": {
      "latitude": "29.92604056837358",
      "longitude": "-90.11111548717626"
    }
  },
  {
    "service_request": "2023-960409",
    "request_type": "Trash/Recycling",
    "request_reason": "MIssed Recycling Pick-Up",
    "date_created": "2023-01-04T21:04:53.000",
    "date_modified": "2023-01-04T21:04:54.000",
    "request_status": "Pending",
    "responsible_agency": "Department of Sanitation",
    "final_address": "3315 Chestnut St",
    "address_councildis": "B",
    "status": "Assigned to Contractor",
    "contractor": "Richards Disposal",
    "rowid": "960409",
    "final_x": "3674957.27086",
    "final_y": "520448.399736",
    "longitude": "-90.08910955005064",
    "latitude": "29.92524944494753",
    "geocoded_column": {
      "latitude": "29.92524944494753",
      "longitude": "-90.08910955005064"
    }
  },
  {
    "service_request": "2023-960408",
    "request_type": "Trash/Recycling",
    "request_reason": "Missed Trash Pick-Up",
    "date_created": "2023-01-04T21:02:28.000",
    "date_modified": "2023-01-04T21:02:29.000",
    "request_status": "Pending",
    "responsible_agency": "Department of Sanitation",
    "final_address": "7560 Parry St",
    "address_councildis": "E",
    "status": "Assigned to Contractor",
    "contractor": "Waste Pro",
    "rowid": "960408",
    "final_x": "3714585.76447",
    "final_y": "568131.472549",
    "longitude": "-89.96221521965573",
    "latitude": "30.055116985179676",
    "geocoded_column": {
      "latitude": "30.055116985179676",
      "longitude": "-89.96221521965573"
    }
  },
  {
    "service_request": "2023-960407",
    "request_type": "Trash/Recycling",
    "request_reason": "Missed Trash Pick-Up",
    "date_created": "2023-01-04T21:01:30.000",
    "date_modified": "2023-01-04T21:01:31.000",
    "request_status": "Pending",
    "responsible_agency": "Department of Sanitation",
    "final_address": "3123 Milan St",
    "address_councildis": "B",
    "status": "Assigned to Contractor",
    "contractor": "Richards Disposal",
    "rowid": "960407",
    "final_x": "3671073.66279",
    "final_y": "526519.376638",
    "longitude": "-90.10116281955575",
    "latitude": "29.942058058745765",
    "geocoded_column": {
      "latitude": "29.942058058745765",
      "longitude": "-90.10116281955575"
    }
  },
  {
    "service_request": "2023-960406",
    "request_type": "Trash/Recycling",
    "request_reason": "MIssed Recycling Pick-Up",
    "date_created": "2023-01-04T20:58:18.000",
    "date_modified": "2023-01-04T20:58:19.000",
    "request_status": "Pending",
    "responsible_agency": "Department of Sanitation",
    "status": "Assigned to Contractor",
    "rowid": "960406",
    "longitude": "0.0",
    "latitude": "0.0",
    "geocoded_column": {
      "latitude": "0.0",
      "longitude": "0.0"
    }
  },
  {
    "service_request": "2023-960405",
    "request_type": "Trash/Recycling",
    "request_reason": "Missed Trash Pick-Up",
    "date_created": "2023-01-04T20:54:00.000",
    "date_modified": "2023-01-04T20:54:01.000",
    "request_status": "Pending",
    "responsible_agency": "Department of Sanitation",
    "final_address": "2030 Napoleon Ave",
    "address_councildis": "B",
    "status": "Assigned to Contractor",
    "contractor": "Richards Disposal",
    "rowid": "960405",
    "final_x": "3670582.94811",
    "final_y": "522607.154042",
    "longitude": "-90.10284475734016",
    "latitude": "29.931315210844545",
    "geocoded_column": {
      "latitude": "29.931315210844545",
      "longitude": "-90.10284475734016"
    }
  },
  {
    "service_request": "2023-960404",
    "request_type": "Trash/Recycling",
    "request_reason": "MIssed Recycling Pick-Up",
    "date_created": "2023-01-04T20:53:17.000",
    "date_modified": "2023-01-04T20:53:18.000",
    "request_status": "Pending",
    "responsible_agency": "Department of Sanitation",
    "final_address": "2136 First St",
    "address_councildis": "B",
    "status": "Assigned to Contractor",
    "contractor": "Richards Disposal",
    "rowid": "960404",
    "final_x": "3675770.18222",
    "final_y": "524935.862909",
    "longitude": "-90.08638928981267",
    "latitude": "29.937564212080613",
    "geocoded_column": {
      "latitude": "29.937564212080613",
      "longitude": "-90.08638928981267"
    }
  },
  {
    "service_request": "2023-960403",
    "request_type": "Trash/Recycling",
    "request_reason": "MIssed Recycling Pick-Up",
    "date_created": "2023-01-04T20:47:37.000",
    "date_modified": "2023-01-04T20:47:37.000",
    "request_status": "Pending",
    "responsible_agency": "Department of Sanitation",
    "final_address": "3212 Camp St",
    "address_councildis": "B",
    "status": "Assigned to Contractor",
    "contractor": "Richards Disposal",
    "rowid": "960403",
    "final_x": "3675486.57102",
    "final_y": "520206.083128",
    "longitude": "-90.087447032309",
    "latitude": "29.9245673382118",
    "geocoded_column": {
      "latitude": "29.9245673382118",
      "longitude": "-90.087447032309"
    }
  },
  {
    "service_request": "2023-960402",
    "request_type": "Trash/Recycling",
    "request_reason": "Missed Trash Pick-Up",
    "date_created": "2023-01-04T20:39:20.000",
    "date_modified": "2023-01-04T20:39:20.000",
    "request_status": "Pending",
    "responsible_agency": "Department of Sanitation",
    "final_address": "1817 Marengo St",
    "address_councildis": "B",
    "status": "Assigned to Contractor",
    "contractor": "Richards Disposal",
    "rowid": "960402",
    "final_x": "3671919.85275",
    "final_y": "521863.627834",
    "longitude": "-90.09864959943006",
    "latitude": "29.929231209134276",
    "geocoded_column": {
      "latitude": "29.929231209134276",
      "longitude": "-90.09864959943006"
    }
  },
  {
    "service_request": "2023-960401",
    "request_type": "Trash/Recycling",
    "request_reason": "Missed Trash Pick-Up",
    "date_created": "2023-01-04T20:35:10.000",
    "date_modified": "2023-01-04T20:35:11.000",
    "request_status": "Pending",
    "responsible_agency": "Department of Sanitation",
    "final_address": "1432 Fern St",
    "address_councildis": "A",
    "status": "Assigned to Contractor",
    "contractor": "Richards Disposal",
    "rowid": "960401",
    "final_x": "3663087.43117",
    "final_y": "528517.694208",
    "longitude": "-90.12631072849541",
    "latitude": "29.94778651621753",
    "geocoded_column": {
      "latitude": "29.94778651621753",
      "longitude": "-90.12631072849541"
    }
  },
  {
    "service_request": "2023-960400",
    "request_type": "Trash/Recycling",
    "request_reason": "Missed Trash Pick-Up",
    "date_created": "2023-01-04T20:34:52.000",
    "date_modified": "2023-01-04T20:34:53.000",
    "request_status": "Pending",
    "responsible_agency": "Department of Sanitation",
    "final_address": "3117 Cadiz St",
    "address_councildis": "B",
    "status": "Assigned to Contractor",
    "contractor": "Richards Disposal",
    "rowid": "960400",
    "final_x": "3669632.92372",
    "final_y": "526368.029054",
    "longitude": "-90.1057166746492",
    "latitude": "29.94168442361421",
    "geocoded_column": {
      "latitude": "29.94168442361421",
      "longitude": "-90.1057166746492"
    }
  },
  {
    "service_request": "2023-960399",
    "request_type": "Trash/Recycling",
    "request_reason": "Missed Trash Pick-Up",
    "date_created": "2023-01-04T20:34:52.000",
    "date_modified": "2023-01-04T20:34:53.000",
    "request_status": "Pending",
    "responsible_agency": "Department of Sanitation",
    "final_address": "3822 Constance St",
    "address_councildis": "B",
    "status": "Assigned to Contractor",
    "contractor": "Richards Disposal",
    "rowid": "960399",
    "final_x": "3673285.2123",
    "final_y": "518601.182071",
    "longitude": "-90.09445076425051",
    "latitude": "29.920220005689924",
    "geocoded_column": {
      "latitude": "29.920220005689924",
      "longitude": "-90.09445076425051"
    }
  },
  {
    "service_request": "2023-960398",
    "request_type": "Trash/Recycling",
    "request_reason": "Missed Trash Pick-Up",
    "date_created": "2023-01-04T20:34:06.000",
    "date_modified": "2023-01-04T20:34:07.000",
    "request_status": "Pending",
    "responsible_agency": "Department of Sanitation",
    "final_address": "7911 Jeannette St",
    "address_councildis": "A",
    "status": "Assigned to Contractor",
    "contractor": "Richards Disposal",
    "rowid": "960398",
    "final_x": "3663202.66061",
    "final_y": "528727.407936",
    "longitude": "-90.12593992459634",
    "latitude": "29.9483598234777",
    "geocoded_column": {
      "latitude": "29.9483598234777",
      "longitude": "-90.12593992459634"
    }
  },
  {
    "service_request": "2023-960397",
    "request_type": "Trash/Recycling",
    "request_reason": "MIssed Recycling Pick-Up",
    "date_created": "2023-01-04T20:32:54.000",
    "date_modified": "2023-01-04T20:32:55.000",
    "request_status": "Pending",
    "responsible_agency": "Department of Sanitation",
    "final_address": "1432 Fern St",
    "address_councildis": "A",
    "status": "Assigned to Contractor",
    "contractor": "Richards Disposal",
    "rowid": "960397",
    "final_x": "3663087.43117",
    "final_y": "528517.694208",
    "longitude": "-90.12631072849541",
    "latitude": "29.94778651621753",
    "geocoded_column": {
      "latitude": "29.94778651621753",
      "longitude": "-90.12631072849541"
    }
  },
  {
    "service_request": "2023-960396",
    "request_type": "Trash/Recycling",
    "request_reason": "Missed Trash Pick-Up",
    "date_created": "2023-01-04T20:32:09.000",
    "date_modified": "2023-01-04T20:32:09.000",
    "request_status": "Pending",
    "responsible_agency": "Department of Sanitation",
    "final_address": "3470 Laurel St",
    "address_councildis": "B",
    "status": "Assigned to Contractor",
    "contractor": "Richards Disposal",
    "rowid": "960396",
    "final_x": "3674793.90382",
    "final_y": "518690.451703",
    "longitude": "-90.08968547839225",
    "latitude": "29.920420529702405",
    "geocoded_column": {
      "latitude": "29.920420529702405",
      "longitude": "-90.08968547839225"
    }
  },
  {
    "service_request": "2023-960395",
    "request_type": "Trash/Recycling",
    "request_reason": "Repair Trash Cart",
    "date_created": "2023-01-04T20:32:07.000",
    "date_modified": "2023-01-04T20:32:08.000",
    "request_status": "Pending",
    "responsible_agency": "Department of Sanitation",
    "final_address": "1914 Washington Ave",
    "address_councildis": "B",
    "status": "Assigned to Contractor",
    "contractor": "Richards Disposal",
    "rowid": "960395",
    "final_x": "3675212.38888",
    "final_y": "523534.329019",
    "longitude": "-90.08819836781383",
    "latitude": "29.93372713037974",
    "geocoded_column": {
      "latitude": "29.93372713037974",
      "longitude": "-90.08819836781383"
    }
  },
  {
    "service_request": "2023-960394",
    "request_type": "Traffic Signals/Signs/Striping/Streetlights",
    "request_reason": "Street Name Sign Damaged or Missing",
    "date_created": "2023-01-04T20:28:06.000",
    "date_modified": "2023-01-04T20:28:06.000",
    "request_status": "Pending",
    "responsible_agency": "Department of Public Works",
    "final_address": "4861 Rosemont Pl",
    "address_councildis": "E",
    "status": "Pending",
    "rowid": "960394",
    "final_x": "3702706.3857",
    "final_y": "555636.704153",
    "longitude": "-90.00022270900028",
    "latitude": "30.0211467734321",
    "geocoded_column": {
      "latitude": "30.0211467734321",
      "longitude": "-90.00022270900028"
    }
  },
  {
    "service_request": "2023-960393",
    "request_type": "Traffic Signals/Signs/Striping/Streetlights",
    "request_reason": "Street Name Sign Damaged or Missing",
    "date_created": "2023-01-04T20:26:10.000",
    "date_modified": "2023-01-04T20:26:10.000",
    "request_status": "Pending",
    "responsible_agency": "Department of Public Works",
    "final_address": "7101 Crowder Blvd",
    "address_councildis": "E",
    "status": "Pending",
    "rowid": "960393",
    "final_x": "3704432.9009",
    "final_y": "559813.708957",
    "longitude": "-89.99461325229983",
    "latitude": "30.032576570097962",
    "geocoded_column": {
      "latitude": "30.032576570097962",
      "longitude": "-89.99461325229983"
    }
  },
  {
    "service_request": "2023-960392",
    "request_type": "Trash/Recycling",
    "request_reason": "Missed Trash Pick-Up",
    "date_created": "2023-01-04T20:24:37.000",
    "date_modified": "2023-01-04T20:24:38.000",
    "request_status": "Pending",
    "responsible_agency": "Department of Sanitation",
    "final_address": "144 Millaudon St",
    "address_councildis": "A",
    "status": "Assigned to Contractor",
    "contractor": "Richards Disposal",
    "rowid": "960392",
    "final_x": "3660878.12333",
    "final_y": "523552.621755",
    "longitude": "-90.1334505871475",
    "latitude": "29.934197947465233",
    "geocoded_column": {
      "latitude": "29.934197947465233",
      "longitude": "-90.1334505871475"
    }
  },
  {
    "service_request": "2023-960391",
    "request_type": "Trash/Recycling",
    "request_reason": "MIssed Recycling Pick-Up",
    "date_created": "2023-01-04T20:24:29.000",
    "date_modified": "2023-01-04T20:24:30.000",
    "request_status": "Pending",
    "responsible_agency": "Department of Sanitation",
    "final_address": "1821 Delachaise St",
    "address_councildis": "B",
    "status": "Assigned to Contractor",
    "contractor": "Richards Disposal",
    "rowid": "960391",
    "final_x": "3673543.1595",
    "final_y": "522281.719546",
    "longitude": "-90.09351084033159",
    "latitude": "29.930332630031966",
    "geocoded_column": {
      "latitude": "29.930332630031966",
      "longitude": "-90.09351084033159"
    }
  },
  {
    "service_request": "2023-960390",
    "request_type": "Trash/Recycling",
    "request_reason": "Missed Trash Pick-Up",
    "date_created": "2023-01-04T20:21:11.000",
    "date_modified": "2023-01-04T20:21:12.000",
    "request_status": "Pending",
    "responsible_agency": "Department of Sanitation",
    "final_address": "7328 Plum St",
    "address_councildis": "A",
    "status": "Assigned to Contractor",
    "contractor": "Richards Disposal",
    "rowid": "960390",
    "final_x": "3663927.37088",
    "final_y": "527035.813182",
    "longitude": "-90.12370808767713",
    "latitude": "29.94368746359225",
    "geocoded_column": {
      "latitude": "29.94368746359225",
      "longitude": "-90.12370808767713"
    }
  },
  {
    "service_request": "2023-960389",
    "request_type": "Traffic Signals/Signs/Striping/Streetlights",
    "request_reason": "Street Light Outage/Malfunction",
    "date_created": "2023-01-04T20:12:14.000",
    "date_modified": "2023-01-04T20:12:15.000",
    "request_status": "Pending",
    "responsible_agency": "Department of Public Works",
    "final_address": "709 Camp St",
    "address_councildis": "B",
    "status": "Assigned to Contractor",
    "contractor": "Legacy Professional Services",
    "rowid": "960389",
    "final_x": "3680859.67419",
    "final_y": "528377.616576",
    "longitude": "-90.07020162096113",
    "latitude": "29.946874613367527",
    "geocoded_column": {
      "latitude": "29.946874613367527",
      "longitude": "-90.07020162096113"
    }
  },
  {
    "service_request": "2023-960388",
    "request_type": "Trash/Recycling",
    "request_reason": "MIssed Recycling Pick-Up",
    "date_created": "2023-01-04T20:11:29.000",
    "date_modified": "2023-01-04T20:11:30.000",
    "request_status": "Pending",
    "responsible_agency": "Department of Sanitation",
    "final_address": "2233 Washington Ave",
    "address_councildis": "B",
    "status": "Assigned to Contractor",
    "contractor": "Richards Disposal",
    "rowid": "960388",
    "final_x": "3674625.65736",
    "final_y": "524567.716476",
    "longitude": "-90.09001525431059",
    "latitude": "29.936586127445302",
    "geocoded_column": {
      "latitude": "29.936586127445302",
      "longitude": "-90.09001525431059"
    }
  },
  {
    "service_request": "2023-960387",
    "request_type": "Trash/Recycling",
    "request_reason": "MIssed Recycling Pick-Up",
    "date_created": "2023-01-04T20:11:28.000",
    "date_modified": "2023-01-04T20:11:29.000",
    "request_status": "Pending",
    "responsible_agency": "Department of Sanitation",
    "final_address": "2233 Washington Ave",
    "address_councildis": "B",
    "status": "Assigned to Contractor",
    "contractor": "Richards Disposal",
    "rowid": "960387",
    "final_x": "3674625.65736",
    "final_y": "524567.716476",
    "longitude": "-90.09001525431059",
    "latitude": "29.936586127445302",
    "geocoded_column": {
      "latitude": "29.936586127445302",
      "longitude": "-90.09001525431059"
    }
  },
  {
    "service_request": "2023-960386",
    "request_type": "Trash/Recycling",
    "request_reason": "Missed Trash Pick-Up",
    "date_created": "2023-01-04T20:11:20.000",
    "date_modified": "2023-01-04T20:11:21.000",
    "request_status": "Pending",
    "responsible_agency": "Department of Sanitation",
    "final_address": "7224 Walmsley Ave",
    "address_councildis": "B",
    "status": "Assigned to Contractor",
    "contractor": "Richards Disposal",
    "rowid": "960386",
    "final_x": "3667133.42746",
    "final_y": "531347.688962",
    "longitude": "-90.11344074122005",
    "latitude": "29.955450267875644",
    "geocoded_column": {
      "latitude": "29.955450267875644",
      "longitude": "-90.11344074122005"
    }
  },
  {
    "service_request": "2023-960385",
    "request_type": "Traffic Signals/Signs/Striping/Streetlights",
    "request_reason": "Street Light Outage/Malfunction",
    "date_created": "2023-01-04T20:10:45.000",
    "date_modified": "2023-01-04T20:10:45.000",
    "request_status": "Pending",
    "responsible_agency": "Department of Public Works",
    "final_address": "723 Camp St",
    "address_councildis": "B",
    "status": "Assigned to Contractor",
    "contractor": "Legacy Professional Services",
    "rowid": "960385",
    "final_x": "3680830.19464",
    "final_y": "528266.923328",
    "longitude": "-90.07029855113045",
    "latitude": "29.94657113756914",
    "geocoded_column": {
      "latitude": "29.94657113756914",
      "longitude": "-90.07029855113045"
    }
  },
  {
    "service_request": "2023-960384",
    "request_type": "Trash/Recycling",
    "request_reason": "Order Recycling Cart",
    "date_created": "2023-01-04T20:05:51.000",
    "date_modified": "2023-01-04T20:05:51.000",
    "request_status": "Pending",
    "responsible_agency": "Department of Sanitation",
    "final_address": "14001 Intrepid St",
    "address_councildis": "E",
    "status": "Pending",
    "rowid": "960384",
    "final_x": "3726254.77574",
    "final_y": "570717.890343",
    "longitude": "-89.92523195954455",
    "latitude": "30.061839444165106",
    "geocoded_column": {
      "latitude": "30.061839444165106",
      "longitude": "-89.92523195954455"
    }
  },
  {
    "service_request": "2023-960383",
    "request_type": "Trash/Recycling",
    "request_reason": "Missed Trash Pick-Up",
    "date_created": "2023-01-04T19:56:51.000",
    "date_modified": "2023-01-04T19:56:51.000",
    "request_status": "Pending",
    "responsible_agency": "Department of Sanitation",
    "final_address": "2124 S Gayoso St",
    "address_councildis": "B",
    "status": "Assigned to Contractor",
    "contractor": "Richards Disposal",
    "rowid": "960383",
    "final_x": "3669691.5625",
    "final_y": "528928.721152",
    "longitude": "-90.10544490426787",
    "latitude": "29.948723765931963",
    "geocoded_column": {
      "latitude": "29.948723765931963",
      "longitude": "-90.10544490426787"
    }
  },
  {
    "service_request": "2023-960382",
    "request_type": "Trash/Recycling",
    "request_reason": "MIssed Recycling Pick-Up",
    "date_created": "2023-01-04T19:55:11.000",
    "date_modified": "2023-01-04T19:55:11.000",
    "request_status": "Pending",
    "responsible_agency": "Department of Sanitation",
    "final_address": "2124 S Gayoso St",
    "address_councildis": "B",
    "status": "Assigned to Contractor",
    "contractor": "Richards Disposal",
    "rowid": "960382",
    "final_x": "3669691.5625",
    "final_y": "528928.721152",
    "longitude": "-90.10544490426787",
    "latitude": "29.948723765931963",
    "geocoded_column": {
      "latitude": "29.948723765931963",
      "longitude": "-90.10544490426787"
    }
  },
  {
    "service_request": "2023-960381",
    "request_type": "Trash/Recycling",
    "request_reason": "Missed Trash Pick-Up",
    "date_created": "2023-01-04T19:48:34.000",
    "date_modified": "2023-01-04T19:48:35.000",
    "request_status": "Pending",
    "responsible_agency": "Department of Sanitation",
    "final_address": "1621 Short St",
    "address_councildis": "A",
    "status": "Assigned to Contractor",
    "contractor": "Richards Disposal",
    "rowid": "960381",
    "final_x": "3663399.10176",
    "final_y": "529219.417344",
    "longitude": "-90.12530329768987",
    "latitude": "29.94970699790668",
    "geocoded_column": {
      "latitude": "29.94970699790668",
      "longitude": "-90.12530329768987"
    }
  },
  {
    "service_request": "2023-960380",
    "request_type": "Trash/Recycling",
    "request_reason": "Missed Trash Pick-Up",
    "date_created": "2023-01-04T19:47:41.000",
    "date_modified": "2023-01-04T19:47:41.000",
    "request_status": "Pending",
    "responsible_agency": "Department of Sanitation",
    "final_address": "3327 General Taylor St",
    "address_councildis": "B",
    "status": "Assigned to Contractor",
    "contractor": "Richards Disposal",
    "rowid": "960380",
    "final_x": "3671232.2578",
    "final_y": "527219.966783",
    "longitude": "-90.10063830407029",
    "latitude": "29.943979762985556",
    "geocoded_column": {
      "latitude": "29.943979762985556",
      "longitude": "-90.10063830407029"
    }
  },
  {
    "service_request": "2023-960379",
    "request_type": "Trash/Recycling",
    "request_reason": "Request a Large Item Pick Up",
    "date_created": "2023-01-04T19:39:13.000",
    "date_modified": "2023-01-04T19:39:13.000",
    "request_status": "Pending",
    "responsible_agency": "Department of Sanitation",
    "final_address": "1234 Egania St",
    "address_councildis": "E",
    "status": "Assigned to Contractor",
    "contractor": "Waste Pro",
    "rowid": "960379",
    "final_x": "3696944.63178",
    "final_y": "534738.725894",
    "longitude": "-90.01918543823872",
    "latitude": "29.963868067328434",
    "geocoded_column": {
      "latitude": "29.963868067328434",
      "longitude": "-90.01918543823872"
    }
  },
  {
    "service_request": "2023-960378",
    "request_type": "Trash/Recycling",
    "request_reason": "Missed Trash Pick-Up",
    "date_created": "2023-01-04T19:36:46.000",
    "date_modified": "2023-01-04T19:36:46.000",
    "request_status": "Pending",
    "responsible_agency": "Department of Sanitation",
    "final_address": "7707 Benjamin St",
    "address_councildis": "A",
    "status": "Assigned to Contractor",
    "contractor": "Richards Disposal",
    "rowid": "960378",
    "final_x": "3660901.9527",
    "final_y": "525120.793213",
    "longitude": "-90.13332351107603",
    "latitude": "29.93850923866763",
    "geocoded_column": {
      "latitude": "29.93850923866763",
      "longitude": "-90.13332351107603"
    }
  },
  {
    "service_request": "2023-960377",
    "request_type": "Trash/Recycling",
    "request_reason": "Missed Trash Pick-Up",
    "date_created": "2023-01-04T19:34:58.000",
    "date_modified": "2023-01-04T19:34:58.000",
    "request_status": "Pending",
    "responsible_agency": "Department of Sanitation",
    "final_address": "1728 S Rendon St",
    "address_councildis": "B",
    "status": "Assigned to Contractor",
    "contractor": "Richards Disposal",
    "rowid": "960377",
    "final_x": "3669580.17735",
    "final_y": "530560.783554",
    "longitude": "-90.10574138784025",
    "latitude": "29.953214684543667",
    "geocoded_column": {
      "latitude": "29.953214684543667",
      "longitude": "-90.10574138784025"
    }
  },
  {
    "service_request": "2023-960376",
    "request_type": "Abandoned Vehicles",
    "request_reason": "Abandoned/Junk Vehicles",
    "date_created": "2023-01-04T19:32:03.000",
    "date_modified": "2023-01-04T19:32:03.000",
    "request_status": "Pending",
    "responsible_agency": "Department of Public Works",
    "final_address": "7890 Means Ave",
    "address_councildis": "E",
    "status": "Pending",
    "rowid": "960376",
    "final_x": "3707593.2003",
    "final_y": "565482.809186",
    "longitude": "-89.98441564231584",
    "latitude": "30.048062441752617",
    "geocoded_column": {
      "latitude": "30.048062441752617",
      "longitude": "-89.98441564231584"
    }
  },
  {
    "service_request": "2023-960375",
    "request_type": "Trash/Recycling",
    "request_reason": "MIssed Recycling Pick-Up",
    "date_created": "2023-01-04T19:28:39.000",
    "date_modified": "2023-01-04T19:28:40.000",
    "request_status": "Pending",
    "responsible_agency": "Department of Sanitation",
    "final_address": "714 Ninth St",
    "address_councildis": "B",
    "status": "Assigned to Contractor",
    "contractor": "Richards Disposal",
    "rowid": "960375",
    "final_x": "3676594.24059",
    "final_y": "518880.610103",
    "longitude": "-90.08399611146825",
    "latitude": "29.920889552299325",
    "geocoded_column": {
      "latitude": "29.920889552299325",
      "longitude": "-90.08399611146825"
    }
  },
  {
    "service_request": "2023-960374",
    "request_type": "Trash/Recycling",
    "request_reason": "Missed Trash Pick-Up",
    "date_created": "2023-01-04T19:27:57.000",
    "date_modified": "2023-01-04T19:27:58.000",
    "request_status": "Pending",
    "responsible_agency": "Department of Sanitation",
    "final_address": "714 Ninth St",
    "address_councildis": "B",
    "status": "Assigned to Contractor",
    "contractor": "Richards Disposal",
    "rowid": "960374",
    "final_x": "3676594.24059",
    "final_y": "518880.610103",
    "longitude": "-90.08399611146825",
    "latitude": "29.920889552299325",
    "geocoded_column": {
      "latitude": "29.920889552299325",
      "longitude": "-90.08399611146825"
    }
  },
  {
    "service_request": "2023-960373",
    "request_type": "Trash/Recycling",
    "request_reason": "Missed Trash Pick-Up",
    "date_created": "2023-01-04T19:25:05.000",
    "date_modified": "2023-01-04T19:25:06.000",
    "request_status": "Pending",
    "responsible_agency": "Department of Sanitation",
    "final_address": "208 Hillary St",
    "address_councildis": "A",
    "status": "Assigned to Contractor",
    "contractor": "Richards Disposal",
    "rowid": "960373",
    "final_x": "3660791.92806",
    "final_y": "524467.190908",
    "longitude": "-90.13369247583448",
    "latitude": "29.936715206414828",
    "geocoded_column": {
      "latitude": "29.936715206414828",
      "longitude": "-90.13369247583448"
    }
  },
  {
    "service_request": "2023-960372",
    "request_type": "Trash/Recycling",
    "request_reason": "Missed Trash Pick-Up",
    "date_created": "2023-01-04T19:24:59.000",
    "date_modified": "2023-01-04T19:24:59.000",
    "request_status": "Pending",
    "responsible_agency": "Department of Sanitation",
    "final_address": "1340 Pine St, New Orleans, Louisiana, 70118",
    "address_councildis": "A",
    "status": "Assigned to Contractor",
    "contractor": "Richards Disposal",
    "rowid": "960372",
    "final_x": "3664219.4786",
    "final_y": "527252.961279",
    "longitude": "-90.12277857854775",
    "latitude": "29.944276068898887",
    "geocoded_column": {
      "latitude": "29.944276068898887",
      "longitude": "-90.12277857854775"
    }
  },
  {
    "service_request": "2023-960371",
    "request_type": "Trash/Recycling",
    "request_reason": "MIssed Recycling Pick-Up",
    "date_created": "2023-01-04T19:24:52.000",
    "date_modified": "2023-01-04T19:24:52.000",
    "request_status": "Pending",
    "responsible_agency": "Department of Sanitation",
    "final_address": "2230 Ursulines Ave",
    "address_councildis": "D",
    "status": "Assigned to Contractor",
    "contractor": "Richards Disposal",
    "rowid": "960371",
    "final_x": "3679018.39304",
    "final_y": "536993.88084",
    "longitude": "-90.07571663656199",
    "latitude": "29.97062210844368",
    "geocoded_column": {
      "latitude": "29.97062210844368",
      "longitude": "-90.07571663656199"
    }
  },
  {
    "service_request": "2023-960370",
    "request_type": "Safety & Permits",
    "request_reason": "Licenses & Permits",
    "date_created": "2023-01-04T19:24:09.000",
    "date_modified": "2023-01-04T19:24:09.000",
    "request_status": "Pending",
    "responsible_agency": "Safety and Permits",
    "final_address": "901 Piety St",
    "address_councildis": "C",
    "status": "Pending",
    "rowid": "960370",
    "final_x": "3689679.88809",
    "final_y": "535029.022342",
    "longitude": "-90.04211640355143",
    "latitude": "29.96489337804015",
    "geocoded_column": {
      "latitude": "29.96489337804015",
      "longitude": "-90.04211640355143"
    }
  },
  {
    "service_request": "2023-960369",
    "request_type": "Trash/Recycling",
    "request_reason": "Missed Trash Pick-Up",
    "date_created": "2023-01-04T19:23:59.000",
    "date_modified": "2023-01-04T19:24:00.000",
    "request_status": "Pending",
    "responsible_agency": "Department of Sanitation",
    "final_address": "2230 Ursulines Ave",
    "address_councildis": "D",
    "status": "Assigned to Contractor",
    "contractor": "Richards Disposal",
    "rowid": "960369",
    "final_x": "3679018.39304",
    "final_y": "536993.88084",
    "longitude": "-90.07571663656199",
    "latitude": "29.97062210844368",
    "geocoded_column": {
      "latitude": "29.97062210844368",
      "longitude": "-90.07571663656199"
    }
  },
  {
    "service_request": "2023-960368",
    "request_type": "Trash/Recycling",
    "request_reason": "Missed Trash Pick-Up",
    "date_created": "2023-01-04T19:20:37.000",
    "date_modified": "2023-01-04T19:20:37.000",
    "request_status": "Pending",
    "responsible_agency": "Department of Sanitation",
    "final_address": "4022 Carondelet St",
    "address_councildis": "B",
    "status": "Assigned to Contractor",
    "contractor": "Richards Disposal",
    "rowid": "960368",
    "final_x": "3672097.69287",
    "final_y": "521286.003897",
    "longitude": "-90.09810784786553",
    "latitude": "29.927637658494476",
    "geocoded_column": {
      "latitude": "29.927637658494476",
      "longitude": "-90.09810784786553"
    }
  },
  {
    "service_request": "2023-960367",
    "request_type": "Roads/Drainage",
    "request_reason": "Pothole",
    "date_created": "2023-01-04T19:19:48.000",
    "date_modified": "2023-01-04T19:19:48.000",
    "request_status": "Pending",
    "responsible_agency": "Department of Public Works",
    "final_address": "7400 Leake Ave, New Orleans, Louisiana, 70118",
    "address_councildis": "A",
    "status": "Pending",
    "rowid": "960367",
    "final_x": "3660624.20563",
    "final_y": "522844.365755",
    "longitude": "-90.13427559903762",
    "latitude": "29.932257774447077",
    "geocoded_column": {
      "latitude": "29.932257774447077",
      "longitude": "-90.13427559903762"
    }
  },
  {
    "service_request": "2023-960366",
    "request_type": "Trash/Recycling",
    "request_reason": "Missed Trash Pick-Up",
    "date_created": "2023-01-04T19:17:11.000",
    "date_modified": "2023-01-04T19:17:11.000",
    "request_status": "Pending",
    "responsible_agency": "Department of Sanitation",
    "final_address": "7471 Pitt St. New Orleans, La 70118",
    "address_councildis": "A",
    "status": "Assigned to Contractor",
    "contractor": "Richards Disposal",
    "rowid": "960366",
    "final_x": "3660918.94387",
    "final_y": "523832.040379",
    "longitude": "-90.13331247911697",
    "latitude": "29.93496508537649",
    "geocoded_column": {
      "latitude": "29.93496508537649",
      "longitude": "-90.13331247911697"
    }
  },
  {
    "service_request": "2023-960365",
    "request_type": "Trash/Recycling",
    "request_reason": "Missed Trash Pick-Up",
    "date_created": "2023-01-04T19:13:55.000",
    "date_modified": "2023-01-04T19:13:56.000",
    "request_status": "Pending",
    "responsible_agency": "Department of Sanitation",
    "final_address": "930 Marengo St",
    "address_councildis": "B",
    "status": "Assigned to Contractor",
    "contractor": "Richards Disposal",
    "rowid": "960365",
    "final_x": "3672073.32654",
    "final_y": "519195.803831",
    "longitude": "-90.09825588793635",
    "latitude": "29.92189099923054",
    "geocoded_column": {
      "latitude": "29.92189099923054",
      "longitude": "-90.09825588793635"
    }
  },
  {
    "service_request": "2023-960364",
    "request_type": "Traffic Signals/Signs/Striping/Streetlights",
    "request_reason": "Street Light Outage/Malfunction",
    "date_created": "2023-01-04T19:12:29.000",
    "date_modified": "2023-01-04T19:12:30.000",
    "request_status": "Pending",
    "responsible_agency": "Department of Public Works",
    "final_address": "Eagle St & Apple St, New Orleans, Louisiana, 70118",
    "status": "Assigned to Contractor",
    "contractor": "Legacy Professional Services",
    "rowid": "960364",
    "longitude": "0.0",
    "latitude": "0.0",
    "geocoded_column": {
      "latitude": "0.0",
      "longitude": "0.0"
    }
  },
  {
    "service_request": "2023-960363",
    "request_type": "Trash/Recycling",
    "request_reason": "Repair Trash Cart",
    "date_created": "2023-01-04T19:07:23.000",
    "date_modified": "2023-01-04T19:07:23.000",
    "request_status": "Pending",
    "responsible_agency": "Department of Sanitation",
    "final_address": "2718 Upperline St",
    "address_councildis": "B",
    "status": "Assigned to Contractor",
    "contractor": "Richards Disposal",
    "rowid": "960363",
    "final_x": "3669157.28577",
    "final_y": "524775.75206",
    "longitude": "-90.10727215569612",
    "latitude": "29.93732017931266",
    "geocoded_column": {
      "latitude": "29.93732017931266",
      "longitude": "-90.10727215569612"
    }
  },
  {
    "service_request": "2023-960362",
    "request_type": "Trash/Recycling",
    "request_reason": "Missed Trash Pick-Up",
    "date_created": "2023-01-04T19:06:04.000",
    "date_modified": "2023-01-04T19:06:05.000",
    "request_status": "Pending",
    "responsible_agency": "Department of Sanitation",
    "final_address": "2718 Upperline St",
    "address_councildis": "B",
    "status": "Assigned to Contractor",
    "contractor": "Richards Disposal",
    "rowid": "960362",
    "final_x": "3669157.28577",
    "final_y": "524775.75206",
    "longitude": "-90.10727215569612",
    "latitude": "29.93732017931266",
    "geocoded_column": {
      "latitude": "29.93732017931266",
      "longitude": "-90.10727215569612"
    }
  },
  {
    "service_request": "2023-960361",
    "request_type": "Roads/Drainage",
    "request_reason": "Catch Basin - Clogged",
    "date_created": "2023-01-04T19:06:04.000",
    "date_modified": "2023-01-04T19:06:04.000",
    "request_status": "Pending",
    "responsible_agency": "Department of Public Works",
    "final_address": "1521 Dublin St",
    "address_councildis": "A",
    "status": "Pending",
    "rowid": "960361",
    "final_x": "3662565.88487",
    "final_y": "529494.769473",
    "longitude": "-90.12792501083638",
    "latitude": "29.950488255587455",
    "geocoded_column": {
      "latitude": "29.950488255587455",
      "longitude": "-90.12792501083638"
    }
  },
  {
    "service_request": "2023-960360",
    "request_type": "Trash/Recycling",
    "request_reason": "Missed Trash Pick-Up",
    "date_created": "2023-01-04T19:05:27.000",
    "date_modified": "2023-01-04T19:05:28.000",
    "request_status": "Pending",
    "responsible_agency": "Department of Sanitation",
    "final_address": "8720 Scottsdale Dr",
    "address_councildis": "E",
    "status": "Assigned to Contractor",
    "contractor": "Waste Pro",
    "rowid": "960360",
    "final_x": "3704978.56011",
    "final_y": "561763.864991",
    "longitude": "-89.99281684252745",
    "latitude": "30.037921193191345",
    "geocoded_column": {
      "latitude": "30.037921193191345",
      "longitude": "-89.99281684252745"
    }
  },
  {
    "service_request": "2023-960359",
    "request_type": "Trash/Recycling",
    "request_reason": "Missed Trash Pick-Up",
    "date_created": "2023-01-04T19:04:03.000",
    "date_modified": "2023-01-04T19:04:04.000",
    "request_status": "Pending",
    "responsible_agency": "Department of Sanitation",
    "final_address": "7726 Jeannette St",
    "address_councildis": "A",
    "status": "Assigned to Contractor",
    "contractor": "Richards Disposal",
    "rowid": "960359",
    "final_x": "3663563.55635",
    "final_y": "528285.15776",
    "longitude": "-90.12481514950699",
    "latitude": "29.947133316212483",
    "geocoded_column": {
      "latitude": "29.947133316212483",
      "longitude": "-90.12481514950699"
    }
  },
  {
    "service_request": "2023-960358",
    "request_type": "Trash/Recycling",
    "request_reason": "Missed Trash Pick-Up",
    "date_created": "2023-01-04T18:56:39.000",
    "date_modified": "2023-01-04T18:56:40.000",
    "request_status": "Pending",
    "responsible_agency": "Department of Sanitation",
    "final_address": "452 Audubon St",
    "address_councildis": "A",
    "status": "Assigned to Contractor",
    "contractor": "Richards Disposal",
    "rowid": "960358",
    "final_x": "3662338.72384",
    "final_y": "523324.595579",
    "longitude": "-90.12884706489479",
    "latitude": "29.93352881061698",
    "geocoded_column": {
      "latitude": "29.93352881061698",
      "longitude": "-90.12884706489479"
    }
  },
  {
    "service_request": "2023-960357",
    "request_type": "Trash/Recycling",
    "request_reason": "Missed Trash Pick-Up",
    "date_created": "2023-01-04T18:56:13.000",
    "date_modified": "2023-01-04T18:56:14.000",
    "request_status": "Pending",
    "responsible_agency": "Department of Sanitation",
    "final_address": "2036 Burdette St",
    "address_councildis": "A",
    "status": "Assigned to Contractor",
    "contractor": "Richards Disposal",
    "rowid": "960357",
    "final_x": "3664865.24461",
    "final_y": "529939.422849",
    "longitude": "-90.12064993525313",
    "latitude": "29.95164419651923",
    "geocoded_column": {
      "latitude": "29.95164419651923",
      "longitude": "-90.12064993525313"
    }
  },
  {
    "service_request": "2023-960356",
    "request_type": "Trash/Recycling",
    "request_reason": "Missed Trash Pick-Up",
    "date_created": "2023-01-04T18:56:09.000",
    "date_modified": "2023-01-04T18:56:09.000",
    "request_status": "Pending",
    "responsible_agency": "Department of Sanitation",
    "final_address": "2700 Marengo St",
    "address_councildis": "B",
    "status": "Assigned to Contractor",
    "contractor": "Richards Disposal",
    "rowid": "960356",
    "final_x": "3671510.59201",
    "final_y": "524888.211452",
    "longitude": "-90.09983877599038",
    "latitude": "29.93755995796886",
    "geocoded_column": {
      "latitude": "29.93755995796886",
      "longitude": "-90.09983877599038"
    }
  },
  {
    "service_request": "2023-960355",
    "request_type": "Trash/Recycling",
    "request_reason": "Missed Trash Pick-Up",
    "date_created": "2023-01-04T18:56:01.000",
    "date_modified": "2023-01-04T18:56:01.000",
    "request_status": "Pending",
    "responsible_agency": "Department of Sanitation",
    "final_address": "4012 Vendome Pl, New Orleans, Louisiana, 70125",
    "address_councildis": "B",
    "status": "Assigned to Contractor",
    "contractor": "Richards Disposal",
    "rowid": "960355",
    "final_x": "3668626.63022",
    "final_y": "529951.891265",
    "longitude": "-90.10877283406187",
    "latitude": "29.951568485613283",
    "geocoded_column": {
      "latitude": "29.951568485613283",
      "longitude": "-90.10877283406187"
    }
  },
  {
    "service_request": "2023-960354",
    "request_type": "Trash/Recycling",
    "request_reason": "Missed Trash Pick-Up",
    "date_created": "2023-01-04T18:47:13.000",
    "date_modified": "2023-01-04T18:47:13.000",
    "request_status": "Pending",
    "responsible_agency": "Department of Sanitation",
    "final_address": "1221 Delachaise St, New Orleans, Louisiana, 70115",
    "address_councildis": "B",
    "status": "Assigned to Contractor",
    "contractor": "Richards Disposal",
    "rowid": "960354",
    "final_x": "3674488.01614",
    "final_y": "519984.44684",
    "longitude": "-90.09060672450686",
    "latitude": "29.923987726308425",
    "geocoded_column": {
      "latitude": "29.923987726308425",
      "longitude": "-90.09060672450686"
    }
  },
  {
    "service_request": "2023-960353",
    "request_type": "Trash/Recycling",
    "request_reason": "Missed Trash Pick-Up",
    "date_created": "2023-01-04T18:46:48.000",
    "date_modified": "2023-01-04T18:46:48.000",
    "request_status": "Pending",
    "responsible_agency": "Department of Sanitation",
    "final_address": "1028 Valence St",
    "address_councildis": "B",
    "status": "Assigned to Contractor",
    "contractor": "Richards Disposal",
    "rowid": "960353",
    "final_x": "3669827.33524",
    "final_y": "519306.152311",
    "longitude": "-90.10534181925274",
    "latitude": "29.922260798631278",
    "geocoded_column": {
      "latitude": "29.922260798631278",
      "longitude": "-90.10534181925274"
    }
  },
  {
    "service_request": "2023-960352",
    "request_type": "Trash/Recycling",
    "request_reason": "Missed Trash Pick-Up",
    "date_created": "2023-01-04T18:46:17.000",
    "date_modified": "2023-01-04T18:46:18.000",
    "request_status": "Pending",
    "responsible_agency": "Department of Sanitation",
    "final_address": "442 Lowerline St",
    "address_councildis": "A",
    "status": "Assigned to Contractor",
    "contractor": "Richards Disposal",
    "rowid": "960352",
    "final_x": "3661854.65888",
    "final_y": "524265.5751",
    "longitude": "-90.13034405133337",
    "latitude": "29.936130190172143",
    "geocoded_column": {
      "latitude": "29.936130190172143",
      "longitude": "-90.13034405133337"
    }
  },
  {
    "service_request": "2023-960351",
    "request_type": "Trash/Recycling",
    "request_reason": "Missed Trash Pick-Up",
    "date_created": "2023-01-04T18:45:20.000",
    "date_modified": "2023-01-04T18:45:21.000",
    "request_status": "Pending",
    "responsible_agency": "Department of Sanitation",
    "final_address": "2761 New York St",
    "address_councildis": "D",
    "status": "Assigned to Contractor",
    "contractor": "IV Waste",
    "rowid": "960351",
    "final_x": "3687535.89775",
    "final_y": "556896.893914",
    "longitude": "-90.04811239818365",
    "latitude": "30.025088407760908",
    "geocoded_column": {
      "latitude": "30.025088407760908",
      "longitude": "-90.04811239818365"
    }
  },
  {
    "service_request": "2023-960350",
    "request_type": "Trash/Recycling",
    "request_reason": "Missed Trash Pick-Up",
    "date_created": "2023-01-04T18:42:51.000",
    "date_modified": "2023-01-04T18:42:52.000",
    "request_status": "Pending",
    "responsible_agency": "Department of Sanitation",
    "final_address": "225 Walnut St",
    "address_councildis": "A",
    "status": "Assigned to Contractor",
    "contractor": "Richards Disposal",
    "rowid": "960350",
    "final_x": "3661395.55418",
    "final_y": "521207.350969",
    "longitude": "-90.13189469890942",
    "latitude": "29.927734279295464",
    "geocoded_column": {
      "latitude": "29.927734279295464",
      "longitude": "-90.13189469890942"
    }
  },
  {
    "service_request": "2023-960349",
    "request_type": "Trash/Recycling",
    "request_reason": "Missed Trash Pick-Up",
    "date_created": "2023-01-04T18:39:43.000",
    "date_modified": "2023-01-04T18:39:44.000",
    "request_status": "Pending",
    "responsible_agency": "Department of Sanitation",
    "final_address": "4916 Baronne St",
    "address_councildis": "B",
    "status": "Assigned to Contractor",
    "contractor": "Richards Disposal",
    "rowid": "960349",
    "final_x": "3668936.39834",
    "final_y": "521391.117817",
    "longitude": "-90.10808377428931",
    "latitude": "29.92802001600356",
    "geocoded_column": {
      "latitude": "29.92802001600356",
      "longitude": "-90.10808377428931"
    }
  },
  {
    "service_request": "2023-960348",
    "request_type": "Trash/Recycling",
    "request_reason": "Missed Trash Pick-Up",
    "date_created": "2023-01-04T18:38:30.000",
    "date_modified": "2023-01-04T18:38:30.000",
    "request_status": "Pending",
    "responsible_agency": "Department of Sanitation",
    "final_address": "925 Cherokee St",
    "address_councildis": "A",
    "status": "Assigned to Contractor",
    "contractor": "Richards Disposal",
    "rowid": "960348",
    "final_x": "3663027.84179",
    "final_y": "526328.298622",
    "longitude": "-90.12657168001252",
    "latitude": "29.941768104665808",
    "geocoded_column": {
      "latitude": "29.941768104665808",
      "longitude": "-90.12657168001252"
    }
  },
  {
    "service_request": "2023-960347",
    "request_type": "Trash/Recycling",
    "request_reason": "Missed Trash Pick-Up",
    "date_created": "2023-01-04T18:32:14.000",
    "date_modified": "2023-01-04T18:32:14.000",
    "request_status": "Pending",
    "responsible_agency": "Department of Sanitation",
    "final_address": "3930 Chestnut St",
    "address_councildis": "B",
    "status": "Assigned to Contractor",
    "contractor": "Richards Disposal",
    "rowid": "960347",
    "final_x": "3672644.42529",
    "final_y": "519602.440184",
    "longitude": "-90.09643931144208",
    "latitude": "29.922992180574077",
    "geocoded_column": {
      "latitude": "29.922992180574077",
      "longitude": "-90.09643931144208"
    }
  },
  {
    "service_request": "2023-960346",
    "request_type": "Trash/Recycling",
    "request_reason": "Missed Trash Pick-Up",
    "date_created": "2023-01-04T18:31:28.000",
    "date_modified": "2023-01-04T18:31:28.000",
    "request_status": "Pending",
    "responsible_agency": "Department of Sanitation",
    "final_address": "1305 Dufossat St",
    "address_councildis": "B",
    "status": "Assigned to Contractor",
    "contractor": "Richards Disposal",
    "rowid": "960346",
    "final_x": "3668120.80993",
    "final_y": "519981.60044",
    "longitude": "-90.11070588554631",
    "latitude": "29.924168245300702",
    "geocoded_column": {
      "latitude": "29.924168245300702",
      "longitude": "-90.11070588554631"
    }
  },
  {
    "service_request": "2023-960345",
    "request_type": "Trash/Recycling",
    "request_reason": "Missed Trash Pick-Up",
    "date_created": "2023-01-04T18:29:16.000",
    "date_modified": "2023-01-04T18:29:17.000",
    "request_status": "Pending",
    "responsible_agency": "Department of Sanitation",
    "final_address": "919 Delachaise St",
    "address_councildis": "B",
    "status": "Assigned to Contractor",
    "contractor": "Richards Disposal",
    "rowid": "960345",
    "final_x": "3674936.122",
    "final_y": "518960.228855",
    "longitude": "-90.08922731591022",
    "latitude": "29.921158085209523",
    "geocoded_column": {
      "latitude": "29.921158085209523",
      "longitude": "-90.08922731591022"
    }
  },
  {
    "service_request": "2023-960344",
    "request_type": "Trash/Recycling",
    "request_reason": "Missed Trash Pick-Up",
    "date_created": "2023-01-04T18:27:01.000",
    "date_modified": "2023-01-04T18:27:01.000",
    "request_status": "Pending",
    "responsible_agency": "Department of Sanitation",
    "final_address": "3200 BLK General Taylor St",
    "address_councildis": "B",
    "status": "Assigned to Contractor",
    "contractor": "Richards Disposal",
    "rowid": "960344",
    "final_x": "3671271.7063",
    "final_y": "526836.268622",
    "longitude": "-90.10052678785706",
    "latitude": "29.942923551176044",
    "geocoded_column": {
      "latitude": "29.942923551176044",
      "longitude": "-90.10052678785706"
    }
  },
  {
    "service_request": "2023-960343",
    "request_type": "Trash/Recycling",
    "request_reason": "MIssed Recycling Pick-Up",
    "date_created": "2023-01-04T18:25:58.000",
    "date_modified": "2023-01-04T18:25:59.000",
    "request_status": "Pending",
    "responsible_agency": "Department of Sanitation",
    "final_address": "4016 State Street Dr",
    "address_councildis": "B",
    "status": "Assigned to Contractor",
    "contractor": "Richards Disposal",
    "rowid": "960343",
    "final_x": "3668218.23393",
    "final_y": "530443.170178",
    "longitude": "-90.11004579526966",
    "latitude": "29.952931336714823",
    "geocoded_column": {
      "latitude": "29.952931336714823",
      "longitude": "-90.11004579526966"
    }
  },
  {
    "service_request": "2023-960342",
    "request_type": "Trash/Recycling",
    "request_reason": "Missed Trash Pick-Up",
    "date_created": "2023-01-04T18:25:47.000",
    "date_modified": "2023-01-04T18:25:48.000",
    "request_status": "Pending",
    "responsible_agency": "Department of Sanitation",
    "final_address": "9 Blanc Pl",
    "address_councildis": "B",
    "status": "Assigned to Contractor",
    "contractor": "Richards Disposal",
    "rowid": "960342",
    "final_x": "3667874.285",
    "final_y": "520921.573625",
    "longitude": "-90.111452440078",
    "latitude": "29.92676010442122",
    "geocoded_column": {
      "latitude": "29.92676010442122",
      "longitude": "-90.111452440078"
    }
  },
  {
    "service_request": "2023-960341",
    "request_type": "Roads/Drainage",
    "request_reason": "Pothole",
    "date_created": "2023-01-04T18:25:04.000",
    "date_modified": "2023-01-04T18:25:04.000",
    "request_status": "Pending",
    "responsible_agency": "Department of Public Works",
    "final_address": "800 Joseph St",
    "address_councildis": "A",
    "status": "Pending",
    "rowid": "960341",
    "final_x": "3666093.421",
    "final_y": "519005.018871",
    "longitude": "-90.1171383858053",
    "latitude": "29.921542279788483",
    "geocoded_column": {
      "latitude": "29.921542279788483",
      "longitude": "-90.1171383858053"
    }
  },
  {
    "service_request": "2023-960340",
    "request_type": "Trash/Recycling",
    "request_reason": "Request a Large Item Pick Up",
    "date_created": "2023-01-04T18:24:49.000",
    "date_modified": "2023-01-04T18:24:49.000",
    "request_status": "Pending",
    "responsible_agency": "Department of Sanitation",
    "final_address": "6372 Vicksburg St",
    "address_councildis": "A",
    "status": "Assigned to Contractor",
    "contractor": "IV Waste",
    "rowid": "960340",
    "final_x": "3669014.00026",
    "final_y": "549856.736596",
    "longitude": "-90.10687698601426",
    "latitude": "30.006288691504032",
    "geocoded_column": {
      "latitude": "30.006288691504032",
      "longitude": "-90.10687698601426"
    }
  },
  {
    "service_request": "2023-960339",
    "request_type": "Trash/Recycling",
    "request_reason": "Order Trash Cart",
    "date_created": "2023-01-04T18:24:37.000",
    "date_modified": "2023-01-04T18:24:38.000",
    "request_status": "Pending",
    "responsible_agency": "Department of Sanitation",
    "final_address": "4228 Magazine St",
    "address_councildis": "B",
    "status": "Assigned to Contractor",
    "contractor": "Richards Disposal",
    "rowid": "960339",
    "final_x": "3671564.49006",
    "final_y": "518799.896567",
    "longitude": "-90.09987552585542",
    "latitude": "29.920817451454187",
    "geocoded_column": {
      "latitude": "29.920817451454187",
      "longitude": "-90.09987552585542"
    }
  },
  {
    "service_request": "2023-960338",
    "request_type": "Trash/Recycling",
    "request_reason": "Missed Trash Pick-Up",
    "date_created": "2023-01-04T18:24:05.000",
    "date_modified": "2023-01-04T18:24:06.000",
    "request_status": "Pending",
    "responsible_agency": "Department of Sanitation",
    "final_address": "6342 Peoples Ave",
    "address_councildis": "D",
    "status": "Assigned to Contractor",
    "contractor": "IV Waste",
    "rowid": "960338",
    "final_x": "3687645.17167",
    "final_y": "556813.62825",
    "longitude": "-90.04777006248858",
    "latitude": "30.02485608766922",
    "geocoded_column": {
      "latitude": "30.02485608766922",
      "longitude": "-90.04777006248858"
    }
  },
  {
    "service_request": "2023-960337",
    "request_type": "Trash/Recycling",
    "request_reason": "Dead Animal Pick Up",
    "date_created": "2023-01-04T18:22:30.000",
    "date_modified": "2023-01-04T18:22:31.000",
    "request_status": "Pending",
    "responsible_agency": "Department of Sanitation",
    "final_address": "1243 Tricou St",
    "address_councildis": "E",
    "status": "Assigned to Contractor",
    "contractor": "Waste Pro",
    "rowid": "960337",
    "final_x": "3700434.05904",
    "final_y": "533692.372613",
    "longitude": "-90.00820444457484",
    "latitude": "29.96088046855041",
    "geocoded_column": {
      "latitude": "29.96088046855041",
      "longitude": "-90.00820444457484"
    }
  },
  {
    "service_request": "2023-960336",
    "request_type": "Trash/Recycling",
    "request_reason": "Missed Trash Pick-Up",
    "date_created": "2023-01-04T18:21:58.000",
    "date_modified": "2023-01-04T18:21:59.000",
    "request_status": "Pending",
    "responsible_agency": "Department of Sanitation",
    "final_address": "2727 Audubon St",
    "address_councildis": "B",
    "status": "Assigned to Contractor",
    "contractor": "Richards Disposal",
    "rowid": "960336",
    "final_x": "3667374.45953",
    "final_y": "530842.530178",
    "longitude": "-90.11269663873546",
    "latitude": "29.954054188401447",
    "geocoded_column": {
      "latitude": "29.954054188401447",
      "longitude": "-90.11269663873546"
    }
  },
  {
    "service_request": "2023-960335",
    "request_type": "Trash/Recycling",
    "request_reason": "Missed Trash Pick-Up",
    "date_created": "2023-01-04T18:19:16.000",
    "date_modified": "2023-01-04T18:19:16.000",
    "request_status": "Pending",
    "responsible_agency": "Department of Sanitation",
    "final_address": "5223 S Derbigny St",
    "address_councildis": "B",
    "status": "Assigned to Contractor",
    "contractor": "Richards Disposal",
    "rowid": "960335",
    "final_x": "3668665.11527",
    "final_y": "526314.708158",
    "longitude": "-90.10877405106785",
    "latitude": "29.94156628366126",
    "geocoded_column": {
      "latitude": "29.94156628366126",
      "longitude": "-90.10877405106785"
    }
  },
  {
    "service_request": "2023-960334",
    "request_type": "Trash/Recycling",
    "request_reason": "Missed Trash Pick-Up",
    "date_created": "2023-01-04T18:18:33.000",
    "date_modified": "2023-01-04T18:18:34.000",
    "request_status": "Pending",
    "responsible_agency": "Department of Sanitation",
    "final_address": "4016 State Street Dr",
    "address_councildis": "B",
    "status": "Assigned to Contractor",
    "contractor": "Richards Disposal",
    "rowid": "960334",
    "final_x": "3668218.23393",
    "final_y": "530443.170178",
    "longitude": "-90.11004579526966",
    "latitude": "29.952931336714823",
    "geocoded_column": {
      "latitude": "29.952931336714823",
      "longitude": "-90.11004579526966"
    }
  },
  {
    "service_request": "2023-960333",
    "request_type": "Trash/Recycling",
    "request_reason": "Request a Large Item Pick Up",
    "date_created": "2023-01-04T18:18:20.000",
    "date_modified": "2023-01-04T18:18:21.000",
    "request_status": "Pending",
    "responsible_agency": "Department of Sanitation",
    "final_address": "5500 BLK Samovar Dr",
    "address_councildis": "E",
    "status": "Assigned to Contractor",
    "contractor": "Waste Pro",
    "rowid": "960333",
    "final_x": "3703674.12903",
    "final_y": "556553.323033",
    "longitude": "-89.99713116169484",
    "latitude": "30.02363612807193",
    "geocoded_column": {
      "latitude": "30.02363612807193",
      "longitude": "-89.99713116169484"
    }
  },
  {
    "service_request": "2023-960332",
    "request_type": "Trash/Recycling",
    "request_reason": "Missed Trash Pick-Up",
    "date_created": "2023-01-04T18:17:24.000",
    "date_modified": "2023-01-04T18:17:24.000",
    "request_status": "Pending",
    "responsible_agency": "Department of Sanitation",
    "final_address": "3622 Upperline St",
    "address_councildis": "B",
    "status": "Assigned to Contractor",
    "contractor": "Richards Disposal",
    "rowid": "960332",
    "final_x": "3669244.86964",
    "final_y": "528217.076416",
    "longitude": "-90.1068793584479",
    "latitude": "29.94678012944188",
    "geocoded_column": {
      "latitude": "29.94678012944188",
      "longitude": "-90.1068793584479"
    }
  },
  {
    "service_request": "2023-960331",
    "request_type": "Trash/Recycling",
    "request_reason": "Missed Trash Pick-Up",
    "date_created": "2023-01-04T18:15:07.000",
    "date_modified": "2023-01-04T18:15:08.000",
    "request_status": "Pending",
    "responsible_agency": "Department of Sanitation",
    "final_address": "3622 Upperline St",
    "address_councildis": "B",
    "status": "Assigned to Contractor",
    "contractor": "Richards Disposal",
    "rowid": "960331",
    "final_x": "3669244.86964",
    "final_y": "528217.076416",
    "longitude": "-90.1068793584479",
    "latitude": "29.94678012944188",
    "geocoded_column": {
      "latitude": "29.94678012944188",
      "longitude": "-90.1068793584479"
    }
  },
  {
    "service_request": "2023-960330",
    "request_type": "Trash/Recycling",
    "request_reason": "Missed Trash Pick-Up",
    "date_created": "2023-01-04T18:13:42.000",
    "date_modified": "2023-01-04T18:13:43.000",
    "request_status": "Pending",
    "responsible_agency": "Department of Sanitation",
    "final_address": "2734 Bell St",
    "address_councildis": "A",
    "status": "Assigned to Contractor",
    "contractor": "Richards Disposal",
    "rowid": "960330",
    "final_x": "3677390.80443",
    "final_y": "539116.397706",
    "longitude": "-90.08078348308584",
    "latitude": "29.97650732074483",
    "geocoded_column": {
      "latitude": "29.97650732074483",
      "longitude": "-90.08078348308584"
    }
  },
  {
    "service_request": "2023-960329",
    "request_type": "Trash/Recycling",
    "request_reason": "MIssed Recycling Pick-Up",
    "date_created": "2023-01-04T18:13:00.000",
    "date_modified": "2023-01-04T18:13:01.000",
    "request_status": "Pending",
    "responsible_agency": "Department of Sanitation",
    "final_address": "232 Audubon Blvd, New Orleans, Louisiana, 70118",
    "address_councildis": "A",
    "status": "Assigned to Contractor",
    "contractor": "Richards Disposal",
    "rowid": "960329",
    "final_x": "3666331.88884",
    "final_y": "528719.518848",
    "longitude": "-90.11605988191246",
    "latitude": "29.94824709450906",
    "geocoded_column": {
      "latitude": "29.94824709450906",
      "longitude": "-90.11605988191246"
    }
  },
  {
    "service_request": "2023-960328",
    "request_type": "Trash/Recycling",
    "request_reason": "Missed Trash Pick-Up",
    "date_created": "2023-01-04T18:12:06.000",
    "date_modified": "2023-01-04T18:12:07.000",
    "request_status": "Pending",
    "responsible_agency": "Department of Sanitation",
    "final_address": "232 Audubon Blvd, New Orleans, Louisiana, 70118",
    "address_councildis": "A",
    "status": "Assigned to Contractor",
    "contractor": "Richards Disposal",
    "rowid": "960328",
    "final_x": "3666331.88884",
    "final_y": "528719.518848",
    "longitude": "-90.11605988191246",
    "latitude": "29.94824709450906",
    "geocoded_column": {
      "latitude": "29.94824709450906",
      "longitude": "-90.11605988191246"
    }
  },
  {
    "service_request": "2023-960327",
    "request_type": "Traffic Signals/Signs/Striping/Streetlights",
    "request_reason": "Traffic Signal Malfunctioning/Damaged",
    "date_created": "2023-01-04T18:11:54.000",
    "date_modified": "2023-01-04T18:11:55.000",
    "request_status": "Pending",
    "responsible_agency": "Department of Public Works",
    "final_address": "TULANE AVE & S RAMPART ST & COMMON ST",
    "address_councildis": "B",
    "status": "Pending",
    "rowid": "960327",
    "final_x": "3679627.79",
    "final_y": "531022.73",
    "longitude": "-90.07399934305039",
    "latitude": "29.954185069998477",
    "geocoded_column": {
      "latitude": "29.954185069998477",
      "longitude": "-90.07399934305039"
    }
  },
  {
    "service_request": "2023-960326",
    "request_type": "Trash/Recycling",
    "request_reason": "Missed Trash Pick-Up",
    "date_created": "2023-01-04T18:11:15.000",
    "date_modified": "2023-01-04T18:11:16.000",
    "request_status": "Pending",
    "responsible_agency": "Department of Sanitation",
    "final_address": "7912 Walmsley Ave, New Orleans, Louisiana, 70125",
    "address_councildis": "A",
    "status": "Assigned to Contractor",
    "contractor": "Richards Disposal",
    "rowid": "960326",
    "final_x": "3666289.66477",
    "final_y": "532136.222531",
    "longitude": "-90.11607859808099",
    "latitude": "29.957643150409",
    "geocoded_column": {
      "latitude": "29.957643150409",
      "longitude": "-90.11607859808099"
    }
  },
  {
    "service_request": "2023-960325",
    "request_type": "Trash/Recycling",
    "request_reason": "Missed Trash Pick-Up",
    "date_created": "2023-01-04T18:11:06.000",
    "date_modified": "2023-01-04T18:11:07.000",
    "request_status": "Pending",
    "responsible_agency": "Department of Sanitation",
    "final_address": "620 Audubon St",
    "address_councildis": "A",
    "status": "Assigned to Contractor",
    "contractor": "Richards Disposal",
    "rowid": "960325",
    "final_x": "3663291.54803",
    "final_y": "524732.942908",
    "longitude": "-90.1257921822325",
    "latitude": "29.937373744881953",
    "geocoded_column": {
      "latitude": "29.937373744881953",
      "longitude": "-90.1257921822325"
    }
  },
  {
    "service_request": "2023-960324",
    "request_type": "Trash/Recycling",
    "request_reason": "MIssed Recycling Pick-Up",
    "date_created": "2023-01-04T18:10:38.000",
    "date_modified": "2023-01-04T18:10:39.000",
    "request_status": "Pending",
    "responsible_agency": "Department of Sanitation",
    "final_address": "606 Third St",
    "address_councildis": "B",
    "status": "Assigned to Contractor",
    "contractor": "Richards Disposal",
    "rowid": "960324",
    "final_x": "3678508.44571",
    "final_y": "519679.1854",
    "longitude": "-90.07792621726803",
    "latitude": "29.923027848106884",
    "geocoded_column": {
      "latitude": "29.923027848106884",
      "longitude": "-90.07792621726803"
    }
  },
  {
    "service_request": "2023-960323",
    "request_type": "Trash/Recycling",
    "request_reason": "Missed Trash Pick-Up",
    "date_created": "2023-01-04T18:07:56.000",
    "date_modified": "2023-01-04T18:07:57.000",
    "request_status": "Pending",
    "responsible_agency": "Department of Sanitation",
    "final_address": "7700 Dominican St",
    "address_councildis": "A",
    "status": "Assigned to Contractor",
    "contractor": "Richards Disposal",
    "rowid": "960323",
    "final_x": "3661109.00749",
    "final_y": "525304.287357",
    "longitude": "-90.13266374406757",
    "latitude": "29.939007825443007",
    "geocoded_column": {
      "latitude": "29.939007825443007",
      "longitude": "-90.13266374406757"
    }
  },
  {
    "service_request": "2023-960322",
    "request_type": "Trash/Recycling",
    "request_reason": "Request a Large Item Pick Up",
    "date_created": "2023-01-04T18:06:50.000",
    "date_modified": "2023-01-04T18:06:51.000",
    "request_status": "Pending",
    "responsible_agency": "Department of Sanitation",
    "final_address": "2920 New Orleans St",
    "address_councildis": "D",
    "status": "Assigned to Contractor",
    "contractor": "IV Waste",
    "rowid": "960322",
    "final_x": "3681788.97058",
    "final_y": "543277.046414",
    "longitude": "-90.06674749143667",
    "latitude": "29.987814719482117",
    "geocoded_column": {
      "latitude": "29.987814719482117",
      "longitude": "-90.06674749143667"
    }
  },
  {
    "service_request": "2023-960321",
    "request_type": "Trash/Recycling",
    "request_reason": "Missed Trash Pick-Up",
    "date_created": "2023-01-04T18:05:54.000",
    "date_modified": "2023-01-04T18:05:55.000",
    "request_status": "Pending",
    "responsible_agency": "Department of Sanitation",
    "final_address": "805 Napoleon Ave",
    "address_councildis": "B",
    "status": "Assigned to Contractor",
    "contractor": "Richards Disposal",
    "rowid": "960321",
    "final_x": "3671180.6226",
    "final_y": "518525.744055",
    "longitude": "-90.10109652916212",
    "latitude": "29.920074975770763",
    "geocoded_column": {
      "latitude": "29.920074975770763",
      "longitude": "-90.10109652916212"
    }
  },
  {
    "service_request": "2023-960320",
    "request_type": "Trash/Recycling",
    "request_reason": "Request a Large Item Pick Up",
    "date_created": "2023-01-04T18:04:14.000",
    "date_modified": "2023-01-04T18:04:15.000",
    "request_status": "Pending",
    "responsible_agency": "Department of Sanitation",
    "final_address": "2231 Barracks St",
    "address_councildis": "D",
    "status": "Assigned to Contractor",
    "contractor": "Richards Disposal",
    "rowid": "960320",
    "final_x": "3679550.27637",
    "final_y": "537595.173192",
    "longitude": "-90.0740160159794",
    "latitude": "29.97225939342101",
    "geocoded_column": {
      "latitude": "29.97225939342101",
      "longitude": "-90.0740160159794"
    }
  },
  {
    "service_request": "2023-960319",
    "request_type": "Abandoned Vehicles",
    "request_reason": "Abandoned/Junk Vehicles",
    "date_created": "2023-01-04T18:04:08.000",
    "date_modified": "2023-01-04T18:08:48.000",
    "request_status": "Pending",
    "responsible_agency": "Department of Public Works",
    "final_address": "4320 Freret St",
    "address_councildis": "B",
    "status": "Pending",
    "rowid": "960319",
    "final_x": "3670783.31758",
    "final_y": "524034.111932",
    "longitude": "-90.10216381245954",
    "latitude": "29.935232967624408",
    "geocoded_column": {
      "latitude": "29.935232967624408",
      "longitude": "-90.10216381245954"
    }
  },
  {
    "service_request": "2023-960318",
    "request_type": "Trash/Recycling",
    "request_reason": "Missed Trash Pick-Up",
    "date_created": "2023-01-04T18:02:50.000",
    "date_modified": "2023-01-04T18:02:51.000",
    "request_status": "Pending",
    "responsible_agency": "Department of Sanitation",
    "final_address": "803 Napoleon Ave",
    "address_councildis": "B",
    "status": "Assigned to Contractor",
    "contractor": "Richards Disposal",
    "rowid": "960318",
    "final_x": "3671181.73371",
    "final_y": "518507.966263",
    "longitude": "-90.10109362538603",
    "latitude": "29.920026059631773",
    "geocoded_column": {
      "latitude": "29.920026059631773",
      "longitude": "-90.10109362538603"
    }
  },
  {
    "service_request": "2023-960317",
    "request_type": "Trash/Recycling",
    "request_reason": "MIssed Recycling Pick-Up",
    "date_created": "2023-01-04T18:02:40.000",
    "date_modified": "2023-01-04T18:02:41.000",
    "request_status": "Pending",
    "responsible_agency": "Department of Sanitation",
    "final_address": "1300 N Miro St",
    "address_councildis": "D",
    "status": "Assigned to Contractor",
    "contractor": "Richards Disposal",
    "rowid": "960317",
    "final_x": "3679481.76373",
    "final_y": "537674.059336",
    "longitude": "-90.07422965293097",
    "latitude": "29.972478373431592",
    "geocoded_column": {
      "latitude": "29.972478373431592",
      "longitude": "-90.07422965293097"
    }
  },
  {
    "service_request": "2023-960316",
    "request_type": "Trash/Recycling",
    "request_reason": "Missed Trash Pick-Up",
    "date_created": "2023-01-04T18:02:00.000",
    "date_modified": "2023-01-04T18:02:00.000",
    "request_status": "Pending",
    "responsible_agency": "Department of Sanitation",
    "final_address": "1300 N Miro St",
    "address_councildis": "D",
    "status": "Assigned to Contractor",
    "contractor": "Richards Disposal",
    "rowid": "960316",
    "final_x": "3679481.76373",
    "final_y": "537674.059336",
    "longitude": "-90.07422965293097",
    "latitude": "29.972478373431592",
    "geocoded_column": {
      "latitude": "29.972478373431592",
      "longitude": "-90.07422965293097"
    }
  },
  {
    "service_request": "2023-960315",
    "request_type": "Trash/Recycling",
    "request_reason": "Missed Trash Pick-Up",
    "date_created": "2023-01-04T18:01:16.000",
    "date_modified": "2023-01-04T18:01:16.000",
    "request_status": "Pending",
    "responsible_agency": "Department of Sanitation",
    "final_address": "70 Versailles Blvd",
    "address_councildis": "B",
    "status": "Assigned to Contractor",
    "contractor": "Richards Disposal",
    "rowid": "960315",
    "final_x": "3667798.61965",
    "final_y": "530545.575234",
    "longitude": "-90.1113673081981",
    "latitude": "29.953225228317656",
    "geocoded_column": {
      "latitude": "29.953225228317656",
      "longitude": "-90.1113673081981"
    }
  },
  {
    "service_request": "2023-960314",
    "request_type": "Trash/Recycling",
    "request_reason": "Missed Trash Pick-Up",
    "date_created": "2023-01-04T17:56:34.000",
    "date_modified": "2023-01-04T17:56:34.000",
    "request_status": "Pending",
    "responsible_agency": "Department of Sanitation",
    "final_address": "916 Cadiz St",
    "address_councildis": "B",
    "status": "Assigned to Contractor",
    "contractor": "Richards Disposal",
    "rowid": "960314",
    "final_x": "3670235.75687",
    "final_y": "518862.953015",
    "longitude": "-90.10406760526669",
    "latitude": "29.921030099444632",
    "geocoded_column": {
      "latitude": "29.921030099444632",
      "longitude": "-90.10406760526669"
    }
  },