[
  {
    "service_request": "2022-902804",
    "request_type": "Property Maintenance",
    "request_reason": "Property Maintenance",
    "date_created": "2022-07-23T00:07:15.000",
    "date_modified": "2022-07-23T00:07:15.000",
    "request_status": "Pending",
    "responsible_agency": "Department of Code Enforcement",
    "final_address": "1537 Louisa St",
    "address_councildis": "D",
    "status": "Pending",
    "rowid": "902804",
    "final_x": "3690037.8719",
    "final_y": "537643.565576",
    "longitude": "-90.04089278782799",
    "latitude": "29.972071356276718",
    "geocoded_column": {
      "latitude": "29.972071356276718",
      "longitude": "-90.04089278782799"
    }
  },
  {
    "service_request": "2022-902803",
    "request_type": "Property Maintenance",
    "request_reason": "Property Maintenance",
    "date_created": "2022-07-22T23:51:32.000",
    "date_modified": "2022-07-22T23:51:32.000",
    "request_status": "Pending",
    "responsible_agency": "Department of Code Enforcement",
    "final_address": "700 Webster St",
    "address_councildis": "A",
    "status": "Pending",
    "rowid": "902803",
    "final_x": "3663975.43123",
    "final_y": "519165.772599",
    "longitude": "-90.1238186341016",
    "latitude": "29.92204594615883",
    "geocoded_column": {
      "latitude": "29.92204594615883",
      "longitude": "-90.1238186341016"
    }
  },
  {
    "service_request": "2022-902802",
    "request_type": "Trash/Recycling",
    "request_reason": "Order Recycling Cart",
    "date_created": "2022-07-22T23:38:21.000",
    "date_modified": "2022-07-22T23:38:21.000",
    "request_status": "Pending",
    "responsible_agency": "Department of Sanitation",
    "final_address": "3205 Chestnut St",
    "address_councildis": "B",
    "status": "Pending",
    "rowid": "902802",
    "final_x": "3675376.71886",
    "final_y": "520667.105017",
    "longitude": "-90.08777797945417",
    "latitude": "29.925838283453107",
    "geocoded_column": {
      "latitude": "29.925838283453107",
      "longitude": "-90.08777797945417"
    }
  },
  {
    "service_request": "2022-902801",
    "request_type": "Abandoned Vehicles",
    "request_reason": "Abandoned/Junk Vehicles",
    "date_created": "2022-07-22T23:06:37.000",
    "date_modified": "2022-07-22T23:06:37.000",
    "request_status": "Pending",
    "responsible_agency": "Department of Public Works",
    "final_address": "1716 Agriculture St",
    "address_councildis": "D",
    "status": "Pending",
    "rowid": "902801",
    "final_x": "3680828.39867",
    "final_y": "542959.248589",
    "longitude": "-90.06979268202379",
    "latitude": "29.98697004771684",
    "geocoded_column": {
      "latitude": "29.98697004771684",
      "longitude": "-90.06979268202379"
    }
  },
  {
    "service_request": "2022-902799",
    "request_type": "Trash/Recycling",
    "request_reason": "MIssed Recycling Pick-Up",
    "date_created": "2022-07-22T22:41:06.000",
    "date_modified": "2022-07-22T22:41:06.000",
    "request_status": "Pending",
    "responsible_agency": "Department of Sanitation",
    "final_address": "1525 Dufossat St",
    "address_councildis": "B",
    "status": "Assigned to Contractor",
    "contractor": "Richards Disposal",
    "rowid": "902799",
    "final_x": "3668161.69364",
    "final_y": "520678.110521",
    "longitude": "-90.11055336688219",
    "latitude": "29.926082227758133",
    "geocoded_column": {
      "latitude": "29.926082227758133",
      "longitude": "-90.11055336688219"
    }
  },
  {
    "service_request": "2022-902798",
    "request_type": "Traffic Signals/Signs/Striping/Streetlights",
    "request_reason": "Street Light Outage/Malfunction",
    "date_created": "2022-07-22T22:31:20.000",
    "date_modified": "2022-07-22T22:31:21.000",
    "request_status": "Pending",
    "responsible_agency": "Department of Public Works",
    "final_address": "2009 Chartres St",
    "address_councildis": "C",
    "status": "Pending",
    "contractor": "Royal Engineering",
    "rowid": "902798",
    "final_x": "3684604.99106",
    "final_y": "534546.492485",
    "longitude": "-90.05815954172283",
    "latitude": "29.96372285805675",
    "geocoded_column": {
      "latitude": "29.96372285805675",
      "longitude": "-90.05815954172283"
    }
  },
  {
    "service_request": "2022-902797",
    "request_type": "Trash/Recycling",
    "request_reason": "Repair Recycling Cart",
    "date_created": "2022-07-22T22:25:09.000",
    "date_modified": "2022-07-22T22:25:09.000",
    "request_status": "Pending",
    "responsible_agency": "Department of Sanitation",
    "final_address": "914 Fern St",
    "address_councildis": "A",
    "status": "Pending",
    "rowid": "902797",
    "final_x": "3661892.92365",
    "final_y": "527214.826495",
    "longitude": "-90.13012547739972",
    "latitude": "29.94423859098185",
    "geocoded_column": {
      "latitude": "29.94423859098185",
      "longitude": "-90.13012547739972"
    }
  },
  {
    "service_request": "2022-902796",
    "request_type": "Safety & Permits",
    "request_reason": "Licenses & Permits",
    "date_created": "2022-07-22T22:04:58.000",
    "date_modified": "2022-07-22T22:04:58.000",
    "request_status": "Pending",
    "responsible_agency": "Safety and Permits",
    "status": "Pending",
    "rowid": "902796",
    "longitude": "0.0",
    "latitude": "0.0",
    "geocoded_column": {
      "latitude": "0.0",
      "longitude": "0.0"
    }
  },
  {
    "service_request": "2022-902794",
    "request_type": "Trash/Recycling",
    "request_reason": "Missed Trash Pick-Up",
    "date_created": "2022-07-22T21:35:59.000",
    "date_modified": "2022-07-22T21:36:00.000",
    "request_status": "Pending",
    "responsible_agency": "Department of Sanitation",
    "final_address": "7925 Willow St",
    "address_councildis": "A",
    "status": "Assigned to Contractor",
    "contractor": "Richards Disposal",
    "rowid": "902794",
    "final_x": "3662901.82093",
    "final_y": "528532.627328",
    "longitude": "-90.12689627992172",
    "latitude": "29.94783295237911",
    "geocoded_column": {
      "latitude": "29.94783295237911",
      "longitude": "-90.12689627992172"
    }
  },
  {
    "service_request": "2022-902792",
    "request_type": "Trash/Recycling",
    "request_reason": "Missed Trash Pick-Up",
    "date_created": "2022-07-22T20:41:18.000",
    "date_modified": "2022-07-22T20:41:18.000",
    "request_status": "Pending",
    "responsible_agency": "Department of Sanitation",
    "final_address": "7819 Willow St",
    "address_councildis": "A",
    "status": "Assigned to Contractor",
    "contractor": "Richards Disposal",
    "rowid": "902792",
    "final_x": "3663160.19021",
    "final_y": "528286.958976",
    "longitude": "-90.12608867394457",
    "latitude": "29.947149960746582",
    "geocoded_column": {
      "latitude": "29.947149960746582",
      "longitude": "-90.12608867394457"
    }
  },
  {
    "service_request": "2022-902791",
    "request_type": "Roads/Drainage",
    "request_reason": "Catch Basin - Clogged",
    "date_created": "2022-07-22T20:31:59.000",
    "date_modified": "2022-07-22T20:31:59.000",
    "request_status": "Pending",
    "responsible_agency": "Department of Public Works",
    "final_address": "516 N Solomon St, New Orleans, Louisiana, 70119",
    "address_councildis": "A",
    "status": "Pending",
    "rowid": "902791",
    "final_x": "3671612.11534",
    "final_y": "540016.374603",
    "longitude": "-90.09900376745237",
    "latitude": "29.97915437754102",
    "geocoded_column": {
      "latitude": "29.97915437754102",
      "longitude": "-90.09900376745237"
    }
  },
  {
    "service_request": "2022-902790",
    "request_type": "Trash/Recycling",
    "request_reason": "Missed Trash Pick-Up",
    "date_created": "2022-07-22T20:17:24.000",
    "date_modified": "2022-07-22T20:17:24.000",
    "request_status": "Pending",
    "responsible_agency": "Department of Sanitation",
    "final_address": "8012 Willow St",
    "address_councildis": "A",
    "status": "Assigned to Contractor",
    "contractor": "Richards Disposal",
    "rowid": "902790",
    "final_x": "3662665.59437",
    "final_y": "528632.329024",
    "longitude": "-90.12763883229549",
    "latitude": "29.948113936897634",
    "geocoded_column": {
      "latitude": "29.948113936897634",
      "longitude": "-90.12763883229549"
    }
  },
  {
    "service_request": "2022-902789",
    "request_type": "Traffic Signals/Signs/Striping/Streetlights",
    "request_reason": "Street Light Outage/Malfunction",
    "date_created": "2022-07-22T20:15:12.000",
    "date_modified": "2022-07-22T20:15:12.000",
    "request_status": "Pending",
    "responsible_agency": "Department of Public Works",
    "final_address": "8218 Panola St, New Orleans, Louisiana, 70118",
    "address_councildis": "A",
    "status": "Pending",
    "contractor": "Royal Engineering",
    "rowid": "902789",
    "final_x": "3663697.96307",
    "final_y": "531021.025026",
    "longitude": "-90.12429962940466",
    "latitude": "29.954652169572373",
    "geocoded_column": {
      "latitude": "29.954652169572373",
      "longitude": "-90.12429962940466"
    }
  },
  {
    "service_request": "2022-902786",
    "request_type": "Mayor's Request",
    "request_reason": "Requests to the Mayor",
    "date_created": "2022-07-22T19:35:49.000",
    "date_modified": "2022-07-22T19:35:49.000",
    "request_status": "Pending",
    "responsible_agency": "Executive Office of the Mayor",
    "status": "Pending",
    "rowid": "902786",
    "longitude": "0.0",
    "latitude": "0.0",
    "geocoded_column": {
      "latitude": "0.0",
      "longitude": "0.0"
    }
  },
  {
    "service_request": "2022-902784",
    "request_type": "Property Maintenance",
    "request_reason": "Property Maintenance",
    "date_created": "2022-07-22T19:31:46.000",
    "date_modified": "2022-07-22T19:31:46.000",
    "request_status": "Pending",
    "responsible_agency": "Department of Code Enforcement",
    "final_address": "1929 N Rampart St",
    "address_councildis": "C",
    "status": "Pending",
    "rowid": "902784",
    "final_x": "3684125.25013",
    "final_y": "535903.872775",
    "longitude": "-90.05962686541663",
    "latitude": "29.967469856719422",
    "geocoded_column": {
      "latitude": "29.967469856719422",
      "longitude": "-90.05962686541663"
    }
  },
  {
    "service_request": "2022-902783",
    "request_type": "Roads/Drainage",
    "request_reason": "Catch Basin - Clogged",
    "date_created": "2022-07-22T19:25:12.000",
    "date_modified": "2022-07-22T19:25:12.000",
    "request_status": "Pending",
    "responsible_agency": "Department of Public Works",
    "final_address": "311 30Th St",
    "address_councildis": "A",
    "status": "Pending",
    "rowid": "902783",
    "final_x": "3665170.44704",
    "final_y": "550578.28866",
    "longitude": "-90.1189956156987",
    "latitude": "30.008385269057626",
    "geocoded_column": {
      "latitude": "30.008385269057626",
      "longitude": "-90.1189956156987"
    }
  },
  {
    "service_request": "2022-902782",
    "request_type": "Trash/Recycling",
    "request_reason": "Request a Large Item Pick Up",
    "date_created": "2022-07-22T19:17:11.000",
    "date_modified": "2022-07-22T19:17:11.000",
    "request_status": "Pending",
    "responsible_agency": "Department of Sanitation",
    "final_address": "211 Eleonore St",
    "address_councildis": "A",
    "status": "Assigned to Contractor",
    "contractor": "Richards Disposal",
    "rowid": "902782",
    "final_x": "3664841.83258",
    "final_y": "517080.617333",
    "longitude": "-90.12115338604328",
    "latitude": "29.916287244350347",
    "geocoded_column": {
      "latitude": "29.916287244350347",
      "longitude": "-90.12115338604328"
    }
  },
  {
    "service_request": "2022-902781",
    "request_type": "Roads/Drainage",
    "request_reason": "Catch Basin - Clogged",
    "date_created": "2022-07-22T19:01:20.000",
    "date_modified": "2022-07-22T19:01:20.000",
    "request_status": "Pending",
    "responsible_agency": "Department of Public Works",
    "final_address": "2200 Leon C Simon Dr",
    "address_councildis": "D",
    "status": "Pending",
    "rowid": "902781",
    "final_x": "3683504.51221",
    "final_y": "556759.853978",
    "longitude": "-90.06085573750497",
    "latitude": "30.024835314318533",
    "geocoded_column": {
      "latitude": "30.024835314318533",
      "longitude": "-90.06085573750497"
    }
  },
  {
    "service_request": "2022-902780",
    "request_type": "Roads/Drainage",
    "request_reason": "Street Flooding / Drainage",
    "date_created": "2022-07-22T18:53:05.000",
    "date_modified": "2022-07-22T18:53:05.000",
    "request_status": "Pending",
    "responsible_agency": "Department of Public Works",
    "final_address": "3758 Kent Dr",
    "address_councildis": "C",
    "status": "Pending",
    "rowid": "902780",
    "final_x": "3708587.48292",
    "final_y": "517067.325877",
    "longitude": "-89.98307635691057",
    "latitude": "29.914905718550816",
    "geocoded_column": {
      "latitude": "29.914905718550816",
      "longitude": "-89.98307635691057"
    }
  },
  {
    "service_request": "2022-902779",
    "request_type": "Traffic Signals/Signs/Striping/Streetlights",
    "request_reason": "Street Light Outage/Malfunction",
    "date_created": "2022-07-22T18:49:04.000",
    "date_modified": "2022-07-22T18:49:04.000",
    "request_status": "Pending",
    "responsible_agency": "Department of Public Works",
    "final_address": "3758 Kent Dr",
    "address_councildis": "C",
    "status": "Pending",
    "contractor": "Royal Engineering",
    "rowid": "902779",
    "final_x": "3708587.48292",
    "final_y": "517067.325877",
    "longitude": "-89.98307635691057",
    "latitude": "29.914905718550816",
    "geocoded_column": {
      "latitude": "29.914905718550816",
      "longitude": "-89.98307635691057"
    }
  },
  {
    "service_request": "2022-902778",
    "request_type": "Abandoned Vehicles",
    "request_reason": "Abandoned/Junk Vehicles",
    "date_created": "2022-07-22T18:48:17.000",
    "date_modified": "2022-07-22T18:48:17.000",
    "request_status": "Pending",
    "responsible_agency": "Department of Public Works",
    "final_address": "3470 Caesar Dr",
    "address_councildis": "C",
    "status": "Pending",
    "rowid": "902778",
    "final_x": "3696949.86019",
    "final_y": "524166.929084",
    "longitude": "-90.01955170472985",
    "latitude": "29.934799160726012",
    "geocoded_column": {
      "latitude": "29.934799160726012",
      "longitude": "-90.01955170472985"
    }
  },
  {
    "service_request": "2022-902777",
    "request_type": "Property Maintenance",
    "request_reason": "Property Maintenance",
    "date_created": "2022-07-22T18:48:09.000",
    "date_modified": "2022-07-22T18:48:09.000",
    "request_status": "Pending",
    "responsible_agency": "Department of Code Enforcement",
    "final_address": "3515 Danneel St",
    "address_councildis": "B",
    "status": "Pending",
    "rowid": "902777",
    "final_x": "3673122.57902",
    "final_y": "522696.471034",
    "longitude": "-90.09482439773251",
    "latitude": "29.931485569087414",
    "geocoded_column": {
      "latitude": "29.931485569087414",
      "longitude": "-90.09482439773251"
    }
  },
  {
    "service_request": "2022-902776",
    "request_type": "Abandoned Vehicles",
    "request_reason": "Abandoned/Junk Vehicles",
    "date_created": "2022-07-22T18:39:29.000",
    "date_modified": "2022-07-22T18:39:29.000",
    "request_status": "Pending",
    "responsible_agency": "Department of Public Works",
    "final_address": "3471 Catalina Dr",
    "address_councildis": "C",
    "status": "Pending",
    "rowid": "902776",
    "final_x": "3696963.73853",
    "final_y": "524315.755452",
    "longitude": "-90.01950250400945",
    "latitude": "29.93520794440822",
    "geocoded_column": {
      "latitude": "29.93520794440822",
      "longitude": "-90.01950250400945"
    }
  },
  {
    "service_request": "2022-902775",
    "request_type": "Roads/Drainage",
    "request_reason": "Street Flooding / Drainage",
    "date_created": "2022-07-22T18:20:45.000",
    "date_modified": "2022-07-22T18:20:45.000",
    "request_status": "Pending",
    "responsible_agency": "Department of Public Works",
    "final_address": "2406 Magnolia St",
    "address_councildis": "B",
    "status": "Pending",
    "rowid": "902775",
    "final_x": "3674738.42043",
    "final_y": "526428.701502",
    "longitude": "-90.0895954844086",
    "latitude": "29.941699862264464",
    "geocoded_column": {
      "latitude": "29.941699862264464",
      "longitude": "-90.0895954844086"
    }
  },
  {
    "service_request": "2022-902774",
    "request_type": "Trash/Recycling",
    "request_reason": "Start Trash Service",
    "date_created": "2022-07-22T18:09:26.000",
    "date_modified": "2022-07-22T18:09:27.000",
    "request_status": "Pending",
    "responsible_agency": "Department of Sanitation",
    "final_address": "5121 Carlisle Ct",
    "address_councildis": "C",
    "status": "Assigned to Contractor",
    "contractor": "Richards Disposal",
    "rowid": "902774",
    "final_x": "3703094.5473",
    "final_y": "516391.876917",
    "longitude": "-90.00043868882791",
    "latitude": "29.91322530510695",
    "geocoded_column": {
      "latitude": "29.91322530510695",
      "longitude": "-90.00043868882791"
    }
  },
  {
    "service_request": "2022-902773",
    "request_type": "Roads/Drainage",
    "request_reason": "Catch Basin - Clogged",
    "date_created": "2022-07-22T18:08:40.000",
    "date_modified": "2022-07-22T18:08:40.000",
    "request_status": "Pending",
    "responsible_agency": "Department of Public Works",
    "final_address": "5573 Rosemary Pl",
    "address_councildis": "A",
    "status": "Pending",
    "rowid": "902773",
    "final_x": "3667205.3378",
    "final_y": "544618.575375",
    "longitude": "-90.11276729845154",
    "latitude": "29.991938661266854",
    "geocoded_column": {
      "latitude": "29.991938661266854",
      "longitude": "-90.11276729845154"
    }
  },
  {
    "service_request": "2022-902772",
    "request_type": "Trash/Recycling",
    "request_reason": "Missed Trash Pick-Up",
    "date_created": "2022-07-22T17:53:43.000",
    "date_modified": "2022-07-22T17:53:43.000",
    "request_status": "Pending",
    "responsible_agency": "Department of Sanitation",
    "final_address": "1569 Mandolin St, New Orleans, Louisiana, 70122",
    "address_councildis": "D",
    "status": "Assigned to Contractor",
    "contractor": "Metro Disposal",
    "rowid": "902772",
    "final_x": "3679264.93941",
    "final_y": "548157.444178",
    "longitude": "-90.0745507046921",
    "latitude": "30.00131056523442",
    "geocoded_column": {
      "latitude": "30.00131056523442",
      "longitude": "-90.0745507046921"
    }
  },
  {
    "service_request": "2022-902771",
    "request_type": "Roads/Drainage",
    "request_reason": "Catch Basin - Clogged",
    "date_created": "2022-07-22T17:52:46.000",
    "date_modified": "2022-07-22T17:52:46.000",
    "request_status": "Pending",
    "responsible_agency": "Department of Public Works",
    "final_address": "926 Picheloup Pl",
    "address_councildis": "A",
    "status": "Pending",
    "rowid": "902771",
    "final_x": "3673647.47323",
    "final_y": "540430.726923",
    "longitude": "-90.09256113432511",
    "latitude": "29.98023326036233",
    "geocoded_column": {
      "latitude": "29.98023326036233",
      "longitude": "-90.09256113432511"
    }
  },
  {
    "service_request": "2022-902770",
    "request_type": "Trash/Recycling",
    "request_reason": "Request a Large Item Pick Up",
    "date_created": "2022-07-22T17:47:37.000",
    "date_modified": "2022-07-22T17:47:38.000",
    "request_status": "Pending",
    "responsible_agency": "Department of Sanitation",
    "final_address": "1708 Agriculture St",
    "address_councildis": "D",
    "status": "Assigned to Contractor",
    "contractor": "Metro Disposal",
    "rowid": "902770",
    "final_x": "3680764.64443",
    "final_y": "542958.380173",
    "longitude": "-90.06999408861549",
    "latitude": "29.9869695928112",
    "geocoded_column": {
      "latitude": "29.9869695928112",
      "longitude": "-90.06999408861549"
    }
  },
  {
    "service_request": "2022-902769",
    "request_type": "Parks & Parkways",
    "request_reason": "Request Tree Service (Right of Way/Public Property)",
    "date_created": "2022-07-22T17:45:48.000",
    "date_modified": "2022-07-22T18:40:39.000",
    "request_status": "Pending",
    "responsible_agency": "Department of Parks & Parkway",
    "final_address": "1700 BLK Numa St",
    "address_councildis": "C",
    "status": "Pending",
    "rowid": "902769",
    "final_x": "3691704.28781",
    "final_y": "524782.54307",
    "longitude": "-90.03608983261772",
    "latitude": "29.936656223166867",
    "geocoded_column": {
      "latitude": "29.936656223166867",
      "longitude": "-90.03608983261772"
    }
  },
  {
    "service_request": "2022-902768",
    "request_type": "Roads/Drainage",
    "request_reason": "Debris in Roadway",
    "date_created": "2022-07-22T17:44:59.000",
    "date_modified": "2022-07-22T17:45:00.000",
    "request_status": "Pending",
    "responsible_agency": "Department of Public Works",
    "final_address": "1700 BLK Numa St",
    "address_councildis": "C",
    "status": "Pending",
    "rowid": "902768",
    "final_x": "3691704.28781",
    "final_y": "524782.54307",
    "longitude": "-90.03608983261772",
    "latitude": "29.936656223166867",
    "geocoded_column": {
      "latitude": "29.936656223166867",
      "longitude": "-90.03608983261772"
    }
  },
  {
    "service_request": "2022-902767",
    "request_type": "Trash/Recycling",
    "request_reason": "Missed Trash Pick-Up",
    "date_created": "2022-07-22T17:40:53.000",
    "date_modified": "2022-07-22T17:40:54.000",
    "request_status": "Pending",
    "responsible_agency": "Department of Sanitation",
    "final_address": "1016 Martinique Aly",
    "address_councildis": "C",
    "status": "Assigned to Contractor",
    "contractor": "Metro Disposal",
    "rowid": "902767",
    "final_x": "3689313.16495",
    "final_y": "535601.312774",
    "longitude": "-90.04325414110532",
    "latitude": "29.966478334507368",
    "geocoded_column": {
      "latitude": "29.966478334507368",
      "longitude": "-90.04325414110532"
    }
  },
  {
    "service_request": "2022-902766",
    "request_type": "Roads/Drainage",
    "request_reason": "Debris in Roadway",
    "date_created": "2022-07-22T17:38:43.000",
    "date_modified": "2022-07-22T17:38:43.000",
    "request_status": "Pending",
    "responsible_agency": "Department of Public Works",
    "final_address": "1715 Newton St",
    "address_councildis": "C",
    "status": "Pending",
    "rowid": "902766",
    "final_x": "3690614.01571",
    "final_y": "527783.359231",
    "longitude": "-90.03942487834291",
    "latitude": "29.944941338559463",
    "geocoded_column": {
      "latitude": "29.944941338559463",
      "longitude": "-90.03942487834291"
    }
  },
  {
    "service_request": "2022-902765",
    "request_type": "Trash/Recycling",
    "request_reason": "Illegal Dumping",
    "date_created": "2022-07-22T17:36:59.000",
    "date_modified": "2022-07-22T17:36:59.000",
    "request_status": "Pending",
    "responsible_agency": "Department of Sanitation",
    "final_address": "13662 Explorers Ave",
    "address_councildis": "E",
    "status": "Pending",
    "rowid": "902765",
    "final_x": "3726144.18828",
    "final_y": "569214.600614",
    "longitude": "-89.92563990028461",
    "latitude": "30.057709769733826",
    "geocoded_column": {
      "latitude": "30.057709769733826",
      "longitude": "-89.92563990028461"
    }
  },
  {
    "service_request": "2022-902764",
    "request_type": "Abandoned Vehicles",
    "request_reason": "Abandoned/Junk Vehicles",
    "date_created": "2022-07-22T17:32:38.000",
    "date_modified": "2022-07-22T17:32:38.000",
    "request_status": "Pending",
    "responsible_agency": "Department of Public Works",
    "final_address": "5400 Michoud Blvd",
    "address_councildis": "E",
    "status": "Pending",
    "rowid": "902764",
    "final_x": "3724574.34643",
    "final_y": "563608.612385",
    "longitude": "-89.93081879662239",
    "latitude": "30.042348575769196",
    "geocoded_column": {
      "latitude": "30.042348575769196",
      "longitude": "-89.93081879662239"
    }
  },
  {
    "service_request": "2022-902763",
    "request_type": "Abandoned Vehicles",
    "request_reason": "Abandoned/Junk Vehicles",
    "date_created": "2022-07-22T17:30:05.000",
    "date_modified": "2022-07-22T17:31:25.000",
    "request_status": "Pending",
    "responsible_agency": "Department of Public Works",
    "final_address": "2361 Cypress Acres Dr",
    "address_councildis": "C",
    "status": "Pending",
    "rowid": "902763",
    "final_x": "3696124.14864",
    "final_y": "521894.709626",
    "longitude": "-90.02224052911556",
    "latitude": "29.928577341965664",
    "geocoded_column": {
      "latitude": "29.928577341965664",
      "longitude": "-90.02224052911556"
    }
  },
  {
    "service_request": "2022-902762",
    "request_type": "Trash/Recycling",
    "request_reason": "Missed Trash Pick-Up",
    "date_created": "2022-07-22T17:29:35.000",
    "date_modified": "2022-07-22T17:29:35.000",
    "request_status": "Pending",
    "responsible_agency": "Department of Sanitation",
    "final_address": "4574 Bonita Dr",
    "address_councildis": "E",
    "status": "Assigned to Contractor",
    "contractor": "Metro Disposal",
    "rowid": "902762",
    "final_x": "3704538.04958",
    "final_y": "554240.64636",
    "longitude": "-89.99448675398978",
    "latitude": "30.01724942967518",
    "geocoded_column": {
      "latitude": "30.01724942967518",
      "longitude": "-89.99448675398978"
    }
  },
  {
    "service_request": "2022-902761",
    "request_type": "Property Maintenance",
    "request_reason": "Property Maintenance",
    "date_created": "2022-07-22T17:28:48.000",
    "date_modified": "2022-07-22T17:28:49.000",
    "request_status": "Pending",
    "responsible_agency": "Department of Code Enforcement",
    "final_address": "3520 General De Gaulle Dr",
    "address_councildis": "C",
    "status": "Pending",
    "rowid": "902761",
    "final_x": "3696428.6488",
    "final_y": "521971.50585",
    "longitude": "-90.02127651569704",
    "latitude": "29.928778921564394",
    "geocoded_column": {
      "latitude": "29.928778921564394",
      "longitude": "-90.02127651569704"
    }
  },
  {
    "service_request": "2022-902760",
    "request_type": "Abandoned Vehicles",
    "request_reason": "Abandoned/Junk Vehicles",
    "date_created": "2022-07-22T17:26:32.000",
    "date_modified": "2022-07-22T17:26:32.000",
    "request_status": "Pending",
    "responsible_agency": "Department of Public Works",
    "final_address": "7400 Adventure Ave",
    "address_councildis": "E",
    "status": "Pending",
    "rowid": "902760",
    "final_x": "3726016.75372",
    "final_y": "570013.408102",
    "longitude": "-89.92601168817511",
    "latitude": "30.059910456844264",
    "geocoded_column": {
      "latitude": "30.059910456844264",
      "longitude": "-89.92601168817511"
    }
  },
  {
    "service_request": "2022-902759",
    "request_type": "Roads/Drainage",
    "request_reason": "Street Flooding / Drainage",
    "date_created": "2022-07-22T17:20:58.000",
    "date_modified": "2022-07-22T17:20:58.000",
    "request_status": "Pending",
    "responsible_agency": "Department of Public Works",
    "final_address": "4574 Bonita Dr",
    "address_councildis": "E",
    "status": "Pending",
    "rowid": "902759",
    "final_x": "3704538.04958",
    "final_y": "554240.64636",
    "longitude": "-89.99448675398978",
    "latitude": "30.01724942967518",
    "geocoded_column": {
      "latitude": "30.01724942967518",
      "longitude": "-89.99448675398978"
    }
  },
  {
    "service_request": "2022-902758",
    "request_type": "Trash/Recycling",
    "request_reason": "Request a Large Item Pick Up",
    "date_created": "2022-07-22T17:15:55.000",
    "date_modified": "2022-07-22T17:15:56.000",
    "request_status": "Pending",
    "responsible_agency": "Department of Sanitation",
    "final_address": "2528 St Ann St",
    "address_councildis": "D",
    "status": "Assigned to Contractor",
    "contractor": "Richards Disposal",
    "rowid": "902758",
    "final_x": "3677518.13602",
    "final_y": "536674.005831",
    "longitude": "-90.08046567418307",
    "latitude": "29.96978775215208",
    "geocoded_column": {
      "latitude": "29.96978775215208",
      "longitude": "-90.08046567418307"
    }
  },
  {
    "service_request": "2022-902757",
    "request_type": "Trash/Recycling",
    "request_reason": "Missed Trash Pick-Up",
    "date_created": "2022-07-22T17:12:26.000",
    "date_modified": "2022-07-22T17:12:27.000",
    "request_status": "Pending",
    "responsible_agency": "Department of Sanitation",
    "final_address": "8020 Windward Ct",
    "address_councildis": "E",
    "status": "Assigned to Contractor",
    "contractor": "Metro Disposal",
    "rowid": "902757",
    "final_x": "3714885.9644",
    "final_y": "570611.179623",
    "longitude": "-89.96117250087454",
    "latitude": "30.061925276931373",
    "geocoded_column": {
      "latitude": "30.061925276931373",
      "longitude": "-89.96117250087454"
    }
  },
  {
    "service_request": "2022-902756",
    "request_type": "Roads/Drainage",
    "request_reason": "Street Flooding / Drainage",
    "date_created": "2022-07-22T17:11:53.000",
    "date_modified": "2022-07-22T17:11:54.000",
    "request_status": "Pending",
    "responsible_agency": "Department of Public Works",
    "final_address": "I 10 W & METAIRIE RD & CITY PARK AVE",
    "address_councildis": "A",
    "status": "Pending",
    "rowid": "902756",
    "final_x": "3666968.2",
    "final_y": "540648.28",
    "longitude": "-90.11364986630505",
    "latitude": "29.981028640145738",
    "geocoded_column": {
      "latitude": "29.981028640145738",
      "longitude": "-90.11364986630505"
    }
  },
  {
    "service_request": "2022-902755",
    "request_type": "Roads/Drainage",
    "request_reason": "Culvert Issue",
    "date_created": "2022-07-22T17:11:15.000",
    "date_modified": "2022-07-22T17:11:15.000",
    "request_status": "Pending",
    "responsible_agency": "Department of Public Works",
    "final_address": "501 Homer St",
    "address_councildis": "C",
    "status": "Pending",
    "rowid": "902755",
    "final_x": "3686978.35164",
    "final_y": "528276.801472",
    "longitude": "-90.05088631816942",
    "latitude": "29.946410522920793",
    "geocoded_column": {
      "latitude": "29.946410522920793",
      "longitude": "-90.05088631816942"
    }
  },
  {
    "service_request": "2022-902754",
    "request_type": "Roads/Drainage",
    "request_reason": "Catch Basin - Clogged",
    "date_created": "2022-07-22T17:05:51.000",
    "date_modified": "2022-07-22T17:05:51.000",
    "request_status": "Pending",
    "responsible_agency": "Department of Public Works",
    "final_address": "6060 Cartier Ave",
    "address_councildis": "D",
    "status": "Pending",
    "rowid": "902754",
    "final_x": "3677461.75611",
    "final_y": "554713.32508",
    "longitude": "-90.08002059484349",
    "latitude": "30.019391235486463",
    "geocoded_column": {
      "latitude": "30.019391235486463",
      "longitude": "-90.08002059484349"
    }
  },
  {
    "service_request": "2022-902753",
    "request_type": "Trash/Recycling",
    "request_reason": "Order Trash Cart",
    "date_created": "2022-07-22T17:04:13.000",
    "date_modified": "2022-07-22T17:04:13.000",
    "request_status": "Pending",
    "responsible_agency": "Department of Sanitation",
    "final_address": "4800 Camelot Dr",
    "address_councildis": "E",
    "status": "Assigned to Contractor",
    "contractor": "Metro Disposal",
    "rowid": "902753",
    "final_x": "3708254.78219",
    "final_y": "556049.376345",
    "longitude": "-89.98267612757552",
    "latitude": "30.022102800246827",
    "geocoded_column": {
      "latitude": "30.022102800246827",
      "longitude": "-89.98267612757552"
    }
  },
  {
    "service_request": "2022-902752",
    "request_type": "Roads/Drainage",
    "request_reason": "Man hole cover issue",
    "date_created": "2022-07-22T17:02:14.000",
    "date_modified": "2022-07-22T17:02:15.000",
    "request_status": "Pending",
    "responsible_agency": "Department of Public Works",
    "final_address": "GENTILLY BLVD & PARIS AVE",
    "address_councildis": "D",
    "status": "Pending",
    "rowid": "902752",
    "final_x": "3679776.8",
    "final_y": "543766.48",
    "longitude": "-90.07308625565985",
    "latitude": "29.989221494628048",
    "geocoded_column": {
      "latitude": "29.989221494628048",
      "longitude": "-90.07308625565985"
    }
  },
  {
    "service_request": "2022-902751",
    "request_type": "Trash/Recycling",
    "request_reason": "Order Trash Cart",
    "date_created": "2022-07-22T17:02:08.000",
    "date_modified": "2022-07-22T17:02:08.000",
    "request_status": "Pending",
    "responsible_agency": "Department of Sanitation",
    "final_address": "1740 Lark St",
    "address_councildis": "D",
    "status": "Assigned to Contractor",
    "contractor": "Metro Disposal",
    "rowid": "902751",
    "final_x": "3678976.80187",
    "final_y": "558005.924699",
    "longitude": "-90.07511932277137",
    "latitude": "30.02839902960115",
    "geocoded_column": {
      "latitude": "30.02839902960115",
      "longitude": "-90.07511932277137"
    }
  },
  {
    "service_request": "2022-902750",
    "request_type": "Property Maintenance",
    "request_reason": "Property Maintenance",
    "date_created": "2022-07-22T16:58:45.000",
    "date_modified": "2022-07-22T16:58:45.000",
    "request_status": "Pending",
    "responsible_agency": "Department of Code Enforcement",
    "final_address": "321 28Th St",
    "address_councildis": "A",
    "status": "Pending",
    "rowid": "902750",
    "final_x": "3665013.77415",
    "final_y": "550290.342676",
    "longitude": "-90.119500233631",
    "latitude": "30.007598082014823",
    "geocoded_column": {
      "latitude": "30.007598082014823",
      "longitude": "-90.119500233631"
    }
  },
  {
    "service_request": "2022-902749",
    "request_type": "Trash/Recycling",
    "request_reason": "Order Recycling Cart",
    "date_created": "2022-07-22T16:58:32.000",
    "date_modified": "2022-07-22T16:58:32.000",
    "request_status": "Pending",
    "responsible_agency": "Department of Sanitation",
    "final_address": "1740 Lark St",
    "address_councildis": "D",
    "status": "Pending",
    "rowid": "902749",
    "final_x": "3678976.80187",
    "final_y": "558005.924699",
    "longitude": "-90.07511932277137",
    "latitude": "30.02839902960115",
    "geocoded_column": {
      "latitude": "30.02839902960115",
      "longitude": "-90.07511932277137"
    }
  },
  {
    "service_request": "2022-902748",
    "request_type": "Roads/Drainage",
    "request_reason": "Catch Basin - Clogged",
    "date_created": "2022-07-22T16:55:30.000",
    "date_modified": "2022-07-22T16:55:30.000",
    "request_status": "Pending",
    "responsible_agency": "Department of Public Works",
    "final_address": "7027 Argonne Blvd",
    "address_councildis": "A",
    "status": "Pending",
    "rowid": "902748",
    "final_x": "3670940.96807",
    "final_y": "554027.50524",
    "longitude": "-90.10064745030247",
    "latitude": "30.01769997829104",
    "geocoded_column": {
      "latitude": "30.01769997829104",
      "longitude": "-90.10064745030247"
    }
  },
  {
    "service_request": "2022-902747",
    "request_type": "Roads/Drainage",
    "request_reason": "Catch Basin - Clogged",
    "date_created": "2022-07-22T16:54:19.000",
    "date_modified": "2022-07-22T16:54:20.000",
    "request_status": "Pending",
    "responsible_agency": "Department of Public Works",
    "final_address": "3600 Delgado Dr",
    "address_councildis": "A",
    "status": "Pending",
    "rowid": "902747",
    "final_x": "3674325.3426",
    "final_y": "540400.416523",
    "longitude": "-90.0904211715261",
    "latitude": "29.98012971644632",
    "geocoded_column": {
      "latitude": "29.98012971644632",
      "longitude": "-90.0904211715261"
    }
  },
  {
    "service_request": "2022-902746",
    "request_type": "Roads/Drainage",
    "request_reason": "Street Flooding / Drainage",
    "date_created": "2022-07-22T16:52:26.000",
    "date_modified": "2022-07-22T16:52:26.000",
    "request_status": "Pending",
    "responsible_agency": "Department of Public Works",
    "final_address": "6434 Orleans Ave",
    "address_councildis": "A",
    "status": "Pending",
    "rowid": "902746",
    "final_x": "3671121.61729",
    "final_y": "550139.872084",
    "longitude": "-90.10020885892095",
    "latitude": "30.00700501707106",
    "geocoded_column": {
      "latitude": "30.00700501707106",
      "longitude": "-90.10020885892095"
    }
  },
  {
    "service_request": "2022-902745",
    "request_type": "Roads/Drainage",
    "request_reason": "Street Subsidence (Sinking)",
    "date_created": "2022-07-22T16:50:08.000",
    "date_modified": "2022-07-22T16:50:08.000",
    "request_status": "Pending",
    "responsible_agency": "Department of Public Works",
    "final_address": "2305 Joliet St",
    "address_councildis": "A",
    "status": "Pending",
    "rowid": "902745",
    "final_x": "3663581.86259",
    "final_y": "532216.808771",
    "longitude": "-90.12462640162236",
    "latitude": "29.957943554488644",
    "geocoded_column": {
      "latitude": "29.957943554488644",
      "longitude": "-90.12462640162236"
    }
  },
  {
    "service_request": "2022-902744",
    "request_type": "Trash/Recycling",
    "request_reason": "MIssed Recycling Pick-Up",
    "date_created": "2022-07-22T16:48:03.000",
    "date_modified": "2022-07-22T16:48:04.000",
    "request_status": "Pending",
    "responsible_agency": "Department of Sanitation",
    "final_address": "7465 Hurst St",
    "address_councildis": "A",
    "status": "Assigned to Contractor",
    "contractor": "Richards Disposal",
    "rowid": "902744",
    "final_x": "3661320.3047",
    "final_y": "524261.00646",
    "longitude": "-90.13203118218975",
    "latitude": "29.93613304285306",
    "geocoded_column": {
      "latitude": "29.93613304285306",
      "longitude": "-90.13203118218975"
    }
  },
  {
    "service_request": "2022-902743",
    "request_type": "Property Maintenance",
    "request_reason": "Property Maintenance",
    "date_created": "2022-07-22T16:45:15.000",
    "date_modified": "2022-07-22T16:45:15.000",
    "request_status": "Pending",
    "responsible_agency": "Department of Code Enforcement",
    "final_address": "2305 Joliet St",
    "address_councildis": "A",
    "status": "Pending",
    "rowid": "902743",
    "final_x": "3663581.86259",
    "final_y": "532216.808771",
    "longitude": "-90.12462640162236",
    "latitude": "29.957943554488644",
    "geocoded_column": {
      "latitude": "29.957943554488644",
      "longitude": "-90.12462640162236"
    }
  },
  {
    "service_request": "2022-902742",
    "request_type": "Property Maintenance",
    "request_reason": "Property Maintenance",
    "date_created": "2022-07-22T16:44:31.000",
    "date_modified": "2022-07-22T16:44:31.000",
    "request_status": "Pending",
    "responsible_agency": "Department of Code Enforcement",
    "final_address": "1832 Shirley Dr",
    "address_councildis": "C",
    "status": "Pending",
    "rowid": "902742",
    "final_x": "3693041.50307",
    "final_y": "522742.152122",
    "longitude": "-90.03194136387935",
    "latitude": "29.93100414827501",
    "geocoded_column": {
      "latitude": "29.93100414827501",
      "longitude": "-90.03194136387935"
    }
  },
  {
    "service_request": "2022-902741",
    "request_type": "Trash/Recycling",
    "request_reason": "Replace Trash Cart",
    "date_created": "2022-07-22T16:44:24.000",
    "date_modified": "2022-07-22T16:44:24.000",
    "request_status": "Pending",
    "responsible_agency": "Department of Sanitation",
    "final_address": "161 Middle Park Pl",
    "address_councildis": "A",
    "status": "Assigned to Contractor",
    "contractor": "Metro Disposal",
    "rowid": "902741",
    "final_x": "3670014.95342",
    "final_y": "544778.051279",
    "longitude": "-90.10388687361451",
    "latitude": "29.992294573163807",
    "geocoded_column": {
      "latitude": "29.992294573163807",
      "longitude": "-90.10388687361451"
    }
  },
  {
    "service_request": "2022-902739",
    "request_type": "Roads/Drainage",
    "request_reason": "Catch Basin - Clogged",
    "date_created": "2022-07-22T16:40:56.000",
    "date_modified": "2022-07-22T16:40:56.000",
    "request_status": "Pending",
    "responsible_agency": "Department of Public Works",
    "final_address": "5902 Marshal Foch St",
    "address_councildis": "A",
    "status": "Pending",
    "rowid": "902739",
    "final_x": "3669674.05025",
    "final_y": "546565.222929",
    "longitude": "-90.10490320086377",
    "latitude": "29.997218731775796",
    "geocoded_column": {
      "latitude": "29.997218731775796",
      "longitude": "-90.10490320086377"
    }
  },
  {
    "service_request": "2022-902738",
    "request_type": "Roads/Drainage",
    "request_reason": "Catch Basin - Clogged",
    "date_created": "2022-07-22T16:36:26.000",
    "date_modified": "2022-07-22T16:36:26.000",
    "request_status": "Pending",
    "responsible_agency": "Department of Public Works",
    "final_address": "131 S Saint Patrick St, New Orleans, Louisiana, 70119",
    "status": "Pending",
    "rowid": "902738",
    "longitude": "0.0",
    "latitude": "0.0",
    "geocoded_column": {
      "latitude": "0.0",
      "longitude": "0.0"
    }
  },
  {
    "service_request": "2022-902737",
    "request_type": "Trash/Recycling",
    "request_reason": "Replace Trash Cart",
    "date_created": "2022-07-22T16:36:02.000",
    "date_modified": "2022-07-22T16:36:03.000",
    "request_status": "Pending",
    "responsible_agency": "Department of Sanitation",
    "final_address": "6325 Tchoupitoulas St",
    "address_councildis": "A",
    "status": "Assigned to Contractor",
    "contractor": "Richards Disposal",
    "rowid": "902737",
    "final_x": "3662575.30087",
    "final_y": "518236.90239",
    "longitude": "-90.12826911804284",
    "latitude": "29.919532406056444",
    "geocoded_column": {
      "latitude": "29.919532406056444",
      "longitude": "-90.12826911804284"
    }
  },
  {
    "service_request": "2022-902736",
    "request_type": "Traffic Signals/Signs/Striping/Streetlights",
    "request_reason": "Street Light Outage/Malfunction",
    "date_created": "2022-07-22T16:35:27.000",
    "date_modified": "2022-07-22T16:35:27.000",
    "request_status": "Pending",
    "responsible_agency": "Department of Public Works",
    "final_address": "ALLEN ST & HUMANITY ST",
    "address_councildis": "D",
    "status": "Pending",
    "contractor": "Royal Engineering",
    "rowid": "902736",
    "final_x": "3682099.0",
    "final_y": "544592.88",
    "longitude": "-90.06572223420648",
    "latitude": "29.991423370482735",
    "geocoded_column": {
      "latitude": "29.991423370482735",
      "longitude": "-90.06572223420648"
    }
  },
  {
    "service_request": "2022-902735",
    "request_type": "Trash/Recycling",
    "request_reason": "Order Recycling Cart",
    "date_created": "2022-07-22T16:35:09.000",
    "date_modified": "2022-07-22T16:35:09.000",
    "request_status": "Pending",
    "responsible_agency": "Department of Sanitation",
    "final_address": "216 Helena St",
    "address_councildis": "A",
    "status": "Pending",
    "rowid": "902735",
    "final_x": "3668592.96487",
    "final_y": "540937.147787",
    "longitude": "-90.10850836202309",
    "latitude": "29.98177527416702",
    "geocoded_column": {
      "latitude": "29.98177527416702",
      "longitude": "-90.10850836202309"
    }
  },
  {
    "service_request": "2022-902734",
    "request_type": "Trash/Recycling",
    "request_reason": "Request a Large Item Pick Up",
    "date_created": "2022-07-22T16:30:39.000",
    "date_modified": "2022-07-22T16:30:40.000",
    "request_status": "Pending",
    "responsible_agency": "Department of Sanitation",
    "final_address": "1608 Farragut St",
    "address_councildis": "C",
    "status": "Assigned to Contractor",
    "contractor": "Richards Disposal",
    "rowid": "902734",
    "final_x": "3692360.5407",
    "final_y": "525317.676029",
    "longitude": "-90.03399886432288",
    "latitude": "29.93810721068446",
    "geocoded_column": {
      "latitude": "29.93810721068446",
      "longitude": "-90.03399886432288"
    }
  },
  {
    "service_request": "2022-902733",
    "request_type": "Roads/Drainage",
    "request_reason": "Drainage Issue (Catch Basins, Culverts, Ditches, and Manhole Covers)",
    "date_created": "2022-07-22T16:30:14.000",
    "date_modified": "2022-07-22T16:30:14.000",
    "request_status": "Pending",
    "responsible_agency": "Department of Public Works",
    "final_address": "926 Picheloup Pl",
    "address_councildis": "A",
    "status": "Pending",
    "rowid": "902733",
    "final_x": "3673647.47323",
    "final_y": "540430.726923",
    "longitude": "-90.09256113432511",
    "latitude": "29.98023326036233",
    "geocoded_column": {
      "latitude": "29.98023326036233",
      "longitude": "-90.09256113432511"
    }
  },
  {
    "service_request": "2022-902732",
    "request_type": "Property Maintenance",
    "request_reason": "Property Maintenance",
    "date_created": "2022-07-22T16:29:26.000",
    "date_modified": "2022-07-22T16:29:27.000",
    "request_status": "Pending",
    "responsible_agency": "Department of Code Enforcement",
    "final_address": "N JOHNSON ST & POLAND AVE",
    "address_councildis": "D",
    "status": "Pending",
    "rowid": "902732",
    "final_x": "3693621.7",
    "final_y": "538447.08",
    "longitude": "-90.02954564534328",
    "latitude": "29.97416909749754",
    "geocoded_column": {
      "latitude": "29.97416909749754",
      "longitude": "-90.02954564534328"
    }
  },
  {
    "service_request": "2022-902731",
    "request_type": "Abandoned Vehicles",
    "request_reason": "Abandoned/Junk Vehicles",
    "date_created": "2022-07-22T16:28:39.000",
    "date_modified": "2022-07-22T16:28:39.000",
    "request_status": "Pending",
    "responsible_agency": "Department of Public Works",
    "final_address": "212 S Alexander St",
    "address_councildis": "A",
    "status": "Pending",
    "rowid": "902731",
    "final_x": "3669670.461",
    "final_y": "538686.390665",
    "longitude": "-90.10518130764832",
    "latitude": "29.97555474010241",
    "geocoded_column": {
      "latitude": "29.97555474010241",
      "longitude": "-90.10518130764832"
    }
  },
  {
    "service_request": "2022-902730",
    "request_type": "Roads/Drainage",
    "request_reason": "Catch Basin - Clogged",
    "date_created": "2022-07-22T16:27:46.000",
    "date_modified": "2022-07-22T16:41:40.000",
    "request_status": "Pending",
    "responsible_agency": "Department of Public Works",
    "final_address": "1300 Elysian Fields Ave",
    "address_councildis": "C",
    "status": "Pending",
    "rowid": "902730",
    "final_x": "3684855.47484",
    "final_y": "537062.585032",
    "longitude": "-90.05728005535073",
    "latitude": "29.97063357367015",
    "geocoded_column": {
      "latitude": "29.97063357367015",
      "longitude": "-90.05728005535073"
    }
  },
  {
    "service_request": "2022-902729",
    "request_type": "Trash/Recycling",
    "request_reason": "Request a Large Item Pick Up",
    "date_created": "2022-07-22T16:27:38.000",
    "date_modified": "2022-07-22T16:27:38.000",
    "request_status": "Pending",
    "responsible_agency": "Department of Sanitation",
    "final_address": "4915 Spain St",
    "address_councildis": "D",
    "status": "Assigned to Contractor",
    "contractor": "Metro Disposal",
    "rowid": "902729",
    "final_x": "3684994.38882",
    "final_y": "550995.100565",
    "longitude": "-90.05635098536239",
    "latitude": "30.00893878104121",
    "geocoded_column": {
      "latitude": "30.00893878104121",
      "longitude": "-90.05635098536239"
    }
  },
  {
    "service_request": "2022-902728",
    "request_type": "Abandoned Vehicles",
    "request_reason": "Abandoned/Junk Vehicles",
    "date_created": "2022-07-22T16:26:37.000",
    "date_modified": "2022-07-22T16:28:08.000",
    "request_status": "Pending",
    "responsible_agency": "Department of Public Works",
    "final_address": "530 St Andrew St Apt",
    "address_councildis": "B",
    "status": "Pending",
    "rowid": "902728",
    "final_x": "3680794.17301",
    "final_y": "521016.497401",
    "longitude": "-90.07066454663187",
    "latitude": "29.926635960902463",
    "geocoded_column": {
      "latitude": "29.926635960902463",
      "longitude": "-90.07066454663187"
    }
  },
  {
    "service_request": "2022-902726",
    "request_type": "Roads/Drainage",
    "request_reason": "Street Flooding / Drainage",
    "date_created": "2022-07-22T16:22:55.000",
    "date_modified": "2022-07-22T16:22:55.000",
    "request_status": "Pending",
    "responsible_agency": "Department of Public Works",
    "final_address": "926 Picheloup Pl",
    "address_councildis": "A",
    "status": "Pending",
    "rowid": "902726",
    "final_x": "3673647.47323",
    "final_y": "540430.726923",
    "longitude": "-90.09256113432511",
    "latitude": "29.98023326036233",
    "geocoded_column": {
      "latitude": "29.98023326036233",
      "longitude": "-90.09256113432511"
    }
  },
  {
    "service_request": "2022-902725",
    "request_type": "Traffic Signals/Signs/Striping/Streetlights",
    "request_reason": "Street Light Outage/Malfunction",
    "date_created": "2022-07-22T16:21:47.000",
    "date_modified": "2022-07-22T16:21:48.000",
    "request_status": "Pending",
    "responsible_agency": "Department of Public Works",
    "final_address": "3726 Piedmont Dr",
    "address_councildis": "D",
    "status": "Pending",
    "contractor": "Royal Engineering",
    "rowid": "902725",
    "final_x": "3685654.28687",
    "final_y": "546531.607121",
    "longitude": "-90.0544235456121",
    "latitude": "29.996645550273765",
    "geocoded_column": {
      "latitude": "29.996645550273765",
      "longitude": "-90.0544235456121"
    }
  },
  {
    "service_request": "2022-902724",
    "request_type": "Trash/Recycling",
    "request_reason": "Request a Large Item Pick Up",
    "date_created": "2022-07-22T16:18:24.000",
    "date_modified": "2022-07-22T16:18:47.000",
    "request_status": "Pending",
    "responsible_agency": "Department of Sanitation",
    "final_address": "2820 Eagle St",
    "address_councildis": "A",
    "status": "Assigned to Contractor",
    "contractor": "Richards Disposal",
    "rowid": "902724",
    "final_x": "3664087.22208",
    "final_y": "534442.685253",
    "longitude": "-90.12295636631288",
    "latitude": "29.964049319313503",
    "geocoded_column": {
      "latitude": "29.964049319313503",
      "longitude": "-90.12295636631288"
    }
  },
  {
    "service_request": "2022-902723",
    "request_type": "Roads/Drainage",
    "request_reason": "Catch Basin - Clogged",
    "date_created": "2022-07-22T16:17:48.000",
    "date_modified": "2022-07-22T16:18:29.000",
    "request_status": "Pending",
    "responsible_agency": "Department of Public Works",
    "final_address": "211 Warrington Dr",
    "address_councildis": "D",
    "status": "Pending",
    "rowid": "902723",
    "final_x": "3682562.35816",
    "final_y": "547167.280465",
    "longitude": "-90.06416851877093",
    "latitude": "29.99848795308695",
    "geocoded_column": {
      "latitude": "29.99848795308695",
      "longitude": "-90.06416851877093"
    }
  },
  {
    "service_request": "2022-902722",
    "request_type": "Traffic Signals/Signs/Striping/Streetlights",
    "request_reason": "Street Light Knocked Down/Leaning",
    "date_created": "2022-07-22T16:16:45.000",
    "date_modified": "2022-07-22T16:16:45.000",
    "request_status": "Pending",
    "responsible_agency": "Department of Public Works",
    "final_address": "423 S Norman C Francis Prkwy",
    "address_councildis": "B",
    "status": "Pending",
    "contractor": "Royal Engineering",
    "rowid": "902722",
    "final_x": "3672238.15559",
    "final_y": "535699.848071",
    "longitude": "-90.09717356388718",
    "latitude": "29.967266831859774",
    "geocoded_column": {
      "latitude": "29.967266831859774",
      "longitude": "-90.09717356388718"
    }
  },
  {
    "service_request": "2022-902721",
    "request_type": "Traffic Signals/Signs/Striping/Streetlights",
    "request_reason": "Street Light Outage/Malfunction",
    "date_created": "2022-07-22T16:16:32.000",
    "date_modified": "2022-07-22T16:17:04.000",
    "request_status": "Pending",
    "responsible_agency": "Department of Public Works",
    "final_address": "3501 Kent Dr",
    "address_councildis": "C",
    "status": "Pending",
    "contractor": "Royal Engineering",
    "rowid": "902721",
    "final_x": "3708735.02609",
    "final_y": "517929.933686",
    "longitude": "-89.98257856647639",
    "latitude": "29.917272808156742",
    "geocoded_column": {
      "latitude": "29.917272808156742",
      "longitude": "-89.98257856647639"
    }
  },
  {
    "service_request": "2022-902720",
    "request_type": "Roads/Drainage",
    "request_reason": "Catch Basin - Clogged",
    "date_created": "2022-07-22T16:14:32.000",
    "date_modified": "2022-07-22T16:14:32.000",
    "request_status": "Pending",
    "responsible_agency": "Department of Public Works",
    "final_address": "2640 Dreux Ave",
    "address_councildis": "D",
    "status": "Pending",
    "rowid": "902720",
    "final_x": "3687126.06582",
    "final_y": "552226.533846",
    "longitude": "-90.0495727388708",
    "latitude": "30.012259277592594",
    "geocoded_column": {
      "latitude": "30.012259277592594",
      "longitude": "-90.0495727388708"
    }
  },
  {
    "service_request": "2022-902719",
    "request_type": "Roads/Drainage",
    "request_reason": "Catch Basin - Clogged",
    "date_created": "2022-07-22T16:14:19.000",
    "date_modified": "2022-07-22T16:14:19.000",
    "request_status": "Pending",
    "responsible_agency": "Department of Public Works",
    "final_address": "2640 Dreux Ave",
    "address_councildis": "D",
    "status": "Pending",
    "rowid": "902719",
    "final_x": "3687126.06582",
    "final_y": "552226.533846",
    "longitude": "-90.0495727388708",
    "latitude": "30.012259277592594",
    "geocoded_column": {
      "latitude": "30.012259277592594",
      "longitude": "-90.0495727388708"
    }
  },
  {
    "service_request": "2022-902718",
    "request_type": "Roads/Drainage",
    "request_reason": "Catch Basin - Clogged",
    "date_created": "2022-07-22T16:13:47.000",
    "date_modified": "2022-07-22T16:13:47.000",
    "request_status": "Pending",
    "responsible_agency": "Department of Public Works",
    "final_address": "5902 Law St, New Orleans, Louisiana, 70117",
    "status": "Pending",
    "rowid": "902718",
    "longitude": "0.0",
    "latitude": "0.0",
    "geocoded_column": {
      "latitude": "0.0",
      "longitude": "0.0"
    }
  },
  {
    "service_request": "2022-902717",
    "request_type": "Trash/Recycling",
    "request_reason": "Missed Trash Pick-Up",
    "date_created": "2022-07-22T16:13:41.000",
    "date_modified": "2022-07-22T16:13:41.000",
    "request_status": "Pending",
    "responsible_agency": "Department of Sanitation",
    "final_address": "2409 Hyman Pl",
    "address_councildis": "C",
    "status": "Assigned to Contractor",
    "contractor": "Richards Disposal",
    "rowid": "902717",
    "final_x": "3701024.92458",
    "final_y": "522273.143098",
    "longitude": "-90.00675609065473",
    "latitude": "29.92946280408867",
    "geocoded_column": {
      "latitude": "29.92946280408867",
      "longitude": "-90.00675609065473"
    }
  },
  {
    "service_request": "2022-902716",
    "request_type": "Roads/Drainage",
    "request_reason": "Catch Basin - Clogged",
    "date_created": "2022-07-22T16:13:17.000",
    "date_modified": "2022-07-22T16:13:17.000",
    "request_status": "Pending",
    "responsible_agency": "Department of Public Works",
    "final_address": "3000 Bruxelles St",
    "address_councildis": "D",
    "status": "Pending",
    "rowid": "902716",
    "final_x": "3680229.69615",
    "final_y": "543359.05595",
    "longitude": "-90.07166985986862",
    "latitude": "29.98808751736598",
    "geocoded_column": {
      "latitude": "29.98808751736598",
      "longitude": "-90.07166985986862"
    }
  },
  {
    "service_request": "2022-902714",
    "request_type": "Roads/Drainage",
    "request_reason": "Catch Basin - Clogged",
    "date_created": "2022-07-22T16:13:07.000",
    "date_modified": "2022-07-22T16:13:07.000",
    "request_status": "Pending",
    "responsible_agency": "Department of Public Works",
    "final_address": "3000 Bruxelles St",
    "address_councildis": "D",
    "status": "Pending",
    "rowid": "902714",
    "final_x": "3680229.69615",
    "final_y": "543359.05595",
    "longitude": "-90.07166985986862",
    "latitude": "29.98808751736598",
    "geocoded_column": {
      "latitude": "29.98808751736598",
      "longitude": "-90.07166985986862"
    }
  },
  {
    "service_request": "2022-902713",
    "request_type": "Roads/Drainage",
    "request_reason": "Catch Basin - Clogged",
    "date_created": "2022-07-22T16:12:57.000",
    "date_modified": "2022-07-22T16:12:57.000",
    "request_status": "Pending",
    "responsible_agency": "Department of Public Works",
    "final_address": "3000 Bruxelles St",
    "address_councildis": "D",
    "status": "Pending",
    "rowid": "902713",
    "final_x": "3680229.69615",
    "final_y": "543359.05595",
    "longitude": "-90.07166985986862",
    "latitude": "29.98808751736598",
    "geocoded_column": {
      "latitude": "29.98808751736598",
      "longitude": "-90.07166985986862"
    }
  },
  {
    "service_request": "2022-902712",
    "request_type": "Roads/Drainage",
    "request_reason": "Catch Basin - Clogged",
    "date_created": "2022-07-22T16:12:47.000",
    "date_modified": "2022-07-22T16:12:47.000",
    "request_status": "Pending",
    "responsible_agency": "Department of Public Works",
    "final_address": "3000 Bruxelles St",
    "address_councildis": "D",
    "status": "Pending",
    "rowid": "902712",
    "final_x": "3680229.69615",
    "final_y": "543359.05595",
    "longitude": "-90.07166985986862",
    "latitude": "29.98808751736598",
    "geocoded_column": {
      "latitude": "29.98808751736598",
      "longitude": "-90.07166985986862"
    }
  },
  {
    "service_request": "2022-902711",
    "request_type": "Roads/Drainage",
    "request_reason": "Catch Basin - Clogged",
    "date_created": "2022-07-22T16:12:35.000",
    "date_modified": "2022-07-22T16:12:35.000",
    "request_status": "Pending",
    "responsible_agency": "Department of Public Works",
    "final_address": "3000 Bruxelles St",
    "address_councildis": "D",
    "status": "Pending",
    "rowid": "902711",
    "final_x": "3680229.69615",
    "final_y": "543359.05595",
    "longitude": "-90.07166985986862",
    "latitude": "29.98808751736598",
    "geocoded_column": {
      "latitude": "29.98808751736598",
      "longitude": "-90.07166985986862"
    }
  },
  {
    "service_request": "2022-902710",
    "request_type": "Roads/Drainage",
    "request_reason": "Catch Basin - Clogged",
    "date_created": "2022-07-22T16:11:49.000",
    "date_modified": "2022-07-22T16:11:49.000",
    "request_status": "Pending",
    "responsible_agency": "Department of Public Works",
    "final_address": "2640 Dreux Ave",
    "address_councildis": "D",
    "status": "Pending",
    "rowid": "902710",
    "final_x": "3687126.06582",
    "final_y": "552226.533846",
    "longitude": "-90.0495727388708",
    "latitude": "30.012259277592594",
    "geocoded_column": {
      "latitude": "30.012259277592594",
      "longitude": "-90.0495727388708"
    }
  },
  {
    "service_request": "2022-902709",
    "request_type": "Roads/Drainage",
    "request_reason": "Catch Basin - Clogged",
    "date_created": "2022-07-22T16:11:17.000",
    "date_modified": "2022-07-22T16:11:18.000",
    "request_status": "Pending",
    "responsible_agency": "Department of Public Works",
    "final_address": "2640 Dreux Ave",
    "address_councildis": "D",
    "status": "Pending",
    "rowid": "902709",
    "final_x": "3687126.06582",
    "final_y": "552226.533846",
    "longitude": "-90.0495727388708",
    "latitude": "30.012259277592594",
    "geocoded_column": {
      "latitude": "30.012259277592594",
      "longitude": "-90.0495727388708"
    }
  },
  {
    "service_request": "2022-902708",
    "request_type": "Property Maintenance",
    "request_reason": "Property Maintenance",
    "date_created": "2022-07-22T16:09:38.000",
    "date_modified": "2022-07-22T16:09:38.000",
    "request_status": "Pending",
    "responsible_agency": "Department of Code Enforcement",
    "final_address": "1828 Washington Ave",
    "address_councildis": "B",
    "status": "Pending",
    "rowid": "902708",
    "final_x": "3675304.3844",
    "final_y": "523356.957947",
    "longitude": "-90.0879140282435",
    "latitude": "29.93323666860289",
    "geocoded_column": {
      "latitude": "29.93323666860289",
      "longitude": "-90.0879140282435"
    }
  },
  {
    "service_request": "2022-902707",
    "request_type": "Safety & Permits",
    "request_reason": "Licenses & Permits",
    "date_created": "2022-07-22T16:07:10.000",
    "date_modified": "2022-07-22T16:08:22.000",
    "request_status": "Pending",
    "responsible_agency": "Safety and Permits",
    "final_address": "GENERAL DE GAULLE DR & FLORENCE AVE",
    "address_councildis": "C",
    "status": "Pending",
    "rowid": "902707",
    "final_x": "3692967.4",
    "final_y": "522052.48",
    "longitude": "-90.03220001897874",
    "latitude": "29.929110097957626",
    "geocoded_column": {
      "latitude": "29.929110097957626",
      "longitude": "-90.03220001897874"
    }
  },
  {
    "service_request": "2022-902706",
    "request_type": "Trash/Recycling",
    "request_reason": "Illegal Dumping",
    "date_created": "2022-07-22T16:06:52.000",
    "date_modified": "2022-07-22T16:06:52.000",
    "request_status": "Pending",
    "responsible_agency": "Department of Sanitation",
    "final_address": "1718 Washington Ave",
    "address_councildis": "B",
    "status": "Pending",
    "rowid": "902706",
    "final_x": "3675530.35355",
    "final_y": "522933.117435",
    "longitude": "-90.08721520871757",
    "latitude": "29.932064489873536",
    "geocoded_column": {
      "latitude": "29.932064489873536",
      "longitude": "-90.08721520871757"
    }
  },
  {
    "service_request": "2022-902705",
    "request_type": "Trash/Recycling",
    "request_reason": "Order Recycling Cart",
    "date_created": "2022-07-22T16:06:00.000",
    "date_modified": "2022-07-22T16:06:01.000",
    "request_status": "Pending",
    "responsible_agency": "Department of Sanitation",
    "final_address": "1448 N Miro St",
    "address_councildis": "D",
    "status": "Pending",
    "rowid": "902705",
    "final_x": "3679880.22363",
    "final_y": "538193.004425",
    "longitude": "-90.07295321867072",
    "latitude": "29.97389324828717",
    "geocoded_column": {
      "latitude": "29.97389324828717",
      "longitude": "-90.07295321867072"
    }
  },
  {
    "service_request": "2022-902704",
    "request_type": "Trash/Recycling",
    "request_reason": "Order Trash Cart",
    "date_created": "2022-07-22T16:05:48.000",
    "date_modified": "2022-07-22T16:05:48.000",
    "request_status": "Pending",
    "responsible_agency": "Department of Sanitation",
    "final_address": "1448 N Miro St",
    "address_councildis": "D",
    "status": "Assigned to Contractor",
    "contractor": "Metro Disposal",
    "rowid": "902704",
    "final_x": "3679880.22363",
    "final_y": "538193.004425",
    "longitude": "-90.07295321867072",
    "latitude": "29.97389324828717",
    "geocoded_column": {
      "latitude": "29.97389324828717",
      "longitude": "-90.07295321867072"
    }
  },
  {
    "service_request": "2022-902703",
    "request_type": "Roads/Drainage",
    "request_reason": "Catch Basin - Clogged",
    "date_created": "2022-07-22T16:03:49.000",
    "date_modified": "2022-07-22T16:03:49.000",
    "request_status": "Pending",
    "responsible_agency": "Department of Public Works",
    "final_address": "2606 Gordon St, New Orleans, Louisiana, 70117",
    "address_councildis": "E",
    "status": "Pending",
    "rowid": "902703",
    "final_x": "3701309.80452",
    "final_y": "538869.135625",
    "longitude": "-90.00524955372448",
    "latitude": "29.975086821609285",
    "geocoded_column": {
      "latitude": "29.975086821609285",
      "longitude": "-90.00524955372448"
    }
  },
  {
    "service_request": "2022-902702",
    "request_type": "Trash/Recycling",
    "request_reason": "Replace Trash Cart",
    "date_created": "2022-07-22T16:03:32.000",
    "date_modified": "2022-07-22T16:03:32.000",
    "request_status": "Pending",
    "responsible_agency": "Department of Sanitation",
    "final_address": "6366 Louisville St, New Orleans, Louisiana, 70124",
    "address_councildis": "A",
    "status": "Assigned to Contractor",
    "contractor": "Metro Disposal",
    "rowid": "902702",
    "final_x": "3667888.36193",
    "final_y": "549947.786324",
    "longitude": "-90.11043009858344",
    "latitude": "30.00657212712776",
    "geocoded_column": {
      "latitude": "30.00657212712776",
      "longitude": "-90.11043009858344"
    }
  },
  {
    "service_request": "2022-902701",
    "request_type": "Trash/Recycling",
    "request_reason": "Replace Trash Cart",
    "date_created": "2022-07-22T15:57:04.000",
    "date_modified": "2022-07-22T15:57:04.000",
    "request_status": "Pending",
    "responsible_agency": "Department of Sanitation",
    "final_address": "5743 E Louis Prima Dr",
    "address_councildis": "E",
    "status": "Assigned to Contractor",
    "contractor": "Metro Disposal",
    "rowid": "902701",
    "final_x": "3716186.9838",
    "final_y": "562343.853215",
    "longitude": "-89.95737382527268",
    "latitude": "30.039150613264145",
    "geocoded_column": {
      "latitude": "30.039150613264145",
      "longitude": "-89.95737382527268"
    }
  },
  {
    "service_request": "2022-902700",
    "request_type": "Trash/Recycling",
    "request_reason": "Request a Large Item Pick Up",
    "date_created": "2022-07-22T15:55:01.000",
    "date_modified": "2022-07-22T15:55:02.000",
    "request_status": "Pending",
    "responsible_agency": "Department of Sanitation",
    "final_address": "1474 Constance St, New Orleans, Louisiana, 70130",
    "address_councildis": "B",
    "status": "Assigned to Contractor",
    "contractor": "Richards Disposal",
    "rowid": "902700",
    "final_x": "3680609.51023",
    "final_y": "523820.312315",
    "longitude": "-90.0711499808611",
    "latitude": "29.934351123438777",
    "geocoded_column": {
      "latitude": "29.934351123438777",
      "longitude": "-90.0711499808611"
    }
  },
  {
    "service_request": "2022-902699",
    "request_type": "Abandoned Vehicles",
    "request_reason": "Abandoned/Junk Vehicles",
    "date_created": "2022-07-22T15:54:55.000",
    "date_modified": "2022-07-22T15:54:55.000",
    "request_status": "Pending",
    "responsible_agency": "Department of Public Works",
    "final_address": "2222 St Ann St",
    "address_councildis": "D",
    "status": "Pending",
    "rowid": "902699",
    "final_x": "3678390.42018",
    "final_y": "536025.168519",
    "longitude": "-90.07773337340443",
    "latitude": "29.967977417283375",
    "geocoded_column": {
      "latitude": "29.967977417283375",
      "longitude": "-90.07773337340443"
    }
  },
  {
    "service_request": "2022-902698",
    "request_type": "Trash/Recycling",
    "request_reason": "Request a Large Item Pick Up",
    "date_created": "2022-07-22T15:48:12.000",
    "date_modified": "2022-07-22T15:48:12.000",
    "request_status": "Pending",
    "responsible_agency": "Department of Sanitation",
    "final_address": "3948 Jennifer St",
    "address_councildis": "C",
    "status": "Assigned to Contractor",
    "contractor": "Richards Disposal",
    "rowid": "902698",
    "final_x": "3709632.46974",
    "final_y": "516092.7605",
    "longitude": "-89.97981437374568",
    "latitude": "29.91219210191131",
    "geocoded_column": {
      "latitude": "29.91219210191131",
      "longitude": "-89.97981437374568"
    }
  },
  {
    "service_request": "2022-902697",
    "request_type": "Mosquito, Termite & Rodent Control",
    "request_reason": "Rodent Complaint (Rats)",
    "date_created": "2022-07-22T15:45:02.000",
    "date_modified": "2022-07-22T15:45:02.000",
    "request_status": "Pending",
    "responsible_agency": "Mosquito, Termite & Rodent Control Board",
    "final_address": "2225 Gentilly Blvd",
    "address_councildis": "D",
    "status": "Pending",
    "rowid": "902697",
    "final_x": "3680809.6148",
    "final_y": "544630.411343",
    "longitude": "-90.0697938053669",
    "latitude": "29.991565726693285",
    "geocoded_column": {
      "latitude": "29.991565726693285",
      "longitude": "-90.0697938053669"
    }
  },
  {
    "service_request": "2022-902696",
    "request_type": "Trash/Recycling",
    "request_reason": "Request a Large Item Pick Up",
    "date_created": "2022-07-22T15:44:53.000",
    "date_modified": "2022-07-22T15:44:54.000",
    "request_status": "Pending",
    "responsible_agency": "Department of Sanitation",
    "final_address": "1801 Short St",
    "address_councildis": "A",
    "status": "Assigned to Contractor",
    "contractor": "Richards Disposal",
    "rowid": "902696",
    "final_x": "3663767.84032",
    "final_y": "529627.961025",
    "longitude": "-90.12412540331714",
    "latitude": "29.950819666709425",
    "geocoded_column": {
      "latitude": "29.950819666709425",
      "longitude": "-90.12412540331714"
    }
  },
  {
    "service_request": "2022-902695",
    "request_type": "Parks & Parkways",
    "request_reason": "Request Tree Service (Right of Way/Public Property)",
    "date_created": "2022-07-22T15:43:18.000",
    "date_modified": "2022-07-22T15:43:18.000",
    "request_status": "Pending",
    "responsible_agency": "Department of Parks & Parkway",
    "final_address": "1038 Burdette St",
    "address_councildis": "A",
    "status": "Pending",
    "rowid": "902695",
    "final_x": "3662499.1113",
    "final_y": "527355.789567",
    "longitude": "-90.1282068806243",
    "latitude": "29.944608677815346",
    "geocoded_column": {
      "latitude": "29.944608677815346",
      "longitude": "-90.1282068806243"
    }
  },
  {
    "service_request": "2022-902694",
    "request_type": "Property Maintenance",
    "request_reason": "Property Maintenance",
    "date_created": "2022-07-22T15:40:30.000",
    "date_modified": "2022-07-22T15:40:31.000",
    "request_status": "Pending",
    "responsible_agency": "Department of Code Enforcement",
    "final_address": "2229 Gentilly Blvd",
    "address_councildis": "D",
    "status": "Pending",
    "rowid": "902694",
    "final_x": "3680854.6861",
    "final_y": "544649.927823",
    "longitude": "-90.06965075516035",
    "latitude": "29.99161802344704",
    "geocoded_column": {
      "latitude": "29.99161802344704",
      "longitude": "-90.06965075516035"
    }
  },
  {
    "service_request": "2022-902693",
    "request_type": "Trash/Recycling",
    "request_reason": "Repair Recycling Cart",
    "date_created": "2022-07-22T15:36:14.000",
    "date_modified": "2022-07-22T15:36:14.000",
    "request_status": "Pending",
    "responsible_agency": "Department of Sanitation",
    "final_address": "1750 Pressburg Dr",
    "address_councildis": "D",
    "status": "Pending",
    "rowid": "902693",
    "final_x": "3680057.69455",
    "final_y": "554089.576728",
    "longitude": "-90.07184000403821",
    "latitude": "30.017597825132807",
    "geocoded_column": {
      "latitude": "30.017597825132807",
      "longitude": "-90.07184000403821"
    }
  },
  {
    "service_request": "2022-902692",
    "request_type": "Trash/Recycling",
    "request_reason": "Request a Large Item Pick Up",
    "date_created": "2022-07-22T15:29:40.000",
    "date_modified": "2022-07-22T15:29:41.000",
    "request_status": "Pending",
    "responsible_agency": "Department of Sanitation",
    "final_address": "6548 Memphis St",
    "address_councildis": "A",
    "status": "Assigned to Contractor",
    "contractor": "Metro Disposal",
    "rowid": "902692",
    "final_x": "3669442.83226",
    "final_y": "551051.078869",
    "longitude": "-90.10548176260029",
    "latitude": "30.00956008636731",
    "geocoded_column": {
      "latitude": "30.00956008636731",
      "longitude": "-90.10548176260029"
    }
  },
  {
    "service_request": "2022-902691",
    "request_type": "Abandoned Vehicles",
    "request_reason": "Abandoned/Junk Vehicles",
    "date_created": "2022-07-22T15:29:02.000",
    "date_modified": "2022-07-22T15:29:03.000",
    "request_status": "Pending",
    "responsible_agency": "Department of Public Works",
    "final_address": "7808 Colapissa St",
    "address_councildis": "B",
    "status": "Pending",
    "rowid": "902691",
    "final_x": "3667292.11149",
    "final_y": "532658.10714",
    "longitude": "-90.11289560049029",
    "latitude": "29.95904884172813",
    "geocoded_column": {
      "latitude": "29.95904884172813",
      "longitude": "-90.11289560049029"
    }
  },
  {
    "service_request": "2022-902690",
    "request_type": "Trash/Recycling",
    "request_reason": "MIssed Recycling Pick-Up",
    "date_created": "2022-07-22T15:24:21.000",
    "date_modified": "2022-07-22T15:24:22.000",
    "request_status": "Pending",
    "responsible_agency": "Department of Sanitation",
    "final_address": "719 Adams St",
    "address_councildis": "A",
    "status": "Assigned to Contractor",
    "contractor": "Richards Disposal",
    "rowid": "902690",
    "final_x": "3662029.75655",
    "final_y": "526195.838206",
    "longitude": "-90.12972724923334",
    "latitude": "29.94143274610206",
    "geocoded_column": {
      "latitude": "29.94143274610206",
      "longitude": "-90.12972724923334"
    }
  },
  {
    "service_request": "2022-902689",
    "request_type": "Trash/Recycling",
    "request_reason": "Missed Trash Pick-Up",
    "date_created": "2022-07-22T15:20:46.000",
    "date_modified": "2022-07-22T15:20:47.000",
    "request_status": "Pending",
    "responsible_agency": "Department of Sanitation",
    "final_address": "1107 Napoleon Ave",
    "address_councildis": "B",
    "status": "Assigned to Contractor",
    "contractor": "Richards Disposal",
    "rowid": "902689",
    "final_x": "3671051.84206",
    "final_y": "519633.057976",
    "longitude": "-90.10146545166515",
    "latitude": "29.9231235443977",
    "geocoded_column": {
      "latitude": "29.9231235443977",
      "longitude": "-90.10146545166515"
    }
  },
  {
    "service_request": "2022-902688",
    "request_type": "Trash/Recycling",
    "request_reason": "Request a Large Item Pick Up",
    "date_created": "2022-07-22T15:19:57.000",
    "date_modified": "2022-07-22T15:19:57.000",
    "request_status": "Pending",
    "responsible_agency": "Department of Sanitation",
    "final_address": "1308 Bordeaux St",
    "address_councildis": "B",
    "status": "Assigned to Contractor",
    "contractor": "Richards Disposal",
    "rowid": "902688",
    "final_x": "3669369.00487",
    "final_y": "519993.92684",
    "longitude": "-90.10676534417283",
    "latitude": "29.924165458647515",
    "geocoded_column": {
      "latitude": "29.924165458647515",
      "longitude": "-90.10676534417283"
    }
  },
  {
    "service_request": "2022-902687",
    "request_type": "Roads/Drainage",
    "request_reason": "Street Subsidence (Sinking)",
    "date_created": "2022-07-22T15:18:14.000",
    "date_modified": "2022-07-22T15:18:14.000",
    "request_status": "Pending",
    "responsible_agency": "Department of Public Works",
    "final_address": "3510 Republic St",
    "address_councildis": "D",
    "status": "Pending",
    "rowid": "902687",
    "final_x": "3680424.69947",
    "final_y": "545353.64616",
    "longitude": "-90.07098450006815",
    "latitude": "29.993566032516217",
    "geocoded_column": {
      "latitude": "29.993566032516217",
      "longitude": "-90.07098450006815"
    }
  },
  {
    "service_request": "2022-902686",
    "request_type": "Property Maintenance",
    "request_reason": "Property Maintenance",
    "date_created": "2022-07-22T15:12:42.000",
    "date_modified": "2022-07-22T15:12:42.000",
    "request_status": "Pending",
    "responsible_agency": "Department of Code Enforcement",
    "final_address": "2010 Second St",
    "address_councildis": "B",
    "status": "Pending",
    "rowid": "902686",
    "final_x": "3675819.79374",
    "final_y": "524310.139516",
    "longitude": "-90.0862541624071",
    "latitude": "29.9358421929424",
    "geocoded_column": {
      "latitude": "29.9358421929424",
      "longitude": "-90.0862541624071"
    }
  },
  {
    "service_request": "2022-902685",
    "request_type": "Trash/Recycling",
    "request_reason": "Missed Trash Pick-Up",
    "date_created": "2022-07-22T15:11:25.000",
    "date_modified": "2022-07-22T15:11:26.000",
    "request_status": "Pending",
    "responsible_agency": "Department of Sanitation",
    "final_address": "1324 Oriole St, New Orleans, Louisiana, 70122",
    "address_councildis": "D",
    "status": "Assigned to Contractor",
    "contractor": "Metro Disposal",
    "rowid": "902685",
    "final_x": "3677421.93582",
    "final_y": "556862.249562",
    "longitude": "-90.08007214941618",
    "latitude": "30.02530119490631",
    "geocoded_column": {
      "latitude": "30.02530119490631",
      "longitude": "-90.08007214941618"
    }
  },
  {
    "service_request": "2022-902684",
    "request_type": "Abandoned Vehicles",
    "request_reason": "Abandoned/Junk Vehicles",
    "date_created": "2022-07-22T15:09:25.000",
    "date_modified": "2022-07-22T15:14:25.000",
    "request_status": "Pending",
    "responsible_agency": "Department of Public Works",
    "final_address": "2800 BLK Fourth St",
    "address_councildis": "B",
    "status": "Pending",
    "rowid": "902684",
    "final_x": "3673746.87918",
    "final_y": "526391.778369",
    "longitude": "-90.0927272491452",
    "latitude": "29.941627891969784",
    "geocoded_column": {
      "latitude": "29.941627891969784",
      "longitude": "-90.0927272491452"
    }
  },
  {
    "service_request": "2022-902683",
    "request_type": "Property Maintenance",
    "request_reason": "Property Maintenance",
    "date_created": "2022-07-22T15:08:43.000",
    "date_modified": "2022-07-22T15:08:43.000",
    "request_status": "Pending",
    "responsible_agency": "Department of Code Enforcement",
    "final_address": "2036 Second St",
    "address_councildis": "B",
    "status": "Pending",
    "rowid": "902683",
    "final_x": "3675708.77038",
    "final_y": "524480.06246",
    "longitude": "-90.08659882868308",
    "latitude": "29.93631274750843",
    "geocoded_column": {
      "latitude": "29.93631274750843",
      "longitude": "-90.08659882868308"
    }
  },
  {
    "service_request": "2022-902682",
    "request_type": "Trash/Recycling",
    "request_reason": "Replace Trash Cart",
    "date_created": "2022-07-22T15:07:32.000",
    "date_modified": "2022-07-22T15:07:32.000",
    "request_status": "Pending",
    "responsible_agency": "Department of Sanitation",
    "final_address": "3026 Fern St",
    "address_councildis": "B",
    "status": "Assigned to Contractor",
    "contractor": "Richards Disposal",
    "rowid": "902682",
    "final_x": "3666967.28071",
    "final_y": "532831.819076",
    "longitude": "-90.11391550175169",
    "latitude": "29.959536001710735",
    "geocoded_column": {
      "latitude": "29.959536001710735",
      "longitude": "-90.11391550175169"
    }
  },
  {
    "service_request": "2022-902681",
    "request_type": "Trash/Recycling",
    "request_reason": "Order Trash Cart",
    "date_created": "2022-07-22T15:05:14.000",
    "date_modified": "2022-07-22T15:05:19.000",
    "request_status": "Pending",
    "responsible_agency": "Department of Sanitation",
    "final_address": "1907 Marengo St",
    "address_councildis": "B",
    "status": "Assigned to Contractor",
    "contractor": "Richards Disposal",
    "rowid": "902681",
    "final_x": "3671904.87297",
    "final_y": "522148.071738",
    "longitude": "-90.09868721255789",
    "latitude": "29.930013782239445",
    "geocoded_column": {
      "latitude": "29.930013782239445",
      "longitude": "-90.09868721255789"
    }
  },
  {
    "service_request": "2022-902680",
    "request_type": "Trash/Recycling",
    "request_reason": "Replace Trash Cart",
    "date_created": "2022-07-22T15:03:46.000",
    "date_modified": "2022-07-22T15:03:46.000",
    "request_status": "Pending",
    "responsible_agency": "Department of Sanitation",
    "final_address": "2501 Calhoun St",
    "address_councildis": "A",
    "status": "Assigned to Contractor",
    "contractor": "Richards Disposal",
    "rowid": "902680",
    "final_x": "3666239.34465",
    "final_y": "526040.310334",
    "longitude": "-90.11644192222953",
    "latitude": "29.940882837900297",
    "geocoded_column": {
      "latitude": "29.940882837900297",
      "longitude": "-90.11644192222953"
    }
  },
  {
    "service_request": "2022-902679",
    "request_type": "Roads/Drainage",
    "request_reason": "Alley Way",
    "date_created": "2022-07-22T15:03:21.000",
    "date_modified": "2022-07-22T15:03:21.000",
    "request_status": "Pending",
    "responsible_agency": "Department of Public Works",
    "final_address": "6853 Argonne Blvd",
    "address_councildis": "A",
    "status": "Pending",
    "rowid": "902679",
    "final_x": "3670747.60724",
    "final_y": "552949.186903",
    "longitude": "-90.10129503024318",
    "latitude": "30.014740703962044",
    "geocoded_column": {
      "latitude": "30.014740703962044",
      "longitude": "-90.10129503024318"
    }
  },
  {
    "service_request": "2022-902678",
    "request_type": "Property Maintenance",
    "request_reason": "Property Maintenance",
    "date_created": "2022-07-22T15:02:37.000",
    "date_modified": "2022-07-22T15:02:37.000",
    "request_status": "Pending",
    "responsible_agency": "Department of Code Enforcement",
    "final_address": "2100 Second St",
    "address_councildis": "B",
    "status": "Pending",
    "rowid": "902678",
    "final_x": "3675665.39733",
    "final_y": "524547.265404",
    "longitude": "-90.08673345079691",
    "latitude": "29.936498831181737",
    "geocoded_column": {
      "latitude": "29.936498831181737",
      "longitude": "-90.08673345079691"
    }
  },
  {
    "service_request": "2022-902677",
    "request_type": "Trash/Recycling",
    "request_reason": "Missed Trash Pick-Up",
    "date_created": "2022-07-22T15:01:32.000",
    "date_modified": "2022-07-22T15:01:32.000",
    "request_status": "Pending",
    "responsible_agency": "Department of Sanitation",
    "final_address": "1324 Oriole St",
    "address_councildis": "D",
    "status": "Assigned to Contractor",
    "contractor": "Metro Disposal",
    "rowid": "902677",
    "final_x": "3677421.93582",
    "final_y": "556862.249562",
    "longitude": "-90.08007214941618",
    "latitude": "30.02530119490631",
    "geocoded_column": {
      "latitude": "30.02530119490631",
      "longitude": "-90.08007214941618"
    }
  },
  {
    "service_request": "2022-902676",
    "request_type": "Abandoned Vehicles",
    "request_reason": "Abandoned/Junk Vehicles",
    "date_created": "2022-07-22T14:59:57.000",
    "date_modified": "2022-07-22T14:59:57.000",
    "request_status": "Pending",
    "responsible_agency": "Department of Public Works",
    "final_address": "2607 Cleveland Ave",
    "address_councildis": "B",
    "status": "Pending",
    "rowid": "902676",
    "final_x": "3675515.94017",
    "final_y": "534510.104709",
    "longitude": "-90.0868631399054",
    "latitude": "29.963897800514797",
    "geocoded_column": {
      "latitude": "29.963897800514797",
      "longitude": "-90.0868631399054"
    }
  },
  {
    "service_request": "2022-902675",
    "request_type": "Traffic Signals/Signs/Striping/Streetlights",
    "request_reason": "Street Light Outage/Malfunction",
    "date_created": "2022-07-22T14:59:46.000",
    "date_modified": "2022-07-22T14:59:48.000",
    "request_status": "Pending",
    "responsible_agency": "Department of Public Works",
    "final_address": "4323 Constance St",
    "address_councildis": "B",
    "status": "Pending",
    "contractor": "Royal Engineering",
    "rowid": "902675",
    "final_x": "3671290.66855",
    "final_y": "518474.223926",
    "longitude": "-90.10075091549983",
    "latitude": "29.91993005725641",
    "geocoded_column": {
      "latitude": "29.91993005725641",
      "longitude": "-90.10075091549983"
    }
  },
  {
    "service_request": "2022-902674",
    "request_type": "Trash/Recycling",
    "request_reason": "Request a Large Item Pick Up",
    "date_created": "2022-07-22T14:58:28.000",
    "date_modified": "2022-07-22T14:58:29.000",
    "request_status": "Pending",
    "responsible_agency": "Department of Sanitation",
    "final_address": "2301 Magazine St",
    "address_councildis": "B",
    "status": "Assigned to Contractor",
    "contractor": "Richards Disposal",
    "rowid": "902674",
    "final_x": "3678487.91016",
    "final_y": "521851.003578",
    "longitude": "-90.07791592815494",
    "latitude": "29.929000259503336",
    "geocoded_column": {
      "latitude": "29.929000259503336",
      "longitude": "-90.07791592815494"
    }
  },
  {
    "service_request": "2022-902673",
    "request_type": "Roads/Drainage",
    "request_reason": "Pothole",
    "date_created": "2022-07-22T14:56:46.000",
    "date_modified": "2022-07-22T14:56:47.000",
    "request_status": "Pending",
    "responsible_agency": "Department of Public Works",
    "final_address": "832 Arabella St",
    "address_councildis": "A",
    "status": "Pending",
    "rowid": "902673",
    "final_x": "3665840.41786",
    "final_y": "519194.953271",
    "longitude": "-90.11793065068923",
    "latitude": "29.92207192127979",
    "geocoded_column": {
      "latitude": "29.92207192127979",
      "longitude": "-90.11793065068923"
    }
  },
  {
    "service_request": "2022-902672",
    "request_type": "Traffic Signals/Signs/Striping/Streetlights",
    "request_reason": "Street Light Outage/Malfunction",
    "date_created": "2022-07-22T14:54:39.000",
    "date_modified": "2022-07-22T14:54:39.000",
    "request_status": "Pending",
    "responsible_agency": "Department of Public Works",
    "final_address": "7513 Hampson St",
    "address_councildis": "A",
    "status": "Pending",
    "contractor": "Royal Engineering",
    "rowid": "902672",
    "final_x": "3662306.85901",
    "final_y": "525781.818813",
    "longitude": "-90.12886611857303",
    "latitude": "29.940286317944537",
    "geocoded_column": {
      "latitude": "29.940286317944537",
      "longitude": "-90.12886611857303"
    }
  },
  {
    "service_request": "2022-902671",
    "request_type": "Trash/Recycling",
    "request_reason": "Missed Trash Pick-Up",
    "date_created": "2022-07-22T14:50:46.000",
    "date_modified": "2022-07-22T14:50:46.000",
    "request_status": "Pending",
    "responsible_agency": "Department of Sanitation",
    "final_address": "2150 Timoleon St",
    "address_councildis": "D",
    "status": "Assigned to Contractor",
    "contractor": "Metro Disposal",
    "rowid": "902671",
    "final_x": "3683498.4989",
    "final_y": "551008.715925",
    "longitude": "-90.06107651418581",
    "latitude": "30.009021972633647",
    "geocoded_column": {
      "latitude": "30.009021972633647",
      "longitude": "-90.06107651418581"
    }
  },
  {
    "service_request": "2022-902670",
    "request_type": "Trash/Recycling",
    "request_reason": "MIssed Recycling Pick-Up",
    "date_created": "2022-07-22T14:50:19.000",
    "date_modified": "2022-07-22T14:50:20.000",
    "request_status": "Pending",
    "responsible_agency": "Department of Sanitation",
    "final_address": "2001 Octavia St, New Orleans, Louisiana, 70115",
    "address_councildis": "A",
    "status": "Assigned to Contractor",
    "contractor": "Richards Disposal",
    "rowid": "902670",
    "final_x": "3667449.02637",
    "final_y": "523057.099451",
    "longitude": "-90.11272306005515",
    "latitude": "29.93264458386145",
    "geocoded_column": {
      "latitude": "29.93264458386145",
      "longitude": "-90.11272306005515"
    }
  },
  {
    "service_request": "2022-902667",
    "request_type": "Trash/Recycling",
    "request_reason": "Request a Large Item Pick Up",
    "date_created": "2022-07-22T14:47:20.000",
    "date_modified": "2022-07-22T14:47:20.000",
    "request_status": "Pending",
    "responsible_agency": "Department of Sanitation",
    "final_address": "2835 Bruxelles St",
    "address_councildis": "D",
    "status": "Assigned to Contractor",
    "contractor": "Metro Disposal",
    "rowid": "902667",
    "final_x": "3680339.29205",
    "final_y": "542888.414733",
    "longitude": "-90.07134005550556",
    "latitude": "29.986790100544226",
    "geocoded_column": {
      "latitude": "29.986790100544226",
      "longitude": "-90.07134005550556"
    }
  },
  {
    "service_request": "2022-902666",
    "request_type": "Trash/Recycling",
    "request_reason": "Order Recycling Cart",
    "date_created": "2022-07-22T14:43:55.000",
    "date_modified": "2022-07-22T14:43:55.000",
    "request_status": "Pending",
    "responsible_agency": "Department of Sanitation",
    "final_address": "5505 Coliseum St",
    "address_councildis": "A",
    "status": "Pending",
    "rowid": "902666",
    "final_x": "3666618.29146",
    "final_y": "519979.26604",
    "longitude": "-90.11544890503119",
    "latitude": "29.924205823975036",
    "geocoded_column": {
      "latitude": "29.924205823975036",
      "longitude": "-90.11544890503119"
    }
  },
  {
    "service_request": "2022-902665",
    "request_type": "Trash/Recycling",
    "request_reason": "Replace Trash Cart",
    "date_created": "2022-07-22T14:43:47.000",
    "date_modified": "2022-07-22T14:43:47.000",
    "request_status": "Pending",
    "responsible_agency": "Department of Sanitation",
    "final_address": "4601 Virgilian St",
    "address_councildis": "D",
    "status": "Assigned to Contractor",
    "contractor": "Metro Disposal",
    "rowid": "902665",
    "final_x": "3697634.84816",
    "final_y": "552954.285335",
    "longitude": "-90.0163446653113",
    "latitude": "30.013932400619034",
    "geocoded_column": {
      "latitude": "30.013932400619034",
      "longitude": "-90.0163446653113"
    }
  },
  {
    "service_request": "2022-902664",
    "request_type": "Traffic Signals/Signs/Striping/Streetlights",
    "request_reason": "Striping/Road Surface Markings",
    "date_created": "2022-07-22T14:42:51.000",
    "date_modified": "2022-07-22T14:42:51.000",
    "request_status": "Pending",
    "responsible_agency": "Department of Public Works",
    "final_address": "500 Robert E Lee Blvd",
    "address_councildis": "A",
    "status": "Pending",
    "rowid": "902664",
    "final_x": "3668493.10318",
    "final_y": "554659.447256",
    "longitude": "-90.10836042600225",
    "latitude": "30.019509776652008",
    "geocoded_column": {
      "latitude": "30.019509776652008",
      "longitude": "-90.10836042600225"
    }
  },
  {
    "service_request": "2022-902663",
    "request_type": "Trash/Recycling",
    "request_reason": "Missed Trash Pick-Up",
    "date_created": "2022-07-22T14:41:08.000",
    "date_modified": "2022-07-22T14:41:47.000",
    "request_status": "Pending",
    "responsible_agency": "Department of Sanitation",
    "final_address": "5770 Cameron Blvd Apt B",
    "address_councildis": "D",
    "status": "Assigned to Contractor",
    "contractor": "Metro Disposal",
    "rowid": "902663",
    "final_x": "3682326.68386",
    "final_y": "554620.172184",
    "longitude": "-90.06465233635946",
    "latitude": "30.01898788747747",
    "geocoded_column": {
      "latitude": "30.01898788747747",
      "longitude": "-90.06465233635946"
    }
  },
  {
    "service_request": "2022-902662",
    "request_type": "Trash/Recycling",
    "request_reason": "Start Trash Service",
    "date_created": "2022-07-22T14:38:39.000",
    "date_modified": "2022-07-22T14:38:39.000",
    "request_status": "Pending",
    "responsible_agency": "Department of Sanitation",
    "final_address": "318 N White St",
    "address_councildis": "B",
    "status": "Assigned to Contractor",
    "contractor": "Richards Disposal",
    "rowid": "902662",
    "final_x": "3675562.89505",
    "final_y": "536213.962183",
    "longitude": "-90.08665631935344",
    "latitude": "29.968581427556668",
    "geocoded_column": {
      "latitude": "29.968581427556668",
      "longitude": "-90.08665631935344"
    }
  },
  {
    "service_request": "2022-902661",
    "request_type": "Safety & Permits",
    "request_reason": "Licenses & Permits",
    "date_created": "2022-07-22T14:37:11.000",
    "date_modified": "2022-07-22T14:37:12.000",
    "request_status": "Pending",
    "responsible_agency": "Safety and Permits",
    "final_address": "9999 Lake Forest Blvd",
    "address_councildis": "E",
    "status": "Pending",
    "rowid": "902661",
    "final_x": "3710976.71409",
    "final_y": "560035.412509",
    "longitude": "-89.97392616951281",
    "latitude": "30.032974325442808",
    "geocoded_column": {
      "latitude": "30.032974325442808",
      "longitude": "-89.97392616951281"
    }
  },
  {
    "service_request": "2022-902660",
    "request_type": "Trash/Recycling",
    "request_reason": "Replace Recycling Cart",
    "date_created": "2022-07-22T14:33:28.000",
    "date_modified": "2022-07-22T14:33:28.000",
    "request_status": "Pending",
    "responsible_agency": "Department of Sanitation",
    "final_address": "1239 Harmony St, New Orleans, Louisiana, 70115",
    "address_councildis": "B",
    "status": "Pending",
    "rowid": "902660",
    "final_x": "3675517.82952",
    "final_y": "520630.247352",
    "longitude": "-90.08733379987542",
    "latitude": "29.925732718286675",
    "geocoded_column": {
      "latitude": "29.925732718286675",
      "longitude": "-90.08733379987542"
    }
  },
  {
    "service_request": "2022-902659",
    "request_type": "Trash/Recycling",
    "request_reason": "Order Recycling Cart",
    "date_created": "2022-07-22T14:32:36.000",
    "date_modified": "2022-07-22T14:32:36.000",
    "request_status": "Pending",
    "responsible_agency": "Department of Sanitation",
    "final_address": "318 N White St",
    "address_councildis": "B",
    "status": "Pending",
    "rowid": "902659",
    "final_x": "3675562.89505",
    "final_y": "536213.962183",
    "longitude": "-90.08665631935344",
    "latitude": "29.968581427556668",
    "geocoded_column": {
      "latitude": "29.968581427556668",
      "longitude": "-90.08665631935344"
    }
  },
  {
    "service_request": "2022-902658",
    "request_type": "Property Maintenance",
    "request_reason": "Property Maintenance",
    "date_created": "2022-07-22T14:28:55.000",
    "date_modified": "2022-07-22T14:58:05.000",
    "case_close_date": "2022-07-22T09:58:05.000",
    "request_status": "Closed",
    "responsible_agency": "Department of Code Enforcement",
    "final_address": "1620 Duels St",
    "address_councildis": "D",
    "status": "Referred to Code Enforcement",
    "rowid": "902658",
    "final_x": "3680186.79823",
    "final_y": "542131.996493",
    "longitude": "-90.07184803079893",
    "latitude": "29.984714832315202",
    "geocoded_column": {
      "latitude": "29.984714832315202",
      "longitude": "-90.07184803079893"
    }
  },
  {
    "service_request": "2022-902657",
    "request_type": "Trash/Recycling",
    "request_reason": "Request a Large Item Pick Up",
    "date_created": "2022-07-22T14:26:29.000",
    "date_modified": "2022-07-22T14:26:30.000",
    "request_status": "Pending",
    "responsible_agency": "Department of Sanitation",
    "final_address": "3112 College Ct",
    "address_councildis": "B",
    "status": "Assigned to Contractor",
    "contractor": "Richards Disposal",
    "rowid": "902657",
    "final_x": "3668455.17255",
    "final_y": "531850.409731",
    "longitude": "-90.10925017662558",
    "latitude": "29.956793826271717",
    "geocoded_column": {
      "latitude": "29.956793826271717",
      "longitude": "-90.10925017662558"
    }
  },
  {
    "service_request": "2022-902656",
    "request_type": "Trash/Recycling",
    "request_reason": "Request a Large Item Pick Up",
    "date_created": "2022-07-22T14:25:40.000",
    "date_modified": "2022-07-22T14:25:41.000",
    "request_status": "Pending",
    "responsible_agency": "Department of Sanitation",
    "final_address": "1532 Flanders St",
    "address_councildis": "C",
    "status": "Assigned to Contractor",
    "contractor": "Richards Disposal",
    "rowid": "902656",
    "final_x": "3696736.71594",
    "final_y": "525569.018621",
    "longitude": "-90.02017386712721",
    "latitude": "29.93866114121415",
    "geocoded_column": {
      "latitude": "29.93866114121415",
      "longitude": "-90.02017386712721"
    }
  },
  {
    "service_request": "2022-902655",
    "request_type": "Trash/Recycling",
    "request_reason": "MIssed Recycling Pick-Up",
    "date_created": "2022-07-22T14:25:09.000",
    "date_modified": "2022-07-22T14:25:09.000",
    "case_close_date": "2022-06-14T19:00:00.000",
    "request_status": "Pending",
    "responsible_agency": "Department of Sanitation",
    "final_address": "9204 Edinburgh St",
    "address_councildis": "A",
    "status": "Assigned to Contractor",
    "contractor": "Richards Disposal",
    "rowid": "902655",
    "final_x": "3664560.55732",
    "final_y": "537046.577288",
    "longitude": "-90.12137463593447",
    "latitude": "29.971195406696545",
    "geocoded_column": {
      "latitude": "29.971195406696545",
      "longitude": "-90.12137463593447"
    }
  },
  {
    "service_request": "2022-902654",
    "request_type": "Trash/Recycling",
    "request_reason": "Replace Trash Cart",
    "date_created": "2022-07-22T14:24:44.000",
    "date_modified": "2022-07-22T14:24:46.000",
    "request_status": "Pending",
    "responsible_agency": "Department of Sanitation",
    "final_address": "1 Cypress Grove Ct",
    "address_councildis": "C",
    "status": "Assigned to Contractor",
    "contractor": "Richards Disposal",
    "rowid": "902654",
    "final_x": "3704731.68273",
    "final_y": "512168.713649",
    "longitude": "-89.99542707290567",
    "latitude": "29.90156058274238",
    "geocoded_column": {
      "latitude": "29.90156058274238",
      "longitude": "-89.99542707290567"
    }
  },