[
  {
    "service_request": "2026-1259168",
    "request_type": "Trash/Recycling",
    "request_reason": "Request a Large Item Pick Up",
    "date_created": "2026-02-18T23:28:43.000",
    "date_modified": "2026-02-18T23:28:45.000",
    "request_status": "Pending",
    "responsible_agency": "Department of Sanitation",
    "final_address": "2501 Amelia St",
    "address_councildis": "B",
    "status": "Assigned to Contractor",
    "contractor": "IV Waste",
    "rowid": "1259168",
    "final_x": "3672390.71553",
    "final_y": "524322.746748",
    "longitude": "-90.09707941732725",
    "latitude": "29.93597903240438",
    "geocoded_column": {
      "latitude": "29.93597903240438",
      "longitude": "-90.09707941732725"
    }
  },
  {
    "service_request": "2026-1259167",
    "request_type": "General Services",
    "request_reason": "General Service Request",
    "date_created": "2026-02-18T23:05:55.000",
    "date_modified": "2026-02-18T23:05:57.000",
    "request_status": "Pending",
    "responsible_agency": "Orleans Parish Communication District",
    "final_address": "941 Bourbon St",
    "address_councildis": "C",
    "status": "Pending",
    "rowid": "1259167",
    "final_x": "3682900.95292",
    "final_y": "533555.780869",
    "longitude": "-90.06357538722466",
    "latitude": "29.96105077470387",
    "geocoded_column": {
      "latitude": "29.96105077470387",
      "longitude": "-90.06357538722466"
    }
  },
  {
    "service_request": "2026-1259166",
    "request_type": "Abandoned Vehicles",
    "request_reason": "Abandoned/Junk Vehicles",
    "date_created": "2026-02-18T22:50:32.000",
    "date_modified": "2026-02-18T22:50:34.000",
    "request_status": "Pending",
    "responsible_agency": "Department of Public Works",
    "final_address": "2012 Seventh St",
    "address_councildis": "B",
    "status": "Pending",
    "rowid": "1259166",
    "final_x": "3674360.35649",
    "final_y": "523373.689147",
    "longitude": "-90.09089369532842",
    "latitude": "29.933310853726567",
    "geocoded_column": {
      "latitude": "29.933310853726567",
      "longitude": "-90.09089369532842"
    }
  },
  {
    "service_request": "2026-1259165",
    "request_type": "Trash/Recycling",
    "request_reason": "Order Trash Cart",
    "date_created": "2026-02-18T21:57:16.000",
    "date_modified": "2026-02-18T21:57:35.000",
    "request_status": "Pending",
    "responsible_agency": "Department of Sanitation",
    "final_address": "4531 Paris Ave",
    "address_councildis": "D",
    "status": "Assigned to Contractor",
    "contractor": "IV Waste",
    "rowid": "1259165",
    "final_x": "3679493.93915",
    "final_y": "549404.890835",
    "longitude": "-90.07378395525862",
    "latitude": "30.004733679428874",
    "geocoded_column": {
      "latitude": "30.004733679428874",
      "longitude": "-90.07378395525862"
    }
  },
  {
    "service_request": "2026-1259164",
    "request_type": "General Services",
    "request_reason": "General Service Request",
    "date_created": "2026-02-18T21:34:58.000",
    "date_modified": "2026-02-18T21:35:02.000",
    "request_status": "Pending",
    "responsible_agency": "Orleans Parish Communication District",
    "final_address": "1561 N Roman St",
    "address_councildis": "D",
    "status": "Pending",
    "rowid": "1259164",
    "final_x": "3681448.28885",
    "final_y": "538061.599241",
    "longitude": "-90.06800550659365",
    "latitude": "29.973484409985602",
    "geocoded_column": {
      "latitude": "29.973484409985602",
      "longitude": "-90.06800550659365"
    }
  },
  {
    "service_request": "2026-1259163",
    "request_type": "Roads and Streets",
    "request_reason": "Pothole",
    "date_created": "2026-02-18T21:15:36.000",
    "date_modified": "2026-02-18T21:15:38.000",
    "request_status": "Pending",
    "responsible_agency": "Department of Public Works",
    "final_address": "3900 BLK Coliseum St",
    "address_councildis": "B",
    "status": "Pending",
    "rowid": "1259163",
    "final_x": "3672590.62493",
    "final_y": "519988.266242",
    "longitude": "-90.096595993456",
    "latitude": "29.92405467559211",
    "geocoded_column": {
      "latitude": "29.92405467559211",
      "longitude": "-90.096595993456"
    }
  },
  {
    "service_request": "2026-1259162",
    "request_type": "Trash/Recycling",
    "request_reason": "Illegal Dumping",
    "date_created": "2026-02-18T21:04:25.000",
    "date_modified": "2026-02-18T21:04:26.000",
    "request_status": "Pending",
    "responsible_agency": "Department of Sanitation",
    "final_address": "2500 BLK France St",
    "address_councildis": "D",
    "status": "Pending",
    "rowid": "1259162",
    "final_x": "3693650.16286",
    "final_y": "540518.155628",
    "longitude": "-90.02938131855528",
    "latitude": "29.979862923798795",
    "geocoded_column": {
      "latitude": "29.979862923798795",
      "longitude": "-90.02938131855528"
    }
  },
  {
    "service_request": "2026-1259161",
    "request_type": "Street and Traffic Signs",
    "request_reason": "Street Name Sign Damaged or Missing",
    "date_created": "2026-02-18T20:54:59.000",
    "date_modified": "2026-02-18T20:55:16.000",
    "request_status": "Pending",
    "responsible_agency": "Department of Public Works",
    "final_address": "PHILIP ST & S CLAIBORNE AVE",
    "address_councildis": "B",
    "status": "Pending",
    "rowid": "1259161",
    "final_x": "3674426.5",
    "final_y": "527470.48",
    "longitude": "-90.09054460811814",
    "latitude": "29.94457371673237",
    "geocoded_column": {
      "latitude": "29.94457371673237",
      "longitude": "-90.09054460811814"
    }
  },
  {
    "service_request": "2026-1259160",
    "request_type": "Parks & Parkways",
    "request_reason": "Park Maintenance/Clean Up",
    "date_created": "2026-02-18T20:38:58.000",
    "date_modified": "2026-02-18T20:39:00.000",
    "request_status": "Pending",
    "responsible_agency": "Department of Parks & Parkway",
    "final_address": "4705 Painters St",
    "address_councildis": "D",
    "status": "Pending",
    "rowid": "1259160",
    "final_x": "3686315.53148",
    "final_y": "550304.699924",
    "longitude": "-90.0522014538031",
    "latitude": "30.006999880437007",
    "geocoded_column": {
      "latitude": "30.006999880437007",
      "longitude": "-90.0522014538031"
    }
  },
  {
    "service_request": "2026-1259159",
    "request_type": "Trash/Recycling",
    "request_reason": "Request a Large Item Pick Up",
    "date_created": "2026-02-18T20:38:47.000",
    "date_modified": "2026-02-18T20:38:49.000",
    "request_status": "Pending",
    "responsible_agency": "Department of Sanitation",
    "final_address": "1619 Piety St",
    "address_councildis": "D",
    "status": "Assigned to Contractor",
    "contractor": "IV Waste",
    "rowid": "1259159",
    "final_x": "3690397.28937",
    "final_y": "537857.294153",
    "longitude": "-90.03975007203499",
    "latitude": "29.972647882339114",
    "geocoded_column": {
      "latitude": "29.972647882339114",
      "longitude": "-90.03975007203499"
    }
  },
  {
    "service_request": "2026-1259158",
    "request_type": "Streetlights",
    "request_reason": "Streetlight Outage/Malfunction",
    "date_created": "2026-02-18T20:26:54.000",
    "date_modified": "2026-02-18T20:26:57.000",
    "request_status": "Pending",
    "responsible_agency": "Department of Public Works",
    "final_address": "WEST END BLVD & NEW BASIN WAY",
    "address_councildis": "A",
    "status": "Pending",
    "rowid": "1259158",
    "final_x": "3666821.25",
    "final_y": "554179.35",
    "longitude": "-90.11365909128256",
    "latitude": "30.018238717360745",
    "geocoded_column": {
      "latitude": "30.018238717360745",
      "longitude": "-90.11365909128256"
    }
  },
  {
    "service_request": "2026-1259157",
    "request_type": "Trash/Recycling",
    "request_reason": "Return Trash Cart",
    "date_created": "2026-02-18T19:57:56.000",
    "date_modified": "2026-02-18T19:57:58.000",
    "request_status": "Pending",
    "responsible_agency": "Department of Sanitation",
    "final_address": "8134 Freret St",
    "address_councildis": "A",
    "status": "Assigned to Contractor",
    "contractor": "IV Waste",
    "rowid": "1259157",
    "final_x": "3661258.30138",
    "final_y": "528017.572991",
    "longitude": "-90.13210260039614",
    "latitude": "29.946464196405227",
    "geocoded_column": {
      "latitude": "29.946464196405227",
      "longitude": "-90.13210260039614"
    }
  },
  {
    "service_request": "2026-1259156",
    "request_type": "Property Maintenance",
    "request_reason": "Property Maintenance",
    "date_created": "2026-02-18T19:52:22.000",
    "date_modified": "2026-02-18T19:52:24.000",
    "request_status": "Pending",
    "responsible_agency": "Department of Code Enforcement",
    "final_address": "4516 S Robertson St",
    "address_councildis": "B",
    "status": "Pending",
    "rowid": "1259156",
    "final_x": "3669948.49806",
    "final_y": "524303.036476",
    "longitude": "-90.10479024132798",
    "latitude": "29.935997061313838",
    "geocoded_column": {
      "latitude": "29.935997061313838",
      "longitude": "-90.10479024132798"
    }
  },
  {
    "service_request": "2026-1259155",
    "request_type": "Trash/Recycling",
    "request_reason": "Order Recycling Cart",
    "date_created": "2026-02-18T19:15:47.000",
    "date_modified": "2026-02-18T19:15:48.000",
    "request_status": "Pending",
    "responsible_agency": "Department of Sanitation",
    "final_address": "2716 Lowerline St",
    "address_councildis": "A",
    "status": "Pending",
    "rowid": "1259155",
    "final_x": "3666764.17581",
    "final_y": "531504.699843",
    "longitude": "-90.11460143552313",
    "latitude": "29.955892800639603",
    "geocoded_column": {
      "latitude": "29.955892800639603",
      "longitude": "-90.11460143552313"
    }
  },
  {
    "service_request": "2026-1259154",
    "request_type": "Property Maintenance",
    "request_reason": "Property Maintenance",
    "date_created": "2026-02-18T19:15:01.000",
    "date_modified": "2026-02-18T19:15:03.000",
    "request_status": "Pending",
    "responsible_agency": "Department of Code Enforcement",
    "final_address": "4728 Conti St",
    "address_councildis": "A",
    "status": "Pending",
    "rowid": "1259154",
    "final_x": "3669609.47514",
    "final_y": "540891.265739",
    "longitude": "-90.10529928707581",
    "latitude": "29.98161919775765",
    "geocoded_column": {
      "latitude": "29.98161919775765",
      "longitude": "-90.10529928707581"
    }
  },
  {
    "service_request": "2026-1259153",
    "request_type": "Trash/Recycling",
    "request_reason": "MIssed Recycling Pick-Up",
    "date_created": "2026-02-18T19:07:44.000",
    "date_modified": "2026-02-18T19:07:45.000",
    "request_status": "Pending",
    "responsible_agency": "Department of Sanitation",
    "final_address": "2716 Lowerline St",
    "address_councildis": "A",
    "status": "Assigned to Contractor",
    "contractor": "IV Waste",
    "rowid": "1259153",
    "final_x": "3666764.17581",
    "final_y": "531504.699843",
    "longitude": "-90.11460143552313",
    "latitude": "29.955892800639603",
    "geocoded_column": {
      "latitude": "29.955892800639603",
      "longitude": "-90.11460143552313"
    }
  },
  {
    "service_request": "2026-1259152",
    "request_type": "Trash/Recycling",
    "request_reason": "Missed Trash Pick-Up",
    "date_created": "2026-02-18T19:04:59.000",
    "date_modified": "2026-02-18T19:05:13.000",
    "request_status": "Pending",
    "responsible_agency": "Department of Sanitation",
    "final_address": "2716 Lowerline St",
    "address_councildis": "A",
    "status": "Assigned to Contractor",
    "contractor": "IV Waste",
    "rowid": "1259152",
    "final_x": "3666764.17581",
    "final_y": "531504.699843",
    "longitude": "-90.11460143552313",
    "latitude": "29.955892800639603",
    "geocoded_column": {
      "latitude": "29.955892800639603",
      "longitude": "-90.11460143552313"
    }
  },
  {
    "service_request": "2026-1259151",
    "request_type": "Streetlights",
    "request_reason": "Streetlight Outage/Malfunction",
    "date_created": "2026-02-18T18:55:14.000",
    "date_modified": "2026-02-18T18:55:16.000",
    "request_status": "Pending",
    "responsible_agency": "Department of Public Works",
    "final_address": "5230 Lakeview Ct",
    "address_councildis": "E",
    "status": "Pending",
    "rowid": "1259151",
    "final_x": "3699022.38231",
    "final_y": "556734.164634",
    "longitude": "-90.011823058309",
    "latitude": "30.024281708066262",
    "geocoded_column": {
      "latitude": "30.024281708066262",
      "longitude": "-90.011823058309"
    }
  },
  {
    "service_request": "2026-1259150",
    "request_type": "Streetlights",
    "request_reason": "Streetlight Outage/Malfunction",
    "date_created": "2026-02-18T18:52:43.000",
    "date_modified": "2026-02-18T18:52:45.000",
    "request_status": "Pending",
    "responsible_agency": "Department of Public Works",
    "final_address": "2511 St Charles Ave Unit 505",
    "address_councildis": "B",
    "status": "Pending",
    "rowid": "1259150",
    "final_x": "3676511.46593",
    "final_y": "523072.943739",
    "longitude": "-90.08411312138855",
    "latitude": "29.932419591843104",
    "geocoded_column": {
      "latitude": "29.932419591843104",
      "longitude": "-90.08411312138855"
    }
  },
  {
    "service_request": "2026-1259149",
    "request_type": "Property Maintenance",
    "request_reason": "Property Maintenance",
    "date_created": "2026-02-18T18:22:03.000",
    "date_modified": "2026-02-18T18:22:04.000",
    "request_status": "Pending",
    "responsible_agency": "Department of Code Enforcement",
    "final_address": "2114 S Saratoga St",
    "address_councildis": "B",
    "status": "Pending",
    "rowid": "1259149",
    "final_x": "3676665.87477",
    "final_y": "525326.271805",
    "longitude": "-90.08354807761322",
    "latitude": "29.938610876196563",
    "geocoded_column": {
      "latitude": "29.938610876196563",
      "longitude": "-90.08354807761322"
    }
  },
  {
    "service_request": "2026-1259148",
    "request_type": "Trash/Recycling",
    "request_reason": "Missed Trash Pick-Up",
    "date_created": "2026-02-18T18:15:49.000",
    "date_modified": "2026-02-18T18:15:51.000",
    "request_status": "Pending",
    "responsible_agency": "Department of Sanitation",
    "final_address": "4444 Dodt Ave, New Orleans, Louisiana, 70126",
    "address_councildis": "E",
    "status": "Assigned to Contractor",
    "contractor": "Waste Pro",
    "rowid": "1259148",
    "final_x": "3705551.04625",
    "final_y": "553695.131799",
    "longitude": "-89.99130630817118",
    "latitude": "30.01571689027482",
    "geocoded_column": {
      "latitude": "30.01571689027482",
      "longitude": "-89.99130630817118"
    }
  },
  {
    "service_request": "2026-1259147",
    "request_type": "Property Maintenance",
    "request_reason": "Property Maintenance",
    "date_created": "2026-02-18T18:14:15.000",
    "date_modified": "2026-02-18T18:14:17.000",
    "request_status": "Pending",
    "responsible_agency": "Department of Code Enforcement",
    "final_address": "6501 Memphis St",
    "address_councildis": "A",
    "status": "Pending",
    "rowid": "1259147",
    "final_x": "3669591.56679",
    "final_y": "550687.182356",
    "longitude": "-90.10502418081875",
    "latitude": "30.00855511546219",
    "geocoded_column": {
      "latitude": "30.00855511546219",
      "longitude": "-90.10502418081875"
    }
  },
  {
    "service_request": "2026-1259146",
    "request_type": "Trash/Recycling",
    "request_reason": "Missed Trash Pick-Up",
    "date_created": "2026-02-18T18:08:10.000",
    "date_modified": "2026-02-18T18:08:12.000",
    "request_status": "Pending",
    "responsible_agency": "Department of Sanitation",
    "final_address": "4237 Iberville St",
    "address_councildis": "A",
    "status": "Assigned to Contractor",
    "contractor": "IV Waste",
    "rowid": "1259146",
    "final_x": "3670630.98907",
    "final_y": "539287.518474",
    "longitude": "-90.10212728864745",
    "latitude": "29.9771792947787",
    "geocoded_column": {
      "latitude": "29.9771792947787",
      "longitude": "-90.10212728864745"
    }
  },
  {
    "service_request": "2026-1259145",
    "request_type": "Streetlights",
    "request_reason": "Streetlight Outage/Malfunction",
    "date_created": "2026-02-18T18:02:32.000",
    "date_modified": "2026-02-18T18:02:34.000",
    "request_status": "Pending",
    "responsible_agency": "Department of Public Works",
    "final_address": "7040 Bunker Hill Rd",
    "address_councildis": "E",
    "status": "Pending",
    "rowid": "1259145",
    "final_x": "3705847.22846",
    "final_y": "560478.231518",
    "longitude": "-89.99011928375464",
    "latitude": "30.034358235623273",
    "geocoded_column": {
      "latitude": "30.034358235623273",
      "longitude": "-89.99011928375464"
    }
  },
  {
    "service_request": "2026-1259144",
    "request_type": "Trash/Recycling",
    "request_reason": "Replace Recycling Cart",
    "date_created": "2026-02-18T17:47:59.000",
    "date_modified": "2026-02-18T17:48:00.000",
    "request_status": "Pending",
    "responsible_agency": "Department of Sanitation",
    "final_address": "5730 St Bernard Ave",
    "address_councildis": "D",
    "status": "Pending",
    "rowid": "1259144",
    "final_x": "3676757.51131",
    "final_y": "553538.176535",
    "longitude": "-90.08228631262965",
    "latitude": "30.016181162403058",
    "geocoded_column": {
      "latitude": "30.016181162403058",
      "longitude": "-90.08228631262965"
    }
  },
  {
    "service_request": "2026-1259143",
    "request_type": "Parks & Parkways",
    "request_reason": "Request Tree Service (Right of Way/Public Property)",
    "date_created": "2026-02-18T17:35:00.000",
    "date_modified": "2026-02-18T17:35:03.000",
    "request_status": "Pending",
    "responsible_agency": "Department of Parks & Parkway",
    "final_address": "3845 Peach Tree Ct",
    "address_councildis": "C",
    "status": "Pending",
    "rowid": "1259143",
    "final_x": "3704136.70686",
    "final_y": "512398.590129",
    "longitude": "-89.99729630411032",
    "latitude": "29.90221175383216",
    "geocoded_column": {
      "latitude": "29.90221175383216",
      "longitude": "-89.99729630411032"
    }
  },
  {
    "service_request": "2026-1259142",
    "request_type": "Trash/Recycling",
    "request_reason": "Illegal Dumping",
    "date_created": "2026-02-18T17:27:30.000",
    "date_modified": "2026-02-18T17:27:34.000",
    "request_status": "Pending",
    "responsible_agency": "Department of Sanitation",
    "final_address": "617 Napoleon Ave Unit A",
    "address_councildis": "B",
    "status": "Pending",
    "rowid": "1259142",
    "final_x": "3671253.91758",
    "final_y": "517923.106166",
    "longitude": "-90.10088563176029",
    "latitude": "29.918415745244317",
    "geocoded_column": {
      "latitude": "29.918415745244317",
      "longitude": "-90.10088563176029"
    }
  },
  {
    "service_request": "2026-1259141",
    "request_type": "Trash/Recycling",
    "request_reason": "Order Recycling Cart",
    "date_created": "2026-02-18T17:16:47.000",
    "date_modified": "2026-02-18T17:16:49.000",
    "request_status": "Pending",
    "responsible_agency": "Department of Sanitation",
    "final_address": "321 Webster St",
    "address_councildis": "A",
    "status": "Pending",
    "rowid": "1259141",
    "final_x": "3663616.11827",
    "final_y": "517927.649398",
    "longitude": "-90.12499405427005",
    "latitude": "29.91865191713978",
    "geocoded_column": {
      "latitude": "29.91865191713978",
      "longitude": "-90.12499405427005"
    }
  },
  {
    "service_request": "2026-1259140",
    "request_type": "Trash/Recycling",
    "request_reason": "Replace Trash Cart",
    "date_created": "2026-02-18T17:15:46.000",
    "date_modified": "2026-02-18T17:15:48.000",
    "request_status": "Pending",
    "responsible_agency": "Department of Sanitation",
    "final_address": "3113 Banks St",
    "address_councildis": "B",
    "status": "Assigned to Contractor",
    "contractor": "IV Waste",
    "rowid": "1259140",
    "final_x": "3673274.43675",
    "final_y": "535242.90791",
    "longitude": "-90.09391657799674",
    "latitude": "29.96597961929632",
    "geocoded_column": {
      "latitude": "29.96597961929632",
      "longitude": "-90.09391657799674"
    }
  },
  {
    "service_request": "2026-1259139",
    "request_type": "Trash/Recycling",
    "request_reason": "Request a Large Item Pick Up",
    "date_created": "2026-02-18T17:13:53.000",
    "date_modified": "2026-02-18T17:13:55.000",
    "request_status": "Pending",
    "responsible_agency": "Department of Sanitation",
    "final_address": "3115 Banks St",
    "address_councildis": "B",
    "status": "Assigned to Contractor",
    "contractor": "IV Waste",
    "rowid": "1259139",
    "final_x": "3673262.63118",
    "final_y": "535254.364998",
    "longitude": "-90.09395346837086",
    "latitude": "29.96601147355268",
    "geocoded_column": {
      "latitude": "29.96601147355268",
      "longitude": "-90.09395346837086"
    }
  },
  {
    "service_request": "2026-1259138",
    "request_type": "Trash/Recycling",
    "request_reason": "Request a Large Item Pick Up",
    "date_created": "2026-02-18T17:03:08.000",
    "date_modified": "2026-02-18T17:03:10.000",
    "request_status": "Pending",
    "responsible_agency": "Department of Sanitation",
    "final_address": "2924 Pauger St",
    "address_councildis": "D",
    "status": "Assigned to Contractor",
    "contractor": "IV Waste",
    "rowid": "1259138",
    "final_x": "3683476.4509",
    "final_y": "540465.050571",
    "longitude": "-90.06151590363741",
    "latitude": "29.9800313234574",
    "geocoded_column": {
      "latitude": "29.9800313234574",
      "longitude": "-90.06151590363741"
    }
  },
  {
    "service_request": "2026-1259137",
    "request_type": "Abandoned Vehicles",
    "request_reason": "Abandoned/Junk Vehicles",
    "date_created": "2026-02-18T16:59:14.000",
    "date_modified": "2026-02-18T16:59:15.000",
    "request_status": "Pending",
    "responsible_agency": "Department of Public Works",
    "final_address": "6411 Memphis St",
    "address_councildis": "A",
    "status": "Pending",
    "rowid": "1259137",
    "final_x": "3669516.70433",
    "final_y": "550082.914388",
    "longitude": "-90.1052811564466",
    "latitude": "30.006895796650873",
    "geocoded_column": {
      "latitude": "30.006895796650873",
      "longitude": "-90.1052811564466"
    }
  },
  {
    "service_request": "2026-1259136",
    "request_type": "Trash/Recycling",
    "request_reason": "Request a Large Item Pick Up",
    "date_created": "2026-02-18T16:58:51.000",
    "date_modified": "2026-02-18T16:58:53.000",
    "request_status": "Pending",
    "responsible_agency": "Department of Sanitation",
    "final_address": "4742 Redwood St",
    "address_councildis": "E",
    "status": "Assigned to Contractor",
    "contractor": "Waste Pro",
    "rowid": "1259136",
    "final_x": "3712410.96894",
    "final_y": "556169.862106",
    "longitude": "-89.96953922772583",
    "latitude": "30.02229872694248",
    "geocoded_column": {
      "latitude": "30.02229872694248",
      "longitude": "-89.96953922772583"
    }
  },
  {
    "service_request": "2026-1259135",
    "request_type": "Trash/Recycling",
    "request_reason": "Request a Large Item Pick Up",
    "date_created": "2026-02-18T16:55:43.000",
    "date_modified": "2026-02-18T16:55:45.000",
    "request_status": "Pending",
    "responsible_agency": "Department of Sanitation",
    "final_address": "2123 Timoleon St",
    "address_councildis": "D",
    "status": "Assigned to Contractor",
    "contractor": "IV Waste",
    "rowid": "1259135",
    "final_x": "3683222.17442",
    "final_y": "551107.898517",
    "longitude": "-90.06194603772728",
    "latitude": "30.009303122112623",
    "geocoded_column": {
      "latitude": "30.009303122112623",
      "longitude": "-90.06194603772728"
    }
  },
  {
    "service_request": "2026-1259134",
    "request_type": "Trash/Recycling",
    "request_reason": "Replace Trash Cart",
    "date_created": "2026-02-18T16:53:26.000",
    "date_modified": "2026-02-18T16:54:25.000",
    "request_status": "Pending",
    "responsible_agency": "Department of Sanitation",
    "final_address": "5101 Pauger St",
    "address_councildis": "D",
    "status": "Assigned to Contractor",
    "contractor": "IV Waste",
    "rowid": "1259134",
    "final_x": "3682757.68994",
    "final_y": "551460.808597",
    "longitude": "-90.06340114497816",
    "latitude": "30.010287659842433",
    "geocoded_column": {
      "latitude": "30.010287659842433",
      "longitude": "-90.06340114497816"
    }
  },
  {
    "service_request": "2026-1259133",
    "request_type": "Safety & Permits",
    "request_reason": "Licenses & Permits",
    "date_created": "2026-02-18T16:53:03.000",
    "date_modified": "2026-02-18T16:53:06.000",
    "request_status": "Pending",
    "responsible_agency": "Safety and Permits",
    "final_address": "5620 Rosemary Pl",
    "address_councildis": "A",
    "status": "Pending",
    "rowid": "1259133",
    "final_x": "3667088.00525",
    "final_y": "544957.290191",
    "longitude": "-90.11312653536545",
    "latitude": "29.99287344729997",
    "geocoded_column": {
      "latitude": "29.99287344729997",
      "longitude": "-90.11312653536545"
    }
  },
  {
    "service_request": "2026-1259132",
    "request_type": "Trash/Recycling",
    "request_reason": "Replace Trash Cart",
    "date_created": "2026-02-18T16:49:52.000",
    "date_modified": "2026-02-18T16:49:54.000",
    "request_status": "Pending",
    "responsible_agency": "Department of Sanitation",
    "final_address": "135 S St Patrick St",
    "address_councildis": "A",
    "status": "Assigned to Contractor",
    "contractor": "IV Waste",
    "rowid": "1259132",
    "final_x": "3668875.71975",
    "final_y": "539599.713162",
    "longitude": "-90.10766047163138",
    "latitude": "29.978089467652417",
    "geocoded_column": {
      "latitude": "29.978089467652417",
      "longitude": "-90.10766047163138"
    }
  },
  {
    "service_request": "2026-1259131",
    "request_type": "Roads and Streets",
    "request_reason": "Debris in Driving Lanes",
    "date_created": "2026-02-18T16:49:38.000",
    "date_modified": "2026-02-18T16:49:40.000",
    "request_status": "Pending",
    "responsible_agency": "Department of Public Works",
    "final_address": "14900 Lincoln Beach Blvd",
    "address_councildis": "E",
    "status": "Pending",
    "rowid": "1259131",
    "final_x": "3720092.02438",
    "final_y": "575335.573419",
    "longitude": "-89.9445352996144",
    "latitude": "30.074742920646166",
    "geocoded_column": {
      "latitude": "30.074742920646166",
      "longitude": "-89.9445352996144"
    }
  },
  {
    "service_request": "2026-1259130",
    "request_type": "Streetlights",
    "request_reason": "Streetlight Outage/Malfunction",
    "date_created": "2026-02-18T16:45:27.000",
    "date_modified": "2026-02-18T16:45:29.000",
    "request_status": "Pending",
    "responsible_agency": "Department of Public Works",
    "final_address": "2939 George Nick Connor Dr",
    "address_councildis": "D",
    "status": "Pending",
    "rowid": "1259130",
    "final_x": "3681048.83266",
    "final_y": "543308.063694",
    "longitude": "-90.06908425530244",
    "latitude": "29.987922481085707",
    "geocoded_column": {
      "latitude": "29.987922481085707",
      "longitude": "-90.06908425530244"
    }
  },
  {
    "service_request": "2026-1259129",
    "request_type": "Trash/Recycling",
    "request_reason": "Missed Trash Pick-Up",
    "date_created": "2026-02-18T16:44:32.000",
    "date_modified": "2026-02-18T16:55:37.000",
    "case_close_date": "2026-02-18T10:55:37.000",
    "request_status": "Closed",
    "responsible_agency": "Department of Sanitation",
    "final_address": "4138 Erato St Unit A",
    "address_councildis": "B",
    "status": "Invalid Request",
    "contractor": "IV Waste",
    "contractor_action": "Invalid Request",
    "rowid": "1259129",
    "final_x": "3671138.92987",
    "final_y": "531289.45677",
    "longitude": "-90.10079476004526",
    "latitude": "29.95517228493372",
    "geocoded_column": {
      "latitude": "29.95517228493372",
      "longitude": "-90.10079476004526"
    }
  },
  {
    "service_request": "2026-1259128",
    "request_type": "Trash/Recycling",
    "request_reason": "Missed Trash Pick-Up",
    "date_created": "2026-02-18T16:44:07.000",
    "date_modified": "2026-02-18T16:44:09.000",
    "request_status": "Pending",
    "responsible_agency": "Department of Sanitation",
    "final_address": "12310 Carmel Pl",
    "address_councildis": "E",
    "status": "Assigned to Contractor",
    "contractor": "Waste Pro",
    "rowid": "1259128",
    "final_x": "3715823.54373",
    "final_y": "566469.189859",
    "longitude": "-89.95836594580753",
    "latitude": "30.050505606448535",
    "geocoded_column": {
      "latitude": "30.050505606448535",
      "longitude": "-89.95836594580753"
    }
  },
  {
    "service_request": "2026-1259127",
    "request_type": "Roads and Streets",
    "request_reason": "Pothole",
    "date_created": "2026-02-18T16:42:53.000",
    "date_modified": "2026-02-18T16:42:55.000",
    "request_status": "Pending",
    "responsible_agency": "Department of Public Works",
    "final_address": "PINE ST & ZIMPLE ST",
    "address_councildis": "A",
    "status": "Pending",
    "rowid": "1259127",
    "final_x": "3663719.7",
    "final_y": "526361.68",
    "longitude": "-90.12438621939606",
    "latitude": "29.941839839383267",
    "geocoded_column": {
      "latitude": "29.941839839383267",
      "longitude": "-90.12438621939606"
    }
  },
  {
    "service_request": "2026-1259126",
    "request_type": "General Services",
    "request_reason": "General Service Request",
    "date_created": "2026-02-18T16:40:15.000",
    "date_modified": "2026-02-18T16:43:43.000",
    "case_close_date": "2026-02-18T10:41:32.000",
    "request_status": "Closed",
    "responsible_agency": "Orleans Parish Communication District",
    "final_address": "PINE ST & ZIMPLE ST",
    "address_councildis": "A",
    "status": "Referred to Risk Management",
    "rowid": "1259126",
    "final_x": "3663719.7",
    "final_y": "526361.68",
    "longitude": "-90.12438621939606",
    "latitude": "29.941839839383267",
    "geocoded_column": {
      "latitude": "29.941839839383267",
      "longitude": "-90.12438621939606"
    }
  },
  {
    "service_request": "2026-1259125",
    "request_type": "Trash/Recycling",
    "request_reason": "Request a Large Item Pick Up",
    "date_created": "2026-02-18T16:39:06.000",
    "date_modified": "2026-02-18T16:39:08.000",
    "request_status": "Pending",
    "responsible_agency": "Department of Sanitation",
    "final_address": "3310 Magazine St",
    "address_councildis": "B",
    "status": "Assigned to Contractor",
    "contractor": "IV Waste",
    "rowid": "1259125",
    "final_x": "3675311.25057",
    "final_y": "519705.878392",
    "longitude": "-90.08801762084411",
    "latitude": "29.923197176868143",
    "geocoded_column": {
      "latitude": "29.923197176868143",
      "longitude": "-90.08801762084411"
    }
  },
  {
    "service_request": "2026-1259124",
    "request_type": "Roads and Streets",
    "request_reason": "Pothole",
    "date_created": "2026-02-18T16:38:36.000",
    "date_modified": "2026-02-18T16:38:37.000",
    "request_status": "Pending",
    "responsible_agency": "Department of Public Works",
    "final_address": "7367 Chef Menteur Hwy",
    "address_councildis": "E",
    "status": "Pending",
    "rowid": "1259124",
    "final_x": "3702439.29188",
    "final_y": "552418.926358",
    "longitude": "-90.00118484812147",
    "latitude": "30.01230765577533",
    "geocoded_column": {
      "latitude": "30.01230765577533",
      "longitude": "-90.00118484812147"
    }
  },
  {
    "service_request": "2026-1259123",
    "request_type": "Abandoned Vehicles",
    "request_reason": "Abandoned/Junk Vehicles",
    "date_created": "2026-02-18T16:38:19.000",
    "date_modified": "2026-02-18T16:38:21.000",
    "request_status": "Pending",
    "responsible_agency": "Department of Public Works",
    "final_address": "5426 N Villere St",
    "address_councildis": "E",
    "status": "Pending",
    "rowid": "1259123",
    "final_x": "3697679.48266",
    "final_y": "534993.622214",
    "longitude": "-90.0168556142978",
    "latitude": "29.964545747128682",
    "geocoded_column": {
      "latitude": "29.964545747128682",
      "longitude": "-90.0168556142978"
    }
  },
  {
    "service_request": "2026-1259122",
    "request_type": "Health Related Request",
    "request_reason": "Homeless Encampment Complaint",
    "date_created": "2026-02-18T16:35:56.000",
    "date_modified": "2026-02-18T16:35:58.000",
    "request_status": "Pending",
    "responsible_agency": "Office Of Homeless Services And Strategy",
    "final_address": "5104 St Claude Ave",
    "address_councildis": "E",
    "status": "Pending",
    "rowid": "1259122",
    "final_x": "3696434.01437",
    "final_y": "534084.165189",
    "longitude": "-90.02082158787235",
    "latitude": "29.9620843502078",
    "geocoded_column": {
      "latitude": "29.9620843502078",
      "longitude": "-90.02082158787235"
    }
  },
  {
    "service_request": "2026-1259121",
    "request_type": "Trash/Recycling",
    "request_reason": "Request a Large Item Pick Up",
    "date_created": "2026-02-18T16:32:30.000",
    "date_modified": "2026-02-18T16:32:31.000",
    "request_status": "Pending",
    "responsible_agency": "Department of Sanitation",
    "final_address": "6954 Foch Rd",
    "address_councildis": "D",
    "status": "Assigned to Contractor",
    "contractor": "Waste Pro",
    "rowid": "1259121",
    "final_x": "3696456.46999",
    "final_y": "556667.512026",
    "longitude": "-90.01993324472464",
    "latitude": "30.024179558756934",
    "geocoded_column": {
      "latitude": "30.024179558756934",
      "longitude": "-90.01993324472464"
    }
  },
  {
    "service_request": "2026-1259120",
    "request_type": "Trash/Recycling",
    "request_reason": "Request a Large Item Pick Up",
    "date_created": "2026-02-18T16:31:27.000",
    "date_modified": "2026-02-18T16:31:28.000",
    "request_status": "Pending",
    "responsible_agency": "Department of Sanitation",
    "final_address": "1207 Alvar St",
    "address_councildis": "D",
    "status": "Assigned to Contractor",
    "contractor": "IV Waste",
    "rowid": "1259120",
    "final_x": "3691645.6966",
    "final_y": "535813.353671",
    "longitude": "-90.03588048138101",
    "latitude": "29.966988956063318",
    "geocoded_column": {
      "latitude": "29.966988956063318",
      "longitude": "-90.03588048138101"
    }
  },
  {
    "service_request": "2026-1259119",
    "request_type": "Trash/Recycling",
    "request_reason": "Order Trash Cart",
    "date_created": "2026-02-18T16:31:08.000",
    "date_modified": "2026-02-18T16:31:09.000",
    "request_status": "Pending",
    "responsible_agency": "Department of Sanitation",
    "final_address": "4138 Erato St Unit A",
    "address_councildis": "B",
    "status": "Assigned to Contractor",
    "contractor": "IV Waste",
    "rowid": "1259119",
    "final_x": "3671138.92987",
    "final_y": "531289.45677",
    "longitude": "-90.10079476004526",
    "latitude": "29.95517228493372",
    "geocoded_column": {
      "latitude": "29.95517228493372",
      "longitude": "-90.10079476004526"
    }
  },
  {
    "service_request": "2026-1259118",
    "request_type": "Roads and Streets",
    "request_reason": "Sidewalk Damaged or Missing",
    "date_created": "2026-02-18T16:23:27.000",
    "date_modified": "2026-02-18T16:23:29.000",
    "request_status": "Pending",
    "responsible_agency": "Department of Public Works",
    "final_address": "1409 Calhoun St",
    "address_councildis": "A",
    "status": "Pending",
    "rowid": "1259118",
    "final_x": "3664323.72167",
    "final_y": "521668.936633",
    "longitude": "-90.1226357350314",
    "latitude": "29.92891874785529",
    "geocoded_column": {
      "latitude": "29.92891874785529",
      "longitude": "-90.1226357350314"
    }
  },
  {
    "service_request": "2026-1259117",
    "request_type": "Trash/Recycling",
    "request_reason": "Request a Large Item Pick Up",
    "date_created": "2026-02-18T16:21:14.000",
    "date_modified": "2026-02-18T16:21:15.000",
    "request_status": "Pending",
    "responsible_agency": "Department of Sanitation",
    "final_address": "8006 Mullet St",
    "address_councildis": "E",
    "status": "Assigned to Contractor",
    "contractor": "Waste Pro",
    "rowid": "1259117",
    "final_x": "3698656.93104",
    "final_y": "561170.798622",
    "longitude": "-90.01281625046893",
    "latitude": "30.0364923281965",
    "geocoded_column": {
      "latitude": "30.0364923281965",
      "longitude": "-90.01281625046893"
    }
  },
  {
    "service_request": "2026-1259116",
    "request_type": "Trash/Recycling",
    "request_reason": "Repair Trash Cart",
    "date_created": "2026-02-18T16:20:07.000",
    "date_modified": "2026-02-18T16:20:10.000",
    "request_status": "Pending",
    "responsible_agency": "Department of Sanitation",
    "final_address": "8235 Oleander St",
    "address_councildis": "A",
    "status": "Assigned to Contractor",
    "contractor": "IV Waste",
    "rowid": "1259116",
    "final_x": "3666310.20071",
    "final_y": "534126.438725",
    "longitude": "-90.11594698200183",
    "latitude": "29.963114991291686",
    "geocoded_column": {
      "latitude": "29.963114991291686",
      "longitude": "-90.11594698200183"
    }
  },
  {
    "service_request": "2026-1259115",
    "request_type": "Trash/Recycling",
    "request_reason": "Missed Trash Pick-Up",
    "date_created": "2026-02-18T16:18:23.000",
    "date_modified": "2026-02-18T16:19:21.000",
    "case_close_date": "2026-02-18T10:19:20.000",
    "request_status": "Closed",
    "responsible_agency": "Department of Sanitation",
    "final_address": "1700 S Rendon St",
    "address_councildis": "B",
    "status": "Invalid Request",
    "contractor": "IV Waste",
    "contractor_action": "Invalid Request",
    "rowid": "1259115",
    "final_x": "3669661.94311",
    "final_y": "530721.376642",
    "longitude": "-90.10547777238605",
    "latitude": "29.953653853829724",
    "geocoded_column": {
      "latitude": "29.953653853829724",
      "longitude": "-90.10547777238605"
    }
  },
  {
    "service_request": "2026-1259114",
    "request_type": "Trash/Recycling",
    "request_reason": "Return Trash Cart",
    "date_created": "2026-02-18T16:15:20.000",
    "date_modified": "2026-02-18T16:15:22.000",
    "request_status": "Pending",
    "responsible_agency": "Department of Sanitation",
    "final_address": "5712 Wingate Dr",
    "address_councildis": "D",
    "status": "Assigned to Contractor",
    "contractor": "IV Waste",
    "rowid": "1259114",
    "final_x": "3681266.66204",
    "final_y": "553855.896023",
    "longitude": "-90.06802829852802",
    "latitude": "30.016918635431562",
    "geocoded_column": {
      "latitude": "30.016918635431562",
      "longitude": "-90.06802829852802"
    }
  },
  {
    "service_request": "2026-1259113",
    "request_type": "Utility Poles",
    "request_reason": "Utility Pole Leaning",
    "date_created": "2026-02-18T16:13:56.000",
    "date_modified": "2026-02-18T16:13:58.000",
    "request_status": "Pending",
    "responsible_agency": "Utility Company Collective",
    "final_address": "4790 Gawain Dr",
    "address_councildis": "E",
    "status": "Pending",
    "rowid": "1259113",
    "final_x": "3706863.54526",
    "final_y": "555807.299289",
    "longitude": "-89.98708103558798",
    "latitude": "30.021482200585634",
    "geocoded_column": {
      "latitude": "30.021482200585634",
      "longitude": "-89.98708103558798"
    }
  },
  {
    "service_request": "2026-1259112",
    "request_type": "Trash/Recycling",
    "request_reason": "Missed Trash Pick-Up",
    "date_created": "2026-02-18T16:12:44.000",
    "date_modified": "2026-02-18T16:37:28.000",
    "case_close_date": "2026-02-18T10:37:27.000",
    "request_status": "Closed",
    "responsible_agency": "Department of Sanitation",
    "final_address": "4136 Erato St Unit A",
    "address_councildis": "B",
    "status": "Invalid Request",
    "contractor": "IV Waste",
    "contractor_action": "Invalid Request",
    "rowid": "1259112",
    "final_x": "3671146.53121",
    "final_y": "531285.775874",
    "longitude": "-90.10077088279648",
    "latitude": "29.955161938857803",
    "geocoded_column": {
      "latitude": "29.955161938857803",
      "longitude": "-90.10077088279648"
    }
  },
  {
    "service_request": "2026-1259111",
    "request_type": "Trash/Recycling",
    "request_reason": "Request a Large Item Pick Up",
    "date_created": "2026-02-18T16:12:27.000",
    "date_modified": "2026-02-18T16:12:28.000",
    "request_status": "Pending",
    "responsible_agency": "Department of Sanitation",
    "final_address": "4729 Francisco Verrett Dr",
    "address_councildis": "E",
    "status": "Assigned to Contractor",
    "contractor": "Waste Pro",
    "rowid": "1259111",
    "final_x": "3704257.64286",
    "final_y": "555170.051097",
    "longitude": "-89.99533842889987",
    "latitude": "30.01981394119544",
    "geocoded_column": {
      "latitude": "30.01981394119544",
      "longitude": "-89.99533842889987"
    }
  },
  {
    "service_request": "2026-1259110",
    "request_type": "Health Related Request",
    "request_reason": "Noise Ordinance Complaint",
    "date_created": "2026-02-18T16:12:25.000",
    "date_modified": "2026-02-18T16:12:26.000",
    "request_status": "Pending",
    "responsible_agency": "Health Department",
    "final_address": "1821 S Rampart St",
    "address_councildis": "B",
    "status": "Pending",
    "rowid": "1259110",
    "final_x": "3677153.12482",
    "final_y": "525641.227325",
    "longitude": "-90.08199891778776",
    "latitude": "29.939462278034057",
    "geocoded_column": {
      "latitude": "29.939462278034057",
      "longitude": "-90.08199891778776"
    }
  },
  {
    "service_request": "2026-1259109",
    "request_type": "Trash/Recycling",
    "request_reason": "Request a Large Item Pick Up",
    "date_created": "2026-02-18T16:12:04.000",
    "date_modified": "2026-02-18T16:12:06.000",
    "request_status": "Pending",
    "responsible_agency": "Department of Sanitation",
    "final_address": "4838 Stemway Dr",
    "address_councildis": "D",
    "status": "Assigned to Contractor",
    "contractor": "Waste Pro",
    "rowid": "1259109",
    "final_x": "3696792.52291",
    "final_y": "554737.975192",
    "longitude": "-90.01894132379844",
    "latitude": "30.01886346857524",
    "geocoded_column": {
      "latitude": "30.01886346857524",
      "longitude": "-90.01894132379844"
    }
  },
  {
    "service_request": "2026-1259108",
    "request_type": "Trash/Recycling",
    "request_reason": "MIssed Recycling Pick-Up",
    "date_created": "2026-02-18T16:09:58.000",
    "date_modified": "2026-02-18T16:38:17.000",
    "case_close_date": "2026-02-18T10:38:17.000",
    "request_status": "Closed",
    "responsible_agency": "Department of Sanitation",
    "final_address": "1700 S Rendon St",
    "address_councildis": "B",
    "status": "Invalid Request",
    "contractor": "IV Waste",
    "contractor_action": "Invalid Request",
    "rowid": "1259108",
    "final_x": "3669661.94311",
    "final_y": "530721.376642",
    "longitude": "-90.10547777238605",
    "latitude": "29.953653853829724",
    "geocoded_column": {
      "latitude": "29.953653853829724",
      "longitude": "-90.10547777238605"
    }
  },
  {
    "service_request": "2026-1259107",
    "request_type": "Trash/Recycling",
    "request_reason": "Request a Large Item Pick Up",
    "date_created": "2026-02-18T16:08:48.000",
    "date_modified": "2026-02-18T16:08:50.000",
    "request_status": "Pending",
    "responsible_agency": "Department of Sanitation",
    "final_address": "704 Piety St",
    "address_councildis": "C",
    "status": "Assigned to Contractor",
    "contractor": "IV Waste",
    "rowid": "1259107",
    "final_x": "3689447.34819",
    "final_y": "534369.036613",
    "longitude": "-90.04287422007788",
    "latitude": "29.963085850909483",
    "geocoded_column": {
      "latitude": "29.963085850909483",
      "longitude": "-90.04287422007788"
    }
  },
  {
    "service_request": "2026-1259106",
    "request_type": "Trash/Recycling",
    "request_reason": "Missed Trash Pick-Up",
    "date_created": "2026-02-18T16:06:42.000",
    "date_modified": "2026-02-18T16:06:43.000",
    "request_status": "Pending",
    "responsible_agency": "Department of Sanitation",
    "final_address": "20 N Blue Ridge Ct",
    "address_councildis": "E",
    "status": "Assigned to Contractor",
    "contractor": "Waste Pro",
    "rowid": "1259106",
    "final_x": "3713859.75743",
    "final_y": "567584.19786",
    "longitude": "-89.96453061818929",
    "latitude": "30.05363607087028",
    "geocoded_column": {
      "latitude": "30.05363607087028",
      "longitude": "-89.96453061818929"
    }
  },
  {
    "service_request": "2026-1259105",
    "request_type": "Trash/Recycling",
    "request_reason": "Request a Large Item Pick Up",
    "date_created": "2026-02-18T16:06:21.000",
    "date_modified": "2026-02-18T16:06:23.000",
    "request_status": "Pending",
    "responsible_agency": "Department of Sanitation",
    "final_address": "1931 Painters St",
    "address_councildis": "D",
    "status": "Assigned to Contractor",
    "contractor": "IV Waste",
    "rowid": "1259105",
    "final_x": "3687340.49884",
    "final_y": "539708.303434",
    "longitude": "-90.04933844443322",
    "latitude": "29.97783204124809",
    "geocoded_column": {
      "latitude": "29.97783204124809",
      "longitude": "-90.04933844443322"
    }
  },
  {
    "service_request": "2026-1259104",
    "request_type": "Trash/Recycling",
    "request_reason": "Missed Trash Pick-Up",
    "date_created": "2026-02-18T15:55:05.000",
    "date_modified": "2026-02-18T16:23:19.000",
    "case_close_date": "2026-02-18T10:23:17.000",
    "request_status": "Closed",
    "responsible_agency": "Department of Sanitation",
    "final_address": "4911 Robin Hood Dr",
    "address_councildis": "E",
    "status": "Invalid Request",
    "contractor": "Waste Pro",
    "contractor_action": "Invalid",
    "rowid": "1259104",
    "final_x": "3717497.65125",
    "final_y": "557728.715611",
    "longitude": "-89.95340743480247",
    "latitude": "30.02641750248289",
    "geocoded_column": {
      "latitude": "30.02641750248289",
      "longitude": "-89.95340743480247"
    }
  },
  {
    "service_request": "2026-1259103",
    "request_type": "Trash/Recycling",
    "request_reason": "Request a Large Item Pick Up",
    "date_created": "2026-02-18T15:50:59.000",
    "date_modified": "2026-02-18T15:51:02.000",
    "request_status": "Pending",
    "responsible_agency": "Department of Sanitation",
    "final_address": "1934 Port St",
    "address_councildis": "D",
    "status": "Assigned to Contractor",
    "contractor": "IV Waste",
    "rowid": "1259103",
    "final_x": "3688226.56732",
    "final_y": "539666.477514",
    "longitude": "-90.0465414241112",
    "latitude": "29.977689703651965",
    "geocoded_column": {
      "latitude": "29.977689703651965",
      "longitude": "-90.0465414241112"
    }
  },
  {
    "service_request": "2026-1259102",
    "request_type": "Streetlights",
    "request_reason": "Streetlight Outage/Malfunction",
    "date_created": "2026-02-18T15:49:57.000",
    "date_modified": "2026-02-18T15:49:59.000",
    "request_status": "Pending",
    "responsible_agency": "Department of Public Works",
    "final_address": "612 Seguin St",
    "address_councildis": "C",
    "status": "Pending",
    "rowid": "1259102",
    "final_x": "3686747.92764",
    "final_y": "529579.042561",
    "longitude": "-90.05156785255427",
    "latitude": "29.949998331437996",
    "geocoded_column": {
      "latitude": "29.949998331437996",
      "longitude": "-90.05156785255427"
    }
  },
  {
    "service_request": "2026-1259101",
    "request_type": "Trash/Recycling",
    "request_reason": "Repair Trash Cart",
    "date_created": "2026-02-18T15:48:43.000",
    "date_modified": "2026-02-18T15:48:46.000",
    "request_status": "Pending",
    "responsible_agency": "Department of Sanitation",
    "final_address": "200 Harrison Ave",
    "address_councildis": "A",
    "status": "Assigned to Contractor",
    "contractor": "IV Waste",
    "rowid": "1259101",
    "final_x": "3666932.60801",
    "final_y": "549326.368595",
    "longitude": "-90.1134704822259",
    "latitude": "30.004891456919903",
    "geocoded_column": {
      "latitude": "30.004891456919903",
      "longitude": "-90.1134704822259"
    }
  },
  {
    "service_request": "2026-1259100",
    "request_type": "Trash/Recycling",
    "request_reason": "Replace Trash Cart",
    "date_created": "2026-02-18T15:43:32.000",
    "date_modified": "2026-02-18T15:43:34.000",
    "request_status": "Pending",
    "responsible_agency": "Department of Sanitation",
    "final_address": "7833 Symmes Ave",
    "address_councildis": "E",
    "status": "Assigned to Contractor",
    "contractor": "Waste Pro",
    "rowid": "1259100",
    "final_x": "3707540.0426",
    "final_y": "565275.314978",
    "longitude": "-89.98459136878539",
    "latitude": "30.047493636367275",
    "geocoded_column": {
      "latitude": "30.047493636367275",
      "longitude": "-89.98459136878539"
    }
  },
  {
    "service_request": "2026-1259099",
    "request_type": "Trash/Recycling",
    "request_reason": "Request a Large Item Pick Up",
    "date_created": "2026-02-18T15:42:10.000",
    "date_modified": "2026-02-18T15:42:13.000",
    "request_status": "Pending",
    "responsible_agency": "Department of Sanitation",
    "final_address": "7825 Symmes Ave",
    "address_councildis": "E",
    "status": "Assigned to Contractor",
    "contractor": "Waste Pro",
    "rowid": "1259099",
    "final_x": "3707559.1059",
    "final_y": "565241.195938",
    "longitude": "-89.98453238809462",
    "latitude": "30.04739920567059",
    "geocoded_column": {
      "latitude": "30.04739920567059",
      "longitude": "-89.98453238809462"
    }
  },
  {
    "service_request": "2026-1259098",
    "request_type": "Trash/Recycling",
    "request_reason": "Replace Trash Cart",
    "date_created": "2026-02-18T15:41:03.000",
    "date_modified": "2026-02-18T15:41:06.000",
    "request_status": "Pending",
    "responsible_agency": "Department of Sanitation",
    "final_address": "1013 Elmira Ave",
    "address_councildis": "C",
    "status": "Assigned to Contractor",
    "contractor": "Richards Disposal",
    "rowid": "1259098",
    "final_x": "3688071.6783",
    "final_y": "527808.274303",
    "longitude": "-90.04745091091426",
    "latitude": "29.945088540771113",
    "geocoded_column": {
      "latitude": "29.945088540771113",
      "longitude": "-90.04745091091426"
    }
  },
  {
    "service_request": "2026-1259097",
    "request_type": "Trash/Recycling",
    "request_reason": "Request a Large Item Pick Up",
    "date_created": "2026-02-18T15:39:34.000",
    "date_modified": "2026-02-18T15:39:36.000",
    "request_status": "Pending",
    "responsible_agency": "Department of Sanitation",
    "final_address": "4852 Treves St",
    "address_councildis": "E",
    "status": "Assigned to Contractor",
    "contractor": "Waste Pro",
    "rowid": "1259097",
    "final_x": "3729966.40614",
    "final_y": "562493.223455",
    "longitude": "-89.91382173107141",
    "latitude": "30.039099147911124",
    "geocoded_column": {
      "latitude": "30.039099147911124",
      "longitude": "-89.91382173107141"
    }
  },
  {
    "service_request": "2026-1259096",
    "request_type": "Trash/Recycling",
    "request_reason": "Repair Recycling Cart",
    "date_created": "2026-02-18T15:37:06.000",
    "date_modified": "2026-02-18T15:37:07.000",
    "request_status": "Pending",
    "responsible_agency": "Department of Sanitation",
    "final_address": "908 Fern St",
    "address_councildis": "A",
    "status": "Pending",
    "rowid": "1259096",
    "final_x": "3661854.66298",
    "final_y": "527171.849215",
    "longitude": "-90.13024770251916",
    "latitude": "29.944121521820318",
    "geocoded_column": {
      "latitude": "29.944121521820318",
      "longitude": "-90.13024770251916"
    }
  },
  {
    "service_request": "2026-1259095",
    "request_type": "Trash/Recycling",
    "request_reason": "Request a Large Item Pick Up",
    "date_created": "2026-02-18T15:36:41.000",
    "date_modified": "2026-02-18T15:36:43.000",
    "request_status": "Pending",
    "responsible_agency": "Department of Sanitation",
    "final_address": "2005 Marigny St",
    "address_councildis": "D",
    "status": "Assigned to Contractor",
    "contractor": "IV Waste",
    "rowid": "1259095",
    "final_x": "3685186.11676",
    "final_y": "539725.901002",
    "longitude": "-90.0561420982863",
    "latitude": "29.97794663286106",
    "geocoded_column": {
      "latitude": "29.97794663286106",
      "longitude": "-90.0561420982863"
    }
  },
  {
    "service_request": "2026-1259094",
    "request_type": "Trash/Recycling",
    "request_reason": "Replace Trash Cart",
    "date_created": "2026-02-18T15:34:45.000",
    "date_modified": "2026-02-18T15:34:47.000",
    "request_status": "Pending",
    "responsible_agency": "Department of Sanitation",
    "final_address": "3631 Rue Denise",
    "address_councildis": "C",
    "status": "Assigned to Contractor",
    "contractor": "Richards Disposal",
    "rowid": "1259094",
    "final_x": "3704202.20215",
    "final_y": "517180.532661",
    "longitude": "-89.99691358931906",
    "latitude": "29.91535836218639",
    "geocoded_column": {
      "latitude": "29.91535836218639",
      "longitude": "-89.99691358931906"
    }
  },
  {
    "service_request": "2026-1259093",
    "request_type": "Trash/Recycling",
    "request_reason": "Replace Trash Cart",
    "date_created": "2026-02-18T15:34:32.000",
    "date_modified": "2026-02-18T15:34:34.000",
    "request_status": "Pending",
    "responsible_agency": "Department of Sanitation",
    "final_address": "611 Seguin St",
    "address_councildis": "C",
    "status": "Assigned to Contractor",
    "contractor": "Richards Disposal",
    "rowid": "1259093",
    "final_x": "3686680.94985",
    "final_y": "529534.235393",
    "longitude": "-90.05178091449771",
    "latitude": "29.949877186980157",
    "geocoded_column": {
      "latitude": "29.949877186980157",
      "longitude": "-90.05178091449771"
    }
  },
  {
    "service_request": "2026-1259092",
    "request_type": "Trash/Recycling",
    "request_reason": "Repair Trash Cart",
    "date_created": "2026-02-18T15:32:07.000",
    "date_modified": "2026-02-18T15:32:09.000",
    "request_status": "Pending",
    "responsible_agency": "Department of Sanitation",
    "final_address": "908 Fern St",
    "address_councildis": "A",
    "status": "Assigned to Contractor",
    "contractor": "IV Waste",
    "rowid": "1259092",
    "final_x": "3661854.66298",
    "final_y": "527171.849215",
    "longitude": "-90.13024770251916",
    "latitude": "29.944121521820318",
    "geocoded_column": {
      "latitude": "29.944121521820318",
      "longitude": "-90.13024770251916"
    }
  },
  {
    "service_request": "2026-1259091",
    "request_type": "Trash/Recycling",
    "request_reason": "Missed Trash Pick-Up",
    "date_created": "2026-02-18T15:31:18.000",
    "date_modified": "2026-02-18T16:02:59.000",
    "case_close_date": "2026-02-18T10:02:59.000",
    "request_status": "Closed",
    "responsible_agency": "Department of Sanitation",
    "final_address": "136 S Telemachus St",
    "address_councildis": "B",
    "status": "Invalid Request",
    "contractor": "IV Waste",
    "contractor_action": "Invalid Request",
    "rowid": "1259091",
    "final_x": "3672162.64308",
    "final_y": "537051.35828",
    "longitude": "-90.0973659958477",
    "latitude": "29.970985269721183",
    "geocoded_column": {
      "latitude": "29.970985269721183",
      "longitude": "-90.0973659958477"
    }
  },
  {
    "service_request": "2026-1259090",
    "request_type": "Trash/Recycling",
    "request_reason": "Request a Large Item Pick Up",
    "date_created": "2026-02-18T15:29:57.000",
    "date_modified": "2026-02-18T15:29:59.000",
    "request_status": "Pending",
    "responsible_agency": "Department of Sanitation",
    "final_address": "1516 Aviators St",
    "address_councildis": "D",
    "status": "Assigned to Contractor",
    "contractor": "IV Waste",
    "rowid": "1259090",
    "final_x": "3678444.04648",
    "final_y": "554854.322008",
    "longitude": "-90.0769120026917",
    "latitude": "30.019749346577846",
    "geocoded_column": {
      "latitude": "30.019749346577846",
      "longitude": "-90.0769120026917"
    }
  },
  {
    "service_request": "2026-1259089",
    "request_type": "Trash/Recycling",
    "request_reason": "Request a Large Item Pick Up",
    "date_created": "2026-02-18T15:29:30.000",
    "date_modified": "2026-02-18T15:29:32.000",
    "request_status": "Pending",
    "responsible_agency": "Department of Sanitation",
    "final_address": "460 Aurora Oaks Dr",
    "address_councildis": "C",
    "status": "Assigned to Contractor",
    "contractor": "Richards Disposal",
    "rowid": "1259089",
    "final_x": "3701368.86135",
    "final_y": "521765.051898",
    "longitude": "-90.0056889372533",
    "latitude": "29.928054775878984",
    "geocoded_column": {
      "latitude": "29.928054775878984",
      "longitude": "-90.0056889372533"
    }
  },
  {
    "service_request": "2026-1259088",
    "request_type": "Trash/Recycling",
    "request_reason": "Replace Trash Cart",
    "date_created": "2026-02-18T15:26:35.000",
    "date_modified": "2026-02-18T15:26:38.000",
    "request_status": "Pending",
    "responsible_agency": "Department of Sanitation",
    "final_address": "717 Newton St",
    "address_councildis": "C",
    "status": "Assigned to Contractor",
    "contractor": "Richards Disposal",
    "rowid": "1259088",
    "final_x": "3687607.12009",
    "final_y": "527921.422015",
    "longitude": "-90.04891365725247",
    "latitude": "29.94541398526803",
    "geocoded_column": {
      "latitude": "29.94541398526803",
      "longitude": "-90.04891365725247"
    }
  },
  {
    "service_request": "2026-1259087",
    "request_type": "Trash/Recycling",
    "request_reason": "Request a Large Item Pick Up",
    "date_created": "2026-02-18T15:25:33.000",
    "date_modified": "2026-02-18T15:25:35.000",
    "request_status": "Pending",
    "responsible_agency": "Department of Sanitation",
    "final_address": "1339 Tennessee St",
    "address_councildis": "E",
    "status": "Assigned to Contractor",
    "contractor": "Waste Pro",
    "rowid": "1259087",
    "final_x": "3696054.26774",
    "final_y": "535322.558022",
    "longitude": "-90.02197600846553",
    "latitude": "29.965501446335917",
    "geocoded_column": {
      "latitude": "29.965501446335917",
      "longitude": "-90.02197600846553"
    }
  },
  {
    "service_request": "2026-1259086",
    "request_type": "Trash/Recycling",
    "request_reason": "Order Recycling Cart",
    "date_created": "2026-02-18T15:23:20.000",
    "date_modified": "2026-02-18T15:23:22.000",
    "request_status": "Pending",
    "responsible_agency": "Department of Sanitation",
    "final_address": "2711 Cupid St",
    "address_councildis": "C",
    "status": "Pending",
    "rowid": "1259086",
    "final_x": "3700271.34429",
    "final_y": "520845.131257",
    "longitude": "-90.00918708424761",
    "latitude": "29.925560231652884",
    "geocoded_column": {
      "latitude": "29.925560231652884",
      "longitude": "-90.00918708424761"
    }
  },
  {
    "service_request": "2026-1259085",
    "request_type": "Roads and Streets",
    "request_reason": "Pothole",
    "date_created": "2026-02-18T15:21:51.000",
    "date_modified": "2026-02-18T15:23:02.000",
    "request_status": "Pending",
    "responsible_agency": "Department of Public Works",
    "final_address": "PRESS DR & LEON C SIMON DR",
    "address_councildis": "D",
    "status": "Pending",
    "rowid": "1259085",
    "final_x": "3688405.0",
    "final_y": "558118.88",
    "longitude": "-90.04532277519931",
    "latitude": "30.028421579434056",
    "geocoded_column": {
      "latitude": "30.028421579434056",
      "longitude": "-90.04532277519931"
    }
  },
  {
    "service_request": "2026-1259084",
    "request_type": "Abandoned Vehicles",
    "request_reason": "Abandoned/Junk Vehicles",
    "date_created": "2026-02-18T15:18:19.000",
    "date_modified": "2026-02-18T15:18:21.000",
    "request_status": "Pending",
    "responsible_agency": "Department of Public Works",
    "final_address": "CHESTNUT ST & ROBERT ST",
    "address_councildis": "B",
    "status": "Pending",
    "rowid": "1259084",
    "final_x": "3668672.7",
    "final_y": "519334.48",
    "longitude": "-90.10898558376269",
    "latitude": "29.922372665297996",
    "geocoded_column": {
      "latitude": "29.922372665297996",
      "longitude": "-90.10898558376269"
    }
  },
  {
    "service_request": "2026-1259083",
    "request_type": "Roads and Streets",
    "request_reason": "Pothole",
    "date_created": "2026-02-18T15:09:13.000",
    "date_modified": "2026-02-18T15:09:14.000",
    "request_status": "Pending",
    "responsible_agency": "Department of Public Works",
    "final_address": "2100 N Broad St",
    "address_councildis": "D",
    "status": "Pending",
    "rowid": "1259083",
    "final_x": "3680833.6109",
    "final_y": "542300.569485",
    "longitude": "-90.0697991607571",
    "latitude": "29.98515875309434",
    "geocoded_column": {
      "latitude": "29.98515875309434",
      "longitude": "-90.0697991607571"
    }
  },
  {
    "service_request": "2026-1259082",
    "request_type": "Trash/Recycling",
    "request_reason": "Request a Large Item Pick Up",
    "date_created": "2026-02-18T15:08:45.000",
    "date_modified": "2026-02-18T15:08:46.000",
    "request_status": "Pending",
    "responsible_agency": "Department of Sanitation",
    "final_address": "8510 S Claiborne Ave",
    "address_councildis": "A",
    "status": "Assigned to Contractor",
    "contractor": "IV Waste",
    "rowid": "1259082",
    "final_x": "3663616.92941",
    "final_y": "532518.902212",
    "longitude": "-90.12450560635534",
    "latitude": "29.958773195935706",
    "geocoded_column": {
      "latitude": "29.958773195935706",
      "longitude": "-90.12450560635534"
    }
  },
  {
    "service_request": "2026-1259081",
    "request_type": "Trash/Recycling",
    "request_reason": "Request a Large Item Pick Up",
    "date_created": "2026-02-18T15:07:20.000",
    "date_modified": "2026-02-18T15:07:39.000",
    "request_status": "Pending",
    "responsible_agency": "Department of Sanitation",
    "final_address": "917 Walker St",
    "address_councildis": "A",
    "status": "Assigned to Contractor",
    "contractor": "IV Waste",
    "rowid": "1259081",
    "final_x": "3670621.51265",
    "final_y": "553943.38076",
    "longitude": "-90.10165966434624",
    "latitude": "30.017478111629305",
    "geocoded_column": {
      "latitude": "30.017478111629305",
      "longitude": "-90.10165966434624"
    }
  },
  {
    "service_request": "2026-1259080",
    "request_type": "Trash/Recycling",
    "request_reason": "Request a Large Item Pick Up",
    "date_created": "2026-02-18T15:06:31.000",
    "date_modified": "2026-02-18T15:06:32.000",
    "request_status": "Pending",
    "responsible_agency": "Department of Sanitation",
    "final_address": "4226 Dumaine St",
    "address_councildis": "A",
    "status": "Assigned to Contractor",
    "contractor": "IV Waste",
    "rowid": "1259080",
    "final_x": "3672181.09371",
    "final_y": "541235.52846",
    "longitude": "-90.09716516775428",
    "latitude": "29.982489769081656",
    "geocoded_column": {
      "latitude": "29.982489769081656",
      "longitude": "-90.09716516775428"
    }
  },
  {
    "service_request": "2026-1259079",
    "request_type": "Trash/Recycling",
    "request_reason": "Missed Trash Pick-Up",
    "date_created": "2026-02-18T15:06:03.000",
    "date_modified": "2026-02-18T15:08:47.000",
    "case_close_date": "2026-02-18T09:08:47.000",
    "request_status": "Closed",
    "responsible_agency": "Department of Sanitation",
    "final_address": "2416 Broadway St",
    "address_councildis": "A",
    "status": "Invalid Request",
    "contractor": "IV Waste",
    "contractor_action": "Invalid Request",
    "rowid": "1259079",
    "final_x": "3666634.66746",
    "final_y": "530275.214657",
    "longitude": "-90.11505165675878",
    "latitude": "29.952515904601903",
    "geocoded_column": {
      "latitude": "29.952515904601903",
      "longitude": "-90.11505165675878"
    }
  },
  {
    "service_request": "2026-1259078",
    "request_type": "Trash/Recycling",
    "request_reason": "Request a Large Item Pick Up",
    "date_created": "2026-02-18T14:59:39.000",
    "date_modified": "2026-02-18T14:59:50.000",
    "request_status": "Pending",
    "responsible_agency": "Department of Sanitation",
    "final_address": "5301 Berkley Dr",
    "address_councildis": "C",
    "status": "Assigned to Contractor",
    "contractor": "Richards Disposal",
    "rowid": "1259078",
    "final_x": "3703331.98404",
    "final_y": "518127.196662",
    "longitude": "-89.99962552019942",
    "latitude": "29.917989242162722",
    "geocoded_column": {
      "latitude": "29.917989242162722",
      "longitude": "-89.99962552019942"
    }
  },
  {
    "service_request": "2026-1259077",
    "request_type": "Mosquito, Termite & Rodent Control",
    "request_reason": "Non-Rodent Complaint (Possums & Snakes)",
    "date_created": "2026-02-18T14:57:24.000",
    "date_modified": "2026-02-18T14:59:16.000",
    "request_status": "Pending",
    "responsible_agency": "Mosquito, Termite & Rodent Control Board",
    "final_address": "4969 Pentland Dr",
    "address_councildis": "E",
    "status": "Pending",
    "rowid": "1259077",
    "final_x": "3718722.44786",
    "final_y": "558434.18294",
    "longitude": "-89.94951034461563",
    "latitude": "30.02831664030457",
    "geocoded_column": {
      "latitude": "30.02831664030457",
      "longitude": "-89.94951034461563"
    }
  },
  {
    "service_request": "2026-1259076",
    "request_type": "Trash/Recycling",
    "request_reason": "Missed Trash Pick-Up",
    "date_created": "2026-02-18T14:57:17.000",
    "date_modified": "2026-02-18T14:57:18.000",
    "request_status": "Pending",
    "responsible_agency": "Department of Sanitation",
    "final_address": "1801 Mercedes Blvd",
    "address_councildis": "C",
    "status": "Assigned to Contractor",
    "contractor": "Richards Disposal",
    "rowid": "1259076",
    "final_x": "3698079.98256",
    "final_y": "524248.38598",
    "longitude": "-90.0159809895136",
    "latitude": "29.934987461609747",
    "geocoded_column": {
      "latitude": "29.934987461609747",
      "longitude": "-90.0159809895136"
    }
  },
  {
    "service_request": "2026-1259075",
    "request_type": "Healthy Homes",
    "request_reason": "Healthy Homes",
    "date_created": "2026-02-18T14:52:27.000",
    "date_modified": "2026-02-18T14:52:29.000",
    "request_status": "Pending",
    "responsible_agency": "Department of Code Enforcement",
    "final_address": "3300 Preston Pl Apt F71",
    "address_councildis": "C",
    "status": "Pending",
    "rowid": "1259075",
    "final_x": "3708995.81873",
    "final_y": "518408.320822",
    "longitude": "-89.98173758884843",
    "latitude": "29.918579749888334",
    "geocoded_column": {
      "latitude": "29.918579749888334",
      "longitude": "-89.98173758884843"
    }
  },
  {
    "service_request": "2026-1259074",
    "request_type": "Trash/Recycling",
    "request_reason": "Request a Large Item Pick Up",
    "date_created": "2026-02-18T14:49:21.000",
    "date_modified": "2026-02-18T14:49:24.000",
    "request_status": "Pending",
    "responsible_agency": "Department of Sanitation",
    "final_address": "2257 Odin St",
    "address_councildis": "D",
    "status": "Assigned to Contractor",
    "contractor": "IV Waste",
    "rowid": "1259074",
    "final_x": "3684270.46735",
    "final_y": "553132.264023",
    "longitude": "-90.0585629725401",
    "latitude": "30.014837365368642",
    "geocoded_column": {
      "latitude": "30.014837365368642",
      "longitude": "-90.0585629725401"
    }
  },
  {
    "service_request": "2026-1259073",
    "request_type": "General Services",
    "request_reason": "General Service Request",
    "date_created": "2026-02-18T14:48:09.000",
    "date_modified": "2026-02-18T15:08:36.000",
    "case_close_date": "2026-02-18T09:08:35.000",
    "request_status": "Closed",
    "responsible_agency": "Orleans Parish Communication District",
    "final_address": "6733 Chef Menteur Hwy",
    "address_councildis": "E",
    "status": "Referred to Risk Management",
    "rowid": "1259073",
    "final_x": "3699796.45104",
    "final_y": "552111.595542",
    "longitude": "-90.00954590571766",
    "latitude": "30.01154683132184",
    "geocoded_column": {
      "latitude": "30.01154683132184",
      "longitude": "-90.00954590571766"
    }
  },
  {
    "service_request": "2026-1259072",
    "request_type": "Trash/Recycling",
    "request_reason": "Request a Large Item Pick Up",
    "date_created": "2026-02-18T14:31:22.000",
    "date_modified": "2026-02-18T14:31:24.000",
    "request_status": "Pending",
    "responsible_agency": "Department of Sanitation",
    "final_address": "8124 Forshey St",
    "address_councildis": "A",
    "status": "Assigned to Contractor",
    "contractor": "IV Waste",
    "rowid": "1259072",
    "final_x": "3666809.85485",
    "final_y": "534041.362629",
    "longitude": "-90.11437198590654",
    "latitude": "29.96286645398229",
    "geocoded_column": {
      "latitude": "29.96286645398229",
      "longitude": "-90.11437198590654"
    }
  },
  {
    "service_request": "2026-1259071",
    "request_type": "Parks & Parkways",
    "request_reason": "Request Tree Service (Right of Way/Public Property)",
    "date_created": "2026-02-18T14:29:04.000",
    "date_modified": "2026-02-18T14:29:05.000",
    "request_status": "Pending",
    "responsible_agency": "Department of Parks & Parkway",
    "final_address": "2601 St Ann St",
    "address_councildis": "D",
    "status": "Pending",
    "rowid": "1259071",
    "final_x": "3677358.74242",
    "final_y": "536937.055176",
    "longitude": "-90.08095997443978",
    "latitude": "29.9705158392504",
    "geocoded_column": {
      "latitude": "29.9705158392504",
      "longitude": "-90.08095997443978"
    }
  },
  {
    "service_request": "2026-1259070",
    "request_type": "Trash/Recycling",
    "request_reason": "Order Recycling Cart",
    "date_created": "2026-02-18T14:24:13.000",
    "date_modified": "2026-02-18T14:24:15.000",
    "request_status": "Pending",
    "responsible_agency": "Department of Sanitation",
    "final_address": "2505 Palmer Ave",
    "address_councildis": "A",
    "status": "Pending",
    "rowid": "1259070",
    "final_x": "3666518.59501",
    "final_y": "525941.458621",
    "longitude": "-90.11556359275956",
    "latitude": "29.94060286989595",
    "geocoded_column": {
      "latitude": "29.94060286989595",
      "longitude": "-90.11556359275956"
    }
  },
  {
    "service_request": "2026-1259069",
    "request_type": "Trash/Recycling",
    "request_reason": "Order Second Trash Cart",
    "date_created": "2026-02-18T14:15:55.000",
    "date_modified": "2026-02-18T14:15:57.000",
    "request_status": "Pending",
    "responsible_agency": "Department of Sanitation",
    "final_address": "7703 Arcadia Ln",
    "address_councildis": "E",
    "status": "Assigned to Contractor",
    "contractor": "Waste Pro",
    "rowid": "1259069",
    "final_x": "3712237.89899",
    "final_y": "567349.76874",
    "longitude": "-89.96966566924795",
    "latitude": "30.053044658782888",
    "geocoded_column": {
      "latitude": "30.053044658782888",
      "longitude": "-89.96966566924795"
    }
  },
  {
    "service_request": "2026-1259068",
    "request_type": "Trash/Recycling",
    "request_reason": "Illegal Dumping",
    "date_created": "2026-02-18T14:14:40.000",
    "date_modified": "2026-02-18T14:14:42.000",
    "request_status": "Pending",
    "responsible_agency": "Department of Sanitation",
    "final_address": "4728 Conti St",
    "address_councildis": "A",
    "status": "Pending",
    "rowid": "1259068",
    "final_x": "3669609.47514",
    "final_y": "540891.265739",
    "longitude": "-90.10529928707581",
    "latitude": "29.98161919775765",
    "geocoded_column": {
      "latitude": "29.98161919775765",
      "longitude": "-90.10529928707581"
    }
  },
  {
    "service_request": "2026-1259067",
    "request_type": "Trash/Recycling",
    "request_reason": "Order Trash Cart",
    "date_created": "2026-02-18T14:12:31.000",
    "date_modified": "2026-02-18T14:12:33.000",
    "request_status": "Pending",
    "responsible_agency": "Department of Sanitation",
    "final_address": "505 Newton St",
    "address_councildis": "C",
    "status": "Assigned to Contractor",
    "contractor": "Richards Disposal",
    "rowid": "1259067",
    "final_x": "3687025.72527",
    "final_y": "527898.413567",
    "longitude": "-90.05075011604869",
    "latitude": "29.94536862687131",
    "geocoded_column": {
      "latitude": "29.94536862687131",
      "longitude": "-90.05075011604869"
    }
  },
  {
    "service_request": "2026-1259066",
    "request_type": "Healthy Homes",
    "request_reason": "Healthy Homes",
    "date_created": "2026-02-18T14:11:37.000",
    "date_modified": "2026-02-18T14:11:39.000",
    "request_status": "Pending",
    "responsible_agency": "Department of Code Enforcement",
    "final_address": "3300 Preston Pl Apt F71",
    "address_councildis": "C",
    "status": "Pending",
    "rowid": "1259066",
    "final_x": "3708995.81873",
    "final_y": "518408.320822",
    "longitude": "-89.98173758884843",
    "latitude": "29.918579749888334",
    "geocoded_column": {
      "latitude": "29.918579749888334",
      "longitude": "-89.98173758884843"
    }
  },
  {
    "service_request": "2026-1259065",
    "request_type": "Trash/Recycling",
    "request_reason": "Request a Large Item Pick Up",
    "date_created": "2026-02-18T14:10:59.000",
    "date_modified": "2026-02-18T14:11:00.000",
    "request_status": "Pending",
    "responsible_agency": "Department of Sanitation",
    "final_address": "7126 Regent St",
    "address_councildis": "A",
    "status": "Assigned to Contractor",
    "contractor": "IV Waste",
    "rowid": "1259065",
    "final_x": "3666138.24122",
    "final_y": "554736.853528",
    "longitude": "-90.11579843505365",
    "latitude": "30.019791628276497",
    "geocoded_column": {
      "latitude": "30.019791628276497",
      "longitude": "-90.11579843505365"
    }
  },
  {
    "service_request": "2026-1259064",
    "request_type": "Trash/Recycling",
    "request_reason": "Request a Large Item Pick Up",
    "date_created": "2026-02-18T14:10:45.000",
    "date_modified": "2026-02-18T14:10:47.000",
    "request_status": "Pending",
    "responsible_agency": "Department of Sanitation",
    "final_address": "2320 Marais St",
    "address_councildis": "C",
    "status": "Assigned to Contractor",
    "contractor": "IV Waste",
    "rowid": "1259064",
    "final_x": "3685943.79497",
    "final_y": "536712.748039",
    "longitude": "-90.05385535478608",
    "latitude": "29.969638273260625",
    "geocoded_column": {
      "latitude": "29.969638273260625",
      "longitude": "-90.05385535478608"
    }
  },
  {
    "service_request": "2026-1259063",
    "request_type": "Trash/Recycling",
    "request_reason": "Request a Large Item Pick Up",
    "date_created": "2026-02-18T14:01:35.000",
    "date_modified": "2026-02-18T14:01:37.000",
    "request_status": "Pending",
    "responsible_agency": "Department of Sanitation",
    "final_address": "5728 Alfred St",
    "address_councildis": "D",
    "status": "Assigned to Contractor",
    "contractor": "IV Waste",
    "rowid": "1259063",
    "final_x": "3677128.1179",
    "final_y": "553575.041559",
    "longitude": "-90.0811140847701",
    "latitude": "30.016271396751517",
    "geocoded_column": {
      "latitude": "30.016271396751517",
      "longitude": "-90.0811140847701"
    }
  },
  {
    "service_request": "2026-1259062",
    "request_type": "Trash/Recycling",
    "request_reason": "Request a Large Item Pick Up",
    "date_created": "2026-02-18T13:59:13.000",
    "date_modified": "2026-02-18T13:59:15.000",
    "request_status": "Pending",
    "responsible_agency": "Department of Sanitation",
    "final_address": "1418 St Bernard Ave",
    "address_councildis": "C",
    "status": "Assigned to Contractor",
    "contractor": "IV Waste",
    "rowid": "1259062",
    "final_x": "3682447.63727",
    "final_y": "537254.999176",
    "longitude": "-90.06487755840233",
    "latitude": "29.97123615732594",
    "geocoded_column": {
      "latitude": "29.97123615732594",
      "longitude": "-90.06487755840233"
    }
  },
  {
    "service_request": "2026-1259061",
    "request_type": "Trash/Recycling",
    "request_reason": "Damaged Caused By Contractor",
    "date_created": "2026-02-18T13:57:42.000",
    "date_modified": "2026-02-18T13:57:43.000",
    "request_status": "Pending",
    "responsible_agency": "Department of Sanitation",
    "final_address": "11 Bonita Bay Dr",
    "address_councildis": "C",
    "status": "Assigned to Contractor",
    "contractor": "Richards Disposal",
    "rowid": "1259061",
    "final_x": "3719496.63513",
    "final_y": "512784.769137",
    "longitude": "-89.94880695654345",
    "latitude": "29.9027722233491",
    "geocoded_column": {
      "latitude": "29.9027722233491",
      "longitude": "-89.94880695654345"
    }
  },
  {
    "service_request": "2026-1259060",
    "request_type": "Trash/Recycling",
    "request_reason": "Order Recycling Cart",
    "date_created": "2026-02-18T13:56:39.000",
    "date_modified": "2026-02-18T13:56:41.000",
    "request_status": "Pending",
    "responsible_agency": "Department of Sanitation",
    "final_address": "1418 St Bernard Ave",
    "address_councildis": "C",
    "status": "Pending",
    "rowid": "1259060",
    "final_x": "3682447.63727",
    "final_y": "537254.999176",
    "longitude": "-90.06487755840233",
    "latitude": "29.97123615732594",
    "geocoded_column": {
      "latitude": "29.97123615732594",
      "longitude": "-90.06487755840233"
    }
  },
  {
    "service_request": "2026-1259059",
    "request_type": "Street and Traffic Signs",
    "request_reason": "Traffic or Parking Sign Damaged or Missing",
    "date_created": "2026-02-18T13:55:16.000",
    "date_modified": "2026-02-18T14:01:21.000",
    "request_status": "Pending",
    "responsible_agency": "Department of Public Works",
    "final_address": "861 Camp St",
    "address_councildis": "B",
    "status": "Pending",
    "rowid": "1259059",
    "final_x": "3680628.85077",
    "final_y": "527465.237375",
    "longitude": "-90.07096215174433",
    "latitude": "29.94437287039467",
    "geocoded_column": {
      "latitude": "29.94437287039467",
      "longitude": "-90.07096215174433"
    }
  },
  {
    "service_request": "2026-1259058",
    "request_type": "Trash/Recycling",
    "request_reason": "Request a Large Item Pick Up",
    "date_created": "2026-02-18T13:51:41.000",
    "date_modified": "2026-02-18T13:51:44.000",
    "request_status": "Pending",
    "responsible_agency": "Department of Sanitation",
    "final_address": "2621 Fats Domino Ave",
    "address_councildis": "E",
    "status": "Assigned to Contractor",
    "contractor": "Waste Pro",
    "rowid": "1259058",
    "final_x": "3699695.32874",
    "final_y": "539553.356234",
    "longitude": "-90.01032350474644",
    "latitude": "29.977019534260414",
    "geocoded_column": {
      "latitude": "29.977019534260414",
      "longitude": "-90.01032350474644"
    }
  },
  {
    "service_request": "2026-1259057",
    "request_type": "Trash/Recycling",
    "request_reason": "Replace Trash Cart",
    "date_created": "2026-02-18T13:50:20.000",
    "date_modified": "2026-02-18T13:50:22.000",
    "request_status": "Pending",
    "responsible_agency": "Department of Sanitation",
    "final_address": "3422 Kabel Dr",
    "address_councildis": "C",
    "status": "Assigned to Contractor",
    "contractor": "Richards Disposal",
    "rowid": "1259057",
    "final_x": "3700696.20887",
    "final_y": "518638.008055",
    "longitude": "-90.0079265164841",
    "latitude": "29.919477893523915",
    "geocoded_column": {
      "latitude": "29.919477893523915",
      "longitude": "-90.0079265164841"
    }
  },
  {
    "service_request": "2026-1259056",
    "request_type": "Trash/Recycling",
    "request_reason": "Repair Trash Cart",
    "date_created": "2026-02-18T13:47:21.000",
    "date_modified": "2026-02-18T13:50:25.000",
    "request_status": "Pending",
    "responsible_agency": "Department of Sanitation",
    "final_address": "3420 Kabel Dr",
    "address_councildis": "C",
    "status": "Assigned to Contractor",
    "contractor": "Richards Disposal",
    "rowid": "1259056",
    "final_x": "3700695.63805",
    "final_y": "518656.478327",
    "longitude": "-90.0079276438886",
    "latitude": "29.91952869860544",
    "geocoded_column": {
      "latitude": "29.91952869860544",
      "longitude": "-90.0079276438886"
    }
  },
  {
    "service_request": "2026-1259055",
    "request_type": "Street and Traffic Signs",
    "request_reason": "Additional Signage Request",
    "date_created": "2026-02-18T13:44:15.000",
    "date_modified": "2026-02-18T13:44:17.000",
    "request_status": "Pending",
    "responsible_agency": "Department of Public Works",
    "final_address": "913 Governor Nicholls St Apt 102",
    "address_councildis": "C",
    "status": "Pending",
    "rowid": "1259055",
    "final_x": "3683018.47356",
    "final_y": "534468.858437",
    "longitude": "-90.06317231750734",
    "latitude": "29.96355784344173",
    "geocoded_column": {
      "latitude": "29.96355784344173",
      "longitude": "-90.06317231750734"
    }
  },
  {
    "service_request": "2026-1259054",
    "request_type": "Trash/Recycling",
    "request_reason": "Change Size of Trash Cart",
    "date_created": "2026-02-18T13:42:35.000",
    "date_modified": "2026-02-18T15:10:57.000",
    "request_status": "Pending",
    "responsible_agency": "Department of Sanitation",
    "final_address": "1629 Washington Ave",
    "address_councildis": "B",
    "status": "Assigned to Contractor",
    "contractor": "IV Waste",
    "rowid": "1259054",
    "final_x": "3675845.54472",
    "final_y": "522803.958587",
    "longitude": "-90.0862246188927",
    "latitude": "29.931699916139575",
    "geocoded_column": {
      "latitude": "29.931699916139575",
      "longitude": "-90.0862246188927"
    }
  },
  {
    "service_request": "2026-1259053",
    "request_type": "General Services",
    "request_reason": "General Service Request",
    "date_created": "2026-02-18T13:40:25.000",
    "date_modified": "2026-02-18T13:54:34.000",
    "case_close_date": "2026-02-18T07:54:33.000",
    "request_status": "Closed",
    "responsible_agency": "Orleans Parish Communication District",
    "final_address": "1016 Amelia St",
    "address_councildis": "B",
    "status": "Question Answered.",
    "rowid": "1259053",
    "final_x": "3673672.57294",
    "final_y": "518906.071159",
    "longitude": "-90.09321763329133",
    "latitude": "29.921046831470044",
    "geocoded_column": {
      "latitude": "29.921046831470044",
      "longitude": "-90.09321763329133"
    }
  },
  {
    "service_request": "2026-1259052",
    "request_type": "Trash/Recycling",
    "request_reason": "Request a Large Item Pick Up",
    "date_created": "2026-02-18T13:40:25.000",
    "date_modified": "2026-02-18T13:40:27.000",
    "request_status": "Pending",
    "responsible_agency": "Department of Sanitation",
    "final_address": "8005 Brevard Ave",
    "address_councildis": "E",
    "status": "Assigned to Contractor",
    "contractor": "Waste Pro",
    "rowid": "1259052",
    "final_x": "3705877.43908",
    "final_y": "564389.120993",
    "longitude": "-89.98987891128323",
    "latitude": "30.04511066147646",
    "geocoded_column": {
      "latitude": "30.04511066147646",
      "longitude": "-89.98987891128323"
    }
  },
  {
    "service_request": "2026-1259051",
    "request_type": "Abandoned Vehicles",
    "request_reason": "Abandoned/Junk Vehicles",
    "date_created": "2026-02-18T13:36:02.000",
    "date_modified": "2026-02-18T13:36:04.000",
    "request_status": "Pending",
    "responsible_agency": "Department of Public Works",
    "final_address": "7400 BLK Canal Blvd",
    "address_councildis": "D",
    "status": "Pending",
    "rowid": "1259051",
    "final_x": "3669257.16768",
    "final_y": "556498.491449",
    "longitude": "-90.10588398341537",
    "latitude": "30.02454401081706",
    "geocoded_column": {
      "latitude": "30.02454401081706",
      "longitude": "-90.10588398341537"
    }
  },
  {
    "service_request": "2026-1259050",
    "request_type": "Trash/Recycling",
    "request_reason": "Change Size of Trash Cart",
    "date_created": "2026-02-18T13:34:31.000",
    "date_modified": "2026-02-18T15:10:39.000",
    "request_status": "Pending",
    "responsible_agency": "Department of Sanitation",
    "final_address": "1632 Fourth St",
    "address_councildis": "B",
    "status": "Assigned to Contractor",
    "contractor": "IV Waste",
    "rowid": "1259050",
    "final_x": "3675991.85582",
    "final_y": "522947.140667",
    "longitude": "-90.08575780939195",
    "latitude": "29.93208924078341",
    "geocoded_column": {
      "latitude": "29.93208924078341",
      "longitude": "-90.08575780939195"
    }
  },
  {
    "service_request": "2026-1259049",
    "request_type": "Abandoned Vehicles",
    "request_reason": "Abandoned/Junk Vehicles",
    "date_created": "2026-02-18T13:33:42.000",
    "date_modified": "2026-02-18T13:33:44.000",
    "request_status": "Pending",
    "responsible_agency": "Department of Public Works",
    "final_address": "4424 Laurel St",
    "address_councildis": "B",
    "status": "Pending",
    "rowid": "1259049",
    "final_x": "3670878.98683",
    "final_y": "517984.120054",
    "longitude": "-90.10206702181604",
    "latitude": "29.91859459740394",
    "geocoded_column": {
      "latitude": "29.91859459740394",
      "longitude": "-90.10206702181604"
    }
  },
  {
    "service_request": "2026-1259048",
    "request_type": "Trash/Recycling",
    "request_reason": "Request a Large Item Pick Up",
    "date_created": "2026-02-18T13:29:45.000",
    "date_modified": "2026-02-18T13:29:47.000",
    "request_status": "Pending",
    "responsible_agency": "Department of Sanitation",
    "final_address": "2117 Onzaga St",
    "address_councildis": "D",
    "status": "Assigned to Contractor",
    "contractor": "IV Waste",
    "rowid": "1259048",
    "final_x": "3680895.62619",
    "final_y": "539269.201546",
    "longitude": "-90.06970887101313",
    "latitude": "29.97682166756543",
    "geocoded_column": {
      "latitude": "29.97682166756543",
      "longitude": "-90.06970887101313"
    }
  },
  {
    "service_request": "2026-1259047",
    "request_type": "Trash/Recycling",
    "request_reason": "Repair Recycling Cart",
    "date_created": "2026-02-18T13:29:27.000",
    "date_modified": "2026-02-18T13:29:29.000",
    "request_status": "Pending",
    "responsible_agency": "Department of Sanitation",
    "final_address": "635 Congress St",
    "address_councildis": "C",
    "status": "Pending",
    "rowid": "1259047",
    "final_x": "3690361.1334",
    "final_y": "534002.775685",
    "longitude": "-90.04000166067715",
    "latitude": "29.962050432504657",
    "geocoded_column": {
      "latitude": "29.962050432504657",
      "longitude": "-90.04000166067715"
    }
  },
  {
    "service_request": "2026-1259046",
    "request_type": "Roads and Streets",
    "request_reason": "Pothole",
    "date_created": "2026-02-18T13:27:35.000",
    "date_modified": "2026-02-18T13:27:36.000",
    "request_status": "Pending",
    "responsible_agency": "Department of Public Works",
    "final_address": "6232 Pasteur Blvd",
    "address_councildis": "D",
    "status": "Pending",
    "rowid": "1259046",
    "final_x": "3682675.01589",
    "final_y": "556126.53705",
    "longitude": "-90.06349898388004",
    "latitude": "30.023119228761402",
    "geocoded_column": {
      "latitude": "30.023119228761402",
      "longitude": "-90.06349898388004"
    }
  },
  {
    "service_request": "2026-1259045",
    "request_type": "Trash/Recycling",
    "request_reason": "Request a Large Item Pick Up",
    "date_created": "2026-02-18T13:23:59.000",
    "date_modified": "2026-02-18T13:24:01.000",
    "request_status": "Pending",
    "responsible_agency": "Department of Sanitation",
    "final_address": "5660 New England Dr",
    "address_councildis": "E",
    "status": "Assigned to Contractor",
    "contractor": "Waste Pro",
    "rowid": "1259045",
    "final_x": "3723558.22233",
    "final_y": "564427.157729",
    "longitude": "-89.93399850779016",
    "latitude": "30.04463339617989",
    "geocoded_column": {
      "latitude": "30.04463339617989",
      "longitude": "-89.93399850779016"
    }
  },
  {
    "service_request": "2026-1259044",
    "request_type": "Streetlights",
    "request_reason": "Streetlight Outage/Malfunction",
    "date_created": "2026-02-18T13:22:06.000",
    "date_modified": "2026-02-18T13:22:07.000",
    "request_status": "Pending",
    "responsible_agency": "Department of Public Works",
    "final_address": "4223 Loyola Ave",
    "address_councildis": "B",
    "status": "Pending",
    "rowid": "1259044",
    "final_x": "3671185.49364",
    "final_y": "523093.081979",
    "longitude": "-90.10092609278348",
    "latitude": "29.93263355056735",
    "geocoded_column": {
      "latitude": "29.93263355056735",
      "longitude": "-90.10092609278348"
    }
  },
  {
    "service_request": "2026-1259043",
    "request_type": "Trash/Recycling",
    "request_reason": "Illegal Dumping",
    "date_created": "2026-02-18T13:20:14.000",
    "date_modified": "2026-02-18T13:23:00.000",
    "request_status": "Pending",
    "responsible_agency": "Department of Sanitation",
    "final_address": "4469 Woodland Dr",
    "address_councildis": "C",
    "status": "Pending",
    "rowid": "1259043",
    "final_x": "3705518.49508",
    "final_y": "513561.359538",
    "longitude": "-89.99289255013865",
    "latitude": "29.905364599463695",
    "geocoded_column": {
      "latitude": "29.905364599463695",
      "longitude": "-89.99289255013865"
    }
  },
  {
    "service_request": "2026-1259042",
    "request_type": "Trash/Recycling",
    "request_reason": "Request a Large Item Pick Up",
    "date_created": "2026-02-18T13:19:20.000",
    "date_modified": "2026-02-18T13:19:22.000",
    "request_status": "Pending",
    "responsible_agency": "Department of Sanitation",
    "final_address": "915 Franklin Ave",
    "address_councildis": "C",
    "status": "Assigned to Contractor",
    "contractor": "IV Waste",
    "rowid": "1259042",
    "final_x": "3686985.40169",
    "final_y": "535799.561223",
    "longitude": "-90.0505981621494",
    "latitude": "29.967095305933835",
    "geocoded_column": {
      "latitude": "29.967095305933835",
      "longitude": "-90.0505981621494"
    }
  },
  {
    "service_request": "2026-1259041",
    "request_type": "Trash/Recycling",
    "request_reason": "Request a Large Item Pick Up",
    "date_created": "2026-02-18T13:18:31.000",
    "date_modified": "2026-02-18T13:18:34.000",
    "request_status": "Pending",
    "responsible_agency": "Department of Sanitation",
    "final_address": "2328 Clouet St",
    "address_councildis": "D",
    "status": "Assigned to Contractor",
    "contractor": "IV Waste",
    "rowid": "1259041",
    "final_x": "3690166.31196",
    "final_y": "540767.368331",
    "longitude": "-90.04037583314418",
    "latitude": "29.98065672203576",
    "geocoded_column": {
      "latitude": "29.98065672203576",
      "longitude": "-90.04037583314418"
    }
  },
  {
    "service_request": "2026-1259040",
    "request_type": "Roads and Streets",
    "request_reason": "Abandoned Service Cut",
    "date_created": "2026-02-18T13:17:34.000",
    "date_modified": "2026-02-18T13:17:35.000",
    "request_status": "Pending",
    "responsible_agency": "Department of Public Works",
    "final_address": "7601 Stonewood St",
    "address_councildis": "E",
    "status": "Pending",
    "rowid": "1259040",
    "final_x": "3719621.99084",
    "final_y": "572386.265833",
    "longitude": "-89.94613413220472",
    "latitude": "30.06664922632796",
    "geocoded_column": {
      "latitude": "30.06664922632796",
      "longitude": "-89.94613413220472"
    }
  },
  {
    "service_request": "2026-1259039",
    "request_type": "Trash/Recycling",
    "request_reason": "Request a Large Item Pick Up",
    "date_created": "2026-02-18T13:17:31.000",
    "date_modified": "2026-02-18T13:17:33.000",
    "request_status": "Pending",
    "responsible_agency": "Department of Sanitation",
    "final_address": "6210 Providence Pl",
    "address_councildis": "D",
    "status": "Assigned to Contractor",
    "contractor": "IV Waste",
    "rowid": "1259039",
    "final_x": "3688377.14927",
    "final_y": "556244.437466",
    "longitude": "-90.04547735435676",
    "latitude": "30.02326842416946",
    "geocoded_column": {
      "latitude": "30.02326842416946",
      "longitude": "-90.04547735435676"
    }
  },
  {
    "service_request": "2026-1259038",
    "request_type": "Trash/Recycling",
    "request_reason": "Replace Trash Cart",
    "date_created": "2026-02-18T13:16:45.000",
    "date_modified": "2026-02-18T13:58:37.000",
    "request_status": "Pending",
    "responsible_agency": "Department of Sanitation",
    "final_address": "1421 Cabrini Ct",
    "address_councildis": "D",
    "status": "Assigned to Contractor",
    "contractor": "IV Waste",
    "rowid": "1259038",
    "final_x": "3677962.78888",
    "final_y": "553086.582999",
    "longitude": "-90.07849378857378",
    "latitude": "30.01490320434284",
    "geocoded_column": {
      "latitude": "30.01490320434284",
      "longitude": "-90.07849378857378"
    }
  },
  {
    "service_request": "2026-1259037",
    "request_type": "Trash/Recycling",
    "request_reason": "Request a Large Item Pick Up",
    "date_created": "2026-02-18T13:11:08.000",
    "date_modified": "2026-02-18T13:11:10.000",
    "request_status": "Pending",
    "responsible_agency": "Department of Sanitation",
    "final_address": "4704 General Meyer Ave",
    "address_councildis": "C",
    "status": "Assigned to Contractor",
    "contractor": "Richards Disposal",
    "rowid": "1259037",
    "final_x": "3701453.46545",
    "final_y": "523624.188603",
    "longitude": "-90.00535384574943",
    "latitude": "29.93316406115951",
    "geocoded_column": {
      "latitude": "29.93316406115951",
      "longitude": "-90.00535384574943"
    }
  },
  {
    "service_request": "2026-1259036",
    "request_type": "Trash/Recycling",
    "request_reason": "Request a Large Item Pick Up",
    "date_created": "2026-02-18T13:08:40.000",
    "date_modified": "2026-02-18T13:08:41.000",
    "request_status": "Pending",
    "responsible_agency": "Department of Sanitation",
    "final_address": "5423 N Claiborne Ave",
    "address_councildis": "E",
    "status": "Assigned to Contractor",
    "contractor": "Waste Pro",
    "rowid": "1259036",
    "final_x": "3697889.62455",
    "final_y": "535862.912455",
    "longitude": "-90.01616044935164",
    "latitude": "29.966929344586255",
    "geocoded_column": {
      "latitude": "29.966929344586255",
      "longitude": "-90.01616044935164"
    }
  },
  {
    "service_request": "2026-1259035",
    "request_type": "Trash/Recycling",
    "request_reason": "Replace Trash Cart",
    "date_created": "2026-02-18T13:06:15.000",
    "date_modified": "2026-02-18T13:06:18.000",
    "request_status": "Pending",
    "responsible_agency": "Department of Sanitation",
    "final_address": "4914 Major Dr",
    "address_councildis": "E",
    "status": "Assigned to Contractor",
    "contractor": "Waste Pro",
    "rowid": "1259035",
    "final_x": "3718085.30796",
    "final_y": "557902.931547",
    "longitude": "-89.95154389121907",
    "latitude": "30.026877054082846",
    "geocoded_column": {
      "latitude": "30.026877054082846",
      "longitude": "-89.95154389121907"
    }
  },
  {
    "service_request": "2026-1259034",
    "request_type": "Mosquito, Termite & Rodent Control",
    "request_reason": "Mosquito Complaint",
    "date_created": "2026-02-18T13:02:40.000",
    "date_modified": "2026-02-18T13:02:43.000",
    "request_status": "Pending",
    "responsible_agency": "Mosquito, Termite & Rodent Control Board",
    "final_address": "4704 General Meyer Ave",
    "address_councildis": "C",
    "status": "Pending",
    "rowid": "1259034",
    "final_x": "3701453.46545",
    "final_y": "523624.188603",
    "longitude": "-90.00535384574943",
    "latitude": "29.93316406115951",
    "geocoded_column": {
      "latitude": "29.93316406115951",
      "longitude": "-90.00535384574943"
    }
  },
  {
    "service_request": "2026-1259033",
    "request_type": "Trash/Recycling",
    "request_reason": "Illegal Dumping",
    "date_created": "2026-02-18T13:00:05.000",
    "date_modified": "2026-02-18T13:00:08.000",
    "request_status": "Pending",
    "responsible_agency": "Department of Sanitation",
    "final_address": "750 S Norman C Francis Prkwy",
    "address_councildis": "B",
    "status": "Pending",
    "rowid": "1259033",
    "final_x": "3671561.74759",
    "final_y": "534316.472453",
    "longitude": "-90.09935672119532",
    "latitude": "29.963483059544206",
    "geocoded_column": {
      "latitude": "29.963483059544206",
      "longitude": "-90.09935672119532"
    }
  },
  {
    "service_request": "2026-1259032",
    "request_type": "Trash/Recycling",
    "request_reason": "Replace Trash Cart",
    "date_created": "2026-02-18T12:58:38.000",
    "date_modified": "2026-02-18T13:58:15.000",
    "request_status": "Pending",
    "responsible_agency": "Department of Sanitation",
    "final_address": "1525 St Philip St",
    "address_councildis": "C",
    "status": "Assigned to Contractor",
    "contractor": "IV Waste",
    "rowid": "1259032",
    "final_x": "3680847.17749",
    "final_y": "535219.282822",
    "longitude": "-90.0700029116514",
    "latitude": "29.96568725603623",
    "geocoded_column": {
      "latitude": "29.96568725603623",
      "longitude": "-90.0700029116514"
    }
  },