[
  {
    "service_request": "2024-1125279",
    "request_type": "Trash/Recycling",
    "request_reason": "Order Recycling Cart",
    "date_created": "2024-08-26T23:08:38.000",
    "date_modified": "2024-08-26T23:08:38.000",
    "request_status": "Pending",
    "responsible_agency": "Department of Sanitation",
    "final_address": "301 Seattle St",
    "address_councildis": "A",
    "status": "Pending",
    "rowid": "1125279",
    "final_x": "3665301.89575",
    "final_y": "552184.738134",
    "longitude": "-90.11852651860085",
    "latitude": "30.01279861468701",
    "geocoded_column": {
      "latitude": "30.01279861468701",
      "longitude": "-90.11852651860085"
    }
  },
  {
    "service_request": "2024-1125278",
    "request_type": "Property Maintenance",
    "request_reason": "Property Maintenance",
    "date_created": "2024-08-26T22:39:11.000",
    "date_modified": "2024-08-26T22:39:11.000",
    "request_status": "Pending",
    "responsible_agency": "Department of Code Enforcement",
    "final_address": "6001 Marconi Dr",
    "address_councildis": "A",
    "status": "Pending",
    "rowid": "1125278",
    "final_x": "3671396.04481",
    "final_y": "548460.730578",
    "longitude": "-90.09939899322549",
    "latitude": "30.00237984319858",
    "geocoded_column": {
      "latitude": "30.00237984319858",
      "longitude": "-90.09939899322549"
    }
  },
  {
    "service_request": "2024-1125277",
    "request_type": "Trash/Recycling",
    "request_reason": "Order Trash Cart",
    "date_created": "2024-08-26T22:21:33.000",
    "date_modified": "2024-08-26T22:21:34.000",
    "request_status": "Pending",
    "responsible_agency": "Department of Sanitation",
    "final_address": "2107 Prytania St",
    "address_councildis": "B",
    "status": "Assigned to Contractor",
    "contractor": "IV Waste",
    "rowid": "1125277",
    "final_x": "3678162.20334",
    "final_y": "523518.795515",
    "longitude": "-90.07888648122443",
    "latitude": "29.93359594980631",
    "geocoded_column": {
      "latitude": "29.93359594980631",
      "longitude": "-90.07888648122443"
    }
  },
  {
    "service_request": "2024-1125276",
    "request_type": "Roads/Drainage",
    "request_reason": "Street Subsidence (Sinking)",
    "date_created": "2024-08-26T21:56:00.000",
    "date_modified": "2024-08-26T21:56:00.000",
    "request_status": "Pending",
    "responsible_agency": "Department of Public Works",
    "final_address": "1 English Turn Prkwy",
    "address_councildis": "C",
    "status": "Pending",
    "rowid": "1125276",
    "final_x": "3713690.71429",
    "final_y": "516301.512564",
    "longitude": "-89.96699773956271",
    "latitude": "29.912633659868995",
    "geocoded_column": {
      "latitude": "29.912633659868995",
      "longitude": "-89.96699773956271"
    }
  },
  {
    "service_request": "2024-1125275",
    "request_type": "Trash/Recycling",
    "request_reason": "Replace Recycling Cart",
    "date_created": "2024-08-26T21:49:32.000",
    "date_modified": "2024-08-26T21:49:32.000",
    "request_status": "Pending",
    "responsible_agency": "Department of Sanitation",
    "final_address": "209 26Th St",
    "address_councildis": "A",
    "status": "Pending",
    "rowid": "1125275",
    "final_x": "3665682.66292",
    "final_y": "549950.205588",
    "longitude": "-90.11739841524482",
    "latitude": "30.006643322657716",
    "geocoded_column": {
      "latitude": "30.006643322657716",
      "longitude": "-90.11739841524482"
    }
  },
  {
    "service_request": "2024-1125274",
    "request_type": "Trash/Recycling",
    "request_reason": "Repair Trash Cart",
    "date_created": "2024-08-26T21:49:23.000",
    "date_modified": "2024-08-26T21:49:25.000",
    "request_status": "Pending",
    "responsible_agency": "Department of Sanitation",
    "final_address": "4 S Oak Ridge Ct",
    "address_councildis": "E",
    "status": "Assigned to Contractor",
    "contractor": "Waste Pro",
    "rowid": "1125274",
    "final_x": "3713286.95371",
    "final_y": "567502.981924",
    "longitude": "-89.96634414950005",
    "latitude": "30.053431562323905",
    "geocoded_column": {
      "latitude": "30.053431562323905",
      "longitude": "-89.96634414950005"
    }
  },
  {
    "service_request": "2024-1125273",
    "request_type": "Property Maintenance",
    "request_reason": "Property Maintenance",
    "date_created": "2024-08-26T21:48:13.000",
    "date_modified": "2024-08-26T21:48:13.000",
    "request_status": "Pending",
    "responsible_agency": "Department of Code Enforcement",
    "final_address": "4431 Arthur Dr",
    "address_councildis": "E",
    "status": "Pending",
    "rowid": "1125273",
    "final_x": "3707932.79793",
    "final_y": "553798.929751",
    "longitude": "-89.98377725817956",
    "latitude": "30.015925377251275",
    "geocoded_column": {
      "latitude": "30.015925377251275",
      "longitude": "-89.98377725817956"
    }
  },
  {
    "service_request": "2024-1125272",
    "request_type": "Property Maintenance",
    "request_reason": "Property Maintenance",
    "date_created": "2024-08-26T21:46:18.000",
    "date_modified": "2024-08-26T21:46:18.000",
    "request_status": "Pending",
    "responsible_agency": "Department of Code Enforcement",
    "final_address": "4519 Arthur Dr",
    "address_councildis": "E",
    "status": "Pending",
    "rowid": "1125272",
    "final_x": "3707901.45534",
    "final_y": "554096.2758",
    "longitude": "-89.98386522153844",
    "latitude": "30.01674397885752",
    "geocoded_column": {
      "latitude": "30.01674397885752",
      "longitude": "-89.98386522153844"
    }
  },
  {
    "service_request": "2024-1125271",
    "request_type": "Property Maintenance",
    "request_reason": "Property Maintenance",
    "date_created": "2024-08-26T21:40:47.000",
    "date_modified": "2024-08-26T21:40:47.000",
    "request_status": "Pending",
    "responsible_agency": "Department of Code Enforcement",
    "final_address": "4627 Arthur Dr",
    "address_councildis": "E",
    "status": "Pending",
    "rowid": "1125271",
    "final_x": "3707843.4588",
    "final_y": "554681.147864",
    "longitude": "-89.98402670372136",
    "latitude": "30.01835402847956",
    "geocoded_column": {
      "latitude": "30.01835402847956",
      "longitude": "-89.98402670372136"
    }
  },
  {
    "service_request": "2024-1125270",
    "request_type": "Property Maintenance",
    "request_reason": "Property Maintenance",
    "date_created": "2024-08-26T21:35:34.000",
    "date_modified": "2024-08-26T21:35:34.000",
    "request_status": "Pending",
    "responsible_agency": "Department of Code Enforcement",
    "final_address": "4691 Arthur Dr",
    "address_councildis": "E",
    "status": "Pending",
    "rowid": "1125270",
    "final_x": "3707795.4147",
    "final_y": "555157.185305",
    "longitude": "-89.9841607939076",
    "latitude": "30.019664502321678",
    "geocoded_column": {
      "latitude": "30.019664502321678",
      "longitude": "-89.9841607939076"
    }
  },
  {
    "service_request": "2024-1125269",
    "request_type": "Trash/Recycling",
    "request_reason": "Request a Large Item Pick Up",
    "date_created": "2024-08-26T21:21:46.000",
    "date_modified": "2024-08-26T21:21:47.000",
    "request_status": "Pending",
    "responsible_agency": "Department of Sanitation",
    "final_address": "2521 N Claiborne Ave",
    "address_councildis": "D",
    "status": "Assigned to Contractor",
    "contractor": "IV Waste",
    "rowid": "1125269",
    "final_x": "3687250.32002",
    "final_y": "538375.990025",
    "longitude": "-90.0496704000623",
    "latitude": "29.974171426564872",
    "geocoded_column": {
      "latitude": "29.974171426564872",
      "longitude": "-90.0496704000623"
    }
  },
  {
    "service_request": "2024-1125268",
    "request_type": "Traffic Signals/Signs/Striping/Streetlights",
    "request_reason": "Street Light Outage/Malfunction",
    "date_created": "2024-08-26T21:16:46.000",
    "date_modified": "2024-08-26T21:16:48.000",
    "request_status": "Pending",
    "responsible_agency": "Department of Public Works",
    "final_address": "14TH ST & FLEUR DE LIS DR",
    "address_councildis": "A",
    "status": "Assigned to Contractor",
    "contractor": "Legacy Professional Services",
    "rowid": "1125268",
    "final_x": "3665152.4",
    "final_y": "548129.38",
    "longitude": "-90.11913461669027",
    "latitude": "30.0016521426651",
    "geocoded_column": {
      "latitude": "30.0016521426651",
      "longitude": "-90.11913461669027"
    }
  },
  {
    "service_request": "2024-1125267",
    "request_type": "Trash/Recycling",
    "request_reason": "Order Trash Cart",
    "date_created": "2024-08-26T21:05:23.000",
    "date_modified": "2024-08-26T21:05:24.000",
    "request_status": "Pending",
    "responsible_agency": "Department of Sanitation",
    "final_address": "3141 State Street Dr",
    "address_councildis": "A",
    "status": "Assigned to Contractor",
    "contractor": "IV Waste",
    "rowid": "1125267",
    "final_x": "3667542.60212",
    "final_y": "527798.648063",
    "longitude": "-90.11226813424194",
    "latitude": "29.945679577033133",
    "geocoded_column": {
      "latitude": "29.945679577033133",
      "longitude": "-90.11226813424194"
    }
  },
  {
    "service_request": "2024-1125266",
    "request_type": "Trash/Recycling",
    "request_reason": "Replace Trash Cart",
    "date_created": "2024-08-26T21:04:26.000",
    "date_modified": "2024-08-26T21:04:27.000",
    "request_status": "Pending",
    "responsible_agency": "Department of Sanitation",
    "final_address": "4169 Vincennes Pl",
    "address_councildis": "B",
    "status": "Assigned to Contractor",
    "contractor": "IV Waste",
    "rowid": "1125266",
    "final_x": "3668713.90874",
    "final_y": "531024.020354",
    "longitude": "-90.10846106231494",
    "latitude": "29.954513924332232",
    "geocoded_column": {
      "latitude": "29.954513924332232",
      "longitude": "-90.10846106231494"
    }
  },
  {
    "service_request": "2024-1125265",
    "request_type": "Traffic Signals/Signs/Striping/Streetlights",
    "request_reason": "Street Light Outage/Malfunction",
    "date_created": "2024-08-26T20:56:32.000",
    "date_modified": "2024-08-26T20:56:33.000",
    "request_status": "Pending",
    "responsible_agency": "Department of Public Works",
    "final_address": "300 14Th St",
    "address_councildis": "A",
    "status": "Assigned to Contractor",
    "contractor": "Legacy Professional Services",
    "rowid": "1125265",
    "final_x": "3665088.95885",
    "final_y": "548087.851026",
    "longitude": "-90.11933642451454",
    "latitude": "30.001539800603382",
    "geocoded_column": {
      "latitude": "30.001539800603382",
      "longitude": "-90.11933642451454"
    }
  },
  {
    "service_request": "2024-1125264",
    "request_type": "Property Maintenance",
    "request_reason": "Property Maintenance",
    "date_created": "2024-08-26T20:49:33.000",
    "date_modified": "2024-08-26T20:49:33.000",
    "request_status": "Pending",
    "responsible_agency": "Department of Code Enforcement",
    "final_address": "N PRIEUR ST & TRICOU ST",
    "address_councildis": "E",
    "status": "Pending",
    "rowid": "1125264",
    "final_x": "3701285.3",
    "final_y": "535889.98",
    "longitude": "-90.00543598347504",
    "latitude": "29.96689600330313",
    "geocoded_column": {
      "latitude": "29.96689600330313",
      "longitude": "-90.00543598347504"
    }
  },
  {
    "service_request": "2024-1125263",
    "request_type": "Trash/Recycling",
    "request_reason": "Illegal Dumping",
    "date_created": "2024-08-26T20:45:19.000",
    "date_modified": "2024-08-26T20:45:19.000",
    "request_status": "Pending",
    "responsible_agency": "Department of Sanitation",
    "final_address": "2001 St Bernard Ave",
    "address_councildis": "D",
    "status": "Pending",
    "rowid": "1125263",
    "final_x": "3681518.86741",
    "final_y": "539377.467018",
    "longitude": "-90.06773670367747",
    "latitude": "29.97710044673789",
    "geocoded_column": {
      "latitude": "29.97710044673789",
      "longitude": "-90.06773670367747"
    }
  },
  {
    "service_request": "2024-1125262",
    "request_type": "Roads/Drainage",
    "request_reason": "Street Subsidence (Sinking)",
    "date_created": "2024-08-26T20:10:54.000",
    "date_modified": "2024-08-26T20:10:54.000",
    "request_status": "Pending",
    "responsible_agency": "Department of Public Works",
    "final_address": "3840 Mansfield Ave",
    "address_councildis": "C",
    "status": "Pending",
    "rowid": "1125262",
    "final_x": "3708839.18635",
    "final_y": "516675.888053",
    "longitude": "-89.98229646631403",
    "latitude": "29.9138212425139",
    "geocoded_column": {
      "latitude": "29.9138212425139",
      "longitude": "-89.98229646631403"
    }
  },
  {
    "service_request": "2024-1125261",
    "request_type": "Abandoned Vehicles",
    "request_reason": "Abandoned/Junk Vehicles",
    "date_created": "2024-08-26T19:55:55.000",
    "date_modified": "2024-08-26T19:55:55.000",
    "request_status": "Pending",
    "responsible_agency": "Department of Public Works",
    "final_address": "1033 Michael St",
    "address_councildis": "C",
    "status": "Pending",
    "rowid": "1125261",
    "final_x": "3697186.65271",
    "final_y": "527464.543423",
    "longitude": "-90.01868471640498",
    "latitude": "29.94385899052682",
    "geocoded_column": {
      "latitude": "29.94385899052682",
      "longitude": "-90.01868471640498"
    }
  },
  {
    "service_request": "2024-1125260",
    "request_type": "Abandoned Vehicles",
    "request_reason": "Abandoned/Junk Vehicles",
    "date_created": "2024-08-26T19:54:33.000",
    "date_modified": "2024-08-26T19:54:33.000",
    "request_status": "Pending",
    "responsible_agency": "Department of Public Works",
    "final_address": "1033 Michael St",
    "address_councildis": "C",
    "status": "Pending",
    "rowid": "1125260",
    "final_x": "3697186.65271",
    "final_y": "527464.543423",
    "longitude": "-90.01868471640498",
    "latitude": "29.94385899052682",
    "geocoded_column": {
      "latitude": "29.94385899052682",
      "longitude": "-90.01868471640498"
    }
  },
  {
    "service_request": "2024-1125259",
    "request_type": "Abandoned Vehicles",
    "request_reason": "Vehicle Blocking Your Driveway",
    "date_created": "2024-08-26T19:48:22.000",
    "date_modified": "2024-08-26T19:48:22.000",
    "request_status": "Pending",
    "responsible_agency": "Department of Public Works",
    "final_address": "900 Pacific Ave",
    "address_councildis": "C",
    "status": "Pending",
    "rowid": "1125259",
    "final_x": "3688482.65436",
    "final_y": "528276.6928",
    "longitude": "-90.04613672160968",
    "latitude": "29.94636384380555",
    "geocoded_column": {
      "latitude": "29.94636384380555",
      "longitude": "-90.04613672160968"
    }
  },
  {
    "service_request": "2024-1125258",
    "request_type": "Roads/Drainage",
    "request_reason": "Street Flooding / Drainage",
    "date_created": "2024-08-26T19:39:43.000",
    "date_modified": "2024-08-26T19:39:43.000",
    "request_status": "Pending",
    "responsible_agency": "Department of Public Works",
    "final_address": "407 22Nd St",
    "address_councildis": "A",
    "status": "Pending",
    "rowid": "1125258",
    "final_x": "3664750.83572",
    "final_y": "549404.090579",
    "longitude": "-90.12036057551262",
    "latitude": "30.00516885160291",
    "geocoded_column": {
      "latitude": "30.00516885160291",
      "longitude": "-90.12036057551262"
    }
  },
  {
    "service_request": "2024-1125257",
    "request_type": "Abandoned Vehicles",
    "request_reason": "Abandoned/Junk Vehicles",
    "date_created": "2024-08-26T19:25:03.000",
    "date_modified": "2024-08-26T19:25:03.000",
    "request_status": "Pending",
    "responsible_agency": "Department of Public Works",
    "final_address": "900 Philip St",
    "address_councildis": "B",
    "status": "Pending",
    "rowid": "1125257",
    "final_x": "3678941.0084",
    "final_y": "521266.082681",
    "longitude": "-90.07650584001509",
    "latitude": "29.927378260260895",
    "geocoded_column": {
      "latitude": "29.927378260260895",
      "longitude": "-90.07650584001509"
    }
  },
  {
    "service_request": "2024-1125256",
    "request_type": "Abandoned Vehicles",
    "request_reason": "Abandoned/Junk Vehicles",
    "date_created": "2024-08-26T19:23:40.000",
    "date_modified": "2024-08-26T19:23:40.000",
    "request_status": "Pending",
    "responsible_agency": "Department of Public Works",
    "final_address": "900 Philip St",
    "address_councildis": "B",
    "status": "Pending",
    "rowid": "1125256",
    "final_x": "3678941.0084",
    "final_y": "521266.082681",
    "longitude": "-90.07650584001509",
    "latitude": "29.927378260260895",
    "geocoded_column": {
      "latitude": "29.927378260260895",
      "longitude": "-90.07650584001509"
    }
  },
  {
    "service_request": "2024-1125255",
    "request_type": "Abandoned Vehicles",
    "request_reason": "Abandoned/Junk Vehicles",
    "date_created": "2024-08-26T19:23:25.000",
    "date_modified": "2024-08-26T19:23:25.000",
    "request_status": "Pending",
    "responsible_agency": "Department of Public Works",
    "final_address": "900 Philip St",
    "address_councildis": "B",
    "status": "Pending",
    "rowid": "1125255",
    "final_x": "3678941.0084",
    "final_y": "521266.082681",
    "longitude": "-90.07650584001509",
    "latitude": "29.927378260260895",
    "geocoded_column": {
      "latitude": "29.927378260260895",
      "longitude": "-90.07650584001509"
    }
  },
  {
    "service_request": "2024-1125254",
    "request_type": "Abandoned Vehicles",
    "request_reason": "Abandoned/Junk Vehicles",
    "date_created": "2024-08-26T19:21:28.000",
    "date_modified": "2024-08-26T19:21:28.000",
    "request_status": "Pending",
    "responsible_agency": "Department of Public Works",
    "final_address": "900 Philip St",
    "address_councildis": "B",
    "status": "Pending",
    "rowid": "1125254",
    "final_x": "3678941.0084",
    "final_y": "521266.082681",
    "longitude": "-90.07650584001509",
    "latitude": "29.927378260260895",
    "geocoded_column": {
      "latitude": "29.927378260260895",
      "longitude": "-90.07650584001509"
    }
  },
  {
    "service_request": "2024-1125253",
    "request_type": "Abandoned Vehicles",
    "request_reason": "Abandoned/Junk Vehicles",
    "date_created": "2024-08-26T19:19:48.000",
    "date_modified": "2024-08-26T19:19:48.000",
    "request_status": "Pending",
    "responsible_agency": "Department of Public Works",
    "final_address": "900 Philip St",
    "address_councildis": "B",
    "status": "Pending",
    "rowid": "1125253",
    "final_x": "3678941.0084",
    "final_y": "521266.082681",
    "longitude": "-90.07650584001509",
    "latitude": "29.927378260260895",
    "geocoded_column": {
      "latitude": "29.927378260260895",
      "longitude": "-90.07650584001509"
    }
  },
  {
    "service_request": "2024-1125252",
    "request_type": "Trash/Recycling",
    "request_reason": "Replace Trash Cart",
    "date_created": "2024-08-26T19:13:20.000",
    "date_modified": "2024-08-26T19:13:21.000",
    "request_status": "Pending",
    "responsible_agency": "Department of Sanitation",
    "final_address": "6316 S Prieur St",
    "address_councildis": "A",
    "status": "Assigned to Contractor",
    "contractor": "IV Waste",
    "rowid": "1125252",
    "final_x": "3666571.8066",
    "final_y": "527273.574783",
    "longitude": "-90.1153508890357",
    "latitude": "29.944264205445155",
    "geocoded_column": {
      "latitude": "29.944264205445155",
      "longitude": "-90.1153508890357"
    }
  },
  {
    "service_request": "2024-1125251",
    "request_type": "Trash/Recycling",
    "request_reason": "Illegal Dumping",
    "date_created": "2024-08-26T18:46:06.000",
    "date_modified": "2024-08-26T18:46:06.000",
    "request_status": "Pending",
    "responsible_agency": "Department of Sanitation",
    "final_address": "4600 BLK Gabriel Dr",
    "address_councildis": "E",
    "status": "Pending",
    "rowid": "1125251",
    "final_x": "3708916.42563",
    "final_y": "555380.968422",
    "longitude": "-89.98061045316811",
    "latitude": "30.020243477778877",
    "geocoded_column": {
      "latitude": "30.020243477778877",
      "longitude": "-89.98061045316811"
    }
  },
  {
    "service_request": "2024-1125250",
    "request_type": "Trash/Recycling",
    "request_reason": "Request a Large Item Pick Up",
    "date_created": "2024-08-26T18:44:10.000",
    "date_modified": "2024-08-26T18:44:12.000",
    "request_status": "Pending",
    "responsible_agency": "Department of Sanitation",
    "final_address": "414 39Th St",
    "address_councildis": "A",
    "status": "Assigned to Contractor",
    "contractor": "IV Waste",
    "rowid": "1125250",
    "final_x": "3664916.17216",
    "final_y": "552981.765655",
    "longitude": "-90.11971852853875",
    "latitude": "30.015001400713867",
    "geocoded_column": {
      "latitude": "30.015001400713867",
      "longitude": "-90.11971852853875"
    }
  },
  {
    "service_request": "2024-1125249",
    "request_type": "Trash/Recycling",
    "request_reason": "Request a Large Item Pick Up",
    "date_created": "2024-08-26T18:40:48.000",
    "date_modified": "2024-08-26T18:40:49.000",
    "request_status": "Pending",
    "responsible_agency": "Department of Sanitation",
    "final_address": "414 39Th St",
    "address_councildis": "A",
    "status": "Assigned to Contractor",
    "contractor": "IV Waste",
    "rowid": "1125249",
    "final_x": "3664916.17216",
    "final_y": "552981.765655",
    "longitude": "-90.11971852853875",
    "latitude": "30.015001400713867",
    "geocoded_column": {
      "latitude": "30.015001400713867",
      "longitude": "-90.11971852853875"
    }
  },
  {
    "service_request": "2024-1125247",
    "request_type": "Trash/Recycling",
    "request_reason": "Order Recycling Cart",
    "date_created": "2024-08-26T18:35:19.000",
    "date_modified": "2024-08-26T18:35:19.000",
    "request_status": "Pending",
    "responsible_agency": "Department of Sanitation",
    "final_address": "1127 N Galvez St",
    "address_councildis": "D",
    "status": "Pending",
    "rowid": "1125247",
    "final_x": "3679400.74453",
    "final_y": "537113.079944",
    "longitude": "-90.0745049896349",
    "latitude": "29.970938320593664",
    "geocoded_column": {
      "latitude": "29.970938320593664",
      "longitude": "-90.0745049896349"
    }
  },
  {
    "service_request": "2024-1125246",
    "request_type": "Abandoned Vehicles",
    "request_reason": "Abandoned/Junk Vehicles",
    "date_created": "2024-08-26T18:32:22.000",
    "date_modified": "2024-08-26T18:32:22.000",
    "request_status": "Pending",
    "responsible_agency": "Department of Public Works",
    "final_address": "1726 Urquhart St",
    "address_councildis": "C",
    "status": "Pending",
    "rowid": "1125246",
    "final_x": "3683333.77564",
    "final_y": "536856.576008",
    "longitude": "-90.06209297442491",
    "latitude": "29.970113628813557",
    "geocoded_column": {
      "latitude": "29.970113628813557",
      "longitude": "-90.06209297442491"
    }
  },
  {
    "service_request": "2024-1125245",
    "request_type": "Trash/Recycling",
    "request_reason": "Order Trash Cart",
    "date_created": "2024-08-26T18:25:09.000",
    "date_modified": "2024-08-26T18:25:10.000",
    "request_status": "Pending",
    "responsible_agency": "Department of Sanitation",
    "final_address": "180 Cypress Grove Ct",
    "address_councildis": "C",
    "status": "Assigned to Contractor",
    "contractor": "Richards Disposal",
    "rowid": "1125245",
    "final_x": "3704933.29649",
    "final_y": "511877.946096",
    "longitude": "-89.9948015178069",
    "latitude": "29.90075459623228",
    "geocoded_column": {
      "latitude": "29.90075459623228",
      "longitude": "-89.9948015178069"
    }
  },
  {
    "service_request": "2024-1125244",
    "request_type": "Traffic Signals/Signs/Striping/Streetlights",
    "request_reason": "Request for Stop Sign",
    "date_created": "2024-08-26T18:22:54.000",
    "date_modified": "2024-08-26T18:22:54.000",
    "request_status": "Pending",
    "responsible_agency": "Department of Public Works",
    "final_address": "735 General Pershing St",
    "address_councildis": "B",
    "status": "Pending",
    "rowid": "1125244",
    "final_x": "3671538.54926",
    "final_y": "518409.122166",
    "longitude": "-90.0999706864422",
    "latitude": "29.919743713876198",
    "geocoded_column": {
      "latitude": "29.919743713876198",
      "longitude": "-90.0999706864422"
    }
  },
  {
    "service_request": "2024-1125243",
    "request_type": "Trash/Recycling",
    "request_reason": "Request a Large Item Pick Up",
    "date_created": "2024-08-26T17:51:39.000",
    "date_modified": "2024-08-26T17:51:40.000",
    "request_status": "Pending",
    "responsible_agency": "Department of Sanitation",
    "final_address": "12 Christopher Ct",
    "address_councildis": "E",
    "status": "Assigned to Contractor",
    "contractor": "Waste Pro",
    "rowid": "1125243",
    "final_x": "3716668.85125",
    "final_y": "570517.047143",
    "longitude": "-89.9555404206866",
    "latitude": "30.061607626131252",
    "geocoded_column": {
      "latitude": "30.061607626131252",
      "longitude": "-89.9555404206866"
    }
  },
  {
    "service_request": "2024-1125242",
    "request_type": "Roads/Drainage",
    "request_reason": "Street Flooding / Drainage",
    "date_created": "2024-08-26T17:19:03.000",
    "date_modified": "2024-08-26T17:19:03.000",
    "request_status": "Pending",
    "responsible_agency": "Department of Public Works",
    "final_address": "930 Bartholomew St",
    "address_councildis": "C",
    "status": "Pending",
    "rowid": "1125242",
    "final_x": "3691632.1302",
    "final_y": "534770.635014",
    "longitude": "-90.0359606077279",
    "latitude": "29.964122268721663",
    "geocoded_column": {
      "latitude": "29.964122268721663",
      "longitude": "-90.0359606077279"
    }
  },
  {
    "service_request": "2024-1125241",
    "request_type": "Trash/Recycling",
    "request_reason": "Request a Large Item Pick Up",
    "date_created": "2024-08-26T17:05:34.000",
    "date_modified": "2024-08-26T17:05:35.000",
    "request_status": "Pending",
    "responsible_agency": "Department of Sanitation",
    "final_address": "6143 Charlotte Dr",
    "address_councildis": "D",
    "status": "Assigned to Contractor",
    "contractor": "IV Waste",
    "rowid": "1125241",
    "final_x": "3679893.72098",
    "final_y": "555302.153433",
    "longitude": "-90.07231593208695",
    "latitude": "30.02093693255829",
    "geocoded_column": {
      "latitude": "30.02093693255829",
      "longitude": "-90.07231593208695"
    }
  },
  {
    "service_request": "2024-1125240",
    "request_type": "Trash/Recycling",
    "request_reason": "Missed Trash Pick-Up",
    "date_created": "2024-08-26T16:59:06.000",
    "date_modified": "2024-08-26T16:59:07.000",
    "request_status": "Pending",
    "responsible_agency": "Department of Sanitation",
    "final_address": "3926 Lennox Blvd",
    "address_councildis": "C",
    "status": "Assigned to Contractor",
    "contractor": "Richards Disposal",
    "rowid": "1125240",
    "final_x": "3700687.18743",
    "final_y": "516612.913269",
    "longitude": "-90.00802892605806",
    "latitude": "29.913909860902322",
    "geocoded_column": {
      "latitude": "29.913909860902322",
      "longitude": "-90.00802892605806"
    }
  },
  {
    "service_request": "2024-1125239",
    "request_type": "Trash/Recycling",
    "request_reason": "Replace Trash Cart",
    "date_created": "2024-08-26T16:58:25.000",
    "date_modified": "2024-08-26T16:58:26.000",
    "request_status": "Pending",
    "responsible_agency": "Department of Sanitation",
    "final_address": "5430 Milne St",
    "address_councildis": "A",
    "status": "Assigned to Contractor",
    "contractor": "IV Waste",
    "rowid": "1125239",
    "final_x": "3666594.89543",
    "final_y": "543760.938446",
    "longitude": "-90.11472437851896",
    "latitude": "29.989598317607754",
    "geocoded_column": {
      "latitude": "29.989598317607754",
      "longitude": "-90.11472437851896"
    }
  },
  {
    "service_request": "2024-1125238",
    "request_type": "Traffic Signals/Signs/Striping/Streetlights",
    "request_reason": "Street Light Outage/Malfunction",
    "date_created": "2024-08-26T16:57:13.000",
    "date_modified": "2024-08-26T16:57:14.000",
    "request_status": "Pending",
    "responsible_agency": "Department of Public Works",
    "final_address": "100 BLK Elk Pl",
    "address_councildis": "B",
    "status": "Assigned to Contractor",
    "contractor": "Legacy Professional Services",
    "rowid": "1125238",
    "final_x": "3679635.15841",
    "final_y": "531595.350639",
    "longitude": "-90.07395620393565",
    "latitude": "29.955759360920688",
    "geocoded_column": {
      "latitude": "29.955759360920688",
      "longitude": "-90.07395620393565"
    }
  },
  {
    "service_request": "2024-1125237",
    "request_type": "Traffic Signals/Signs/Striping/Streetlights",
    "request_reason": "Street Light Outage/Malfunction",
    "date_created": "2024-08-26T16:54:51.000",
    "date_modified": "2024-08-26T16:54:53.000",
    "request_status": "Pending",
    "responsible_agency": "Department of Public Works",
    "final_address": "CANAL ST & BASIN ST & ELK PL",
    "address_councildis": "B",
    "status": "Assigned to Contractor",
    "contractor": "Legacy Professional Services",
    "rowid": "1125237",
    "final_x": "3679822.4",
    "final_y": "531657.68",
    "longitude": "-90.07336279679207",
    "latitude": "29.955925085622518",
    "geocoded_column": {
      "latitude": "29.955925085622518",
      "longitude": "-90.07336279679207"
    }
  },
  {
    "service_request": "2024-1125236",
    "request_type": "Traffic Signals/Signs/Striping/Streetlights",
    "request_reason": "Street Light Outage/Malfunction",
    "date_created": "2024-08-26T16:54:29.000",
    "date_modified": "2024-08-26T16:54:30.000",
    "request_status": "Pending",
    "responsible_agency": "Department of Public Works",
    "final_address": "CANAL ST & BASIN ST & ELK PL",
    "address_councildis": "B",
    "status": "Assigned to Contractor",
    "contractor": "Legacy Professional Services",
    "rowid": "1125236",
    "final_x": "3679822.4",
    "final_y": "531657.68",
    "longitude": "-90.07336279679207",
    "latitude": "29.955925085622518",
    "geocoded_column": {
      "latitude": "29.955925085622518",
      "longitude": "-90.07336279679207"
    }
  },
  {
    "service_request": "2024-1125235",
    "request_type": "Trash/Recycling",
    "request_reason": "Repair Trash Cart",
    "date_created": "2024-08-26T16:54:28.000",
    "date_modified": "2024-08-26T16:54:29.000",
    "request_status": "Pending",
    "responsible_agency": "Department of Sanitation",
    "final_address": "1538 Kabel Dr",
    "address_councildis": "C",
    "status": "Assigned to Contractor",
    "contractor": "Richards Disposal",
    "rowid": "1125235",
    "final_x": "3700824.65476",
    "final_y": "522056.385402",
    "longitude": "-90.0073962195754",
    "latitude": "29.92887316921591",
    "geocoded_column": {
      "latitude": "29.92887316921591",
      "longitude": "-90.0073962195754"
    }
  },
  {
    "service_request": "2024-1125234",
    "request_type": "Trash/Recycling",
    "request_reason": "Missed Trash Pick-Up",
    "date_created": "2024-08-26T16:52:08.000",
    "date_modified": "2024-08-26T16:52:09.000",
    "request_status": "Pending",
    "responsible_agency": "Department of Sanitation",
    "final_address": "7580 Kingsport Blvd",
    "address_councildis": "E",
    "status": "Assigned to Contractor",
    "contractor": "Waste Pro",
    "rowid": "1125234",
    "final_x": "3720129.71993",
    "final_y": "572808.066217",
    "longitude": "-89.94451297861443",
    "latitude": "30.067792088813157",
    "geocoded_column": {
      "latitude": "30.067792088813157",
      "longitude": "-89.94451297861443"
    }
  },
  {
    "service_request": "2024-1125233",
    "request_type": "Trash/Recycling",
    "request_reason": "Request a Large Item Pick Up",
    "date_created": "2024-08-26T16:49:30.000",
    "date_modified": "2024-08-26T16:49:31.000",
    "request_status": "Pending",
    "responsible_agency": "Department of Sanitation",
    "final_address": "1231 St Mary St",
    "address_councildis": "B",
    "status": "Assigned to Contractor",
    "contractor": "IV Waste",
    "rowid": "1125233",
    "final_x": "3679326.97794",
    "final_y": "523327.606203",
    "longitude": "-90.0752159767019",
    "latitude": "29.933035127568207",
    "geocoded_column": {
      "latitude": "29.933035127568207",
      "longitude": "-90.0752159767019"
    }
  },
  {
    "service_request": "2024-1125232",
    "request_type": "Trash/Recycling",
    "request_reason": "Request a Large Item Pick Up",
    "date_created": "2024-08-26T16:47:59.000",
    "date_modified": "2024-08-26T16:48:01.000",
    "request_status": "Pending",
    "responsible_agency": "Department of Sanitation",
    "final_address": "6432 Milne Blvd",
    "address_councildis": "A",
    "status": "Assigned to Contractor",
    "contractor": "IV Waste",
    "rowid": "1125232",
    "final_x": "3667267.17485",
    "final_y": "550591.603348",
    "longitude": "-90.11237092175635",
    "latitude": "30.00836061416873",
    "geocoded_column": {
      "latitude": "30.00836061416873",
      "longitude": "-90.11237092175635"
    }
  },
  {
    "service_request": "2024-1125231",
    "request_type": "Trash/Recycling",
    "request_reason": "Request a Large Item Pick Up",
    "date_created": "2024-08-26T16:46:19.000",
    "date_modified": "2024-08-26T16:46:21.000",
    "request_status": "Pending",
    "responsible_agency": "Department of Sanitation",
    "final_address": "10701 Harrow Rd",
    "address_councildis": "E",
    "status": "Assigned to Contractor",
    "contractor": "Waste Pro",
    "rowid": "1125231",
    "final_x": "3711150.9411",
    "final_y": "563538.936544",
    "longitude": "-89.97324418589007",
    "latitude": "30.042601933158046",
    "geocoded_column": {
      "latitude": "30.042601933158046",
      "longitude": "-89.97324418589007"
    }
  },
  {
    "service_request": "2024-1125230",
    "request_type": "Trash/Recycling",
    "request_reason": "Order Recycling Cart",
    "date_created": "2024-08-26T16:44:38.000",
    "date_modified": "2024-08-26T16:44:39.000",
    "request_status": "Pending",
    "responsible_agency": "Department of Sanitation",
    "final_address": "10701 Harrow Rd",
    "address_councildis": "E",
    "status": "Pending",
    "rowid": "1125230",
    "final_x": "3711150.9411",
    "final_y": "563538.936544",
    "longitude": "-89.97324418589007",
    "latitude": "30.042601933158046",
    "geocoded_column": {
      "latitude": "30.042601933158046",
      "longitude": "-89.97324418589007"
    }
  },
  {
    "service_request": "2024-1125229",
    "request_type": "Property Maintenance",
    "request_reason": "Property Maintenance",
    "date_created": "2024-08-26T16:43:25.000",
    "date_modified": "2024-08-26T16:43:25.000",
    "request_status": "Pending",
    "responsible_agency": "Department of Code Enforcement",
    "final_address": "1345 Madrid St",
    "address_councildis": "D",
    "status": "Pending",
    "rowid": "1125229",
    "final_x": "3677161.00501",
    "final_y": "554739.447448",
    "longitude": "-90.08096996542277",
    "latitude": "30.019472104316087",
    "geocoded_column": {
      "latitude": "30.019472104316087",
      "longitude": "-90.08096996542277"
    }
  },
  {
    "service_request": "2024-1125228",
    "request_type": "Trash/Recycling",
    "request_reason": "Request a Large Item Pick Up",
    "date_created": "2024-08-26T16:43:03.000",
    "date_modified": "2024-08-26T16:43:04.000",
    "request_status": "Pending",
    "responsible_agency": "Department of Sanitation",
    "final_address": "608 Olivier St",
    "address_councildis": "C",
    "status": "Assigned to Contractor",
    "contractor": "Richards Disposal",
    "rowid": "1125228",
    "final_x": "3687332.66895",
    "final_y": "529406.840257",
    "longitude": "-90.04972764729848",
    "latitude": "29.949506835297015",
    "geocoded_column": {
      "latitude": "29.949506835297015",
      "longitude": "-90.04972764729848"
    }
  },
  {
    "service_request": "2024-1125227",
    "request_type": "Trash/Recycling",
    "request_reason": "Request a Large Item Pick Up",
    "date_created": "2024-08-26T16:40:28.000",
    "date_modified": "2024-08-26T16:40:29.000",
    "request_status": "Pending",
    "responsible_agency": "Department of Sanitation",
    "final_address": "6537 Avenue A",
    "address_councildis": "A",
    "status": "Assigned to Contractor",
    "contractor": "IV Waste",
    "rowid": "1125227",
    "final_x": "3666058.5136",
    "final_y": "551639.507029",
    "longitude": "-90.1161543087211",
    "latitude": "30.011277341483385",
    "geocoded_column": {
      "latitude": "30.011277341483385",
      "longitude": "-90.1161543087211"
    }
  },
  {
    "service_request": "2024-1125226",
    "request_type": "Property Maintenance",
    "request_reason": "Property Maintenance",
    "date_created": "2024-08-26T16:39:29.000",
    "date_modified": "2024-08-26T16:39:30.000",
    "request_status": "Pending",
    "responsible_agency": "Department of Code Enforcement",
    "final_address": "1710 Lakeshore Dr",
    "address_councildis": "D",
    "status": "Pending",
    "rowid": "1125226",
    "final_x": "3678200.92354",
    "final_y": "558006.585819",
    "longitude": "-90.07757103606485",
    "latitude": "30.028424250645944",
    "geocoded_column": {
      "latitude": "30.028424250645944",
      "longitude": "-90.07757103606485"
    }
  },
  {
    "service_request": "2024-1125225",
    "request_type": "Trash/Recycling",
    "request_reason": "Request a Large Item Pick Up",
    "date_created": "2024-08-26T16:39:24.000",
    "date_modified": "2024-08-26T16:39:25.000",
    "request_status": "Pending",
    "responsible_agency": "Department of Sanitation",
    "final_address": "4535 S Derbigny St",
    "address_councildis": "B",
    "status": "Assigned to Contractor",
    "contractor": "IV Waste",
    "rowid": "1125225",
    "final_x": "3669600.0043",
    "final_y": "526221.971262",
    "longitude": "-90.1058255482468",
    "latitude": "29.9412837817421",
    "geocoded_column": {
      "latitude": "29.9412837817421",
      "longitude": "-90.1058255482468"
    }
  },
  {
    "service_request": "2024-1125224",
    "request_type": "Property Maintenance",
    "request_reason": "Property Maintenance",
    "date_created": "2024-08-26T16:38:08.000",
    "date_modified": "2024-08-26T16:38:09.000",
    "request_status": "Pending",
    "responsible_agency": "Department of Code Enforcement",
    "final_address": "324 Webster St",
    "address_councildis": "A",
    "status": "Pending",
    "rowid": "1125224",
    "final_x": "3663530.48519",
    "final_y": "517983.532214",
    "longitude": "-90.12526249443583",
    "latitude": "29.918808060301245",
    "geocoded_column": {
      "latitude": "29.918808060301245",
      "longitude": "-90.12526249443583"
    }
  },
  {
    "service_request": "2024-1125223",
    "request_type": "Trash/Recycling",
    "request_reason": "Request a Large Item Pick Up",
    "date_created": "2024-08-26T16:31:23.000",
    "date_modified": "2024-08-26T16:31:24.000",
    "request_status": "Pending",
    "responsible_agency": "Department of Sanitation",
    "final_address": "10410 Heritage Dr",
    "address_councildis": "E",
    "status": "Assigned to Contractor",
    "contractor": "Waste Pro",
    "rowid": "1125223",
    "final_x": "3709802.65054",
    "final_y": "564379.425697",
    "longitude": "-89.97747384890134",
    "latitude": "30.044956877246463",
    "geocoded_column": {
      "latitude": "30.044956877246463",
      "longitude": "-89.97747384890134"
    }
  },
  {
    "service_request": "2024-1125222",
    "request_type": "Roads/Drainage",
    "request_reason": "Pothole",
    "date_created": "2024-08-26T16:30:56.000",
    "date_modified": "2024-08-26T16:30:57.000",
    "request_status": "Pending",
    "responsible_agency": "Department of Public Works",
    "final_address": "4521 St Charles Ave",
    "address_councildis": "B",
    "status": "Pending",
    "rowid": "1125222",
    "final_x": "3670275.03783",
    "final_y": "520872.905593",
    "longitude": "-90.10387553753148",
    "latitude": "29.926555670871306",
    "geocoded_column": {
      "latitude": "29.926555670871306",
      "longitude": "-90.10387553753148"
    }
  },
  {
    "service_request": "2024-1125221",
    "request_type": "Trash/Recycling",
    "request_reason": "Request a Large Item Pick Up",
    "date_created": "2024-08-26T16:26:15.000",
    "date_modified": "2024-08-26T16:26:16.000",
    "request_status": "Pending",
    "responsible_agency": "Department of Sanitation",
    "final_address": "908 Congress St",
    "address_councildis": "C",
    "status": "Assigned to Contractor",
    "contractor": "IV Waste",
    "rowid": "1125221",
    "final_x": "3690520.21872",
    "final_y": "534886.744006",
    "longitude": "-90.03946777482896",
    "latitude": "29.964476097934273",
    "geocoded_column": {
      "latitude": "29.964476097934273",
      "longitude": "-90.03946777482896"
    }
  },
  {
    "service_request": "2024-1125220",
    "request_type": "Trash/Recycling",
    "request_reason": "Order Recycling Cart",
    "date_created": "2024-08-26T16:26:03.000",
    "date_modified": "2024-08-26T16:26:04.000",
    "request_status": "Pending",
    "responsible_agency": "Department of Sanitation",
    "final_address": "7994 Edgelake Ct",
    "address_councildis": "E",
    "status": "Pending",
    "rowid": "1125220",
    "final_x": "3702475.71607",
    "final_y": "562084.565663",
    "longitude": "-90.00071461129033",
    "latitude": "30.03888326776987",
    "geocoded_column": {
      "latitude": "30.03888326776987",
      "longitude": "-90.00071461129033"
    }
  },
  {
    "service_request": "2024-1125219",
    "request_type": "Trash/Recycling",
    "request_reason": "Request a Large Item Pick Up",
    "date_created": "2024-08-26T16:24:45.000",
    "date_modified": "2024-08-26T16:24:46.000",
    "request_status": "Pending",
    "responsible_agency": "Department of Sanitation",
    "final_address": "5100 Eastern St",
    "address_councildis": "D",
    "status": "Assigned to Contractor",
    "contractor": "IV Waste",
    "rowid": "1125219",
    "final_x": "3687885.94812",
    "final_y": "551727.293781",
    "longitude": "-90.04718964951593",
    "latitude": "30.010863119949754",
    "geocoded_column": {
      "latitude": "30.010863119949754",
      "longitude": "-90.04718964951593"
    }
  },
  {
    "service_request": "2024-1125218",
    "request_type": "Traffic Signals/Signs/Striping/Streetlights",
    "request_reason": "Traffic Sign Missing/Damaged",
    "date_created": "2024-08-26T16:23:21.000",
    "date_modified": "2024-08-26T16:23:22.000",
    "request_status": "Pending",
    "responsible_agency": "Department of Public Works",
    "final_address": "GENERAL TAYLOR & DANNEEL ST",
    "address_councildis": "B",
    "status": "Pending",
    "rowid": "1125218",
    "final_x": "3672303.8",
    "final_y": "522448.78",
    "longitude": "-90.09741762450162",
    "latitude": "29.93082880772947",
    "geocoded_column": {
      "latitude": "29.93082880772947",
      "longitude": "-90.09741762450162"
    }
  },
  {
    "service_request": "2024-1125217",
    "request_type": "Trash/Recycling",
    "request_reason": "Request a Large Item Pick Up",
    "date_created": "2024-08-26T16:18:42.000",
    "date_modified": "2024-08-26T16:18:43.000",
    "request_status": "Pending",
    "responsible_agency": "Department of Sanitation",
    "final_address": "6905 Vicksburg St",
    "address_councildis": "A",
    "status": "Assigned to Contractor",
    "contractor": "IV Waste",
    "rowid": "1125217",
    "final_x": "3669477.2297",
    "final_y": "553341.135831",
    "longitude": "-90.10529554753045",
    "latitude": "30.015855922300922",
    "geocoded_column": {
      "latitude": "30.015855922300922",
      "longitude": "-90.10529554753045"
    }
  },
  {
    "service_request": "2024-1125216",
    "request_type": "Trash/Recycling",
    "request_reason": "Illegal Dumping",
    "date_created": "2024-08-26T16:16:28.000",
    "date_modified": "2024-08-26T16:16:28.000",
    "request_status": "Pending",
    "responsible_agency": "Department of Sanitation",
    "final_address": "ELYSIAN FIELDS AV OVER & FLORIDA AVE",
    "address_councildis": "D",
    "status": "Pending",
    "rowid": "1125216",
    "final_x": "3684508.45",
    "final_y": "542348.88",
    "longitude": "-90.05819021267064",
    "latitude": "29.98517965418547",
    "geocoded_column": {
      "latitude": "29.98517965418547",
      "longitude": "-90.05819021267064"
    }
  },
  {
    "service_request": "2024-1125215",
    "request_type": "Parks & Parkways",
    "request_reason": "Request Tree Service (Right of Way/Public Property)",
    "date_created": "2024-08-26T16:16:26.000",
    "date_modified": "2024-08-26T16:16:27.000",
    "request_status": "Pending",
    "responsible_agency": "Department of Parks & Parkway",
    "final_address": "FIG ST & DANTE ST",
    "address_councildis": "A",
    "status": "Pending",
    "rowid": "1125215",
    "final_x": "3665771.7",
    "final_y": "533630.88",
    "longitude": "-90.11766411281674",
    "latitude": "29.961768088279754",
    "geocoded_column": {
      "latitude": "29.961768088279754",
      "longitude": "-90.11766411281674"
    }
  },
  {
    "service_request": "2024-1125214",
    "request_type": "Trash/Recycling",
    "request_reason": "Missed Trash Pick-Up",
    "date_created": "2024-08-26T16:16:15.000",
    "date_modified": "2024-08-26T16:16:16.000",
    "request_status": "Pending",
    "responsible_agency": "Department of Sanitation",
    "final_address": "3101 Bienville Ave",
    "address_councildis": "B",
    "status": "Assigned to Contractor",
    "contractor": "IV Waste",
    "rowid": "1125214",
    "final_x": "3674551.32404",
    "final_y": "536772.011464",
    "longitude": "-90.08983179412516",
    "latitude": "29.970146097797997",
    "geocoded_column": {
      "latitude": "29.970146097797997",
      "longitude": "-90.08983179412516"
    }
  },
  {
    "service_request": "2024-1125213",
    "request_type": "Trash/Recycling",
    "request_reason": "Request a Large Item Pick Up",
    "date_created": "2024-08-26T16:09:05.000",
    "date_modified": "2024-08-26T16:09:06.000",
    "request_status": "Pending",
    "responsible_agency": "Department of Sanitation",
    "final_address": "2831 Banks St",
    "address_councildis": "B",
    "status": "Assigned to Contractor",
    "contractor": "IV Waste",
    "rowid": "1125213",
    "final_x": "3673988.44648",
    "final_y": "534696.58471",
    "longitude": "-90.09168044733731",
    "latitude": "29.964456158900592",
    "geocoded_column": {
      "latitude": "29.964456158900592",
      "longitude": "-90.09168044733731"
    }
  },
  {
    "service_request": "2024-1125212",
    "request_type": "Roads/Drainage",
    "request_reason": "Street Flooding / Drainage",
    "date_created": "2024-08-26T16:08:42.000",
    "date_modified": "2024-08-26T16:08:42.000",
    "request_status": "Pending",
    "responsible_agency": "Department of Public Works",
    "final_address": "224 S Solomon St",
    "address_councildis": "A",
    "status": "Pending",
    "rowid": "1125212",
    "final_x": "3670230.47175",
    "final_y": "538187.778249",
    "longitude": "-90.1034295379666",
    "latitude": "29.974167207762566",
    "geocoded_column": {
      "latitude": "29.974167207762566",
      "longitude": "-90.1034295379666"
    }
  },
  {
    "service_request": "2024-1125210",
    "request_type": "Trash/Recycling",
    "request_reason": "MIssed Recycling Pick-Up",
    "date_created": "2024-08-26T15:59:12.000",
    "date_modified": "2024-08-26T16:19:57.000",
    "case_close_date": "2024-08-26T11:19:57.000",
    "request_status": "Closed",
    "responsible_agency": "Department of Sanitation",
    "final_address": "1118 Seventh St",
    "address_councildis": "B",
    "status": "Invalid Request",
    "contractor": "IV Waste",
    "contractor_action": "Invalid",
    "rowid": "1125210",
    "final_x": "3676249.04571",
    "final_y": "520488.296312",
    "longitude": "-90.08503045046534",
    "latitude": "29.92532051505367",
    "geocoded_column": {
      "latitude": "29.92532051505367",
      "longitude": "-90.08503045046534"
    }
  },
  {
    "service_request": "2024-1125209",
    "request_type": "Property Maintenance",
    "request_reason": "Property Maintenance",
    "date_created": "2024-08-26T15:56:57.000",
    "date_modified": "2024-08-26T15:56:57.000",
    "request_status": "Pending",
    "responsible_agency": "Department of Code Enforcement",
    "final_address": "525 Warrington Dr",
    "address_councildis": "D",
    "status": "Pending",
    "rowid": "1125209",
    "final_x": "3681285.49967",
    "final_y": "548936.170451",
    "longitude": "-90.0681404135067",
    "latitude": "30.003390594701703",
    "geocoded_column": {
      "latitude": "30.003390594701703",
      "longitude": "-90.0681404135067"
    }
  },
  {
    "service_request": "2024-1125208",
    "request_type": "Trash/Recycling",
    "request_reason": "Request a Large Item Pick Up",
    "date_created": "2024-08-26T15:56:43.000",
    "date_modified": "2024-08-26T15:56:44.000",
    "request_status": "Pending",
    "responsible_agency": "Department of Sanitation",
    "final_address": "3148 Burgundy St",
    "address_councildis": "C",
    "status": "Assigned to Contractor",
    "contractor": "IV Waste",
    "rowid": "1125208",
    "final_x": "3689175.89417",
    "final_y": "535088.955974",
    "longitude": "-90.04370584971126",
    "latitude": "29.96507378129471",
    "geocoded_column": {
      "latitude": "29.96507378129471",
      "longitude": "-90.04370584971126"
    }
  },
  {
    "service_request": "2024-1125207",
    "request_type": "Roads/Drainage",
    "request_reason": "Street Subsidence (Sinking)",
    "date_created": "2024-08-26T15:55:26.000",
    "date_modified": "2024-08-26T15:55:27.000",
    "request_status": "Pending",
    "responsible_agency": "Department of Public Works",
    "final_address": "MORRISON RD & BEACONFIELD DR",
    "address_councildis": "E",
    "status": "Pending",
    "rowid": "1125207",
    "final_x": "3713155.8",
    "final_y": "566290.88",
    "longitude": "-89.9668043780795",
    "latitude": "30.05010307749456",
    "geocoded_column": {
      "latitude": "30.05010307749456",
      "longitude": "-89.9668043780795"
    }
  },
  {
    "service_request": "2024-1125206",
    "request_type": "Abandoned Vehicles",
    "request_reason": "Abandoned/Junk Vehicles",
    "date_created": "2024-08-26T15:54:01.000",
    "date_modified": "2024-08-26T15:54:01.000",
    "request_status": "Pending",
    "responsible_agency": "Department of Public Works",
    "final_address": "418 Warrington Dr",
    "address_councildis": "D",
    "status": "Pending",
    "rowid": "1125206",
    "final_x": "3681431.55253",
    "final_y": "548261.684434",
    "longitude": "-90.06770254572069",
    "latitude": "30.001531564541246",
    "geocoded_column": {
      "latitude": "30.001531564541246",
      "longitude": "-90.06770254572069"
    }
  },
  {
    "service_request": "2024-1125205",
    "request_type": "Trash/Recycling",
    "request_reason": "Request a Large Item Pick Up",
    "date_created": "2024-08-26T15:47:09.000",
    "date_modified": "2024-08-26T15:47:10.000",
    "request_status": "Pending",
    "responsible_agency": "Department of Sanitation",
    "final_address": "7525 Scottwood Dr",
    "address_councildis": "E",
    "status": "Assigned to Contractor",
    "contractor": "Waste Pro",
    "rowid": "1125205",
    "final_x": "3717698.97676",
    "final_y": "570303.615847",
    "longitude": "-89.95229236412173",
    "latitude": "30.060986680515455",
    "geocoded_column": {
      "latitude": "30.060986680515455",
      "longitude": "-89.95229236412173"
    }
  },
  {
    "service_request": "2024-1125204",
    "request_type": "Traffic Signals/Signs/Striping/Streetlights",
    "request_reason": "Street Light Outage/Malfunction",
    "date_created": "2024-08-26T15:46:47.000",
    "date_modified": "2024-08-26T15:46:48.000",
    "request_status": "Pending",
    "responsible_agency": "Department of Public Works",
    "final_address": "8320 Oleander St",
    "address_councildis": "A",
    "status": "Assigned to Contractor",
    "contractor": "Legacy Professional Services",
    "rowid": "1125204",
    "final_x": "3666066.74157",
    "final_y": "534247.122949",
    "longitude": "-90.11671175351384",
    "latitude": "29.96345394320257",
    "geocoded_column": {
      "latitude": "29.96345394320257",
      "longitude": "-90.11671175351384"
    }
  },
  {
    "service_request": "2024-1125203",
    "request_type": "Trash/Recycling",
    "request_reason": "Request a Large Item Pick Up",
    "date_created": "2024-08-26T15:45:15.000",
    "date_modified": "2024-08-26T15:45:17.000",
    "request_status": "Pending",
    "responsible_agency": "Department of Sanitation",
    "final_address": "3221 Upperline St",
    "address_councildis": "B",
    "status": "Assigned to Contractor",
    "contractor": "IV Waste",
    "rowid": "1125203",
    "final_x": "3669301.65415",
    "final_y": "526667.420606",
    "longitude": "-90.106752444547",
    "latitude": "29.94251740812884",
    "geocoded_column": {
      "latitude": "29.94251740812884",
      "longitude": "-90.106752444547"
    }
  },
  {
    "service_request": "2024-1125202",
    "request_type": "Trash/Recycling",
    "request_reason": "Request a Large Item Pick Up",
    "date_created": "2024-08-26T15:43:57.000",
    "date_modified": "2024-08-26T15:43:58.000",
    "request_status": "Pending",
    "responsible_agency": "Department of Sanitation",
    "final_address": "266 Roselyn Park Pl",
    "address_councildis": "C",
    "status": "Assigned to Contractor",
    "contractor": "Richards Disposal",
    "rowid": "1125202",
    "final_x": "3702685.16862",
    "final_y": "523049.142203",
    "longitude": "-90.00148656993676",
    "latitude": "29.93154357536162",
    "geocoded_column": {
      "latitude": "29.93154357536162",
      "longitude": "-90.00148656993676"
    }
  },
  {
    "service_request": "2024-1125201",
    "request_type": "Property Maintenance",
    "request_reason": "Property Maintenance",
    "date_created": "2024-08-26T15:43:51.000",
    "date_modified": "2024-08-26T15:43:52.000",
    "request_status": "Pending",
    "responsible_agency": "Department of Code Enforcement",
    "final_address": "1428 Touro St",
    "address_councildis": "C",
    "status": "Pending",
    "rowid": "1125201",
    "final_x": "3684079.89954",
    "final_y": "537580.234504",
    "longitude": "-90.05971123969701",
    "latitude": "29.972080656160784",
    "geocoded_column": {
      "latitude": "29.972080656160784",
      "longitude": "-90.05971123969701"
    }
  },
  {
    "service_request": "2024-1125200",
    "request_type": "Trash/Recycling",
    "request_reason": "Request a Large Item Pick Up",
    "date_created": "2024-08-26T15:43:14.000",
    "date_modified": "2024-08-26T15:43:15.000",
    "request_status": "Pending",
    "responsible_agency": "Department of Sanitation",
    "final_address": "7818 Lafourche St",
    "address_councildis": "E",
    "status": "Assigned to Contractor",
    "contractor": "Waste Pro",
    "rowid": "1125200",
    "final_x": "3709740.39723",
    "final_y": "566220.262243",
    "longitude": "-89.97760176093833",
    "latitude": "30.050020462299212",
    "geocoded_column": {
      "latitude": "30.050020462299212",
      "longitude": "-89.97760176093833"
    }
  },
  {
    "service_request": "2024-1125199",
    "request_type": "Property Maintenance",
    "request_reason": "Property Maintenance",
    "date_created": "2024-08-26T15:41:27.000",
    "date_modified": "2024-08-26T15:41:27.000",
    "request_status": "Pending",
    "responsible_agency": "Department of Code Enforcement",
    "final_address": "1674 N Robertson St",
    "address_councildis": "C",
    "status": "Pending",
    "rowid": "1125199",
    "final_x": "3682938.48277",
    "final_y": "537596.27348",
    "longitude": "-90.06331545638828",
    "latitude": "29.972159593429463",
    "geocoded_column": {
      "latitude": "29.972159593429463",
      "longitude": "-90.06331545638828"
    }
  },
  {
    "service_request": "2024-1125198",
    "request_type": "Property Maintenance",
    "request_reason": "Property Maintenance",
    "date_created": "2024-08-26T15:39:37.000",
    "date_modified": "2024-08-26T15:39:38.000",
    "request_status": "Pending",
    "responsible_agency": "Department of Code Enforcement",
    "final_address": "1442 N Robertson St",
    "address_councildis": "C",
    "status": "Pending",
    "rowid": "1125198",
    "final_x": "3681856.29986",
    "final_y": "536658.031559",
    "longitude": "-90.0667659214978",
    "latitude": "29.969612688885025",
    "geocoded_column": {
      "latitude": "29.969612688885025",
      "longitude": "-90.0667659214978"
    }
  },
  {
    "service_request": "2024-1125197",
    "request_type": "Trash/Recycling",
    "request_reason": "Return Trash Cart",
    "date_created": "2024-08-26T15:36:41.000",
    "date_modified": "2024-08-26T15:36:42.000",
    "request_status": "Pending",
    "responsible_agency": "Department of Sanitation",
    "final_address": "3129 Ponce De Leon St",
    "address_councildis": "A",
    "status": "Assigned to Contractor",
    "contractor": "IV Waste",
    "rowid": "1125197",
    "final_x": "3676343.32264",
    "final_y": "540568.481547",
    "longitude": "-90.08404175098123",
    "latitude": "29.980531494848577",
    "geocoded_column": {
      "latitude": "29.980531494848577",
      "longitude": "-90.08404175098123"
    }
  },
  {
    "service_request": "2024-1125196",
    "request_type": "Abandoned Vehicles",
    "request_reason": "Abandoned/Junk Vehicles",
    "date_created": "2024-08-26T15:34:49.000",
    "date_modified": "2024-08-26T15:34:49.000",
    "request_status": "Pending",
    "responsible_agency": "Department of Public Works",
    "final_address": "1821 S Rampart St",
    "address_councildis": "B",
    "status": "Pending",
    "rowid": "1125196",
    "final_x": "3677153.12482",
    "final_y": "525641.227325",
    "longitude": "-90.08199891778776",
    "latitude": "29.939462278034057",
    "geocoded_column": {
      "latitude": "29.939462278034057",
      "longitude": "-90.08199891778776"
    }
  },
  {
    "service_request": "2024-1125195",
    "request_type": "Abandoned Vehicles",
    "request_reason": "Abandoned/Junk Vehicles",
    "date_created": "2024-08-26T15:34:37.000",
    "date_modified": "2024-08-26T15:38:16.000",
    "request_status": "Pending",
    "responsible_agency": "Department of Public Works",
    "final_address": "4616 Willow St",
    "address_councildis": "B",
    "status": "Pending",
    "rowid": "1125195",
    "final_x": "3669524.62305",
    "final_y": "525299.648637",
    "longitude": "-90.10609472998372",
    "latitude": "29.938749913037338",
    "geocoded_column": {
      "latitude": "29.938749913037338",
      "longitude": "-90.10609472998372"
    }
  },
  {
    "service_request": "2024-1125194",
    "request_type": "Property Maintenance",
    "request_reason": "Property Maintenance",
    "date_created": "2024-08-26T15:27:21.000",
    "date_modified": "2024-08-26T15:57:36.000",
    "case_close_date": "2024-08-26T10:57:36.000",
    "request_status": "Closed",
    "responsible_agency": "Department of Code Enforcement",
    "final_address": "5423 N Villere St",
    "address_councildis": "E",
    "status": "Referred to Code Enforcement",
    "rowid": "1125194",
    "final_x": "3697629.29981",
    "final_y": "535066.739398",
    "longitude": "-90.0170114346152",
    "latitude": "29.964748378571883",
    "geocoded_column": {
      "latitude": "29.964748378571883",
      "longitude": "-90.0170114346152"
    }
  },
  {
    "service_request": "2024-1125193",
    "request_type": "Trash/Recycling",
    "request_reason": "Request a Large Item Pick Up",
    "date_created": "2024-08-26T15:26:15.000",
    "date_modified": "2024-08-26T15:26:16.000",
    "request_status": "Pending",
    "responsible_agency": "Department of Sanitation",
    "final_address": "7421 Lake Barrington Dr",
    "address_councildis": "E",
    "status": "Assigned to Contractor",
    "contractor": "Waste Pro",
    "rowid": "1125193",
    "final_x": "3712608.96638",
    "final_y": "565057.26557",
    "longitude": "-89.96857914099978",
    "latitude": "30.04672905830946",
    "geocoded_column": {
      "latitude": "30.04672905830946",
      "longitude": "-89.96857914099978"
    }
  },
  {
    "service_request": "2024-1125192",
    "request_type": "Trash/Recycling",
    "request_reason": "Order Trash Cart",
    "date_created": "2024-08-26T15:25:11.000",
    "date_modified": "2024-08-26T15:25:14.000",
    "request_status": "Pending",
    "responsible_agency": "Department of Sanitation",
    "final_address": "2418 Annette St",
    "address_councildis": "D",
    "status": "Assigned to Contractor",
    "contractor": "IV Waste",
    "rowid": "1125192",
    "final_x": "3682704.1876",
    "final_y": "541112.125964",
    "longitude": "-90.06393238896518",
    "latitude": "29.981834100777192",
    "geocoded_column": {
      "latitude": "29.981834100777192",
      "longitude": "-90.06393238896518"
    }
  },
  {
    "service_request": "2024-1125191",
    "request_type": "Trash/Recycling",
    "request_reason": "Order Trash Cart",
    "date_created": "2024-08-26T15:24:21.000",
    "date_modified": "2024-08-26T15:24:22.000",
    "request_status": "Pending",
    "responsible_agency": "Department of Sanitation",
    "final_address": "2416 Annette St",
    "address_councildis": "D",
    "status": "Assigned to Contractor",
    "contractor": "IV Waste",
    "rowid": "1125191",
    "final_x": "3682709.36866",
    "final_y": "541097.734092",
    "longitude": "-90.06391652832885",
    "latitude": "29.981794370348915",
    "geocoded_column": {
      "latitude": "29.981794370348915",
      "longitude": "-90.06391652832885"
    }
  },
  {
    "service_request": "2024-1125190",
    "request_type": "Healthy Homes",
    "request_reason": "Healthy Homes",
    "date_created": "2024-08-26T15:18:18.000",
    "date_modified": "2024-08-26T15:18:20.000",
    "request_status": "Pending",
    "responsible_agency": "Department of Code Enforcement",
    "final_address": "3501 St Claude Ave Apt 210",
    "address_councildis": "C",
    "status": "Pending",
    "rowid": "1125190",
    "final_x": "3690578.5295",
    "final_y": "535841.007751",
    "longitude": "-90.0392496008613",
    "latitude": "29.96709817791834",
    "geocoded_column": {
      "latitude": "29.96709817791834",
      "longitude": "-90.0392496008613"
    }
  },
  {
    "service_request": "2024-1125189",
    "request_type": "Trash/Recycling",
    "request_reason": "Request a Large Item Pick Up",
    "date_created": "2024-08-26T15:08:46.000",
    "date_modified": "2024-08-26T15:08:47.000",
    "request_status": "Pending",
    "responsible_agency": "Department of Sanitation",
    "final_address": "4605 Crowder Blvd",
    "address_councildis": "E",
    "status": "Assigned to Contractor",
    "contractor": "Waste Pro",
    "rowid": "1125189",
    "final_x": "3706607.74865",
    "final_y": "554632.554456",
    "longitude": "-89.98793285991225",
    "latitude": "30.018260368302183",
    "geocoded_column": {
      "latitude": "30.018260368302183",
      "longitude": "-89.98793285991225"
    }
  },
  {
    "service_request": "2024-1125188",
    "request_type": "Trash/Recycling",
    "request_reason": "Illegal Dumping",
    "date_created": "2024-08-26T15:06:58.000",
    "date_modified": "2024-08-26T15:06:59.000",
    "request_status": "Pending",
    "responsible_agency": "Department of Sanitation",
    "final_address": "1305 Magnolia St",
    "address_councildis": "B",
    "status": "Pending",
    "rowid": "1125188",
    "final_x": "3676159.26395",
    "final_y": "528100.924095",
    "longitude": "-90.08505207273215",
    "latitude": "29.946255439225666",
    "geocoded_column": {
      "latitude": "29.946255439225666",
      "longitude": "-90.08505207273215"
    }
  },
  {
    "service_request": "2024-1125187",
    "request_type": "Traffic Signals/Signs/Striping/Streetlights",
    "request_reason": "Street Light Outage/Malfunction",
    "date_created": "2024-08-26T15:06:22.000",
    "date_modified": "2024-08-26T15:08:10.000",
    "request_status": "Pending",
    "responsible_agency": "Department of Public Works",
    "final_address": "2411 Orleans Ave",
    "address_councildis": "D",
    "status": "Assigned to Contractor",
    "contractor": "Legacy Professional Services",
    "rowid": "1125187",
    "final_x": "3677827.86658",
    "final_y": "536308.060999",
    "longitude": "-90.0795001621989",
    "latitude": "29.968772213139705",
    "geocoded_column": {
      "latitude": "29.968772213139705",
      "longitude": "-90.0795001621989"
    }
  },
  {
    "service_request": "2024-1125186",
    "request_type": "Trash/Recycling",
    "request_reason": "Repair Trash Cart",
    "date_created": "2024-08-26T14:56:56.000",
    "date_modified": "2024-08-26T14:56:57.000",
    "request_status": "Pending",
    "responsible_agency": "Department of Sanitation",
    "final_address": "939 Broadway St",
    "address_councildis": "A",
    "status": "Assigned to Contractor",
    "contractor": "IV Waste",
    "rowid": "1125186",
    "final_x": "3663790.64461",
    "final_y": "525826.240061",
    "longitude": "-90.12418007054296",
    "latitude": "29.940365492073564",
    "geocoded_column": {
      "latitude": "29.940365492073564",
      "longitude": "-90.12418007054296"
    }
  },
  {
    "service_request": "2024-1125185",
    "request_type": "Trash/Recycling",
    "request_reason": "Request a Large Item Pick Up",
    "date_created": "2024-08-26T14:55:50.000",
    "date_modified": "2024-08-26T18:49:03.000",
    "case_close_date": "2024-08-26T13:49:03.000",
    "request_status": "Closed",
    "responsible_agency": "Department of Sanitation",
    "final_address": "4744 Nottingham Dr",
    "address_councildis": "E",
    "status": "Duplicate Request",
    "contractor": "Waste Pro",
    "contractor_action": "Duplicate",
    "rowid": "1125185",
    "final_x": "3716301.69772",
    "final_y": "557060.219546",
    "longitude": "-89.95721183551098",
    "latitude": "30.02461895259154",
    "geocoded_column": {
      "latitude": "30.02461895259154",
      "longitude": "-89.95721183551098"
    }
  },
  {
    "service_request": "2024-1125184",
    "request_type": "Abandoned Vehicles",
    "request_reason": "Abandoned/Junk Vehicles",
    "date_created": "2024-08-26T14:50:24.000",
    "date_modified": "2024-08-26T14:50:24.000",
    "request_status": "Pending",
    "responsible_agency": "Department of Public Works",
    "final_address": "4237 Iris St",
    "address_councildis": "D",
    "status": "Pending",
    "rowid": "1125184",
    "final_x": "3686295.11401",
    "final_y": "548624.556883",
    "longitude": "-90.05232529973698",
    "latitude": "30.002380724634335",
    "geocoded_column": {
      "latitude": "30.002380724634335",
      "longitude": "-90.05232529973698"
    }
  },
  {
    "service_request": "2024-1125183",
    "request_type": "Property Maintenance",
    "request_reason": "Property Maintenance",
    "date_created": "2024-08-26T14:49:52.000",
    "date_modified": "2024-08-26T15:35:21.000",
    "case_close_date": "2024-08-26T10:35:21.000",
    "request_status": "Closed",
    "responsible_agency": "Department of Code Enforcement",
    "final_address": "1036 Joseph St",
    "address_councildis": "A",
    "status": "Referred to Code Enforcement",
    "rowid": "1125183",
    "final_x": "3666285.1049",
    "final_y": "519842.103352",
    "longitude": "-90.11650526047484",
    "latitude": "29.92383840316231",
    "geocoded_column": {
      "latitude": "29.92383840316231",
      "longitude": "-90.11650526047484"
    }
  },
  {
    "service_request": "2024-1125182",
    "request_type": "Trash/Recycling",
    "request_reason": "Request a Large Item Pick Up",
    "date_created": "2024-08-26T14:49:42.000",
    "date_modified": "2024-08-26T14:49:43.000",
    "request_status": "Pending",
    "responsible_agency": "Department of Sanitation",
    "final_address": "4674 Nottingham Dr",
    "address_councildis": "E",
    "status": "Assigned to Contractor",
    "contractor": "Waste Pro",
    "rowid": "1125182",
    "final_x": "3716349.64421",
    "final_y": "556564.402842",
    "longitude": "-89.95707915191436",
    "latitude": "30.023254070482793",
    "geocoded_column": {
      "latitude": "30.023254070482793",
      "longitude": "-89.95707915191436"
    }
  },
  {
    "service_request": "2024-1125181",
    "request_type": "Property Maintenance",
    "request_reason": "Property Maintenance",
    "date_created": "2024-08-26T14:46:55.000",
    "date_modified": "2024-08-26T14:46:56.000",
    "request_status": "Pending",
    "responsible_agency": "Department of Code Enforcement",
    "final_address": "1511 Odeon St",
    "address_councildis": "C",
    "status": "Pending",
    "rowid": "1125181",
    "final_x": "3695899.83478",
    "final_y": "525713.658685",
    "longitude": "-90.0228107544177",
    "latitude": "29.939085196563408",
    "geocoded_column": {
      "latitude": "29.939085196563408",
      "longitude": "-90.0228107544177"
    }
  },
  {
    "service_request": "2024-1125180",
    "request_type": "Trash/Recycling",
    "request_reason": "Request a Large Item Pick Up",
    "date_created": "2024-08-26T14:46:54.000",
    "date_modified": "2024-08-26T14:46:56.000",
    "request_status": "Pending",
    "responsible_agency": "Department of Sanitation",
    "final_address": "3921 Royal St",
    "address_councildis": "C",
    "status": "Assigned to Contractor",
    "contractor": "IV Waste",
    "rowid": "1125180",
    "final_x": "3691319.25904",
    "final_y": "533864.747461",
    "longitude": "-90.03698098871035",
    "latitude": "29.961641132107157",
    "geocoded_column": {
      "latitude": "29.961641132107157",
      "longitude": "-90.03698098871035"
    }
  },
  {
    "service_request": "2024-1125179",
    "request_type": "Roads/Drainage",
    "request_reason": "Pothole",
    "date_created": "2024-08-26T14:45:40.000",
    "date_modified": "2024-08-26T14:49:20.000",
    "request_status": "Pending",
    "responsible_agency": "Department of Public Works",
    "final_address": "9100 BLK Dixon St",
    "address_councildis": "A",
    "status": "Pending",
    "rowid": "1125179",
    "final_x": "3665686.01177",
    "final_y": "537961.861856",
    "longitude": "-90.11778961823009",
    "latitude": "29.973679354875717",
    "geocoded_column": {
      "latitude": "29.973679354875717",
      "longitude": "-90.11778961823009"
    }
  },
  {
    "service_request": "2024-1125177",
    "request_type": "Traffic Signals/Signs/Striping/Streetlights",
    "request_reason": "Street Light Outage/Malfunction",
    "date_created": "2024-08-26T14:44:06.000",
    "date_modified": "2024-08-26T14:44:07.000",
    "request_status": "Pending",
    "responsible_agency": "Department of Public Works",
    "final_address": "708 Independence St",
    "address_councildis": "C",
    "status": "Assigned to Contractor",
    "contractor": "Legacy Professional Services",
    "rowid": "1125177",
    "final_x": "3690571.46076",
    "final_y": "534122.281861",
    "longitude": "-90.03933321952454",
    "latitude": "29.96237250336472",
    "geocoded_column": {
      "latitude": "29.96237250336472",
      "longitude": "-90.03933321952454"
    }
  },
  {
    "service_request": "2024-1125176",
    "request_type": "Abandoned Vehicles",
    "request_reason": "Abandoned/Junk Vehicles",
    "date_created": "2024-08-26T14:37:31.000",
    "date_modified": "2024-08-26T14:37:31.000",
    "request_status": "Pending",
    "responsible_agency": "Department of Public Works",
    "final_address": "1010 Elysian Fields Ave",
    "address_councildis": "C",
    "status": "Pending",
    "rowid": "1125176",
    "final_x": "3684937.17961",
    "final_y": "536027.645447",
    "longitude": "-90.05705842760842",
    "latitude": "29.96778534709612",
    "geocoded_column": {
      "latitude": "29.96778534709612",
      "longitude": "-90.05705842760842"
    }
  },
  {
    "service_request": "2024-1125175",
    "request_type": "Property Maintenance",
    "request_reason": "Property Maintenance",
    "date_created": "2024-08-26T14:35:57.000",
    "date_modified": "2024-08-26T14:50:13.000",
    "case_close_date": "2024-08-26T09:50:13.000",
    "request_status": "Closed",
    "responsible_agency": "Department of Code Enforcement",
    "final_address": "937 Fats Domino Ave",
    "address_councildis": "E",
    "status": "Referred to Code Enforcement",
    "rowid": "1125175",
    "final_x": "3697942.42627",
    "final_y": "533287.40378",
    "longitude": "-90.01608720362415",
    "latitude": "29.959845944005593",
    "geocoded_column": {
      "latitude": "29.959845944005593",
      "longitude": "-90.01608720362415"
    }
  },
  {
    "service_request": "2024-1125174",
    "request_type": "Trash/Recycling",
    "request_reason": "Repair Recycling Cart",
    "date_created": "2024-08-26T14:35:57.000",
    "date_modified": "2024-08-26T14:35:58.000",
    "request_status": "Pending",
    "responsible_agency": "Department of Sanitation",
    "final_address": "5456 Bellaire Dr",
    "address_councildis": "A",
    "status": "Pending",
    "rowid": "1125174",
    "final_x": "3663963.74682",
    "final_y": "543940.44187",
    "longitude": "-90.1230294870797",
    "latitude": "29.990168570904473",
    "geocoded_column": {
      "latitude": "29.990168570904473",
      "longitude": "-90.1230294870797"
    }
  },
  {
    "service_request": "2024-1125173",
    "request_type": "Property Maintenance",
    "request_reason": "Property Maintenance",
    "date_created": "2024-08-26T14:35:25.000",
    "date_modified": "2024-08-26T14:36:31.000",
    "request_status": "Pending",
    "responsible_agency": "Department of Code Enforcement",
    "final_address": "3589 Somerset Dr",
    "address_councildis": "C",
    "status": "Pending",
    "rowid": "1125173",
    "final_x": "3702415.96842",
    "final_y": "517508.659062",
    "longitude": "-90.00253953532663",
    "latitude": "29.91631776114475",
    "geocoded_column": {
      "latitude": "29.91631776114475",
      "longitude": "-90.00253953532663"
    }
  },
  {
    "service_request": "2024-1125172",
    "request_type": "Property Maintenance",
    "request_reason": "Property Maintenance",
    "date_created": "2024-08-26T14:34:47.000",
    "date_modified": "2024-08-26T14:34:47.000",
    "request_status": "Pending",
    "responsible_agency": "Department of Code Enforcement",
    "final_address": "937 Fats Domino Ave",
    "address_councildis": "E",
    "status": "Pending",
    "rowid": "1125172",
    "final_x": "3697942.42627",
    "final_y": "533287.40378",
    "longitude": "-90.01608720362415",
    "latitude": "29.959845944005593",
    "geocoded_column": {
      "latitude": "29.959845944005593",
      "longitude": "-90.01608720362415"
    }
  },
  {
    "service_request": "2024-1125171",
    "request_type": "Traffic Signals/Signs/Striping/Streetlights",
    "request_reason": "Traffic Sign Missing/Damaged",
    "date_created": "2024-08-26T14:33:34.000",
    "date_modified": "2024-08-26T15:15:51.000",
    "request_status": "Pending",
    "responsible_agency": "Department of Public Works",
    "final_address": "108 Roosevelt Way",
    "address_councildis": "B",
    "rowid": "1125171",
    "final_x": "3680279.08687",
    "final_y": "531225.76621",
    "longitude": "-90.07193575212628",
    "latitude": "29.95472365267522",
    "geocoded_column": {
      "latitude": "29.95472365267522",
      "longitude": "-90.07193575212628"
    }
  },
  {
    "service_request": "2024-1125170",
    "request_type": "Abandoned Vehicles",
    "request_reason": "Abandoned/Junk Vehicles",
    "date_created": "2024-08-26T14:32:09.000",
    "date_modified": "2024-08-26T14:32:09.000",
    "request_status": "Pending",
    "responsible_agency": "Department of Public Works",
    "final_address": "1010 Elysian Fields Ave",
    "address_councildis": "C",
    "status": "Pending",
    "rowid": "1125170",
    "final_x": "3684937.17961",
    "final_y": "536027.645447",
    "longitude": "-90.05705842760842",
    "latitude": "29.96778534709612",
    "geocoded_column": {
      "latitude": "29.96778534709612",
      "longitude": "-90.05705842760842"
    }
  },
  {
    "service_request": "2024-1125169",
    "request_type": "Trash/Recycling",
    "request_reason": "Request a Large Item Pick Up",
    "date_created": "2024-08-26T14:30:34.000",
    "date_modified": "2024-08-26T14:30:35.000",
    "request_status": "Pending",
    "responsible_agency": "Department of Sanitation",
    "final_address": "2617 Athis St",
    "address_councildis": "D",
    "status": "Assigned to Contractor",
    "contractor": "IV Waste",
    "rowid": "1125169",
    "final_x": "3686692.58607",
    "final_y": "554513.692632",
    "longitude": "-90.05086140986762",
    "latitude": "30.018561469380344",
    "geocoded_column": {
      "latitude": "30.018561469380344",
      "longitude": "-90.05086140986762"
    }
  },
  {
    "service_request": "2024-1125168",
    "request_type": "Trash/Recycling",
    "request_reason": "Missed Trash Pick-Up",
    "date_created": "2024-08-26T14:30:23.000",
    "date_modified": "2024-08-26T16:10:47.000",
    "case_close_date": "2024-08-26T11:10:47.000",
    "request_status": "Closed",
    "responsible_agency": "Department of Sanitation",
    "final_address": "2832 Josephine St",
    "address_councildis": "B",
    "status": "Invalid Request",
    "contractor": "IV Waste",
    "contractor_action": "Invalid",
    "rowid": "1125168",
    "final_x": "3675142.91861",
    "final_y": "527475.451903",
    "longitude": "-90.08828249034916",
    "latitude": "29.944566002527278",
    "geocoded_column": {
      "latitude": "29.944566002527278",
      "longitude": "-90.08828249034916"
    }
  },
  {
    "service_request": "2024-1125167",
    "request_type": "Trash/Recycling",
    "request_reason": "Repair Recycling Cart",
    "date_created": "2024-08-26T14:25:04.000",
    "date_modified": "2024-08-26T14:25:06.000",
    "request_status": "Pending",
    "responsible_agency": "Department of Sanitation",
    "final_address": "4520 S Derbigny St",
    "address_councildis": "B",
    "status": "Pending",
    "rowid": "1125167",
    "final_x": "3669711.54426",
    "final_y": "526130.493374",
    "longitude": "-90.10547648922834",
    "latitude": "29.941028961139367",
    "geocoded_column": {
      "latitude": "29.941028961139367",
      "longitude": "-90.10547648922834"
    }
  },
  {
    "service_request": "2024-1125166",
    "request_type": "Trash/Recycling",
    "request_reason": "Request a Large Item Pick Up",
    "date_created": "2024-08-26T14:23:48.000",
    "date_modified": "2024-08-26T14:23:49.000",
    "request_status": "Pending",
    "responsible_agency": "Department of Sanitation",
    "final_address": "7929 Freret St",
    "address_councildis": "A",
    "status": "Assigned to Contractor",
    "contractor": "IV Waste",
    "rowid": "1125166",
    "final_x": "3661926.85114",
    "final_y": "527522.518655",
    "longitude": "-90.13000815603785",
    "latitude": "29.9450836666227",
    "geocoded_column": {
      "latitude": "29.9450836666227",
      "longitude": "-90.13000815603785"
    }
  },
  {
    "service_request": "2024-1125165",
    "request_type": "Abandoned Vehicles",
    "request_reason": "Abandoned/Junk Vehicles",
    "date_created": "2024-08-26T14:23:18.000",
    "date_modified": "2024-08-26T14:23:18.000",
    "request_status": "Pending",
    "responsible_agency": "Department of Public Works",
    "final_address": "1010 Elysian Fields Ave",
    "address_councildis": "C",
    "status": "Pending",
    "rowid": "1125165",
    "final_x": "3684937.17961",
    "final_y": "536027.645447",
    "longitude": "-90.05705842760842",
    "latitude": "29.96778534709612",
    "geocoded_column": {
      "latitude": "29.96778534709612",
      "longitude": "-90.05705842760842"
    }
  },
  {
    "service_request": "2024-1125164",
    "request_type": "Property Maintenance",
    "request_reason": "Property Maintenance",
    "date_created": "2024-08-26T14:21:24.000",
    "date_modified": "2024-08-26T14:21:25.000",
    "request_status": "Pending",
    "responsible_agency": "Department of Code Enforcement",
    "final_address": "EDINBURGH ST & AUDUBON ST",
    "address_councildis": "B",
    "status": "Pending",
    "rowid": "1125164",
    "final_x": "3668959.1",
    "final_y": "533088.68",
    "longitude": "-90.10761710329407",
    "latitude": "29.960183848901575",
    "geocoded_column": {
      "latitude": "29.960183848901575",
      "longitude": "-90.10761710329407"
    }
  },
  {
    "service_request": "2024-1125163",
    "request_type": "Trash/Recycling",
    "request_reason": "Request a Large Item Pick Up",
    "date_created": "2024-08-26T14:19:41.000",
    "date_modified": "2024-08-26T14:19:43.000",
    "request_status": "Pending",
    "responsible_agency": "Department of Sanitation",
    "final_address": "13051 Ashland Dr",
    "address_councildis": "E",
    "status": "Assigned to Contractor",
    "contractor": "Waste Pro",
    "rowid": "1125163",
    "final_x": "3717786.62258",
    "final_y": "567540.085412",
    "longitude": "-89.95212061889477",
    "latitude": "30.05338521162476",
    "geocoded_column": {
      "latitude": "30.05338521162476",
      "longitude": "-89.95212061889477"
    }
  },
  {
    "service_request": "2024-1125162",
    "request_type": "Trash/Recycling",
    "request_reason": "Replace Trash Cart",
    "date_created": "2024-08-26T14:18:29.000",
    "date_modified": "2024-08-26T14:18:30.000",
    "request_status": "Pending",
    "responsible_agency": "Department of Sanitation",
    "final_address": "3120 N Tonti St",
    "address_councildis": "D",
    "status": "Assigned to Contractor",
    "contractor": "IV Waste",
    "rowid": "1125162",
    "final_x": "3690291.09756",
    "final_y": "540437.380043",
    "longitude": "-90.03999347122392",
    "latitude": "29.979745499508354",
    "geocoded_column": {
      "latitude": "29.979745499508354",
      "longitude": "-90.03999347122392"
    }
  },
  {
    "service_request": "2024-1125161",
    "request_type": "Roads/Drainage",
    "request_reason": "Street Flooding / Drainage",
    "date_created": "2024-08-26T14:18:19.000",
    "date_modified": "2024-08-26T14:18:20.000",
    "request_status": "Pending",
    "responsible_agency": "Department of Public Works",
    "final_address": "EDINBURGH ST & LOWERLINE ST",
    "address_councildis": "B",
    "status": "Pending",
    "rowid": "1125161",
    "final_x": "3668289.5",
    "final_y": "533693.18",
    "longitude": "-90.1097111805533",
    "latitude": "29.96186570244096",
    "geocoded_column": {
      "latitude": "29.96186570244096",
      "longitude": "-90.1097111805533"
    }
  },
  {
    "service_request": "2024-1125160",
    "request_type": "Trash/Recycling",
    "request_reason": "Request a Large Item Pick Up",
    "date_created": "2024-08-26T14:18:16.000",
    "date_modified": "2024-08-26T14:18:17.000",
    "request_status": "Pending",
    "responsible_agency": "Department of Sanitation",
    "final_address": "7111 St Charles Ave",
    "address_councildis": "A",
    "status": "Assigned to Contractor",
    "contractor": "IV Waste",
    "rowid": "1125160",
    "final_x": "3663163.73927",
    "final_y": "524687.319292",
    "longitude": "-90.12619720234076",
    "latitude": "29.937251997355833",
    "geocoded_column": {
      "latitude": "29.937251997355833",
      "longitude": "-90.12619720234076"
    }
  },
  {
    "service_request": "2024-1125159",
    "request_type": "Trash/Recycling",
    "request_reason": "Request a Large Item Pick Up",
    "date_created": "2024-08-26T14:17:17.000",
    "date_modified": "2024-08-26T14:17:18.000",
    "request_status": "Pending",
    "responsible_agency": "Department of Sanitation",
    "final_address": "5608 Dauphine St",
    "address_councildis": "E",
    "status": "Assigned to Contractor",
    "contractor": "Waste Pro",
    "rowid": "1125159",
    "final_x": "3697820.89885",
    "final_y": "532559.6313",
    "longitude": "-90.0164973689116",
    "latitude": "29.95784866843309",
    "geocoded_column": {
      "latitude": "29.95784866843309",
      "longitude": "-90.0164973689116"
    }
  },
  {
    "service_request": "2024-1125158",
    "request_type": "Trash/Recycling",
    "request_reason": "Request a Large Item Pick Up",
    "date_created": "2024-08-26T14:16:19.000",
    "date_modified": "2024-08-26T14:16:21.000",
    "request_status": "Pending",
    "responsible_agency": "Department of Sanitation",
    "final_address": "4228 Baudin St",
    "address_councildis": "A",
    "status": "Assigned to Contractor",
    "contractor": "IV Waste",
    "rowid": "1125158",
    "final_x": "3669406.98055",
    "final_y": "537565.866312",
    "longitude": "-90.1060513583263",
    "latitude": "29.972481437638073",
    "geocoded_column": {
      "latitude": "29.972481437638073",
      "longitude": "-90.1060513583263"
    }
  },
  {
    "service_request": "2024-1125157",
    "request_type": "Roads/Drainage",
    "request_reason": "Pothole",
    "date_created": "2024-08-26T14:15:01.000",
    "date_modified": "2024-08-26T14:15:24.000",
    "case_close_date": "2024-08-26T09:15:24.000",
    "request_status": "Closed",
    "responsible_agency": "Department of Public Works",
    "final_address": "5426 Royal St",
    "address_councildis": "E",
    "status": "Resolved",
    "rowid": "1125157",
    "final_x": "3696958.97149",
    "final_y": "532391.210947",
    "longitude": "-90.0192251735729",
    "latitude": "29.957412780620217",
    "geocoded_column": {
      "latitude": "29.957412780620217",
      "longitude": "-90.0192251735729"
    }
  },
  {
    "service_request": "2024-1125156",
    "request_type": "Roads/Drainage",
    "request_reason": "Pothole",
    "date_created": "2024-08-26T14:13:35.000",
    "date_modified": "2024-08-26T14:13:59.000",
    "case_close_date": "2024-08-26T09:13:59.000",
    "request_status": "Closed",
    "responsible_agency": "Department of Public Works",
    "final_address": "5518 Royal St",
    "address_councildis": "E",
    "status": "Resolved",
    "rowid": "1125156",
    "final_x": "3697454.19728",
    "final_y": "532282.502147",
    "longitude": "-90.01766534910855",
    "latitude": "29.957098243862255",
    "geocoded_column": {
      "latitude": "29.957098243862255",
      "longitude": "-90.01766534910855"
    }
  },
  {
    "service_request": "2024-1125155",
    "request_type": "Property Maintenance",
    "request_reason": "Property Maintenance",
    "date_created": "2024-08-26T14:11:26.000",
    "date_modified": "2024-08-26T14:11:27.000",
    "request_status": "Pending",
    "responsible_agency": "Department of Code Enforcement",
    "final_address": "AUDUBON CT & OLIVE ST",
    "address_councildis": "B",
    "status": "Pending",
    "rowid": "1125155",
    "final_x": "3668866.8",
    "final_y": "532704.08",
    "longitude": "-90.1079215562992",
    "latitude": "29.95912904046164",
    "geocoded_column": {
      "latitude": "29.95912904046164",
      "longitude": "-90.1079215562992"
    }
  },
  {
    "service_request": "2024-1125154",
    "request_type": "Trash/Recycling",
    "request_reason": "Order Recycling Cart",
    "date_created": "2024-08-26T14:07:28.000",
    "date_modified": "2024-08-26T14:07:28.000",
    "request_status": "Pending",
    "responsible_agency": "Department of Sanitation",
    "final_address": "1915 Calhoun St",
    "address_councildis": "A",
    "status": "Pending",
    "rowid": "1125154",
    "final_x": "3665454.05197",
    "final_y": "524200.542396",
    "longitude": "-90.11898279856402",
    "latitude": "29.93584697240272",
    "geocoded_column": {
      "latitude": "29.93584697240272",
      "longitude": "-90.11898279856402"
    }
  },
  {
    "service_request": "2024-1125153",
    "request_type": "Trash/Recycling",
    "request_reason": "Request a Large Item Pick Up",
    "date_created": "2024-08-26T14:07:00.000",
    "date_modified": "2024-08-26T14:07:01.000",
    "request_status": "Pending",
    "responsible_agency": "Department of Sanitation",
    "final_address": "4410 St Roch Ave",
    "address_councildis": "D",
    "status": "Assigned to Contractor",
    "contractor": "IV Waste",
    "rowid": "1125153",
    "final_x": "3685315.49084",
    "final_y": "549018.730963",
    "longitude": "-90.05540615723037",
    "latitude": "30.00349463813105",
    "geocoded_column": {
      "latitude": "30.00349463813105",
      "longitude": "-90.05540615723037"
    }
  },
  {
    "service_request": "2024-1125152",
    "request_type": "Property Maintenance",
    "request_reason": "Property Maintenance",
    "date_created": "2024-08-26T14:06:27.000",
    "date_modified": "2024-08-26T14:06:28.000",
    "request_status": "Pending",
    "responsible_agency": "Department of Code Enforcement",
    "final_address": "3435 Audubon Ct",
    "address_councildis": "B",
    "status": "Pending",
    "rowid": "1125152",
    "final_x": "3669000.56442",
    "final_y": "532945.340868",
    "longitude": "-90.10749100941455",
    "latitude": "29.959788493988952",
    "geocoded_column": {
      "latitude": "29.959788493988952",
      "longitude": "-90.10749100941455"
    }
  },
  {
    "service_request": "2024-1125151",
    "request_type": "Parks & Parkways",
    "request_reason": "Request Tree Service (Right of Way/Public Property)",
    "date_created": "2024-08-26T14:05:35.000",
    "date_modified": "2024-08-26T15:27:18.000",
    "request_status": "Pending",
    "responsible_agency": "Department of Parks & Parkway",
    "final_address": "4711 Gawain Dr",
    "address_councildis": "E",
    "status": "Pending",
    "rowid": "1125151",
    "final_x": "3707067.90385",
    "final_y": "555214.793881",
    "longitude": "-89.98645732959478",
    "latitude": "30.01984643708927",
    "geocoded_column": {
      "latitude": "30.01984643708927",
      "longitude": "-89.98645732959478"
    }
  },
  {
    "service_request": "2024-1125150",
    "request_type": "Traffic Signals/Signs/Striping/Streetlights",
    "request_reason": "Street Light Outage/Malfunction",
    "date_created": "2024-08-26T14:05:01.000",
    "date_modified": "2024-08-26T14:07:59.000",
    "request_status": "Pending",
    "responsible_agency": "Department of Public Works",
    "final_address": "3225 Columbus St",
    "address_councildis": "C",
    "status": "Assigned to Contractor",
    "contractor": "Legacy Professional Services",
    "rowid": "1125150",
    "final_x": "3696022.24598",
    "final_y": "524284.3415",
    "longitude": "-90.02247591332973",
    "latitude": "29.935151216555884",
    "geocoded_column": {
      "latitude": "29.935151216555884",
      "longitude": "-90.02247591332973"
    }
  },
  {
    "service_request": "2024-1125148",
    "request_type": "Traffic Signals/Signs/Striping/Streetlights",
    "request_reason": "Street Light Outage/Malfunction",
    "date_created": "2024-08-26T14:02:41.000",
    "date_modified": "2024-08-26T14:02:42.000",
    "request_status": "Pending",
    "responsible_agency": "Department of Public Works",
    "final_address": "5900 BLK Memphis St",
    "address_councildis": "A",
    "status": "Assigned to Contractor",
    "contractor": "Legacy Professional Services",
    "rowid": "1125148",
    "final_x": "3669153.43922",
    "final_y": "546882.982137",
    "longitude": "-90.1065370484525",
    "latitude": "29.998107796207044",
    "geocoded_column": {
      "latitude": "29.998107796207044",
      "longitude": "-90.1065370484525"
    }
  },
  {
    "service_request": "2024-1125149",
    "request_type": "Trash/Recycling",
    "request_reason": "Illegal Dumping",
    "date_created": "2024-08-26T14:02:41.000",
    "date_modified": "2024-08-26T14:02:43.000",
    "request_status": "Pending",
    "responsible_agency": "Department of Sanitation",
    "final_address": "2831 Bienville Ave",
    "address_councildis": "B",
    "status": "Pending",
    "rowid": "1125149",
    "final_x": "3675187.87726",
    "final_y": "536295.814599",
    "longitude": "-90.08783783745888",
    "latitude": "29.96881770778915",
    "geocoded_column": {
      "latitude": "29.96881770778915",
      "longitude": "-90.08783783745888"
    }
  },
  {
    "service_request": "2024-1125147",
    "request_type": "Trash/Recycling",
    "request_reason": "Request a Large Item Pick Up",
    "date_created": "2024-08-26T14:02:17.000",
    "date_modified": "2024-08-26T14:02:18.000",
    "request_status": "Pending",
    "responsible_agency": "Department of Sanitation",
    "final_address": "5200 Tchoupitoulas St",
    "address_councildis": "B",
    "status": "Assigned to Contractor",
    "contractor": "IV Waste",
    "rowid": "1125147",
    "final_x": "3667928.20359",
    "final_y": "517082.551029",
    "longitude": "-90.11141146738133",
    "latitude": "29.916202421946064",
    "geocoded_column": {
      "latitude": "29.916202421946064",
      "longitude": "-90.11141146738133"
    }
  },
  {
    "service_request": "2024-1125146",
    "request_type": "Healthy Homes",
    "request_reason": "Healthy Homes",
    "date_created": "2024-08-26T14:00:28.000",
    "date_modified": "2024-08-26T14:00:29.000",
    "request_status": "Pending",
    "responsible_agency": "Department of Code Enforcement",
    "final_address": "8025 Trapier Ave",
    "address_councildis": "E",
    "status": "Pending",
    "rowid": "1125146",
    "final_x": "3706052.54123",
    "final_y": "564668.113186",
    "longitude": "-89.98931516697051",
    "latitude": "30.04587213277026",
    "geocoded_column": {
      "latitude": "30.04587213277026",
      "longitude": "-89.98931516697051"
    }
  },
  {
    "service_request": "2024-1125145",
    "request_type": "Trash/Recycling",
    "request_reason": "Order Trash Cart",
    "date_created": "2024-08-26T13:57:06.000",
    "date_modified": "2024-08-26T13:57:07.000",
    "request_status": "Pending",
    "responsible_agency": "Department of Sanitation",
    "final_address": "5517 S Rocheblave St",
    "address_councildis": "A",
    "status": "Assigned to Contractor",
    "contractor": "IV Waste",
    "rowid": "1125145",
    "final_x": "3668397.10682",
    "final_y": "528477.446208",
    "longitude": "-90.10954728296782",
    "latitude": "29.947520985138325",
    "geocoded_column": {
      "latitude": "29.947520985138325",
      "longitude": "-90.10954728296782"
    }
  },
  {
    "service_request": "2024-1125144",
    "request_type": "Trash/Recycling",
    "request_reason": "Replace Trash Cart",
    "date_created": "2024-08-26T13:56:06.000",
    "date_modified": "2024-08-26T13:56:07.000",
    "request_status": "Pending",
    "responsible_agency": "Department of Sanitation",
    "final_address": "1222 Vallette St",
    "address_councildis": "C",
    "status": "Assigned to Contractor",
    "contractor": "Richards Disposal",
    "rowid": "1125144",
    "final_x": "3687453.97942",
    "final_y": "527071.54227",
    "longitude": "-90.04942723692184",
    "latitude": "29.943081824026237",
    "geocoded_column": {
      "latitude": "29.943081824026237",
      "longitude": "-90.04942723692184"
    }
  },
  {
    "service_request": "2024-1125143",
    "request_type": "Roads/Drainage",
    "request_reason": "Pothole",
    "date_created": "2024-08-26T13:52:32.000",
    "date_modified": "2024-08-26T13:52:57.000",
    "case_close_date": "2024-08-26T08:52:57.000",
    "request_status": "Closed",
    "responsible_agency": "Department of Public Works",
    "final_address": "5308 Dauphine St",
    "address_councildis": "E",
    "status": "Resolved",
    "rowid": "1125143",
    "final_x": "3696559.88061",
    "final_y": "532849.922308",
    "longitude": "-90.02046878022823",
    "latitude": "29.958686654065385",
    "geocoded_column": {
      "latitude": "29.958686654065385",
      "longitude": "-90.02046878022823"
    }
  },
  {
    "service_request": "2024-1125142",
    "request_type": "Traffic Signals/Signs/Striping/Streetlights",
    "request_reason": "Street Light Outage/Malfunction",
    "date_created": "2024-08-26T13:51:57.000",
    "date_modified": "2024-08-26T13:51:59.000",
    "request_status": "Pending",
    "responsible_agency": "Department of Public Works",
    "final_address": "4233 Stephen Girard Ave",
    "address_councildis": "D",
    "status": "Assigned to Contractor",
    "contractor": "Legacy Professional Services",
    "rowid": "1125142",
    "final_x": "3690127.7224",
    "final_y": "550035.605204",
    "longitude": "-90.04016734671326",
    "latitude": "30.00614221987274",
    "geocoded_column": {
      "latitude": "30.00614221987274",
      "longitude": "-90.04016734671326"
    }
  },
  {
    "service_request": "2024-1125141",
    "request_type": "Roads/Drainage",
    "request_reason": "Street Subsidence (Sinking)",
    "date_created": "2024-08-26T13:51:10.000",
    "date_modified": "2024-08-26T13:51:10.000",
    "request_status": "Pending",
    "responsible_agency": "Department of Public Works",
    "final_address": "440 40Th St",
    "address_councildis": "A",
    "status": "Pending",
    "rowid": "1125141",
    "final_x": "3664795.52896",
    "final_y": "553319.127959",
    "longitude": "-90.1200884191603",
    "latitude": "30.01593254192942",
    "geocoded_column": {
      "latitude": "30.01593254192942",
      "longitude": "-90.1200884191603"
    }
  },
  {
    "service_request": "2024-1125140",
    "request_type": "Abandoned Vehicles",
    "request_reason": "Abandoned/Junk Vehicles",
    "date_created": "2024-08-26T13:50:55.000",
    "date_modified": "2024-08-26T13:50:55.000",
    "request_status": "Pending",
    "responsible_agency": "Department of Public Works",
    "final_address": "1951 N Tonti St",
    "address_councildis": "D",
    "status": "Inspected",
    "rowid": "1125140",
    "final_x": "3682547.63791",
    "final_y": "540590.319563",
    "longitude": "-90.064445097471",
    "latitude": "29.980404083657316",
    "geocoded_column": {
      "latitude": "29.980404083657316",
      "longitude": "-90.064445097471"
    }
  },
  {
    "service_request": "2024-1125139",
    "request_type": "Abandoned Vehicles",
    "request_reason": "Abandoned/Junk Vehicles",
    "date_created": "2024-08-26T13:50:28.000",
    "date_modified": "2024-08-26T13:56:27.000",
    "request_status": "Pending",
    "responsible_agency": "Department of Public Works",
    "final_address": "225 N Roman St Apt A",
    "address_councildis": "B",
    "rowid": "1125139",
    "final_x": "3678186.10894",
    "final_y": "533783.105285",
    "longitude": "-90.07845613850687",
    "latitude": "29.961818660018334",
    "geocoded_column": {
      "latitude": "29.961818660018334",
      "longitude": "-90.07845613850687"
    }
  },