[
  {
    "service_request": "2025-1180541",
    "request_type": "Trash/Recycling",
    "request_reason": "Order Recycling Cart",
    "date_created": "2025-04-01T23:07:28.000",
    "date_modified": "2025-04-01T23:07:30.000",
    "request_status": "Pending",
    "responsible_agency": "Department of Sanitation",
    "final_address": "2421 Valmont St",
    "address_councildis": "B",
    "status": "Pending",
    "rowid": "1180541",
    "final_x": "3668351.99988",
    "final_y": "524447.350908",
    "longitude": "-90.10982557436112",
    "latitude": "29.93644085003328",
    "geocoded_column": {
      "latitude": "29.93644085003328",
      "longitude": "-90.10982557436112"
    }
  },
  {
    "service_request": "2025-1180540",
    "request_type": "Roads and Streets",
    "request_reason": "Street Subsidence (Sinking)",
    "date_created": "2025-04-01T22:13:14.000",
    "date_modified": "2025-04-01T22:13:16.000",
    "request_status": "Pending",
    "responsible_agency": "Department of Public Works",
    "final_address": "2261 Beck St",
    "address_councildis": "C",
    "status": "Pending",
    "rowid": "1180540",
    "final_x": "3700400.53623",
    "final_y": "522398.76249",
    "longitude": "-90.00872257281247",
    "latitude": "29.929828075880238",
    "geocoded_column": {
      "latitude": "29.929828075880238",
      "longitude": "-90.00872257281247"
    }
  },
  {
    "service_request": "2025-1180539",
    "request_type": "Abandoned Vehicles",
    "request_reason": "Abandoned/Junk Vehicles",
    "date_created": "2025-04-01T22:05:44.000",
    "date_modified": "2025-04-01T22:05:45.000",
    "request_status": "Pending",
    "responsible_agency": "Department of Public Works",
    "final_address": "1819 Fourth St",
    "address_councildis": "B",
    "status": "Pending",
    "rowid": "1180539",
    "final_x": "3675707.19189",
    "final_y": "523494.453755",
    "longitude": "-90.08663766682137",
    "latitude": "29.933602692672537",
    "geocoded_column": {
      "latitude": "29.933602692672537",
      "longitude": "-90.08663766682137"
    }
  },
  {
    "service_request": "2025-1180538",
    "request_type": "Property Maintenance",
    "request_reason": "Property Maintenance",
    "date_created": "2025-04-01T22:03:11.000",
    "date_modified": "2025-04-01T22:03:12.000",
    "request_status": "Pending",
    "responsible_agency": "Department of Code Enforcement",
    "final_address": "1426 Urania St",
    "address_councildis": "B",
    "status": "Pending",
    "rowid": "1180538",
    "final_x": "3679151.9709",
    "final_y": "524026.418748",
    "longitude": "-90.07574424904759",
    "latitude": "29.934961914582257",
    "geocoded_column": {
      "latitude": "29.934961914582257",
      "longitude": "-90.07574424904759"
    }
  },
  {
    "service_request": "2025-1180537",
    "request_type": "Abandoned Vehicles",
    "request_reason": "Vehicle Blocking Your Driveway",
    "date_created": "2025-04-01T21:55:52.000",
    "date_modified": "2025-04-01T21:55:54.000",
    "request_status": "Pending",
    "responsible_agency": "Department of Public Works",
    "final_address": "3946 Laurel St",
    "address_councildis": "B",
    "status": "Pending",
    "rowid": "1180537",
    "final_x": "3672849.36091",
    "final_y": "518134.61215",
    "longitude": "-90.09584244768487",
    "latitude": "29.918950037559963",
    "geocoded_column": {
      "latitude": "29.918950037559963",
      "longitude": "-90.09584244768487"
    }
  },
  {
    "service_request": "2025-1180536",
    "request_type": "Drainage",
    "request_reason": "Catch Basin Damaged",
    "date_created": "2025-04-01T21:14:57.000",
    "date_modified": "2025-04-01T21:14:59.000",
    "request_status": "Pending",
    "responsible_agency": "Sewerage & Water Board ",
    "final_address": "2504 Esplanade Ave",
    "address_councildis": "D",
    "status": "Pending",
    "rowid": "1180536",
    "final_x": "3678544.71093",
    "final_y": "538585.945993",
    "longitude": "-90.07715746032042",
    "latitude": "29.975014027601805",
    "geocoded_column": {
      "latitude": "29.975014027601805",
      "longitude": "-90.07715746032042"
    }
  },
  {
    "service_request": "2025-1180535",
    "request_type": "Streetlights",
    "request_reason": "Streetlight Outage/Malfunction",
    "date_created": "2025-04-01T20:53:55.000",
    "date_modified": "2025-04-01T20:53:56.000",
    "request_status": "Pending",
    "responsible_agency": "Department of Public Works",
    "final_address": "5200 Kim Dr",
    "address_councildis": "E",
    "status": "Pending",
    "contractor": "Legacy Professional Services",
    "rowid": "1180535",
    "final_x": "3727586.10963",
    "final_y": "564040.173665",
    "longitude": "-89.92128378943437",
    "latitude": "30.043433483449313",
    "geocoded_column": {
      "latitude": "30.043433483449313",
      "longitude": "-89.92128378943437"
    }
  },
  {
    "service_request": "2025-1180533",
    "request_type": "Streetlights",
    "request_reason": "Streetlight Outage/Malfunction",
    "date_created": "2025-04-01T20:53:54.000",
    "date_modified": "2025-04-01T20:54:03.000",
    "request_status": "Pending",
    "responsible_agency": "Department of Public Works",
    "final_address": "5200 Kim Dr",
    "address_councildis": "E",
    "status": "Pending",
    "contractor": "Legacy Professional Services",
    "rowid": "1180533",
    "final_x": "3727586.10963",
    "final_y": "564040.173665",
    "longitude": "-89.92128378943437",
    "latitude": "30.043433483449313",
    "geocoded_column": {
      "latitude": "30.043433483449313",
      "longitude": "-89.92128378943437"
    }
  },
  {
    "service_request": "2025-1180534",
    "request_type": "Streetlights",
    "request_reason": "Streetlight Outage/Malfunction",
    "date_created": "2025-04-01T20:53:54.000",
    "date_modified": "2025-04-01T20:53:56.000",
    "request_status": "Pending",
    "responsible_agency": "Department of Public Works",
    "final_address": "5200 Kim Dr",
    "address_councildis": "E",
    "status": "Pending",
    "contractor": "Legacy Professional Services",
    "rowid": "1180534",
    "final_x": "3727586.10963",
    "final_y": "564040.173665",
    "longitude": "-89.92128378943437",
    "latitude": "30.043433483449313",
    "geocoded_column": {
      "latitude": "30.043433483449313",
      "longitude": "-89.92128378943437"
    }
  },
  {
    "service_request": "2025-1180532",
    "request_type": "Streetlights",
    "request_reason": "Streetlight Outage/Malfunction",
    "date_created": "2025-04-01T20:51:23.000",
    "date_modified": "2025-04-01T20:51:25.000",
    "request_status": "Pending",
    "responsible_agency": "Department of Public Works",
    "final_address": "5200 Kim Dr",
    "address_councildis": "E",
    "status": "Pending",
    "contractor": "Legacy Professional Services",
    "rowid": "1180532",
    "final_x": "3727586.10963",
    "final_y": "564040.173665",
    "longitude": "-89.92128378943437",
    "latitude": "30.043433483449313",
    "geocoded_column": {
      "latitude": "30.043433483449313",
      "longitude": "-89.92128378943437"
    }
  },
  {
    "service_request": "2025-1180531",
    "request_type": "Trash/Recycling",
    "request_reason": "Request a Large Item Pick Up",
    "date_created": "2025-04-01T20:47:44.000",
    "date_modified": "2025-04-01T20:47:46.000",
    "request_status": "Pending",
    "responsible_agency": "Department of Sanitation",
    "final_address": "2537 Winthrop St",
    "address_councildis": "E",
    "status": "Assigned to Contractor",
    "contractor": "Waste Pro",
    "rowid": "1180531",
    "final_x": "3700815.24689",
    "final_y": "538926.367626",
    "longitude": "-90.0068093922112",
    "latitude": "29.975259940973487",
    "geocoded_column": {
      "latitude": "29.975259940973487",
      "longitude": "-90.0068093922112"
    }
  },
  {
    "service_request": "2025-1180530",
    "request_type": "Trash/Recycling",
    "request_reason": "Repair Trash Cart",
    "date_created": "2025-04-01T20:33:54.000",
    "date_modified": "2025-04-01T20:33:57.000",
    "request_status": "Pending",
    "responsible_agency": "Department of Sanitation",
    "final_address": "5865 Louisville St",
    "address_councildis": "A",
    "status": "Assigned to Contractor",
    "contractor": "IV Waste",
    "rowid": "1180530",
    "final_x": "3667721.14164",
    "final_y": "546494.416209",
    "longitude": "-90.11107476934127",
    "latitude": "29.997081461706887",
    "geocoded_column": {
      "latitude": "29.997081461706887",
      "longitude": "-90.11107476934127"
    }
  },
  {
    "service_request": "2025-1180529",
    "request_type": "Roads and Streets",
    "request_reason": "Debris in Driving Lanes",
    "date_created": "2025-04-01T19:57:09.000",
    "date_modified": "2025-04-01T19:57:11.000",
    "request_status": "Pending",
    "responsible_agency": "Department of Public Works",
    "final_address": "800 N Carrollton Ave",
    "address_councildis": "A",
    "status": "Pending",
    "rowid": "1180529",
    "final_x": "3672862.837",
    "final_y": "540119.420299",
    "longitude": "-90.09504997765583",
    "latitude": "29.979400612364582",
    "geocoded_column": {
      "latitude": "29.979400612364582",
      "longitude": "-90.09504997765583"
    }
  },
  {
    "service_request": "2025-1180528",
    "request_type": "Trash/Recycling",
    "request_reason": "Repair Recycling Cart",
    "date_created": "2025-04-01T19:51:15.000",
    "date_modified": "2025-04-01T19:51:17.000",
    "request_status": "Pending",
    "responsible_agency": "Department of Sanitation",
    "final_address": "3939 Van Buren St",
    "address_councildis": "C",
    "status": "Pending",
    "rowid": "1180528",
    "final_x": "3712776.98488",
    "final_y": "515833.10962",
    "longitude": "-89.9698992903939",
    "latitude": "29.911375643542787",
    "geocoded_column": {
      "latitude": "29.911375643542787",
      "longitude": "-89.9698992903939"
    }
  },
  {
    "service_request": "2025-1180527",
    "request_type": "Trash/Recycling",
    "request_reason": "Order Second Trash Cart",
    "date_created": "2025-04-01T19:46:49.000",
    "date_modified": "2025-04-01T19:46:52.000",
    "request_status": "Pending",
    "responsible_agency": "Department of Sanitation",
    "final_address": "5513 Wildair Dr",
    "address_councildis": "D",
    "status": "Assigned to Contractor",
    "contractor": "IV Waste",
    "rowid": "1180527",
    "final_x": "3681643.95573",
    "final_y": "553244.634583",
    "longitude": "-90.06685755472256",
    "latitude": "30.015226427733708",
    "geocoded_column": {
      "latitude": "30.015226427733708",
      "longitude": "-90.06685755472256"
    }
  },
  {
    "service_request": "2025-1180526",
    "request_type": "Trash/Recycling",
    "request_reason": "Replace Trash Cart",
    "date_created": "2025-04-01T19:34:29.000",
    "date_modified": "2025-04-01T19:34:31.000",
    "request_status": "Pending",
    "responsible_agency": "Department of Sanitation",
    "final_address": "2439 Ramsey Dr",
    "address_councildis": "C",
    "status": "Assigned to Contractor",
    "contractor": "Richards Disposal",
    "rowid": "1180526",
    "final_x": "3703091.51908",
    "final_y": "521945.316026",
    "longitude": "-90.00024431979838",
    "latitude": "29.928495444345764",
    "geocoded_column": {
      "latitude": "29.928495444345764",
      "longitude": "-90.00024431979838"
    }
  },
  {
    "service_request": "2025-1180525",
    "request_type": "Trash/Recycling",
    "request_reason": "Request a Large Item Pick Up",
    "date_created": "2025-04-01T19:25:44.000",
    "date_modified": "2025-04-01T19:25:53.000",
    "request_status": "Pending",
    "responsible_agency": "Department of Sanitation",
    "final_address": "1537 Spain St",
    "address_councildis": "C",
    "status": "Assigned to Contractor",
    "contractor": "IV Waste",
    "rowid": "1180525",
    "final_x": "3686021.84802",
    "final_y": "538164.187337",
    "longitude": "-90.05355766136734",
    "latitude": "29.973626827786752",
    "geocoded_column": {
      "latitude": "29.973626827786752",
      "longitude": "-90.05355766136734"
    }
  },
  {
    "service_request": "2025-1180524",
    "request_type": "Abandoned Vehicles",
    "request_reason": "Abandoned/Junk Vehicles",
    "date_created": "2025-04-01T19:11:07.000",
    "date_modified": "2025-04-01T19:11:09.000",
    "request_status": "Pending",
    "responsible_agency": "Department of Public Works",
    "final_address": "824 N Dorgenois St",
    "address_councildis": "D",
    "status": "Pending",
    "rowid": "1180524",
    "final_x": "3677524.26171",
    "final_y": "537027.23348",
    "longitude": "-90.08043413115932",
    "latitude": "29.970758823381004",
    "geocoded_column": {
      "latitude": "29.970758823381004",
      "longitude": "-90.08043413115932"
    }
  },
  {
    "service_request": "2025-1180523",
    "request_type": "Trash/Recycling",
    "request_reason": "Order Recycling Cart",
    "date_created": "2025-04-01T19:01:31.000",
    "date_modified": "2025-04-01T19:01:33.000",
    "request_status": "Pending",
    "responsible_agency": "Department of Sanitation",
    "final_address": "4780 Venus St",
    "address_councildis": "D",
    "status": "Pending",
    "rowid": "1180523",
    "final_x": "3686388.3135",
    "final_y": "550860.405845",
    "longitude": "-90.0519518832662",
    "latitude": "30.00852563149623",
    "geocoded_column": {
      "latitude": "30.00852563149623",
      "longitude": "-90.0519518832662"
    }
  },
  {
    "service_request": "2025-1180522",
    "request_type": "Roads and Streets",
    "request_reason": "Push-up/Pavement Expansion",
    "date_created": "2025-04-01T18:27:19.000",
    "date_modified": "2025-04-01T18:27:21.000",
    "request_status": "Pending",
    "responsible_agency": "Department of Public Works",
    "final_address": "6802 Vicksburg St",
    "address_councildis": "A",
    "status": "Pending",
    "rowid": "1180522",
    "final_x": "3669309.70382",
    "final_y": "552698.282326",
    "longitude": "-90.10584661422472",
    "latitude": "30.014093238023392",
    "geocoded_column": {
      "latitude": "30.014093238023392",
      "longitude": "-90.10584661422472"
    }
  },
  {
    "service_request": "2025-1180521",
    "request_type": "Traffic Signals",
    "request_reason": "Traffic Signal Malfunctioning or Damaged",
    "date_created": "2025-04-01T18:18:08.000",
    "date_modified": "2025-04-01T18:18:09.000",
    "request_status": "Pending",
    "responsible_agency": "Department of Public Works",
    "final_address": "3018 Paris Ave",
    "address_councildis": "D",
    "status": "Pending",
    "rowid": "1180521",
    "final_x": "3679770.86363",
    "final_y": "543506.474126",
    "longitude": "-90.07311403954843",
    "latitude": "29.988506749234578",
    "geocoded_column": {
      "latitude": "29.988506749234578",
      "longitude": "-90.07311403954843"
    }
  },
  {
    "service_request": "2025-1180520",
    "request_type": "Trash/Recycling",
    "request_reason": "Request a Large Item Pick Up",
    "date_created": "2025-04-01T18:10:09.000",
    "date_modified": "2025-04-01T18:10:11.000",
    "request_status": "Pending",
    "responsible_agency": "Department of Sanitation",
    "final_address": "6964 Canal Blvd",
    "address_councildis": "A",
    "status": "Assigned to Contractor",
    "contractor": "IV Waste",
    "rowid": "1180520",
    "final_x": "3668912.08775",
    "final_y": "553849.650199",
    "longitude": "-90.107063953249",
    "latitude": "30.01727079895317",
    "geocoded_column": {
      "latitude": "30.01727079895317",
      "longitude": "-90.107063953249"
    }
  },
  {
    "service_request": "2025-1180519",
    "request_type": "Trash/Recycling",
    "request_reason": "Order Trash Cart",
    "date_created": "2025-04-01T18:03:22.000",
    "date_modified": "2025-04-01T18:03:24.000",
    "request_status": "Pending",
    "responsible_agency": "Department of Sanitation",
    "final_address": "7506 Hampson St",
    "address_councildis": "A",
    "status": "Assigned to Contractor",
    "contractor": "IV Waste",
    "rowid": "1180519",
    "final_x": "3662272.60135",
    "final_y": "525706.620861",
    "longitude": "-90.1289767713507",
    "latitude": "29.940080537585576",
    "geocoded_column": {
      "latitude": "29.940080537585576",
      "longitude": "-90.1289767713507"
    }
  },
  {
    "service_request": "2025-1180518",
    "request_type": "Trash/Recycling",
    "request_reason": "Request a Large Item Pick Up",
    "date_created": "2025-04-01T17:54:29.000",
    "date_modified": "2025-04-01T17:54:31.000",
    "request_status": "Pending",
    "responsible_agency": "Department of Sanitation",
    "final_address": "5010 E St Andrews Cir",
    "address_councildis": "E",
    "status": "Assigned to Contractor",
    "contractor": "Waste Pro",
    "rowid": "1180518",
    "final_x": "3719893.96454",
    "final_y": "559874.545053",
    "longitude": "-89.94575334676105",
    "latitude": "30.032238099939566",
    "geocoded_column": {
      "latitude": "30.032238099939566",
      "longitude": "-89.94575334676105"
    }
  },
  {
    "service_request": "2025-1180517",
    "request_type": "Drainage",
    "request_reason": "Catch Basin Clogged",
    "date_created": "2025-04-01T17:49:45.000",
    "date_modified": "2025-04-01T17:49:47.000",
    "request_status": "Pending",
    "responsible_agency": "Sewerage & Water Board ",
    "final_address": "4523 Walmsley Ave",
    "address_councildis": "B",
    "status": "Pending",
    "rowid": "1180517",
    "final_x": "3669178.66126",
    "final_y": "530374.656834",
    "longitude": "-90.1070154957437",
    "latitude": "29.952714719040184",
    "geocoded_column": {
      "latitude": "29.952714719040184",
      "longitude": "-90.1070154957437"
    }
  },
  {
    "service_request": "2025-1180516",
    "request_type": "Trash/Recycling",
    "request_reason": "Replace Trash Cart",
    "date_created": "2025-04-01T17:45:41.000",
    "date_modified": "2025-04-01T17:45:43.000",
    "request_status": "Pending",
    "responsible_agency": "Department of Sanitation",
    "final_address": "4919 Arts St",
    "address_councildis": "D",
    "status": "Assigned to Contractor",
    "contractor": "IV Waste",
    "rowid": "1180516",
    "final_x": "3685930.11266",
    "final_y": "551035.383381",
    "longitude": "-90.05339330772976",
    "latitude": "30.0090208371814",
    "geocoded_column": {
      "latitude": "30.0090208371814",
      "longitude": "-90.05339330772976"
    }
  },
  {
    "service_request": "2025-1180515",
    "request_type": "Roads and Streets",
    "request_reason": "Debris in Driving Lanes",
    "date_created": "2025-04-01T17:40:25.000",
    "date_modified": "2025-04-01T17:40:27.000",
    "request_status": "Pending",
    "responsible_agency": "Department of Public Works",
    "final_address": "5926 General Diaz St",
    "address_councildis": "A",
    "status": "Pending",
    "rowid": "1180515",
    "final_x": "3669369.39489",
    "final_y": "546754.755857",
    "longitude": "-90.10585918414851",
    "latitude": "29.99774885899321",
    "geocoded_column": {
      "latitude": "29.99774885899321",
      "longitude": "-90.10585918414851"
    }
  },
  {
    "service_request": "2025-1180514",
    "request_type": "Trash/Recycling",
    "request_reason": "Damaged Caused By Contractor",
    "date_created": "2025-04-01T17:33:33.000",
    "date_modified": "2025-04-01T17:33:35.000",
    "request_status": "Pending",
    "responsible_agency": "Department of Sanitation",
    "final_address": "808 Solomon Pl",
    "address_councildis": "A",
    "status": "Assigned to Contractor",
    "contractor": "IV Waste",
    "rowid": "1180514",
    "final_x": "3672527.74574",
    "final_y": "540581.859723",
    "longitude": "-90.09609256009354",
    "latitude": "29.980682115887152",
    "geocoded_column": {
      "latitude": "29.980682115887152",
      "longitude": "-90.09609256009354"
    }
  },
  {
    "service_request": "2025-1180513",
    "request_type": "Trash/Recycling",
    "request_reason": "MIssed Recycling Pick-Up",
    "date_created": "2025-04-01T17:25:51.000",
    "date_modified": "2025-04-01T17:25:53.000",
    "request_status": "Pending",
    "responsible_agency": "Department of Sanitation",
    "final_address": "0 BLK Across St",
    "address_councildis": "E",
    "status": "Assigned to Contractor",
    "contractor": "Waste Pro",
    "rowid": "1180513",
    "final_x": "3711887.63918",
    "final_y": "553972.247814",
    "longitude": "-89.97127534652184",
    "latitude": "30.01627326470007",
    "geocoded_column": {
      "latitude": "30.01627326470007",
      "longitude": "-89.97127534652184"
    }
  },
  {
    "service_request": "2025-1180512",
    "request_type": "Trash/Recycling",
    "request_reason": "Request a Large Item Pick Up",
    "date_created": "2025-04-01T17:25:10.000",
    "date_modified": "2025-04-01T17:25:12.000",
    "request_status": "Pending",
    "responsible_agency": "Department of Sanitation",
    "final_address": "4801 Wilson Ave",
    "address_councildis": "E",
    "status": "Assigned to Contractor",
    "contractor": "Waste Pro",
    "rowid": "1180512",
    "final_x": "3703075.23057",
    "final_y": "555191.603289",
    "longitude": "-89.99907364823461",
    "latitude": "30.019911112571325",
    "geocoded_column": {
      "latitude": "30.019911112571325",
      "longitude": "-89.99907364823461"
    }
  },
  {
    "service_request": "2025-1180511",
    "request_type": "Drainage",
    "request_reason": "Catch Basin Clogged",
    "date_created": "2025-04-01T17:01:02.000",
    "date_modified": "2025-04-01T17:01:05.000",
    "request_status": "Pending",
    "responsible_agency": "Sewerage & Water Board ",
    "final_address": "0 St Charles Ave",
    "address_councildis": "B",
    "status": "Pending",
    "rowid": "1180511",
    "final_x": "3673472.88321",
    "final_y": "520994.728633",
    "longitude": "-90.09377664322629",
    "latitude": "29.92679591064766",
    "geocoded_column": {
      "latitude": "29.92679591064766",
      "longitude": "-90.09377664322629"
    }
  },
  {
    "service_request": "2025-1180510",
    "request_type": "Drainage",
    "request_reason": "Catch Basin Clogged",
    "date_created": "2025-04-01T16:59:56.000",
    "date_modified": "2025-04-01T16:59:58.000",
    "request_status": "Pending",
    "responsible_agency": "Sewerage & Water Board ",
    "final_address": "1703 Coliseum St",
    "address_councildis": "B",
    "status": "Pending",
    "rowid": "1180510",
    "final_x": "3679670.27656",
    "final_y": "524476.164028",
    "longitude": "-90.07409235973661",
    "latitude": "29.93618291387231",
    "geocoded_column": {
      "latitude": "29.93618291387231",
      "longitude": "-90.07409235973661"
    }
  },
  {
    "service_request": "2025-1180509",
    "request_type": "Trash/Recycling",
    "request_reason": "Repair Trash Cart",
    "date_created": "2025-04-01T16:56:27.000",
    "date_modified": "2025-04-01T16:56:28.000",
    "request_status": "Pending",
    "responsible_agency": "Department of Sanitation",
    "final_address": "93 Versailles Blvd",
    "address_councildis": "B",
    "status": "Assigned to Contractor",
    "contractor": "IV Waste",
    "rowid": "1180509",
    "final_x": "3668108.01537",
    "final_y": "530946.239234",
    "longitude": "-90.11037686422841",
    "latitude": "29.95431784696351",
    "geocoded_column": {
      "latitude": "29.95431784696351",
      "longitude": "-90.11037686422841"
    }
  },
  {
    "service_request": "2025-1180508",
    "request_type": "Drainage",
    "request_reason": "Catch Basin Clogged",
    "date_created": "2025-04-01T16:55:50.000",
    "date_modified": "2025-04-01T16:55:52.000",
    "request_status": "Pending",
    "responsible_agency": "Sewerage & Water Board ",
    "final_address": "2302 St Charles Ave",
    "address_councildis": "B",
    "status": "Pending",
    "rowid": "1180508",
    "final_x": "3677312.92398",
    "final_y": "523352.739387",
    "longitude": "-90.08157333968319",
    "latitude": "29.9331648882939",
    "geocoded_column": {
      "latitude": "29.9331648882939",
      "longitude": "-90.08157333968319"
    }
  },
  {
    "service_request": "2025-1180507",
    "request_type": "Abandoned Vehicles",
    "request_reason": "Abandoned/Junk Vehicles",
    "date_created": "2025-04-01T16:53:34.000",
    "date_modified": "2025-04-01T16:53:36.000",
    "request_status": "Pending",
    "responsible_agency": "Department of Public Works",
    "final_address": "4759 Lancelot Dr",
    "address_councildis": "E",
    "status": "Pending",
    "rowid": "1180507",
    "final_x": "3707509.38014",
    "final_y": "555619.371097",
    "longitude": "-89.98504737751519",
    "latitude": "30.02094459126342",
    "geocoded_column": {
      "latitude": "30.02094459126342",
      "longitude": "-89.98504737751519"
    }
  },
  {
    "service_request": "2025-1180506",
    "request_type": "Drainage",
    "request_reason": "Catch Basin Clogged",
    "date_created": "2025-04-01T16:50:28.000",
    "date_modified": "2025-04-01T16:50:30.000",
    "request_status": "Pending",
    "responsible_agency": "Sewerage & Water Board ",
    "final_address": "1735 St Charles Ave",
    "address_councildis": "B",
    "status": "Pending",
    "rowid": "1180506",
    "final_x": "3678639.17051",
    "final_y": "524748.987004",
    "longitude": "-90.07733815081768",
    "latitude": "29.936964204791312",
    "geocoded_column": {
      "latitude": "29.936964204791312",
      "longitude": "-90.07733815081768"
    }
  },
  {
    "service_request": "2025-1180505",
    "request_type": "Drainage",
    "request_reason": "Catch Basin Clogged",
    "date_created": "2025-04-01T16:44:32.000",
    "date_modified": "2025-04-01T16:44:33.000",
    "request_status": "Pending",
    "responsible_agency": "Sewerage & Water Board ",
    "final_address": "2203 St Charles Ave",
    "address_councildis": "B",
    "status": "Pending",
    "rowid": "1180505",
    "final_x": "3677495.31573",
    "final_y": "523719.503355",
    "longitude": "-90.08098488602423",
    "latitude": "29.934167889032192",
    "geocoded_column": {
      "latitude": "29.934167889032192",
      "longitude": "-90.08098488602423"
    }
  },
  {
    "service_request": "2025-1180504",
    "request_type": "Trash/Recycling",
    "request_reason": "Request a Large Item Pick Up",
    "date_created": "2025-04-01T16:43:10.000",
    "date_modified": "2025-04-01T16:43:12.000",
    "request_status": "Pending",
    "responsible_agency": "Department of Sanitation",
    "final_address": "2912 Baronne St",
    "address_councildis": "B",
    "status": "Assigned to Contractor",
    "contractor": "IV Waste",
    "rowid": "1180504",
    "final_x": "3675000.76161",
    "final_y": "522768.710906",
    "longitude": "-90.08889271569802",
    "latitude": "29.93162825113957",
    "geocoded_column": {
      "latitude": "29.93162825113957",
      "longitude": "-90.08889271569802"
    }
  },
  {
    "service_request": "2025-1180503",
    "request_type": "Trash/Recycling",
    "request_reason": "Request a Large Item Pick Up",
    "date_created": "2025-04-01T16:40:48.000",
    "date_modified": "2025-04-01T16:40:51.000",
    "request_status": "Pending",
    "responsible_agency": "Department of Sanitation",
    "final_address": "2827 Laurel St",
    "address_councildis": "B",
    "status": "Assigned to Contractor",
    "contractor": "IV Waste",
    "rowid": "1180503",
    "final_x": "3677239.35918",
    "final_y": "520107.126392",
    "longitude": "-90.08191748149147",
    "latitude": "29.924242718814888",
    "geocoded_column": {
      "latitude": "29.924242718814888",
      "longitude": "-90.08191748149147"
    }
  },
  {
    "service_request": "2025-1180502",
    "request_type": "Abandoned Vehicles",
    "request_reason": "Abandoned/Junk Vehicles",
    "date_created": "2025-04-01T16:40:34.000",
    "date_modified": "2025-04-01T16:41:58.000",
    "request_status": "Pending",
    "responsible_agency": "Department of Public Works",
    "final_address": "2400 BLK Urquhart St",
    "address_councildis": "C",
    "status": "Inspected",
    "rowid": "1180502",
    "final_x": "3686630.68773",
    "final_y": "537174.744664",
    "longitude": "-90.05166977259066",
    "latitude": "29.97088749482962",
    "geocoded_column": {
      "latitude": "29.97088749482962",
      "longitude": "-90.05166977259066"
    }
  },
  {
    "service_request": "2025-1180501",
    "request_type": "Trash/Recycling",
    "request_reason": "Order Trash Cart",
    "date_created": "2025-04-01T16:38:53.000",
    "date_modified": "2025-04-01T16:38:55.000",
    "request_status": "Pending",
    "responsible_agency": "Department of Sanitation",
    "final_address": "4404 S Carrollton Ave",
    "address_councildis": "A",
    "status": "Assigned to Contractor",
    "contractor": "IV Waste",
    "rowid": "1180501",
    "final_x": "3670149.01121",
    "final_y": "537126.68212",
    "longitude": "-90.10372277173397",
    "latitude": "29.97125195436139",
    "geocoded_column": {
      "latitude": "29.97125195436139",
      "longitude": "-90.10372277173397"
    }
  },
  {
    "service_request": "2025-1180500",
    "request_type": "Roads and Streets",
    "request_reason": "Street Subsidence (Sinking)",
    "date_created": "2025-04-01T16:38:49.000",
    "date_modified": "2025-04-01T16:38:51.000",
    "request_status": "Pending",
    "responsible_agency": "Department of Public Works",
    "final_address": "ALBERT ST & PATTERSON DR",
    "address_councildis": "C",
    "status": "Pending",
    "rowid": "1180500",
    "final_x": "3712050.3",
    "final_y": "519024.18",
    "longitude": "-89.97207320912692",
    "latitude": "29.92017372275242",
    "geocoded_column": {
      "latitude": "29.92017372275242",
      "longitude": "-89.97207320912692"
    }
  },
  {
    "service_request": "2025-1180499",
    "request_type": "Trash/Recycling",
    "request_reason": "Repair Trash Cart",
    "date_created": "2025-04-01T16:37:05.000",
    "date_modified": "2025-04-01T16:37:08.000",
    "request_status": "Pending",
    "responsible_agency": "Department of Sanitation",
    "final_address": "7000 Beauvoir Ct",
    "address_councildis": "E",
    "status": "Assigned to Contractor",
    "contractor": "Waste Pro",
    "rowid": "1180499",
    "final_x": "3716773.0053",
    "final_y": "567068.267492",
    "longitude": "-89.95534229594888",
    "latitude": "30.052121462938644",
    "geocoded_column": {
      "latitude": "30.052121462938644",
      "longitude": "-89.95534229594888"
    }
  },
  {
    "service_request": "2025-1180498",
    "request_type": "Roads and Streets",
    "request_reason": "Street Subsidence (Sinking)",
    "date_created": "2025-04-01T16:28:36.000",
    "date_modified": "2025-04-01T16:29:46.000",
    "request_status": "Pending",
    "responsible_agency": "Department of Public Works",
    "final_address": "524 St Louis St",
    "address_councildis": "C",
    "status": "Pending",
    "rowid": "1180498",
    "final_x": "3682522.079",
    "final_y": "531517.938819",
    "longitude": "-90.06484303941473",
    "latitude": "29.95545894291065",
    "geocoded_column": {
      "latitude": "29.95545894291065",
      "longitude": "-90.06484303941473"
    }
  },
  {
    "service_request": "2025-1180497",
    "request_type": "Abandoned Vehicles",
    "request_reason": "Abandoned/Junk Vehicles",
    "date_created": "2025-04-01T16:28:34.000",
    "date_modified": "2025-04-01T16:28:36.000",
    "request_status": "Pending",
    "responsible_agency": "Department of Public Works",
    "final_address": "1240 Arts St",
    "address_councildis": "C",
    "status": "Pending",
    "rowid": "1180497",
    "final_x": "3687101.55023",
    "final_y": "537166.883528",
    "longitude": "-90.05018301062427",
    "latitude": "29.970851389267487",
    "geocoded_column": {
      "latitude": "29.970851389267487",
      "longitude": "-90.05018301062427"
    }
  },
  {
    "service_request": "2025-1180496",
    "request_type": "Trash/Recycling",
    "request_reason": "Replace Trash Cart",
    "date_created": "2025-04-01T16:25:25.000",
    "date_modified": "2025-04-01T16:25:28.000",
    "request_status": "Pending",
    "responsible_agency": "Department of Sanitation",
    "final_address": "3134 N Rocheblave St",
    "address_councildis": "D",
    "status": "Assigned to Contractor",
    "contractor": "IV Waste",
    "rowid": "1180496",
    "final_x": "3690491.25481",
    "final_y": "540780.493835",
    "longitude": "-90.0393490572733",
    "latitude": "29.98068272654135",
    "geocoded_column": {
      "latitude": "29.98068272654135",
      "longitude": "-90.0393490572733"
    }
  },
  {
    "service_request": "2025-1180495",
    "request_type": "Property Maintenance",
    "request_reason": "Property Maintenance",
    "date_created": "2025-04-01T16:22:21.000",
    "date_modified": "2025-04-01T16:22:23.000",
    "request_status": "Pending",
    "responsible_agency": "Department of Code Enforcement",
    "final_address": "1900 Dumaine St",
    "address_councildis": "D",
    "status": "Pending",
    "rowid": "1180495",
    "final_x": "3679583.01826",
    "final_y": "535614.74279",
    "longitude": "-90.0739813528803",
    "latitude": "29.966812899505744",
    "geocoded_column": {
      "latitude": "29.966812899505744",
      "longitude": "-90.0739813528803"
    }
  },
  {
    "service_request": "2025-1180494",
    "request_type": "Trash/Recycling",
    "request_reason": "Request a Large Item Pick Up",
    "date_created": "2025-04-01T16:21:24.000",
    "date_modified": "2025-04-01T16:21:27.000",
    "request_status": "Pending",
    "responsible_agency": "Department of Sanitation",
    "final_address": "8652 Dinkins St",
    "address_councildis": "E",
    "status": "Assigned to Contractor",
    "contractor": "Waste Pro",
    "rowid": "1180494",
    "final_x": "3704104.00215",
    "final_y": "563055.529696",
    "longitude": "-89.99553298473056",
    "latitude": "30.041500866009475",
    "geocoded_column": {
      "latitude": "30.041500866009475",
      "longitude": "-89.99553298473056"
    }
  },
  {
    "service_request": "2025-1180493",
    "request_type": "Trash/Recycling",
    "request_reason": "Order Recycling Cart",
    "date_created": "2025-04-01T16:13:07.000",
    "date_modified": "2025-04-01T16:13:09.000",
    "request_status": "Pending",
    "responsible_agency": "Department of Sanitation",
    "final_address": "1941 Laurel St",
    "address_councildis": "B",
    "status": "Pending",
    "rowid": "1180493",
    "final_x": "3680088.61314",
    "final_y": "522161.65913",
    "longitude": "-90.07285203954959",
    "latitude": "29.92980614010289",
    "geocoded_column": {
      "latitude": "29.92980614010289",
      "longitude": "-90.07285203954959"
    }
  },
  {
    "service_request": "2025-1180492",
    "request_type": "Trash/Recycling",
    "request_reason": "Repair Trash Cart",
    "date_created": "2025-04-01T16:12:34.000",
    "date_modified": "2025-04-01T16:12:36.000",
    "request_status": "Pending",
    "responsible_agency": "Department of Sanitation",
    "final_address": "7928 Mackenzie St",
    "address_councildis": "E",
    "status": "Assigned to Contractor",
    "contractor": "Waste Pro",
    "rowid": "1180492",
    "final_x": "3710322.12849",
    "final_y": "567068.034276",
    "longitude": "-89.97573139276935",
    "latitude": "30.052332554180254",
    "geocoded_column": {
      "latitude": "30.052332554180254",
      "longitude": "-89.97573139276935"
    }
  },
  {
    "service_request": "2025-1180491",
    "request_type": "Trash/Recycling",
    "request_reason": "Missed Trash Pick-Up",
    "date_created": "2025-04-01T16:11:47.000",
    "date_modified": "2025-04-01T16:11:49.000",
    "request_status": "Pending",
    "responsible_agency": "Department of Sanitation",
    "final_address": "7928 Mackenzie St",
    "address_councildis": "E",
    "status": "Assigned to Contractor",
    "contractor": "Waste Pro",
    "rowid": "1180491",
    "final_x": "3710322.12849",
    "final_y": "567068.034276",
    "longitude": "-89.97573139276935",
    "latitude": "30.052332554180254",
    "geocoded_column": {
      "latitude": "30.052332554180254",
      "longitude": "-89.97573139276935"
    }
  },
  {
    "service_request": "2025-1180490",
    "request_type": "Trash/Recycling",
    "request_reason": "Request a Large Item Pick Up",
    "date_created": "2025-04-01T16:11:11.000",
    "date_modified": "2025-04-01T16:11:13.000",
    "request_status": "Pending",
    "responsible_agency": "Department of Sanitation",
    "final_address": "2128 Comet St",
    "address_councildis": "C",
    "status": "Assigned to Contractor",
    "contractor": "Richards Disposal",
    "rowid": "1180490",
    "final_x": "3700278.05149",
    "final_y": "523182.154555",
    "longitude": "-90.00908065263856",
    "latitude": "29.93198602582137",
    "geocoded_column": {
      "latitude": "29.93198602582137",
      "longitude": "-90.00908065263856"
    }
  },
  {
    "service_request": "2025-1180489",
    "request_type": "Roads and Streets",
    "request_reason": "Street Subsidence (Sinking)",
    "date_created": "2025-04-01T16:10:30.000",
    "date_modified": "2025-04-01T16:10:32.000",
    "request_status": "Pending",
    "responsible_agency": "Department of Public Works",
    "final_address": "ST LOUIS ST & DECATUR ST & N PETERS ST",
    "address_councildis": "C",
    "status": "Pending",
    "rowid": "1180489",
    "final_x": "3682715.5",
    "final_y": "531406.18",
    "longitude": "-90.06423619496569",
    "latitude": "29.955145755038536",
    "geocoded_column": {
      "latitude": "29.955145755038536",
      "longitude": "-90.06423619496569"
    }
  },
  {
    "service_request": "2025-1180488",
    "request_type": "Trash/Recycling",
    "request_reason": "Order Recycling Cart",
    "date_created": "2025-04-01T16:09:59.000",
    "date_modified": "2025-04-01T16:10:02.000",
    "request_status": "Pending",
    "responsible_agency": "Department of Sanitation",
    "final_address": "4965 Debore Cir",
    "address_councildis": "D",
    "status": "Pending",
    "rowid": "1180488",
    "final_x": "3692391.42934",
    "final_y": "552660.392854",
    "longitude": "-90.03292166549808",
    "latitude": "30.013288972911898",
    "geocoded_column": {
      "latitude": "30.013288972911898",
      "longitude": "-90.03292166549808"
    }
  },
  {
    "service_request": "2025-1180487",
    "request_type": "Traffic Signals",
    "request_reason": "Traffic Signal Malfunctioning or Damaged",
    "date_created": "2025-04-01T16:08:35.000",
    "date_modified": "2025-04-01T16:12:21.000",
    "request_status": "Pending",
    "responsible_agency": "Department of Public Works",
    "final_address": "4800 BLK Bienville Ave",
    "address_councildis": "A",
    "status": "Pending",
    "rowid": "1180487",
    "final_x": "3669140.33622",
    "final_y": "540796.581252",
    "longitude": "-90.10678425241508",
    "latitude": "29.981372664215662",
    "geocoded_column": {
      "latitude": "29.981372664215662",
      "longitude": "-90.10678425241508"
    }
  },
  {
    "service_request": "2025-1180486",
    "request_type": "Trash/Recycling",
    "request_reason": "Order Trash Cart",
    "date_created": "2025-04-01T16:06:38.000",
    "date_modified": "2025-04-01T16:06:40.000",
    "request_status": "Pending",
    "responsible_agency": "Department of Sanitation",
    "final_address": "6364 Louis Xiv St",
    "address_councildis": "A",
    "status": "Assigned to Contractor",
    "contractor": "IV Waste",
    "rowid": "1180486",
    "final_x": "3668261.33485",
    "final_y": "549873.25922",
    "longitude": "-90.1092542927505",
    "latitude": "30.006356253158728",
    "geocoded_column": {
      "latitude": "30.006356253158728",
      "longitude": "-90.1092542927505"
    }
  },
  {
    "service_request": "2025-1180485",
    "request_type": "Trash/Recycling",
    "request_reason": "Request a Large Item Pick Up",
    "date_created": "2025-04-01T16:06:24.000",
    "date_modified": "2025-04-01T16:08:01.000",
    "request_status": "Pending",
    "responsible_agency": "Department of Sanitation",
    "final_address": "7600 Forum Blvd",
    "address_councildis": "E",
    "status": "Assigned to Contractor",
    "contractor": "Waste Pro",
    "rowid": "1180485",
    "final_x": "3720290.97119",
    "final_y": "572993.773673",
    "longitude": "-89.94399612020014",
    "latitude": "30.06829733106004",
    "geocoded_column": {
      "latitude": "30.06829733106004",
      "longitude": "-89.94399612020014"
    }
  },
  {
    "service_request": "2025-1180484",
    "request_type": "Property Maintenance",
    "request_reason": "Property Maintenance",
    "date_created": "2025-04-01T16:06:10.000",
    "date_modified": "2025-04-01T16:06:12.000",
    "request_status": "Pending",
    "responsible_agency": "Department of Code Enforcement",
    "final_address": "11100 BLK Morrison Rd",
    "address_councildis": "E",
    "status": "Pending",
    "rowid": "1180484",
    "final_x": "3711482.27188",
    "final_y": "565261.284291",
    "longitude": "-89.97213239575095",
    "latitude": "30.047326877747395",
    "geocoded_column": {
      "latitude": "30.047326877747395",
      "longitude": "-89.97213239575095"
    }
  },
  {
    "service_request": "2025-1180483",
    "request_type": "Trash/Recycling",
    "request_reason": "Request a Large Item Pick Up",
    "date_created": "2025-04-01T16:04:20.000",
    "date_modified": "2025-04-01T16:04:21.000",
    "request_status": "Pending",
    "responsible_agency": "Department of Sanitation",
    "final_address": "4135 Prytania St",
    "address_councildis": "B",
    "status": "Assigned to Contractor",
    "contractor": "IV Waste",
    "rowid": "1180483",
    "final_x": "3671717.68353",
    "final_y": "520447.069176",
    "longitude": "-90.09933596903022",
    "latitude": "29.925342115335056",
    "geocoded_column": {
      "latitude": "29.925342115335056",
      "longitude": "-90.09933596903022"
    }
  },
  {
    "service_request": "2025-1180482",
    "request_type": "Abandoned Vehicles",
    "request_reason": "Abandoned/Junk Vehicles",
    "date_created": "2025-04-01T16:03:20.000",
    "date_modified": "2025-04-01T16:03:21.000",
    "request_status": "Pending",
    "responsible_agency": "Department of Public Works",
    "final_address": "11100 BLK Morrison Rd",
    "address_councildis": "E",
    "status": "Pending",
    "rowid": "1180482",
    "final_x": "3711482.27188",
    "final_y": "565261.284291",
    "longitude": "-89.97213239575095",
    "latitude": "30.047326877747395",
    "geocoded_column": {
      "latitude": "30.047326877747395",
      "longitude": "-89.97213239575095"
    }
  },
  {
    "service_request": "2025-1180481",
    "request_type": "Trash/Recycling",
    "request_reason": "Order Second Trash Cart",
    "date_created": "2025-04-01T16:02:50.000",
    "date_modified": "2025-04-01T16:02:51.000",
    "request_status": "Pending",
    "responsible_agency": "Department of Sanitation",
    "final_address": "710 Poland Ave",
    "address_councildis": "C",
    "status": "Assigned to Contractor",
    "contractor": "IV Waste",
    "rowid": "1180481",
    "final_x": "3692608.42774",
    "final_y": "533630.574853",
    "longitude": "-90.03291841660752",
    "latitude": "29.960957072647826",
    "geocoded_column": {
      "latitude": "29.960957072647826",
      "longitude": "-90.03291841660752"
    }
  },
  {
    "service_request": "2025-1180480",
    "request_type": "Abandoned Vehicles",
    "request_reason": "Abandoned/Junk Vehicles",
    "date_created": "2025-04-01T15:59:24.000",
    "date_modified": "2025-04-01T15:59:26.000",
    "request_status": "Pending",
    "responsible_agency": "Department of Public Works",
    "final_address": "11100 BLK Morrison Rd",
    "address_councildis": "E",
    "status": "Pending",
    "rowid": "1180480",
    "final_x": "3711482.27188",
    "final_y": "565261.284291",
    "longitude": "-89.97213239575095",
    "latitude": "30.047326877747395",
    "geocoded_column": {
      "latitude": "30.047326877747395",
      "longitude": "-89.97213239575095"
    }
  },
  {
    "service_request": "2025-1180479",
    "request_type": "Mosquito, Termite & Rodent Control",
    "request_reason": "Mosquito Complaint",
    "date_created": "2025-04-01T15:57:31.000",
    "date_modified": "2025-04-01T15:57:33.000",
    "request_status": "Pending",
    "responsible_agency": "Mosquito, Termite & Rodent Control Board",
    "final_address": "8019 Bass St",
    "address_councildis": "E",
    "status": "Pending",
    "rowid": "1180479",
    "final_x": "3719338.77042",
    "final_y": "574507.397227",
    "longitude": "-89.9469482978209",
    "latitude": "30.07249086831117",
    "geocoded_column": {
      "latitude": "30.07249086831117",
      "longitude": "-89.9469482978209"
    }
  },
  {
    "service_request": "2025-1180478",
    "request_type": "Trash/Recycling",
    "request_reason": "Request a Large Item Pick Up",
    "date_created": "2025-04-01T15:56:01.000",
    "date_modified": "2025-04-01T15:56:02.000",
    "request_status": "Pending",
    "responsible_agency": "Department of Sanitation",
    "final_address": "729 Burgundy St",
    "address_councildis": "C",
    "status": "Assigned to Contractor",
    "contractor": "IV Waste",
    "rowid": "1180478",
    "final_x": "3681824.31426",
    "final_y": "533341.578948",
    "longitude": "-90.06698268645985",
    "latitude": "29.960494554058187",
    "geocoded_column": {
      "latitude": "29.960494554058187",
      "longitude": "-90.06698268645985"
    }
  },
  {
    "service_request": "2025-1180477",
    "request_type": "Streetlights",
    "request_reason": "Streetlight Outage/Malfunction",
    "date_created": "2025-04-01T15:55:01.000",
    "date_modified": "2025-04-01T15:55:10.000",
    "request_status": "Pending",
    "responsible_agency": "Department of Public Works",
    "final_address": "129 N Genois St",
    "address_councildis": "B",
    "status": "Pending",
    "contractor": "Legacy Professional Services",
    "rowid": "1180477",
    "final_x": "3672765.09147",
    "final_y": "537485.606088",
    "longitude": "-90.09544856602389",
    "latitude": "29.972161422386442",
    "geocoded_column": {
      "latitude": "29.972161422386442",
      "longitude": "-90.09544856602389"
    }
  },
  {
    "service_request": "2025-1180476",
    "request_type": "Trash/Recycling",
    "request_reason": "Request a Large Item Pick Up",
    "date_created": "2025-04-01T15:54:58.000",
    "date_modified": "2025-04-01T15:55:00.000",
    "request_status": "Pending",
    "responsible_agency": "Department of Sanitation",
    "final_address": "1757 Pace Blvd",
    "address_councildis": "C",
    "status": "Assigned to Contractor",
    "contractor": "Richards Disposal",
    "rowid": "1180476",
    "final_x": "3694220.83389",
    "final_y": "524119.361084",
    "longitude": "-90.0281688709691",
    "latitude": "29.934754120176102",
    "geocoded_column": {
      "latitude": "29.934754120176102",
      "longitude": "-90.0281688709691"
    }
  },
  {
    "service_request": "2025-1180475",
    "request_type": "Roads and Streets",
    "request_reason": "Push-up/Pavement Expansion",
    "date_created": "2025-04-01T15:51:16.000",
    "date_modified": "2025-04-01T15:51:17.000",
    "request_status": "Pending",
    "responsible_agency": "Department of Public Works",
    "final_address": "2100 BLK Gentilly Blvd",
    "address_councildis": "D",
    "status": "Pending",
    "rowid": "1180475",
    "final_x": "3680550.06242",
    "final_y": "544322.765473",
    "longitude": "-90.07062438333936",
    "latitude": "29.99072767629497",
    "geocoded_column": {
      "latitude": "29.99072767629497",
      "longitude": "-90.07062438333936"
    }
  },
  {
    "service_request": "2025-1180474",
    "request_type": "Trash/Recycling",
    "request_reason": "Request a Large Item Pick Up",
    "date_created": "2025-04-01T15:48:19.000",
    "date_modified": "2025-04-01T15:48:21.000",
    "request_status": "Pending",
    "responsible_agency": "Department of Sanitation",
    "final_address": "708 Thayer St",
    "address_councildis": "C",
    "status": "Assigned to Contractor",
    "contractor": "Richards Disposal",
    "rowid": "1180474",
    "final_x": "3689534.17615",
    "final_y": "528912.367808",
    "longitude": "-90.04279410376016",
    "latitude": "29.94807921014022",
    "geocoded_column": {
      "latitude": "29.94807921014022",
      "longitude": "-90.04279410376016"
    }
  },
  {
    "service_request": "2025-1180473",
    "request_type": "Trash/Recycling",
    "request_reason": "Repair Trash Cart",
    "date_created": "2025-04-01T15:45:11.000",
    "date_modified": "2025-04-01T15:45:13.000",
    "request_status": "Pending",
    "responsible_agency": "Department of Sanitation",
    "final_address": "616 N Olympia St",
    "address_councildis": "A",
    "status": "Assigned to Contractor",
    "contractor": "IV Waste",
    "rowid": "1180473",
    "final_x": "3670624.43873",
    "final_y": "541147.969548",
    "longitude": "-90.10208483788853",
    "latitude": "29.982295096879756",
    "geocoded_column": {
      "latitude": "29.982295096879756",
      "longitude": "-90.10208483788853"
    }
  },
  {
    "service_request": "2025-1180472",
    "request_type": "Trash/Recycling",
    "request_reason": "MIssed Recycling Pick-Up",
    "date_created": "2025-04-01T15:44:42.000",
    "date_modified": "2025-04-01T16:49:15.000",
    "request_status": "Pending",
    "responsible_agency": "Department of Sanitation",
    "final_address": "2300 Bienville Ave",
    "address_councildis": "B",
    "status": "Assigned to Contractor",
    "contractor": "IV Waste",
    "rowid": "1180472",
    "final_x": "3677097.55432",
    "final_y": "534677.650246",
    "longitude": "-90.08186276958943",
    "latitude": "29.964311090905422",
    "geocoded_column": {
      "latitude": "29.964311090905422",
      "longitude": "-90.08186276958943"
    }
  },
  {
    "service_request": "2025-1180471",
    "request_type": "Trash/Recycling",
    "request_reason": "Request a Large Item Pick Up",
    "date_created": "2025-04-01T15:42:43.000",
    "date_modified": "2025-04-01T15:42:45.000",
    "request_status": "Pending",
    "responsible_agency": "Department of Sanitation",
    "final_address": "7810 Newcastle St",
    "address_councildis": "E",
    "status": "Assigned to Contractor",
    "contractor": "Waste Pro",
    "rowid": "1180471",
    "final_x": "3696959.17405",
    "final_y": "559847.104605",
    "longitude": "-90.01822949150274",
    "latitude": "30.03290636868807",
    "geocoded_column": {
      "latitude": "30.03290636868807",
      "longitude": "-90.01822949150274"
    }
  },
  {
    "service_request": "2025-1180470",
    "request_type": "Trash/Recycling",
    "request_reason": "Replace Trash Cart",
    "date_created": "2025-04-01T15:42:36.000",
    "date_modified": "2025-04-01T15:42:39.000",
    "request_status": "Pending",
    "responsible_agency": "Department of Sanitation",
    "final_address": "14251 Dwyer Blvd",
    "address_councildis": "E",
    "status": "Assigned to Contractor",
    "contractor": "Waste Pro",
    "rowid": "1180470",
    "final_x": "3729377.31379",
    "final_y": "563316.282528",
    "longitude": "-89.91565122035415",
    "latitude": "30.041382270307285",
    "geocoded_column": {
      "latitude": "30.041382270307285",
      "longitude": "-89.91565122035415"
    }
  },
  {
    "service_request": "2025-1180469",
    "request_type": "Mosquito, Termite & Rodent Control",
    "request_reason": "Rodent Complaint (Rats)",
    "date_created": "2025-04-01T15:42:20.000",
    "date_modified": "2025-04-01T15:42:21.000",
    "request_status": "Pending",
    "responsible_agency": "Mosquito, Termite & Rodent Control Board",
    "final_address": "2713 Dryades St",
    "address_councildis": "B",
    "status": "Pending",
    "rowid": "1180469",
    "final_x": "3675462.69185",
    "final_y": "523572.089787",
    "longitude": "-90.08740687642917",
    "latitude": "29.933823478885976",
    "geocoded_column": {
      "latitude": "29.933823478885976",
      "longitude": "-90.08740687642917"
    }
  },
  {
    "service_request": "2025-1180468",
    "request_type": "Trash/Recycling",
    "request_reason": "Request a Large Item Pick Up",
    "date_created": "2025-04-01T15:41:46.000",
    "date_modified": "2025-04-01T15:41:48.000",
    "request_status": "Pending",
    "responsible_agency": "Department of Sanitation",
    "final_address": "81 Allard Blvd",
    "address_councildis": "A",
    "status": "Assigned to Contractor",
    "contractor": "IV Waste",
    "rowid": "1180468",
    "final_x": "3672756.03553",
    "final_y": "540322.265867",
    "longitude": "-90.09538037799916",
    "latitude": "29.979961541595568",
    "geocoded_column": {
      "latitude": "29.979961541595568",
      "longitude": "-90.09538037799916"
    }
  },
  {
    "service_request": "2025-1180467",
    "request_type": "Abandoned Vehicles",
    "request_reason": "Abandoned/Junk Vehicles",
    "date_created": "2025-04-01T15:40:24.000",
    "date_modified": "2025-04-01T15:40:26.000",
    "request_status": "Pending",
    "responsible_agency": "Department of Public Works",
    "final_address": "7420 Fieldston Rd",
    "address_councildis": "E",
    "status": "Pending",
    "rowid": "1180467",
    "final_x": "3700606.5946",
    "final_y": "560022.010333",
    "longitude": "-90.00669698748251",
    "latitude": "30.033271681931886",
    "geocoded_column": {
      "latitude": "30.033271681931886",
      "longitude": "-90.00669698748251"
    }
  },
  {
    "service_request": "2025-1180466",
    "request_type": "Trash/Recycling",
    "request_reason": "Request a Large Item Pick Up",
    "date_created": "2025-04-01T15:39:21.000",
    "date_modified": "2025-04-01T15:39:22.000",
    "request_status": "Pending",
    "responsible_agency": "Department of Sanitation",
    "final_address": "4783 Lancelot Dr",
    "address_councildis": "E",
    "status": "Assigned to Contractor",
    "contractor": "Waste Pro",
    "rowid": "1180466",
    "final_x": "3707491.54142",
    "final_y": "555797.698329",
    "longitude": "-89.98509711235381",
    "latitude": "30.02143549900781",
    "geocoded_column": {
      "latitude": "30.02143549900781",
      "longitude": "-89.98509711235381"
    }
  },
  {
    "service_request": "2025-1180465",
    "request_type": "Trash/Recycling",
    "request_reason": "Order Recycling Cart",
    "date_created": "2025-04-01T15:39:20.000",
    "date_modified": "2025-04-01T15:40:59.000",
    "request_status": "Pending",
    "responsible_agency": "Department of Sanitation",
    "final_address": "100 Berkley Dr",
    "address_councildis": "C",
    "status": "Pending",
    "rowid": "1180465",
    "final_x": "3705581.19825",
    "final_y": "518235.600822",
    "longitude": "-89.9925220344475",
    "latitude": "29.918215138528716",
    "geocoded_column": {
      "latitude": "29.918215138528716",
      "longitude": "-89.9925220344475"
    }
  },
  {
    "service_request": "2025-1180464",
    "request_type": "Abandoned Vehicles",
    "request_reason": "Abandoned/Junk Vehicles",
    "date_created": "2025-04-01T15:38:20.000",
    "date_modified": "2025-04-01T15:38:22.000",
    "request_status": "Pending",
    "responsible_agency": "Department of Public Works",
    "final_address": "7410 Fieldston Rd",
    "address_councildis": "E",
    "status": "Pending",
    "rowid": "1180464",
    "final_x": "3700621.53962",
    "final_y": "559971.032349",
    "longitude": "-90.00665162519884",
    "latitude": "30.033131036466578",
    "geocoded_column": {
      "latitude": "30.033131036466578",
      "longitude": "-90.00665162519884"
    }
  },
  {
    "service_request": "2025-1180463",
    "request_type": "Trash/Recycling",
    "request_reason": "Repair Trash Cart",
    "date_created": "2025-04-01T15:38:16.000",
    "date_modified": "2025-04-01T15:38:18.000",
    "request_status": "Pending",
    "responsible_agency": "Department of Sanitation",
    "final_address": "3116 Bennett St",
    "address_councildis": "C",
    "status": "Assigned to Contractor",
    "contractor": "Richards Disposal",
    "rowid": "1180463",
    "final_x": "3710583.28683",
    "final_y": "519162.985655",
    "longitude": "-89.97669863635045",
    "latitude": "29.920603229591727",
    "geocoded_column": {
      "latitude": "29.920603229591727",
      "longitude": "-89.97669863635045"
    }
  },
  {
    "service_request": "2025-1180462",
    "request_type": "Trash/Recycling",
    "request_reason": "Request a Large Item Pick Up",
    "date_created": "2025-04-01T15:35:31.000",
    "date_modified": "2025-04-01T15:35:33.000",
    "request_status": "Pending",
    "responsible_agency": "Department of Sanitation",
    "final_address": "5360 Chestnut St",
    "address_councildis": "B",
    "status": "Assigned to Contractor",
    "contractor": "IV Waste",
    "rowid": "1180462",
    "final_x": "3667092.52199",
    "final_y": "519384.759735",
    "longitude": "-90.11397189037513",
    "latitude": "29.922557250929447",
    "geocoded_column": {
      "latitude": "29.922557250929447",
      "longitude": "-90.11397189037513"
    }
  },
  {
    "service_request": "2025-1180461",
    "request_type": "Mosquito, Termite & Rodent Control",
    "request_reason": "Non-Rodent Complaint (Possums & Snakes)",
    "date_created": "2025-04-01T15:30:55.000",
    "date_modified": "2025-04-01T15:30:57.000",
    "request_status": "Pending",
    "responsible_agency": "Mosquito, Termite & Rodent Control Board",
    "final_address": "8837 Apple St",
    "address_councildis": "A",
    "status": "Pending",
    "rowid": "1180461",
    "final_x": "3663343.23245",
    "final_y": "533988.692165",
    "longitude": "-90.12532094469854",
    "latitude": "29.96282257535492",
    "geocoded_column": {
      "latitude": "29.96282257535492",
      "longitude": "-90.12532094469854"
    }
  },
  {
    "service_request": "2025-1180460",
    "request_type": "Property Maintenance",
    "request_reason": "Property Maintenance",
    "date_created": "2025-04-01T15:29:10.000",
    "date_modified": "2025-04-01T15:31:35.000",
    "request_status": "Pending",
    "responsible_agency": "Department of Code Enforcement",
    "final_address": "8837 Apple St",
    "address_councildis": "A",
    "status": "Pending",
    "rowid": "1180460",
    "final_x": "3663343.23245",
    "final_y": "533988.692165",
    "longitude": "-90.12532094469854",
    "latitude": "29.96282257535492",
    "geocoded_column": {
      "latitude": "29.96282257535492",
      "longitude": "-90.12532094469854"
    }
  },
  {
    "service_request": "2025-1180459",
    "request_type": "Trash/Recycling",
    "request_reason": "Repair Recycling Cart",
    "date_created": "2025-04-01T15:27:06.000",
    "date_modified": "2025-04-01T15:27:08.000",
    "request_status": "Pending",
    "responsible_agency": "Department of Sanitation",
    "final_address": "18 Castle Pines Dr",
    "address_councildis": "C",
    "status": "Pending",
    "rowid": "1180459",
    "final_x": "3719523.85906",
    "final_y": "511382.480368",
    "longitude": "-89.94877451531495",
    "latitude": "29.898915519272123",
    "geocoded_column": {
      "latitude": "29.898915519272123",
      "longitude": "-89.94877451531495"
    }
  },
  {
    "service_request": "2025-1180458",
    "request_type": "Trash/Recycling",
    "request_reason": "Request a Large Item Pick Up",
    "date_created": "2025-04-01T15:26:23.000",
    "date_modified": "2025-04-01T15:26:25.000",
    "request_status": "Pending",
    "responsible_agency": "Department of Sanitation",
    "final_address": "6558 Catina St",
    "address_councildis": "A",
    "status": "Assigned to Contractor",
    "contractor": "IV Waste",
    "rowid": "1180458",
    "final_x": "3666940.19501",
    "final_y": "551337.365589",
    "longitude": "-90.11337887241194",
    "latitude": "30.010420776243198",
    "geocoded_column": {
      "latitude": "30.010420776243198",
      "longitude": "-90.11337887241194"
    }
  },
  {
    "service_request": "2025-1180457",
    "request_type": "Trash/Recycling",
    "request_reason": "Request a Large Item Pick Up",
    "date_created": "2025-04-01T15:26:11.000",
    "date_modified": "2025-04-01T15:26:13.000",
    "request_status": "Pending",
    "responsible_agency": "Department of Sanitation",
    "final_address": "5816 Tullis Dr",
    "address_councildis": "C",
    "status": "Assigned to Contractor",
    "contractor": "Richards Disposal",
    "rowid": "1180457",
    "final_x": "3705472.57771",
    "final_y": "513073.636401",
    "longitude": "-89.99305547143246",
    "latitude": "29.904025004238925",
    "geocoded_column": {
      "latitude": "29.904025004238925",
      "longitude": "-89.99305547143246"
    }
  },
  {
    "service_request": "2025-1180456",
    "request_type": "Streetlights",
    "request_reason": "Streetlight Outage/Malfunction",
    "date_created": "2025-04-01T15:25:31.000",
    "date_modified": "2025-04-01T15:25:33.000",
    "request_status": "Pending",
    "responsible_agency": "Department of Public Works",
    "final_address": "3300 BLK Franklin Ave",
    "address_councildis": "D",
    "status": "Pending",
    "contractor": "Legacy Professional Services",
    "rowid": "1180456",
    "final_x": "3687237.46604",
    "final_y": "545343.11481",
    "longitude": "-90.04946445225484",
    "latitude": "29.993328941667176",
    "geocoded_column": {
      "latitude": "29.993328941667176",
      "longitude": "-90.04946445225484"
    }
  },
  {
    "service_request": "2025-1180455",
    "request_type": "Parks & Parkways",
    "request_reason": "Request Tree Service (Right of Way/Public Property)",
    "date_created": "2025-04-01T15:24:49.000",
    "date_modified": "2025-04-01T15:24:51.000",
    "request_status": "Pending",
    "responsible_agency": "Department of Parks & Parkway",
    "final_address": "2918 Cleveland Ave",
    "address_councildis": "B",
    "status": "Pending",
    "rowid": "1180455",
    "final_x": "3674146.59214",
    "final_y": "535438.365254",
    "longitude": "-90.09115564035716",
    "latitude": "29.966491092503556",
    "geocoded_column": {
      "latitude": "29.966491092503556",
      "longitude": "-90.09115564035716"
    }
  },
  {
    "service_request": "2025-1180454",
    "request_type": "Trash/Recycling",
    "request_reason": "Replace Trash Cart",
    "date_created": "2025-04-01T15:23:00.000",
    "date_modified": "2025-04-01T15:23:01.000",
    "request_status": "Pending",
    "responsible_agency": "Department of Sanitation",
    "final_address": "6020 Dover Pl",
    "address_councildis": "C",
    "status": "Assigned to Contractor",
    "contractor": "Richards Disposal",
    "rowid": "1180454",
    "final_x": "3706246.85847",
    "final_y": "519148.725495",
    "longitude": "-89.99038714154717",
    "latitude": "29.920704479730233",
    "geocoded_column": {
      "latitude": "29.920704479730233",
      "longitude": "-89.99038714154717"
    }
  },
  {
    "service_request": "2025-1180453",
    "request_type": "Trash/Recycling",
    "request_reason": "Request a Large Item Pick Up",
    "date_created": "2025-04-01T15:20:43.000",
    "date_modified": "2025-04-01T15:20:45.000",
    "request_status": "Pending",
    "responsible_agency": "Department of Sanitation",
    "final_address": "928 Picheloup Pl",
    "address_councildis": "A",
    "status": "Assigned to Contractor",
    "contractor": "IV Waste",
    "rowid": "1180453",
    "final_x": "3673662.37518",
    "final_y": "540470.250699",
    "longitude": "-90.09251271578353",
    "latitude": "29.980341493507478",
    "geocoded_column": {
      "latitude": "29.980341493507478",
      "longitude": "-90.09251271578353"
    }
  },
  {
    "service_request": "2025-1180452",
    "request_type": "Trash/Recycling",
    "request_reason": "Order Recycling Cart",
    "date_created": "2025-04-01T15:20:20.000",
    "date_modified": "2025-04-01T15:20:22.000",
    "request_status": "Pending",
    "responsible_agency": "Department of Sanitation",
    "final_address": "921 Joliet St",
    "address_councildis": "A",
    "status": "Pending",
    "rowid": "1180452",
    "final_x": "3660374.44486",
    "final_y": "528696.234304",
    "longitude": "-90.1348708521353",
    "latitude": "29.948355747029147",
    "geocoded_column": {
      "latitude": "29.948355747029147",
      "longitude": "-90.1348708521353"
    }
  },
  {
    "service_request": "2025-1180451",
    "request_type": "Abandoned Vehicles",
    "request_reason": "Abandoned/Junk Vehicles",
    "date_created": "2025-04-01T15:20:19.000",
    "date_modified": "2025-04-01T15:25:10.000",
    "request_status": "Pending",
    "responsible_agency": "Department of Public Works",
    "final_address": "5134 Paris Ave",
    "address_councildis": "D",
    "status": "Pending",
    "rowid": "1180451",
    "final_x": "3679142.41999",
    "final_y": "551128.688597",
    "longitude": "-90.07483466163104",
    "latitude": "30.009484126134296",
    "geocoded_column": {
      "latitude": "30.009484126134296",
      "longitude": "-90.07483466163104"
    }
  },
  {
    "service_request": "2025-1180450",
    "request_type": "Trash/Recycling",
    "request_reason": "Request a Large Item Pick Up",
    "date_created": "2025-04-01T15:19:51.000",
    "date_modified": "2025-04-01T15:19:53.000",
    "request_status": "Pending",
    "responsible_agency": "Department of Sanitation",
    "final_address": "4423 Arts St",
    "address_councildis": "D",
    "status": "Assigned to Contractor",
    "contractor": "IV Waste",
    "rowid": "1180450",
    "final_x": "3686088.0861",
    "final_y": "549046.049491",
    "longitude": "-90.0529644464407",
    "latitude": "30.003546039102535",
    "geocoded_column": {
      "latitude": "30.003546039102535",
      "longitude": "-90.0529644464407"
    }
  },
  {
    "service_request": "2025-1180449",
    "request_type": "Trash/Recycling",
    "request_reason": "Repair Trash Cart",
    "date_created": "2025-04-01T15:18:59.000",
    "date_modified": "2025-04-01T15:19:00.000",
    "request_status": "Pending",
    "responsible_agency": "Department of Sanitation",
    "final_address": "921 Joliet St",
    "address_councildis": "A",
    "status": "Assigned to Contractor",
    "contractor": "IV Waste",
    "rowid": "1180449",
    "final_x": "3660374.44486",
    "final_y": "528696.234304",
    "longitude": "-90.1348708521353",
    "latitude": "29.948355747029147",
    "geocoded_column": {
      "latitude": "29.948355747029147",
      "longitude": "-90.1348708521353"
    }
  },
  {
    "service_request": "2025-1180448",
    "request_type": "Roads and Streets",
    "request_reason": "Pothole",
    "date_created": "2025-04-01T15:18:19.000",
    "date_modified": "2025-04-01T15:18:21.000",
    "request_status": "Pending",
    "responsible_agency": "Department of Public Works",
    "final_address": "1415 Murl St",
    "address_councildis": "C",
    "status": "Pending",
    "rowid": "1180448",
    "final_x": "3695357.44048",
    "final_y": "526338.783294",
    "longitude": "-90.02450060689537",
    "latitude": "29.940821119903042",
    "geocoded_column": {
      "latitude": "29.940821119903042",
      "longitude": "-90.02450060689537"
    }
  },
  {
    "service_request": "2025-1180447",
    "request_type": "Traffic Signals",
    "request_reason": "Traffic Signal Malfunctioning or Damaged",
    "date_created": "2025-04-01T15:15:32.000",
    "date_modified": "2025-04-01T15:15:33.000",
    "request_status": "Pending",
    "responsible_agency": "Department of Public Works",
    "final_address": "ORLEANS AVE & CITY PARK AVE",
    "address_councildis": "A",
    "status": "Pending",
    "rowid": "1180447",
    "final_x": "3670421.4",
    "final_y": "541772.88",
    "longitude": "-90.10270493672596",
    "latitude": "29.984019385050818",
    "geocoded_column": {
      "latitude": "29.984019385050818",
      "longitude": "-90.10270493672596"
    }
  },
  {
    "service_request": "2025-1180446",
    "request_type": "Trash/Recycling",
    "request_reason": "Request a Large Item Pick Up",
    "date_created": "2025-04-01T15:15:16.000",
    "date_modified": "2025-04-01T15:15:18.000",
    "request_status": "Pending",
    "responsible_agency": "Department of Sanitation",
    "final_address": "4029 Annunciation St",
    "address_councildis": "B",
    "status": "Assigned to Contractor",
    "contractor": "IV Waste",
    "rowid": "1180446",
    "final_x": "3672370.17691",
    "final_y": "517910.071286",
    "longitude": "-90.09736263250755",
    "latitude": "29.918346842793554",
    "geocoded_column": {
      "latitude": "29.918346842793554",
      "longitude": "-90.09736263250755"
    }
  },
  {
    "service_request": "2025-1180445",
    "request_type": "Trash/Recycling",
    "request_reason": "Request a Large Item Pick Up",
    "date_created": "2025-04-01T15:14:27.000",
    "date_modified": "2025-04-01T15:14:29.000",
    "request_status": "Pending",
    "responsible_agency": "Department of Sanitation",
    "final_address": "5734 Rhodes Ave",
    "address_councildis": "C",
    "status": "Assigned to Contractor",
    "contractor": "Richards Disposal",
    "rowid": "1180445",
    "final_x": "3704629.92439",
    "final_y": "519757.715832",
    "longitude": "-89.99546857284066",
    "latitude": "29.922431001455795",
    "geocoded_column": {
      "latitude": "29.922431001455795",
      "longitude": "-89.99546857284066"
    }
  },
  {
    "service_request": "2025-1180444",
    "request_type": "Trash/Recycling",
    "request_reason": "Request a Large Item Pick Up",
    "date_created": "2025-04-01T15:13:32.000",
    "date_modified": "2025-04-01T15:13:34.000",
    "request_status": "Pending",
    "responsible_agency": "Department of Sanitation",
    "final_address": "8521 gervais street",
    "address_councildis": "E",
    "status": "Assigned to Contractor",
    "contractor": "Waste Pro",
    "rowid": "1180444",
    "final_x": "3703707.63799",
    "final_y": "562685.316",
    "longitude": "-89.9967992772172",
    "latitude": "30.040495642582908",
    "geocoded_column": {
      "latitude": "30.040495642582908",
      "longitude": "-89.9967992772172"
    }
  },
  {
    "service_request": "2025-1180443",
    "request_type": "Traffic Signals",
    "request_reason": "Traffic Signal Malfunctioning or Damaged",
    "date_created": "2025-04-01T15:11:57.000",
    "date_modified": "2025-04-01T15:11:59.000",
    "request_status": "Pending",
    "responsible_agency": "Department of Public Works",
    "final_address": "ORLEANS AVE & CITY PARK AVE",
    "address_councildis": "A",
    "status": "Pending",
    "rowid": "1180443",
    "final_x": "3670421.4",
    "final_y": "541772.88",
    "longitude": "-90.10270493672596",
    "latitude": "29.984019385050818",
    "geocoded_column": {
      "latitude": "29.984019385050818",
      "longitude": "-90.10270493672596"
    }
  },
  {
    "service_request": "2025-1180442",
    "request_type": "Trash/Recycling",
    "request_reason": "Request a Large Item Pick Up",
    "date_created": "2025-04-01T15:10:44.000",
    "date_modified": "2025-04-01T15:10:46.000",
    "request_status": "Pending",
    "responsible_agency": "Department of Sanitation",
    "final_address": "8521 Gervais St",
    "address_councildis": "E",
    "status": "Assigned to Contractor",
    "contractor": "Waste Pro",
    "rowid": "1180442",
    "final_x": "3703707.63799",
    "final_y": "562685.316",
    "longitude": "-89.9967992772172",
    "latitude": "30.040495642582908",
    "geocoded_column": {
      "latitude": "30.040495642582908",
      "longitude": "-89.9967992772172"
    }
  },
  {
    "service_request": "2025-1180441",
    "request_type": "Trash/Recycling",
    "request_reason": "Repair Trash Cart",
    "date_created": "2025-04-01T15:08:38.000",
    "date_modified": "2025-04-01T15:08:39.000",
    "request_status": "Pending",
    "responsible_agency": "Department of Sanitation",
    "final_address": "1812 Hendee St",
    "address_councildis": "C",
    "status": "Assigned to Contractor",
    "contractor": "Richards Disposal",
    "rowid": "1180441",
    "final_x": "3690666.08502",
    "final_y": "524225.219196",
    "longitude": "-90.03938734206871",
    "latitude": "29.935156050015813",
    "geocoded_column": {
      "latitude": "29.935156050015813",
      "longitude": "-90.03938734206871"
    }
  },
  {
    "service_request": "2025-1180440",
    "request_type": "Alley Ways",
    "request_reason": "Alley Way Regrading",
    "date_created": "2025-04-01T15:04:46.000",
    "date_modified": "2025-04-01T15:04:48.000",
    "request_status": "Pending",
    "responsible_agency": "Department of Public Works",
    "final_address": "6765 Marshal Foch St",
    "address_councildis": "A",
    "status": "Pending",
    "rowid": "1180440",
    "final_x": "3670394.17754",
    "final_y": "552393.108246",
    "longitude": "-90.10243057352977",
    "latitude": "30.01322212874515",
    "geocoded_column": {
      "latitude": "30.01322212874515",
      "longitude": "-90.10243057352977"
    }
  },
  {
    "service_request": "2025-1180439",
    "request_type": "Trash/Recycling",
    "request_reason": "Illegal Dumping",
    "date_created": "2025-04-01T15:02:11.000",
    "date_modified": "2025-04-01T15:02:18.000",
    "request_status": "Pending",
    "responsible_agency": "Department of Sanitation",
    "final_address": "FELICITY ST & LA SALLE ST",
    "address_councildis": "B",
    "status": "Pending",
    "rowid": "1180439",
    "final_x": "3676374.0",
    "final_y": "526691.58",
    "longitude": "-90.08442257637289",
    "latitude": "29.942373774723823",
    "geocoded_column": {
      "latitude": "29.942373774723823",
      "longitude": "-90.08442257637289"
    }
  },
  {
    "service_request": "2025-1180438",
    "request_type": "Trash/Recycling",
    "request_reason": "Request a Large Item Pick Up",
    "date_created": "2025-04-01T15:00:43.000",
    "date_modified": "2025-04-01T15:00:44.000",
    "request_status": "Pending",
    "responsible_agency": "Department of Sanitation",
    "final_address": "7901 Lehigh St",
    "address_councildis": "E",
    "status": "Assigned to Contractor",
    "contractor": "Waste Pro",
    "rowid": "1180438",
    "final_x": "3710001.84145",
    "final_y": "566639.118435",
    "longitude": "-89.97675976638644",
    "latitude": "30.051163639475664",
    "geocoded_column": {
      "latitude": "30.051163639475664",
      "longitude": "-89.97675976638644"
    }
  },
  {
    "service_request": "2025-1180437",
    "request_type": "Trash/Recycling",
    "request_reason": "Request a Large Item Pick Up",
    "date_created": "2025-04-01T14:58:44.000",
    "date_modified": "2025-04-01T14:58:49.000",
    "request_status": "Pending",
    "responsible_agency": "Department of Sanitation",
    "final_address": "9210 Colapissa St",
    "address_councildis": "A",
    "status": "Assigned to Contractor",
    "contractor": "IV Waste",
    "rowid": "1180437",
    "final_x": "3663548.28986",
    "final_y": "536070.842695",
    "longitude": "-90.12460403619883",
    "latitude": "29.96854185974146",
    "geocoded_column": {
      "latitude": "29.96854185974146",
      "longitude": "-90.12460403619883"
    }
  },
  {
    "service_request": "2025-1180436",
    "request_type": "Streetlights",
    "request_reason": "Streetlight Outage/Malfunction",
    "date_created": "2025-04-01T14:57:00.000",
    "date_modified": "2025-04-01T14:57:02.000",
    "request_status": "Pending",
    "responsible_agency": "Department of Public Works",
    "final_address": "1501 Feliciana St",
    "address_councildis": "D",
    "status": "Pending",
    "contractor": "Legacy Professional Services",
    "rowid": "1180436",
    "final_x": "3689154.87023",
    "final_y": "537603.121608",
    "longitude": "-90.04368288141237",
    "latitude": "29.971987505886496",
    "geocoded_column": {
      "latitude": "29.971987505886496",
      "longitude": "-90.04368288141237"
    }
  },
  {
    "service_request": "2025-1180435",
    "request_type": "Streetlights",
    "request_reason": "New Streetlight Request",
    "date_created": "2025-04-01T14:56:58.000",
    "date_modified": "2025-04-01T14:57:00.000",
    "request_status": "Pending",
    "responsible_agency": "Department of Public Works",
    "final_address": "BELFAST ST & GENERAL OGDEN ST",
    "address_councildis": "A",
    "status": "Pending",
    "contractor": "Legacy Professional Services",
    "rowid": "1180435",
    "final_x": "3663500.5",
    "final_y": "534261.48",
    "longitude": "-90.12481522612492",
    "latitude": "29.963568092709586",
    "geocoded_column": {
      "latitude": "29.963568092709586",
      "longitude": "-90.12481522612492"
    }
  },
  {
    "service_request": "2025-1180434",
    "request_type": "Trash/Recycling",
    "request_reason": "Request a Large Item Pick Up",
    "date_created": "2025-04-01T14:56:38.000",
    "date_modified": "2025-04-01T14:56:40.000",
    "request_status": "Pending",
    "responsible_agency": "Department of Sanitation",
    "final_address": "7901 Lehigh St",
    "address_councildis": "E",
    "status": "Assigned to Contractor",
    "contractor": "Waste Pro",
    "rowid": "1180434",
    "final_x": "3710001.84145",
    "final_y": "566639.118435",
    "longitude": "-89.97675976638644",
    "latitude": "30.051163639475664",
    "geocoded_column": {
      "latitude": "30.051163639475664",
      "longitude": "-89.97675976638644"
    }
  },
  {
    "service_request": "2025-1180433",
    "request_type": "Trash/Recycling",
    "request_reason": "Request a Large Item Pick Up",
    "date_created": "2025-04-01T14:56:07.000",
    "date_modified": "2025-04-01T14:56:10.000",
    "request_status": "Pending",
    "responsible_agency": "Department of Sanitation",
    "final_address": "812 Frenchmen St",
    "address_councildis": "C",
    "status": "Assigned to Contractor",
    "contractor": "IV Waste",
    "rowid": "1180433",
    "final_x": "3684635.05039",
    "final_y": "535319.065414",
    "longitude": "-90.05803746410008",
    "latitude": "29.965846246978117",
    "geocoded_column": {
      "latitude": "29.965846246978117",
      "longitude": "-90.05803746410008"
    }
  },
  {
    "service_request": "2025-1180432",
    "request_type": "Street and Traffic Signs",
    "request_reason": "Street Name Sign Damaged or Missing",
    "date_created": "2025-04-01T14:55:30.000",
    "date_modified": "2025-04-01T14:55:31.000",
    "request_status": "Pending",
    "responsible_agency": "Department of Public Works",
    "final_address": "BELFAST ST & GENERAL OGDEN ST",
    "address_councildis": "A",
    "status": "Pending",
    "rowid": "1180432",
    "final_x": "3663500.5",
    "final_y": "534261.48",
    "longitude": "-90.12481522612492",
    "latitude": "29.963568092709586",
    "geocoded_column": {
      "latitude": "29.963568092709586",
      "longitude": "-90.12481522612492"
    }
  },
  {
    "service_request": "2025-1180431",
    "request_type": "Trash/Recycling",
    "request_reason": "Repair Recycling Cart",
    "date_created": "2025-04-01T14:54:41.000",
    "date_modified": "2025-04-01T14:54:43.000",
    "request_status": "Pending",
    "responsible_agency": "Department of Sanitation",
    "final_address": "4732 Palmyra St",
    "address_councildis": "A",
    "status": "Pending",
    "rowid": "1180431",
    "final_x": "3668373.98023",
    "final_y": "539367.133258",
    "longitude": "-90.10925299554165",
    "latitude": "29.977464699072513",
    "geocoded_column": {
      "latitude": "29.977464699072513",
      "longitude": "-90.10925299554165"
    }
  },
  {
    "service_request": "2025-1180430",
    "request_type": "Safety & Permits",
    "request_reason": "Licenses & Permits",
    "date_created": "2025-04-01T14:49:56.000",
    "date_modified": "2025-04-01T14:51:54.000",
    "request_status": "Pending",
    "responsible_agency": "Safety and Permits",
    "final_address": "2510 Peniston St",
    "address_councildis": "B",
    "status": "Pending",
    "rowid": "1180430",
    "final_x": "3672059.72308",
    "final_y": "524342.234236",
    "longitude": "-90.09812370696648",
    "latitude": "29.936042431877755",
    "geocoded_column": {
      "latitude": "29.936042431877755",
      "longitude": "-90.09812370696648"
    }
  },
  {
    "service_request": "2025-1180429",
    "request_type": "Property Maintenance",
    "request_reason": "Property Maintenance",
    "date_created": "2025-04-01T14:46:59.000",
    "date_modified": "2025-04-01T15:20:34.000",
    "case_close_date": "2025-04-01T10:20:33.000",
    "request_status": "Closed",
    "responsible_agency": "Department of Code Enforcement",
    "final_address": "3008 Metropolitan St, New Orleans, Louisiana, 70126",
    "address_councildis": "D",
    "status": "Referred to Code Enforcement",
    "rowid": "1180429",
    "final_x": "3691158.33916",
    "final_y": "543567.572238",
    "longitude": "-90.0371425425871",
    "latitude": "29.98832546151277",
    "geocoded_column": {
      "latitude": "29.98832546151277",
      "longitude": "-90.0371425425871"
    }
  },
  {
    "service_request": "2025-1180428",
    "request_type": "Trash/Recycling",
    "request_reason": "Missed Trash Pick-Up",
    "date_created": "2025-04-01T14:45:47.000",
    "date_modified": "2025-04-01T17:37:00.000",
    "case_close_date": "2025-04-01T12:36:59.000",
    "request_status": "Closed",
    "responsible_agency": "Department of Sanitation",
    "final_address": "1931 Eagle St",
    "address_councildis": "A",
    "status": "Invalid Request",
    "contractor": "IV Waste",
    "contractor_action": "Invalid",
    "rowid": "1180428",
    "final_x": "3662003.11987",
    "final_y": "532039.863619",
    "longitude": "-90.12961751995729",
    "latitude": "29.957502710075374",
    "geocoded_column": {
      "latitude": "29.957502710075374",
      "longitude": "-90.12961751995729"
    }
  },
  {
    "service_request": "2025-1180427",
    "request_type": "Trash/Recycling",
    "request_reason": "Request a Large Item Pick Up",
    "date_created": "2025-04-01T14:44:16.000",
    "date_modified": "2025-04-01T14:44:18.000",
    "request_status": "Pending",
    "responsible_agency": "Department of Sanitation",
    "final_address": "816 Eighth St",
    "address_councildis": "B",
    "status": "Assigned to Contractor",
    "contractor": "IV Waste",
    "rowid": "1180427",
    "final_x": "3676609.16513",
    "final_y": "519397.230199",
    "longitude": "-90.08393122022694",
    "latitude": "29.92230964349667",
    "geocoded_column": {
      "latitude": "29.92230964349667",
      "longitude": "-90.08393122022694"
    }
  },
  {
    "service_request": "2025-1180426",
    "request_type": "Roads and Streets",
    "request_reason": "Abandoned Service Cut",
    "date_created": "2025-04-01T14:42:36.000",
    "date_modified": "2025-04-01T14:42:37.000",
    "request_status": "Pending",
    "responsible_agency": "Department of Public Works",
    "final_address": "2012 N Rocheblave St",
    "address_councildis": "D",
    "status": "Pending",
    "rowid": "1180426",
    "final_x": "3682524.96437",
    "final_y": "540886.129867",
    "longitude": "-90.06450636438703",
    "latitude": "29.981218148859057",
    "geocoded_column": {
      "latitude": "29.981218148859057",
      "longitude": "-90.06450636438703"
    }
  },
  {
    "service_request": "2025-1180425",
    "request_type": "Trash/Recycling",
    "request_reason": "Request a Large Item Pick Up",
    "date_created": "2025-04-01T14:41:40.000",
    "date_modified": "2025-04-01T14:41:43.000",
    "request_status": "Pending",
    "responsible_agency": "Department of Sanitation",
    "final_address": "1019 L. B. Landry Ave",
    "address_councildis": "C",
    "status": "Assigned to Contractor",
    "contractor": "Richards Disposal",
    "rowid": "1180425",
    "final_x": "3690086.18294",
    "final_y": "527697.652799",
    "longitude": "-90.04109445409209",
    "latitude": "29.944722053762902",
    "geocoded_column": {
      "latitude": "29.944722053762902",
      "longitude": "-90.04109445409209"
    }
  },
  {
    "service_request": "2025-1180424",
    "request_type": "Abandoned Vehicles",
    "request_reason": "Abandoned/Junk Vehicles",
    "date_created": "2025-04-01T14:40:54.000",
    "date_modified": "2025-04-01T14:40:56.000",
    "request_status": "Pending",
    "responsible_agency": "Department of Public Works",
    "final_address": "3322 Jefferson Ave",
    "address_councildis": "A",
    "status": "Pending",
    "rowid": "1180424",
    "final_x": "3668624.33844",
    "final_y": "527463.247167",
    "longitude": "-90.10886404203005",
    "latitude": "29.944725592215708",
    "geocoded_column": {
      "latitude": "29.944725592215708",
      "longitude": "-90.10886404203005"
    }
  },
  {
    "service_request": "2025-1180423",
    "request_type": "Trash/Recycling",
    "request_reason": "Request a Large Item Pick Up",
    "date_created": "2025-04-01T14:38:56.000",
    "date_modified": "2025-04-01T14:38:59.000",
    "request_status": "Pending",
    "responsible_agency": "Department of Sanitation",
    "final_address": "7342 Beaconfield Dr",
    "address_councildis": "E",
    "status": "Assigned to Contractor",
    "contractor": "Waste Pro",
    "rowid": "1180423",
    "final_x": "3713429.03986",
    "final_y": "565859.989603",
    "longitude": "-89.96595702750062",
    "latitude": "30.048909341250415",
    "geocoded_column": {
      "latitude": "30.048909341250415",
      "longitude": "-89.96595702750062"
    }
  },
  {
    "service_request": "2025-1180422",
    "request_type": "Parks & Parkways",
    "request_reason": "Request Tree Service (Right of Way/Public Property)",
    "date_created": "2025-04-01T14:38:08.000",
    "date_modified": "2025-04-01T14:57:03.000",
    "case_close_date": "2025-04-01T09:56:55.000",
    "request_status": "Closed",
    "responsible_agency": "Department of Parks & Parkway",
    "final_address": "4201 Vendome Pl",
    "address_councildis": "B",
    "status": "Duplicate Request",
    "rowid": "1180422",
    "final_x": "3669089.20846",
    "final_y": "531081.242242",
    "longitude": "-90.10727407568125",
    "latitude": "29.954660229137385",
    "geocoded_column": {
      "latitude": "29.954660229137385",
      "longitude": "-90.10727407568125"
    }
  },
  {
    "service_request": "2025-1180421",
    "request_type": "Trash/Recycling",
    "request_reason": "Order Recycling Cart",
    "date_created": "2025-04-01T14:37:14.000",
    "date_modified": "2025-04-01T14:37:15.000",
    "request_status": "Pending",
    "responsible_agency": "Department of Sanitation",
    "final_address": "Orleans Avenue & South Park Place",
    "address_councildis": "A",
    "status": "Pending",
    "rowid": "1180421",
    "final_x": "3670620.69531",
    "final_y": "544019.681742",
    "longitude": "-90.10199919116671",
    "latitude": "29.990191433087386",
    "geocoded_column": {
      "latitude": "29.990191433087386",
      "longitude": "-90.10199919116671"
    }
  },
  {
    "service_request": "2025-1180420",
    "request_type": "Street and Traffic Signs",
    "request_reason": "Crosswalk Signage Damaged or Missing",
    "date_created": "2025-04-01T14:37:02.000",
    "date_modified": "2025-04-01T14:37:03.000",
    "request_status": "Pending",
    "responsible_agency": "Department of Public Works",
    "final_address": "6823 St Charles Ave",
    "address_councildis": "A",
    "status": "Pending",
    "rowid": "1180420",
    "final_x": "3664251.8256",
    "final_y": "524033.789948",
    "longitude": "-90.1227838277921",
    "latitude": "29.935423435180134",
    "geocoded_column": {
      "latitude": "29.935423435180134",
      "longitude": "-90.1227838277921"
    }
  },
  {
    "service_request": "2025-1180419",
    "request_type": "Health Related Request",
    "request_reason": "Noise Ordinance Complaint",
    "date_created": "2025-04-01T14:36:32.000",
    "date_modified": "2025-04-01T14:37:16.000",
    "request_status": "Pending",
    "responsible_agency": "Health Department",
    "final_address": "3067 St Claude Ave",
    "address_councildis": "C",
    "status": "Pending",
    "rowid": "1180419",
    "final_x": "3688984.75798",
    "final_y": "536109.345223",
    "longitude": "-90.04427319419608",
    "latitude": "29.96788540864137",
    "geocoded_column": {
      "latitude": "29.96788540864137",
      "longitude": "-90.04427319419608"
    }
  },
  {
    "service_request": "2025-1180418",
    "request_type": "Traffic Signals",
    "request_reason": "Traffic Signal Malfunctioning or Damaged",
    "date_created": "2025-04-01T14:34:54.000",
    "date_modified": "2025-04-01T14:34:56.000",
    "request_status": "Pending",
    "responsible_agency": "Department of Public Works",
    "final_address": "2900 S Claiborne Ave",
    "address_councildis": "B",
    "status": "Pending",
    "rowid": "1180418",
    "final_x": "3672768.75572",
    "final_y": "526286.092734",
    "longitude": "-90.09581899130944",
    "latitude": "29.941366374248226",
    "geocoded_column": {
      "latitude": "29.941366374248226",
      "longitude": "-90.09581899130944"
    }
  },
  {
    "service_request": "2025-1180417",
    "request_type": "Trash/Recycling",
    "request_reason": "Request a Large Item Pick Up",
    "date_created": "2025-04-01T14:34:09.000",
    "date_modified": "2025-04-01T14:34:11.000",
    "request_status": "Pending",
    "responsible_agency": "Department of Sanitation",
    "final_address": "4605 St Charles Ave",
    "address_councildis": "B",
    "status": "Assigned to Contractor",
    "contractor": "IV Waste",
    "rowid": "1180417",
    "final_x": "3670032.34862",
    "final_y": "520848.572025",
    "longitude": "-90.10464246628632",
    "latitude": "29.926495919227023",
    "geocoded_column": {
      "latitude": "29.926495919227023",
      "longitude": "-90.10464246628632"
    }
  },
  {
    "service_request": "2025-1180416",
    "request_type": "Street and Traffic Signs",
    "request_reason": "Traffic or Parking Sign Damaged or Missing",
    "date_created": "2025-04-01T14:33:08.000",
    "date_modified": "2025-04-01T14:33:11.000",
    "request_status": "Pending",
    "responsible_agency": "Department of Public Works",
    "final_address": "6823 St Charles Ave",
    "address_councildis": "A",
    "status": "Pending",
    "rowid": "1180416",
    "final_x": "3664251.8256",
    "final_y": "524033.789948",
    "longitude": "-90.1227838277921",
    "latitude": "29.935423435180134",
    "geocoded_column": {
      "latitude": "29.935423435180134",
      "longitude": "-90.1227838277921"
    }
  },
  {
    "service_request": "2025-1180415",
    "request_type": "Streetlights",
    "request_reason": "Streetlight Knocked Down/Leaning",
    "date_created": "2025-04-01T14:32:33.000",
    "date_modified": "2025-04-01T14:32:35.000",
    "request_status": "Pending",
    "responsible_agency": "Department of Public Works",
    "final_address": "CROWDER BLVD & I 10 W",
    "address_councildis": "E",
    "status": "Pending",
    "contractor": "Legacy Professional Services",
    "rowid": "1180415",
    "final_x": "3704767.3",
    "final_y": "558908.58",
    "longitude": "-89.9935899755736",
    "latitude": "30.030077072327494",
    "geocoded_column": {
      "latitude": "30.030077072327494",
      "longitude": "-89.9935899755736"
    }
  },
  {
    "service_request": "2025-1180414",
    "request_type": "Street and Traffic Signs",
    "request_reason": "Stop Sign Missing or Damaged",
    "date_created": "2025-04-01T14:32:02.000",
    "date_modified": "2025-04-01T14:32:04.000",
    "request_status": "Pending",
    "responsible_agency": "Department of Public Works",
    "final_address": "WALES ST & MULLET ST",
    "address_councildis": "E",
    "status": "Pending",
    "rowid": "1180414",
    "final_x": "3698867.4",
    "final_y": "560827.68",
    "longitude": "-90.01216363189904",
    "latitude": "30.035542213964153",
    "geocoded_column": {
      "latitude": "30.035542213964153",
      "longitude": "-90.01216363189904"
    }
  },
  {
    "service_request": "2025-1180413",
    "request_type": "Trash/Recycling",
    "request_reason": "Request a Large Item Pick Up",
    "date_created": "2025-04-01T14:31:45.000",
    "date_modified": "2025-04-01T14:31:47.000",
    "request_status": "Pending",
    "responsible_agency": "Department of Sanitation",
    "final_address": "3940 Paris Ave",
    "address_councildis": "D",
    "status": "Assigned to Contractor",
    "contractor": "IV Waste",
    "rowid": "1180413",
    "final_x": "3679470.15855",
    "final_y": "546931.536337",
    "longitude": "-90.0739449642346",
    "latitude": "29.997933553423078",
    "geocoded_column": {
      "latitude": "29.997933553423078",
      "longitude": "-90.0739449642346"
    }
  },
  {
    "service_request": "2025-1180412",
    "request_type": "Street and Traffic Signs",
    "request_reason": "Street Name Sign Damaged or Missing",
    "date_created": "2025-04-01T14:30:11.000",
    "date_modified": "2025-04-01T14:30:14.000",
    "request_status": "Pending",
    "responsible_agency": "Department of Public Works",
    "final_address": "WALES ST & REDFISH ST",
    "address_councildis": "E",
    "status": "Pending",
    "rowid": "1180412",
    "final_x": "3698620.2",
    "final_y": "560729.28",
    "longitude": "-90.01294840566757",
    "latitude": "30.03527948684847",
    "geocoded_column": {
      "latitude": "30.03527948684847",
      "longitude": "-90.01294840566757"
    }
  },
  {
    "service_request": "2025-1180411",
    "request_type": "Parks & Parkways",
    "request_reason": "Request Tree Service (Right of Way/Public Property)",
    "date_created": "2025-04-01T14:29:48.000",
    "date_modified": "2025-04-01T14:52:34.000",
    "request_status": "Pending",
    "responsible_agency": "Department of Parks & Parkway",
    "final_address": "VENDOME PL & GRAPE ST",
    "address_councildis": "B",
    "status": "Pending",
    "rowid": "1180411",
    "final_x": "3668961.0",
    "final_y": "531049.68",
    "longitude": "-90.1076799757131",
    "latitude": "29.954577214821025",
    "geocoded_column": {
      "latitude": "29.954577214821025",
      "longitude": "-90.1076799757131"
    }
  },
  {
    "service_request": "2025-1180410",
    "request_type": "Property Maintenance",
    "request_reason": "Property Maintenance",
    "date_created": "2025-04-01T14:29:38.000",
    "date_modified": "2025-04-01T15:29:24.000",
    "case_close_date": "2025-04-01T10:29:23.000",
    "request_status": "Closed",
    "responsible_agency": "Department of Code Enforcement",
    "final_address": "1723 Fern St",
    "address_councildis": "A",
    "status": "Referred to Code Enforcement",
    "rowid": "1180410",
    "final_x": "3663907.87616",
    "final_y": "529293.183169",
    "longitude": "-90.1236943984245",
    "latitude": "29.949895071440192",
    "geocoded_column": {
      "latitude": "29.949895071440192",
      "longitude": "-90.1236943984245"
    }
  },
  {
    "service_request": "2025-1180409",
    "request_type": "Trash/Recycling",
    "request_reason": "Order Trash Cart",
    "date_created": "2025-04-01T14:24:49.000",
    "date_modified": "2025-04-01T14:24:52.000",
    "request_status": "Pending",
    "responsible_agency": "Department of Sanitation",
    "final_address": "3025 S Saratoga St",
    "address_councildis": "B",
    "status": "Assigned to Contractor",
    "contractor": "IV Waste",
    "rowid": "1180409",
    "final_x": "3674077.76929",
    "final_y": "523497.079675",
    "longitude": "-90.09178158626075",
    "latitude": "29.933658559873543",
    "geocoded_column": {
      "latitude": "29.933658559873543",
      "longitude": "-90.09178158626075"
    }
  },
  {
    "service_request": "2025-1180408",
    "request_type": "Safety & Permits",
    "request_reason": "Licenses & Permits",
    "date_created": "2025-04-01T14:22:30.000",
    "date_modified": "2025-04-01T14:22:31.000",
    "request_status": "Pending",
    "responsible_agency": "Safety and Permits",
    "final_address": "4825 Prytania St",
    "address_councildis": "B",
    "status": "Pending",
    "rowid": "1180408",
    "final_x": "3669237.59604",
    "final_y": "520233.369848",
    "longitude": "-90.107172068737",
    "latitude": "29.924827718126664",
    "geocoded_column": {
      "latitude": "29.924827718126664",
      "longitude": "-90.107172068737"
    }
  },
  {
    "service_request": "2025-1180407",
    "request_type": "Roads and Streets",
    "request_reason": "Street Subsidence (Sinking)",
    "date_created": "2025-04-01T14:20:05.000",
    "date_modified": "2025-04-01T14:20:06.000",
    "request_status": "Pending",
    "responsible_agency": "Department of Public Works",
    "final_address": "READ BLVD & CARTER ST",
    "address_councildis": "E",
    "status": "Pending",
    "rowid": "1180407",
    "final_x": "3708356.3",
    "final_y": "564724.48",
    "longitude": "-89.98203209826877",
    "latitude": "30.04595261745122",
    "geocoded_column": {
      "latitude": "30.04595261745122",
      "longitude": "-89.98203209826877"
    }
  },
  {
    "service_request": "2025-1180406",
    "request_type": "Street and Traffic Signs",
    "request_reason": "Stop Sign Missing or Damaged",
    "date_created": "2025-04-01T14:18:33.000",
    "date_modified": "2025-04-01T14:18:34.000",
    "request_status": "Pending",
    "responsible_agency": "Department of Public Works",
    "final_address": "6500 Center St",
    "address_councildis": "A",
    "status": "Pending",
    "rowid": "1180406",
    "final_x": "3664866.56724",
    "final_y": "551267.780757",
    "longitude": "-90.11993260395953",
    "latitude": "30.010289984475374",
    "geocoded_column": {
      "latitude": "30.010289984475374",
      "longitude": "-90.11993260395953"
    }
  },
  {
    "service_request": "2025-1180405",
    "request_type": "Trash/Recycling",
    "request_reason": "Request a Large Item Pick Up",
    "date_created": "2025-04-01T14:10:06.000",
    "date_modified": "2025-04-01T14:10:08.000",
    "request_status": "Pending",
    "responsible_agency": "Department of Sanitation",
    "final_address": "2306 Chippewa St",
    "address_councildis": "B",
    "status": "Assigned to Contractor",
    "contractor": "IV Waste",
    "rowid": "1180405",
    "final_x": "3679393.5764",
    "final_y": "520617.438136",
    "longitude": "-90.07509968038629",
    "latitude": "29.92558104233269",
    "geocoded_column": {
      "latitude": "29.92558104233269",
      "longitude": "-90.07509968038629"
    }
  },
  {
    "service_request": "2025-1180404",
    "request_type": "Roads and Streets",
    "request_reason": "Curb Damage",
    "date_created": "2025-04-01T14:01:43.000",
    "date_modified": "2025-04-01T14:01:45.000",
    "request_status": "Pending",
    "responsible_agency": "Department of Public Works",
    "final_address": "4901 Chef Menteur Hwy",
    "address_councildis": "D",
    "status": "Pending",
    "rowid": "1180404",
    "final_x": "3692422.72931",
    "final_y": "550550.675092",
    "longitude": "-90.0328984234642",
    "latitude": "30.007487054288546",
    "geocoded_column": {
      "latitude": "30.007487054288546",
      "longitude": "-90.0328984234642"
    }
  },