[
  {
    "service_request": "2024-1156726",
    "request_type": "Trash/Recycling",
    "request_reason": "Order Trash Cart",
    "date_created": "2024-12-21T22:56:49.000",
    "date_modified": "2024-12-21T22:56:50.000",
    "request_status": "Pending",
    "responsible_agency": "Department of Sanitation",
    "final_address": "4425 annunciation",
    "address_councildis": "B",
    "status": "Assigned to Contractor",
    "contractor": "IV Waste",
    "rowid": "1156726",
    "final_x": "3670885.83284",
    "final_y": "517761.196598",
    "longitude": "-90.10205297372224",
    "latitude": "29.917981426208744",
    "geocoded_column": {
      "latitude": "29.917981426208744",
      "longitude": "-90.10205297372224"
    }
  },
  {
    "service_request": "2024-1156725",
    "request_type": "Abandoned Vehicles",
    "request_reason": "Vehicle Blocking Your Driveway",
    "date_created": "2024-12-21T22:30:13.000",
    "date_modified": "2024-12-21T22:30:13.000",
    "request_status": "Pending",
    "responsible_agency": "Department of Public Works",
    "final_address": "233 N Murat St",
    "address_councildis": "A",
    "status": "Pending",
    "rowid": "1156725",
    "final_x": "3670104.15719",
    "final_y": "540006.704651",
    "longitude": "-90.10376682608897",
    "latitude": "29.97917236802589",
    "geocoded_column": {
      "latitude": "29.97917236802589",
      "longitude": "-90.10376682608897"
    }
  },
  {
    "service_request": "2024-1156724",
    "request_type": "Abandoned Vehicles",
    "request_reason": "Vehicle Blocking Your Driveway",
    "date_created": "2024-12-21T22:27:48.000",
    "date_modified": "2024-12-21T22:27:48.000",
    "request_status": "Pending",
    "responsible_agency": "Department of Public Works",
    "final_address": "233 N Murat St",
    "address_councildis": "A",
    "status": "Pending",
    "rowid": "1156724",
    "final_x": "3670104.15719",
    "final_y": "540006.704651",
    "longitude": "-90.10376682608897",
    "latitude": "29.97917236802589",
    "geocoded_column": {
      "latitude": "29.97917236802589",
      "longitude": "-90.10376682608897"
    }
  },
  {
    "service_request": "2024-1156723",
    "request_type": "Abandoned Vehicles",
    "request_reason": "Vehicle Blocking Your Driveway",
    "date_created": "2024-12-21T22:26:04.000",
    "date_modified": "2024-12-21T22:26:04.000",
    "request_status": "Pending",
    "responsible_agency": "Department of Public Works",
    "final_address": "223 N Murat St",
    "address_councildis": "A",
    "status": "Pending",
    "rowid": "1156723",
    "final_x": "3670035.73831",
    "final_y": "539959.658699",
    "longitude": "-90.10398451432323",
    "latitude": "29.979045026173072",
    "geocoded_column": {
      "latitude": "29.979045026173072",
      "longitude": "-90.10398451432323"
    }
  },
  {
    "service_request": "2024-1156722",
    "request_type": "Healthy Homes",
    "request_reason": "Healthy Homes",
    "date_created": "2024-12-21T19:52:54.000",
    "date_modified": "2024-12-21T19:52:54.000",
    "request_status": "Pending",
    "responsible_agency": "Department of Code Enforcement",
    "final_address": "430 Eighth St",
    "address_councildis": "B",
    "status": "Pending",
    "rowid": "1156722",
    "final_x": "3677141.02005",
    "final_y": "518581.408439",
    "longitude": "-90.0822804878905",
    "latitude": "29.920050440252993",
    "geocoded_column": {
      "latitude": "29.920050440252993",
      "longitude": "-90.0822804878905"
    }
  },
  {
    "service_request": "2024-1156721",
    "request_type": "Parks & Parkways",
    "request_reason": "Request Tree Service (Right of Way/Public Property)",
    "date_created": "2024-12-21T17:45:51.000",
    "date_modified": "2024-12-21T17:45:51.000",
    "request_status": "Pending",
    "responsible_agency": "Department of Parks & Parkway",
    "final_address": "2010 State St",
    "address_councildis": "A",
    "status": "Pending",
    "rowid": "1156721",
    "final_x": "3666226.06477",
    "final_y": "524176.153916",
    "longitude": "-90.11654634822322",
    "latitude": "29.9357573922394",
    "geocoded_column": {
      "latitude": "29.9357573922394",
      "longitude": "-90.11654634822322"
    }
  },
  {
    "service_request": "2024-1156720",
    "request_type": "Roads and Streets",
    "request_reason": "Pothole",
    "date_created": "2024-12-21T17:34:28.000",
    "date_modified": "2024-12-21T17:34:28.000",
    "request_status": "Pending",
    "responsible_agency": "Department of Public Works",
    "final_address": "5676 Campus Blvd",
    "address_councildis": "D",
    "status": "Pending",
    "rowid": "1156720",
    "final_x": "3688877.20323",
    "final_y": "554244.054744",
    "longitude": "-90.04396842060058",
    "latitude": "30.01775265259329",
    "geocoded_column": {
      "latitude": "30.01775265259329",
      "longitude": "-90.04396842060058"
    }
  },
  {
    "service_request": "2024-1156719",
    "request_type": "Trash/Recycling",
    "request_reason": "Request a Large Item Pick Up",
    "date_created": "2024-12-21T16:53:00.000",
    "date_modified": "2024-12-21T16:53:01.000",
    "request_status": "Pending",
    "responsible_agency": "Department of Sanitation",
    "final_address": "4920 Dryades St",
    "address_councildis": "B",
    "status": "Assigned to Contractor",
    "contractor": "IV Waste",
    "rowid": "1156719",
    "final_x": "3668904.73338",
    "final_y": "521685.405177",
    "longitude": "-90.1081738005452",
    "latitude": "29.928830143455674",
    "geocoded_column": {
      "latitude": "29.928830143455674",
      "longitude": "-90.1081738005452"
    }
  },
  {
    "service_request": "2024-1156718",
    "request_type": "Trash/Recycling",
    "request_reason": "Illegal Dumping",
    "date_created": "2024-12-21T16:50:40.000",
    "date_modified": "2024-12-21T16:50:40.000",
    "request_status": "Pending",
    "responsible_agency": "Department of Sanitation",
    "final_address": "739 Elysian Fields Ave",
    "address_councildis": "C",
    "status": "Pending",
    "rowid": "1156718",
    "final_x": "3685181.88207",
    "final_y": "535195.604102",
    "longitude": "-90.05631493582123",
    "latitude": "29.965490025029638",
    "geocoded_column": {
      "latitude": "29.965490025029638",
      "longitude": "-90.05631493582123"
    }
  },
  {
    "service_request": "2024-1156717",
    "request_type": "Parks & Parkways",
    "request_reason": "Request Tree Service (Right of Way/Public Property)",
    "date_created": "2024-12-21T16:42:52.000",
    "date_modified": "2024-12-21T16:42:52.000",
    "request_status": "Pending",
    "responsible_agency": "Department of Parks & Parkway",
    "final_address": "416 Ptolemy St",
    "address_councildis": "C",
    "status": "Pending",
    "rowid": "1156717",
    "final_x": "3686863.38716",
    "final_y": "526079.92435",
    "longitude": "-90.05132690657088",
    "latitude": "29.94037339313308",
    "geocoded_column": {
      "latitude": "29.94037339313308",
      "longitude": "-90.05132690657088"
    }
  },
  {
    "service_request": "2024-1156716",
    "request_type": "Trash/Recycling",
    "request_reason": "Request a Large Item Pick Up",
    "date_created": "2024-12-21T16:31:07.000",
    "date_modified": "2024-12-21T16:31:08.000",
    "request_status": "Pending",
    "responsible_agency": "Department of Sanitation",
    "final_address": "6019 Louis Xiv St",
    "address_councildis": "A",
    "status": "Assigned to Contractor",
    "contractor": "IV Waste",
    "rowid": "1156716",
    "final_x": "3668187.46119",
    "final_y": "547458.711953",
    "longitude": "-90.10956914814406",
    "latitude": "29.999719256474307",
    "geocoded_column": {
      "latitude": "29.999719256474307",
      "longitude": "-90.10956914814406"
    }
  },
  {
    "service_request": "2024-1156715",
    "request_type": "Roads and Streets",
    "request_reason": "Debris in Driving Lanes",
    "date_created": "2024-12-21T15:58:02.000",
    "date_modified": "2024-12-21T15:58:02.000",
    "request_status": "Pending",
    "responsible_agency": "Department of Public Works",
    "final_address": "3369 Esplanade Ave",
    "address_councildis": "A",
    "status": "Pending",
    "rowid": "1156715",
    "final_x": "3675637.06568",
    "final_y": "541013.170827",
    "longitude": "-90.08625713202626",
    "latitude": "29.981775391253315",
    "geocoded_column": {
      "latitude": "29.981775391253315",
      "longitude": "-90.08625713202626"
    }
  },
  {
    "service_request": "2024-1156714",
    "request_type": "Trash/Recycling",
    "request_reason": "Request a Large Item Pick Up",
    "date_created": "2024-12-21T15:35:14.000",
    "date_modified": "2024-12-21T15:35:15.000",
    "request_status": "Pending",
    "responsible_agency": "Department of Sanitation",
    "final_address": "5601 St Bernard Ave",
    "address_councildis": "D",
    "status": "Assigned to Contractor",
    "contractor": "IV Waste",
    "rowid": "1156714",
    "final_x": "3677027.41192",
    "final_y": "552720.133526",
    "longitude": "-90.08146178286799",
    "latitude": "30.013923732907436",
    "geocoded_column": {
      "latitude": "30.013923732907436",
      "longitude": "-90.08146178286799"
    }
  },
  {
    "service_request": "2024-1156713",
    "request_type": "Trash/Recycling",
    "request_reason": "MIssed Recycling Pick-Up",
    "date_created": "2024-12-21T14:43:42.000",
    "date_modified": "2024-12-21T14:43:43.000",
    "request_status": "Pending",
    "responsible_agency": "Department of Sanitation",
    "final_address": "926 Louisa St",
    "address_councildis": "C",
    "status": "Assigned to Contractor",
    "contractor": "IV Waste",
    "rowid": "1156713",
    "final_x": "3689382.34127",
    "final_y": "535313.727622",
    "longitude": "-90.04304591061202",
    "latitude": "29.965685434220003",
    "geocoded_column": {
      "latitude": "29.965685434220003",
      "longitude": "-90.04304591061202"
    }
  },
  {
    "service_request": "2024-1156712",
    "request_type": "Trash/Recycling",
    "request_reason": "Request a Large Item Pick Up",
    "date_created": "2024-12-21T14:01:21.000",
    "date_modified": "2024-12-21T14:01:22.000",
    "request_status": "Pending",
    "responsible_agency": "Department of Sanitation",
    "final_address": "2366 Annunciation St",
    "address_councildis": "B",
    "status": "Assigned to Contractor",
    "contractor": "IV Waste",
    "rowid": "1156712",
    "final_x": "3678757.17838",
    "final_y": "520598.79276",
    "longitude": "-90.07710923952732",
    "latitude": "29.925548973580955",
    "geocoded_column": {
      "latitude": "29.925548973580955",
      "longitude": "-90.07710923952732"
    }
  },
  {
    "service_request": "2024-1156711",
    "request_type": "General Services",
    "request_reason": "General Service Request",
    "date_created": "2024-12-21T13:50:54.000",
    "date_modified": "2024-12-21T13:50:54.000",
    "request_status": "Pending",
    "responsible_agency": "Orleans Parish Communication District",
    "final_address": "4219 Vincennes Pl",
    "address_councildis": "B",
    "status": "Pending",
    "rowid": "1156711",
    "final_x": "3668814.08634",
    "final_y": "531366.68269",
    "longitude": "-90.10813317033319",
    "latitude": "29.955453188294452",
    "geocoded_column": {
      "latitude": "29.955453188294452",
      "longitude": "-90.10813317033319"
    }
  },
  {
    "service_request": "2024-1156710",
    "request_type": "Drainage",
    "request_reason": "Catch Basin Damaged",
    "date_created": "2024-12-21T13:25:29.000",
    "date_modified": "2024-12-21T13:25:29.000",
    "request_status": "Pending",
    "responsible_agency": "Department of Public Works",
    "final_address": "DIXON ST & JOLIET ST",
    "address_councildis": "A",
    "status": "Pending",
    "rowid": "1156710",
    "final_x": "3667370.4",
    "final_y": "536429.88",
    "longitude": "-90.11252148767674",
    "latitude": "29.969417676159274",
    "geocoded_column": {
      "latitude": "29.969417676159274",
      "longitude": "-90.11252148767674"
    }
  },
  {
    "service_request": "2024-1156709",
    "request_type": "Safety & Permits",
    "request_reason": "Zoning Enforcement",
    "date_created": "2024-12-21T13:12:06.000",
    "date_modified": "2024-12-21T13:12:06.000",
    "request_status": "Pending",
    "responsible_agency": "Safety and Permits",
    "final_address": "2023 Adams St",
    "address_councildis": "A",
    "status": "Pending",
    "rowid": "1156709",
    "final_x": "3665101.56877",
    "final_y": "529568.618561",
    "longitude": "-90.11991613305531",
    "latitude": "29.950617725542386",
    "geocoded_column": {
      "latitude": "29.950617725542386",
      "longitude": "-90.11991613305531"
    }
  },
  {
    "service_request": "2024-1156708",
    "request_type": "Safety & Permits",
    "request_reason": "Zoning Enforcement",
    "date_created": "2024-12-21T13:10:59.000",
    "date_modified": "2024-12-21T13:10:59.000",
    "request_status": "Pending",
    "responsible_agency": "Safety and Permits",
    "final_address": "2023 Adams St",
    "address_councildis": "A",
    "status": "Pending",
    "rowid": "1156708",
    "final_x": "3665101.56877",
    "final_y": "529568.618561",
    "longitude": "-90.11991613305531",
    "latitude": "29.950617725542386",
    "geocoded_column": {
      "latitude": "29.950617725542386",
      "longitude": "-90.11991613305531"
    }
  },
  {
    "service_request": "2024-1156707",
    "request_type": "Safety & Permits",
    "request_reason": "Zoning Enforcement",
    "date_created": "2024-12-21T13:09:58.000",
    "date_modified": "2024-12-21T13:09:58.000",
    "request_status": "Pending",
    "responsible_agency": "Safety and Permits",
    "final_address": "2023 Adams St",
    "address_councildis": "A",
    "status": "Pending",
    "rowid": "1156707",
    "final_x": "3665101.56877",
    "final_y": "529568.618561",
    "longitude": "-90.11991613305531",
    "latitude": "29.950617725542386",
    "geocoded_column": {
      "latitude": "29.950617725542386",
      "longitude": "-90.11991613305531"
    }
  },
  {
    "service_request": "2024-1156706",
    "request_type": "Safety & Permits",
    "request_reason": "Zoning Enforcement",
    "date_created": "2024-12-21T13:08:51.000",
    "date_modified": "2024-12-21T13:08:51.000",
    "request_status": "Pending",
    "responsible_agency": "Safety and Permits",
    "final_address": "2023 Adams St",
    "address_councildis": "A",
    "status": "Pending",
    "rowid": "1156706",
    "final_x": "3665101.56877",
    "final_y": "529568.618561",
    "longitude": "-90.11991613305531",
    "latitude": "29.950617725542386",
    "geocoded_column": {
      "latitude": "29.950617725542386",
      "longitude": "-90.11991613305531"
    }
  },
  {
    "service_request": "2024-1156705",
    "request_type": "Safety & Permits",
    "request_reason": "Zoning Enforcement",
    "date_created": "2024-12-21T13:07:47.000",
    "date_modified": "2024-12-21T13:07:47.000",
    "request_status": "Pending",
    "responsible_agency": "Safety and Permits",
    "final_address": "2023 Adams St",
    "address_councildis": "A",
    "status": "Pending",
    "rowid": "1156705",
    "final_x": "3665101.56877",
    "final_y": "529568.618561",
    "longitude": "-90.11991613305531",
    "latitude": "29.950617725542386",
    "geocoded_column": {
      "latitude": "29.950617725542386",
      "longitude": "-90.11991613305531"
    }
  },
  {
    "service_request": "2024-1156704",
    "request_type": "Safety & Permits",
    "request_reason": "Zoning Enforcement",
    "date_created": "2024-12-21T13:06:29.000",
    "date_modified": "2024-12-21T13:06:29.000",
    "request_status": "Pending",
    "responsible_agency": "Safety and Permits",
    "final_address": "2023 Adams St",
    "address_councildis": "A",
    "status": "Pending",
    "rowid": "1156704",
    "final_x": "3665101.56877",
    "final_y": "529568.618561",
    "longitude": "-90.11991613305531",
    "latitude": "29.950617725542386",
    "geocoded_column": {
      "latitude": "29.950617725542386",
      "longitude": "-90.11991613305531"
    }
  },
  {
    "service_request": "2024-1156703",
    "request_type": "Safety & Permits",
    "request_reason": "Zoning Enforcement",
    "date_created": "2024-12-21T13:05:13.000",
    "date_modified": "2024-12-21T13:05:13.000",
    "request_status": "Pending",
    "responsible_agency": "Safety and Permits",
    "final_address": "2023 Adams St",
    "address_councildis": "A",
    "status": "Pending",
    "rowid": "1156703",
    "final_x": "3665101.56877",
    "final_y": "529568.618561",
    "longitude": "-90.11991613305531",
    "latitude": "29.950617725542386",
    "geocoded_column": {
      "latitude": "29.950617725542386",
      "longitude": "-90.11991613305531"
    }
  },
  {
    "service_request": "2024-1156702",
    "request_type": "Safety & Permits",
    "request_reason": "Zoning Enforcement",
    "date_created": "2024-12-21T13:03:57.000",
    "date_modified": "2024-12-21T13:03:57.000",
    "request_status": "Pending",
    "responsible_agency": "Safety and Permits",
    "final_address": "2023 Adams St",
    "address_councildis": "A",
    "status": "Pending",
    "rowid": "1156702",
    "final_x": "3665101.56877",
    "final_y": "529568.618561",
    "longitude": "-90.11991613305531",
    "latitude": "29.950617725542386",
    "geocoded_column": {
      "latitude": "29.950617725542386",
      "longitude": "-90.11991613305531"
    }
  },
  {
    "service_request": "2024-1156701",
    "request_type": "Safety & Permits",
    "request_reason": "Zoning Enforcement",
    "date_created": "2024-12-21T13:02:29.000",
    "date_modified": "2024-12-21T13:02:29.000",
    "request_status": "Pending",
    "responsible_agency": "Safety and Permits",
    "final_address": "2023 Adams St",
    "address_councildis": "A",
    "status": "Pending",
    "rowid": "1156701",
    "final_x": "3665101.56877",
    "final_y": "529568.618561",
    "longitude": "-90.11991613305531",
    "latitude": "29.950617725542386",
    "geocoded_column": {
      "latitude": "29.950617725542386",
      "longitude": "-90.11991613305531"
    }
  },
  {
    "service_request": "2024-1156700",
    "request_type": "Safety & Permits",
    "request_reason": "Zoning Enforcement",
    "date_created": "2024-12-21T13:01:22.000",
    "date_modified": "2024-12-21T13:01:22.000",
    "request_status": "Pending",
    "responsible_agency": "Safety and Permits",
    "final_address": "2023 Adams St",
    "address_councildis": "A",
    "status": "Pending",
    "rowid": "1156700",
    "final_x": "3665101.56877",
    "final_y": "529568.618561",
    "longitude": "-90.11991613305531",
    "latitude": "29.950617725542386",
    "geocoded_column": {
      "latitude": "29.950617725542386",
      "longitude": "-90.11991613305531"
    }
  },
  {
    "service_request": "2024-1156699",
    "request_type": "Safety & Permits",
    "request_reason": "Zoning Enforcement",
    "date_created": "2024-12-21T12:59:51.000",
    "date_modified": "2024-12-21T12:59:51.000",
    "request_status": "Pending",
    "responsible_agency": "Safety and Permits",
    "final_address": "2023 Adams St",
    "address_councildis": "A",
    "status": "Pending",
    "rowid": "1156699",
    "final_x": "3665101.56877",
    "final_y": "529568.618561",
    "longitude": "-90.11991613305531",
    "latitude": "29.950617725542386",
    "geocoded_column": {
      "latitude": "29.950617725542386",
      "longitude": "-90.11991613305531"
    }
  },
  {
    "service_request": "2024-1156698",
    "request_type": "Safety & Permits",
    "request_reason": "Zoning Enforcement",
    "date_created": "2024-12-21T12:58:40.000",
    "date_modified": "2024-12-21T12:58:40.000",
    "request_status": "Pending",
    "responsible_agency": "Safety and Permits",
    "final_address": "2023 Adams St",
    "address_councildis": "A",
    "status": "Pending",
    "rowid": "1156698",
    "final_x": "3665101.56877",
    "final_y": "529568.618561",
    "longitude": "-90.11991613305531",
    "latitude": "29.950617725542386",
    "geocoded_column": {
      "latitude": "29.950617725542386",
      "longitude": "-90.11991613305531"
    }
  },
  {
    "service_request": "2024-1156697",
    "request_type": "Family Reunification",
    "request_reason": "Misplaced Citizen",
    "date_created": "2024-12-21T12:58:36.000",
    "date_modified": "2024-12-21T12:58:36.000",
    "request_status": "Pending",
    "responsible_agency": "Health Department",
    "final_address": " & WILSON ST",
    "address_councildis": "D",
    "status": "Pending",
    "rowid": "1156697",
    "final_x": "3687879.66",
    "final_y": "560022.2",
    "longitude": "-90.04691529576257",
    "latitude": "30.03367122080225",
    "geocoded_column": {
      "latitude": "30.03367122080225",
      "longitude": "-90.04691529576257"
    }
  },
  {
    "service_request": "2024-1156696",
    "request_type": "Safety & Permits",
    "request_reason": "Zoning Enforcement",
    "date_created": "2024-12-21T12:56:57.000",
    "date_modified": "2024-12-21T12:56:57.000",
    "request_status": "Pending",
    "responsible_agency": "Safety and Permits",
    "final_address": "2023 Adams St",
    "address_councildis": "A",
    "status": "Pending",
    "rowid": "1156696",
    "final_x": "3665101.56877",
    "final_y": "529568.618561",
    "longitude": "-90.11991613305531",
    "latitude": "29.950617725542386",
    "geocoded_column": {
      "latitude": "29.950617725542386",
      "longitude": "-90.11991613305531"
    }
  },
  {
    "service_request": "2024-1156695",
    "request_type": "Safety & Permits",
    "request_reason": "Zoning Enforcement",
    "date_created": "2024-12-21T12:55:42.000",
    "date_modified": "2024-12-21T12:55:42.000",
    "request_status": "Pending",
    "responsible_agency": "Safety and Permits",
    "final_address": "2023 Adams St",
    "address_councildis": "A",
    "status": "Pending",
    "rowid": "1156695",
    "final_x": "3665101.56877",
    "final_y": "529568.618561",
    "longitude": "-90.11991613305531",
    "latitude": "29.950617725542386",
    "geocoded_column": {
      "latitude": "29.950617725542386",
      "longitude": "-90.11991613305531"
    }
  },
  {
    "service_request": "2024-1156694",
    "request_type": "Safety & Permits",
    "request_reason": "Zoning Enforcement",
    "date_created": "2024-12-21T12:54:10.000",
    "date_modified": "2024-12-21T12:54:10.000",
    "request_status": "Pending",
    "responsible_agency": "Safety and Permits",
    "final_address": "2023 Adams St",
    "address_councildis": "A",
    "status": "Pending",
    "rowid": "1156694",
    "final_x": "3665101.56877",
    "final_y": "529568.618561",
    "longitude": "-90.11991613305531",
    "latitude": "29.950617725542386",
    "geocoded_column": {
      "latitude": "29.950617725542386",
      "longitude": "-90.11991613305531"
    }
  },
  {
    "service_request": "2024-1156693",
    "request_type": "Safety & Permits",
    "request_reason": "Zoning Enforcement",
    "date_created": "2024-12-21T12:52:45.000",
    "date_modified": "2024-12-21T12:52:45.000",
    "request_status": "Pending",
    "responsible_agency": "Safety and Permits",
    "final_address": "2023 Adams St",
    "address_councildis": "A",
    "status": "Pending",
    "rowid": "1156693",
    "final_x": "3665101.56877",
    "final_y": "529568.618561",
    "longitude": "-90.11991613305531",
    "latitude": "29.950617725542386",
    "geocoded_column": {
      "latitude": "29.950617725542386",
      "longitude": "-90.11991613305531"
    }
  },
  {
    "service_request": "2024-1156692",
    "request_type": "Safety & Permits",
    "request_reason": "Zoning Enforcement",
    "date_created": "2024-12-21T12:50:28.000",
    "date_modified": "2024-12-21T12:50:28.000",
    "request_status": "Pending",
    "responsible_agency": "Safety and Permits",
    "final_address": "2023 Adams St",
    "address_councildis": "A",
    "status": "Pending",
    "rowid": "1156692",
    "final_x": "3665101.56877",
    "final_y": "529568.618561",
    "longitude": "-90.11991613305531",
    "latitude": "29.950617725542386",
    "geocoded_column": {
      "latitude": "29.950617725542386",
      "longitude": "-90.11991613305531"
    }
  },
  {
    "service_request": "2024-1156691",
    "request_type": "Safety & Permits",
    "request_reason": "Zoning Enforcement",
    "date_created": "2024-12-21T12:48:53.000",
    "date_modified": "2024-12-21T12:48:53.000",
    "request_status": "Pending",
    "responsible_agency": "Safety and Permits",
    "final_address": "2023 Adams St",
    "address_councildis": "A",
    "status": "Pending",
    "rowid": "1156691",
    "final_x": "3665101.56877",
    "final_y": "529568.618561",
    "longitude": "-90.11991613305531",
    "latitude": "29.950617725542386",
    "geocoded_column": {
      "latitude": "29.950617725542386",
      "longitude": "-90.11991613305531"
    }
  },
  {
    "service_request": "2024-1156690",
    "request_type": "Street and Traffic Signs",
    "request_reason": "Traffic or Parking Sign Damaged or Missing",
    "date_created": "2024-12-21T12:46:47.000",
    "date_modified": "2024-12-21T12:46:47.000",
    "request_status": "Pending",
    "responsible_agency": "Department of Public Works",
    "final_address": "225 Walnut St",
    "address_councildis": "A",
    "status": "Pending",
    "rowid": "1156690",
    "final_x": "3661395.55418",
    "final_y": "521207.350969",
    "longitude": "-90.13189469890942",
    "latitude": "29.927734279295464",
    "geocoded_column": {
      "latitude": "29.927734279295464",
      "longitude": "-90.13189469890942"
    }
  },
  {
    "service_request": "2024-1156689",
    "request_type": "Safety & Permits",
    "request_reason": "Zoning Enforcement",
    "date_created": "2024-12-21T12:41:46.000",
    "date_modified": "2024-12-21T12:41:46.000",
    "request_status": "Pending",
    "responsible_agency": "Safety and Permits",
    "final_address": "2023 Adams St",
    "address_councildis": "A",
    "status": "Pending",
    "rowid": "1156689",
    "final_x": "3665101.56877",
    "final_y": "529568.618561",
    "longitude": "-90.11991613305531",
    "latitude": "29.950617725542386",
    "geocoded_column": {
      "latitude": "29.950617725542386",
      "longitude": "-90.11991613305531"
    }
  },
  {
    "service_request": "2024-1156688",
    "request_type": "Trash/Recycling",
    "request_reason": "Request a Large Item Pick Up",
    "date_created": "2024-12-21T12:41:24.000",
    "date_modified": "2024-12-21T12:41:25.000",
    "request_status": "Pending",
    "responsible_agency": "Department of Sanitation",
    "final_address": "3911 Iberville St",
    "address_councildis": "A",
    "status": "Assigned to Contractor",
    "contractor": "IV Waste",
    "rowid": "1156688",
    "final_x": "3671992.07911",
    "final_y": "538289.713289",
    "longitude": "-90.09786249213481",
    "latitude": "29.97439538522974",
    "geocoded_column": {
      "latitude": "29.97439538522974",
      "longitude": "-90.09786249213481"
    }
  },
  {
    "service_request": "2024-1156687",
    "request_type": "General Services",
    "request_reason": "General Service Request",
    "date_created": "2024-12-21T12:38:03.000",
    "date_modified": "2024-12-21T12:38:03.000",
    "request_status": "Pending",
    "responsible_agency": "Orleans Parish Communication District",
    "final_address": "8701 Pritchard Pl",
    "address_councildis": "A",
    "status": "Pending",
    "rowid": "1156687",
    "final_x": "3664491.29236",
    "final_y": "534366.411589",
    "longitude": "-90.1216828899228",
    "latitude": "29.963827849252564",
    "geocoded_column": {
      "latitude": "29.963827849252564",
      "longitude": "-90.1216828899228"
    }
  },
  {
    "service_request": "2024-1156686",
    "request_type": "Trash/Recycling",
    "request_reason": "Missed Trash Pick-Up",
    "date_created": "2024-12-21T12:23:33.000",
    "date_modified": "2024-12-21T13:09:07.000",
    "case_close_date": "2024-12-21T07:09:07.000",
    "request_status": "Closed",
    "responsible_agency": "Department of Sanitation",
    "final_address": "7918 S Claiborne Ave",
    "address_councildis": "A",
    "status": "Invalid Request",
    "contractor": "IV Waste",
    "contractor_action": "Invalid",
    "rowid": "1156686",
    "final_x": "3665266.69767",
    "final_y": "531015.684226",
    "longitude": "-90.11934633045044",
    "latitude": "29.954591876994588",
    "geocoded_column": {
      "latitude": "29.954591876994588",
      "longitude": "-90.11934633045044"
    }
  },
  {
    "service_request": "2024-1156685",
    "request_type": "Trash/Recycling",
    "request_reason": "Missed Trash Pick-Up",
    "date_created": "2024-12-21T12:21:53.000",
    "date_modified": "2024-12-21T12:32:26.000",
    "case_close_date": "2024-12-21T06:32:26.000",
    "request_status": "Closed",
    "responsible_agency": "Department of Sanitation",
    "final_address": "7918 S Claiborne Ave",
    "address_councildis": "A",
    "status": "Duplicate Request",
    "contractor": "IV Waste",
    "contractor_action": "Duplicate",
    "rowid": "1156685",
    "final_x": "3665266.69767",
    "final_y": "531015.684226",
    "longitude": "-90.11934633045044",
    "latitude": "29.954591876994588",
    "geocoded_column": {
      "latitude": "29.954591876994588",
      "longitude": "-90.11934633045044"
    }
  },
  {
    "service_request": "2024-1156684",
    "request_type": "Abandoned Vehicles",
    "request_reason": "Abandoned/Junk Vehicles",
    "date_created": "2024-12-21T12:21:37.000",
    "date_modified": "2024-12-21T12:21:37.000",
    "request_status": "Pending",
    "responsible_agency": "Department of Public Works",
    "final_address": "8411 Oak St",
    "address_councildis": "A",
    "status": "Pending",
    "rowid": "1156684",
    "final_x": "3661097.26291",
    "final_y": "529218.656576",
    "longitude": "-90.13257131839623",
    "latitude": "29.949771433444496",
    "geocoded_column": {
      "latitude": "29.949771433444496",
      "longitude": "-90.13257131839623"
    }
  },
  {
    "service_request": "2024-1156683",
    "request_type": "Parks & Parkways",
    "request_reason": "Park Maintenance/Clean Up",
    "date_created": "2024-12-21T12:06:43.000",
    "date_modified": "2024-12-21T12:06:43.000",
    "request_status": "Pending",
    "responsible_agency": "Department of Parks & Parkway",
    "final_address": "10000 S Interstate 10 Service Rd Ste A",
    "address_councildis": "E",
    "status": "Pending",
    "rowid": "1156683",
    "final_x": "3710724.47121",
    "final_y": "561335.903198",
    "longitude": "-89.97467454313244",
    "latitude": "30.036558383922547",
    "geocoded_column": {
      "latitude": "30.036558383922547",
      "longitude": "-89.97467454313244"
    }
  },
  {
    "service_request": "2024-1156682",
    "request_type": "Trash/Recycling",
    "request_reason": "Illegal Dumping",
    "date_created": "2024-12-21T11:57:26.000",
    "date_modified": "2024-12-21T11:57:26.000",
    "request_status": "Pending",
    "responsible_agency": "Department of Sanitation",
    "final_address": "14575 Michoud Blvd",
    "address_councildis": "E",
    "status": "Pending",
    "rowid": "1156682",
    "final_x": "3729118.48902",
    "final_y": "576523.355629",
    "longitude": "-89.91595288541546",
    "latitude": "30.077704899438604",
    "geocoded_column": {
      "latitude": "30.077704899438604",
      "longitude": "-89.91595288541546"
    }
  },
  {
    "service_request": "2024-1156681",
    "request_type": "Trash/Recycling",
    "request_reason": "Replace Trash Cart",
    "date_created": "2024-12-21T11:49:55.000",
    "date_modified": "2024-12-21T11:49:56.000",
    "request_status": "Pending",
    "responsible_agency": "Department of Sanitation",
    "final_address": "2775 Mendez St",
    "address_councildis": "D",
    "status": "Assigned to Contractor",
    "contractor": "IV Waste",
    "rowid": "1156681",
    "final_x": "3687880.42703",
    "final_y": "553819.718359",
    "longitude": "-90.04713288701028",
    "latitude": "30.01661668746503",
    "geocoded_column": {
      "latitude": "30.01661668746503",
      "longitude": "-90.04713288701028"
    }
  },
  {
    "service_request": "2024-1156680",
    "request_type": "Abandoned Vehicles",
    "request_reason": "Abandoned/Junk Vehicles",
    "date_created": "2024-12-21T11:43:08.000",
    "date_modified": "2024-12-21T11:43:08.000",
    "request_status": "Pending",
    "responsible_agency": "Department of Public Works",
    "final_address": "1901 Robert St",
    "address_councildis": "B",
    "status": "Pending",
    "rowid": "1156680",
    "final_x": "3668853.53473",
    "final_y": "522544.116922",
    "longitude": "-90.10830644359065",
    "latitude": "29.93119283182215",
    "geocoded_column": {
      "latitude": "29.93119283182215",
      "longitude": "-90.10830644359065"
    }
  },
  {
    "service_request": "2024-1156679",
    "request_type": "Abandoned Vehicles",
    "request_reason": "Abandoned/Junk Vehicles",
    "date_created": "2024-12-21T11:25:26.000",
    "date_modified": "2024-12-21T11:25:26.000",
    "request_status": "Pending",
    "responsible_agency": "Department of Public Works",
    "final_address": "1901 Robert St",
    "address_councildis": "B",
    "status": "Pending",
    "rowid": "1156679",
    "final_x": "3668853.53473",
    "final_y": "522544.116922",
    "longitude": "-90.10830644359065",
    "latitude": "29.93119283182215",
    "geocoded_column": {
      "latitude": "29.93119283182215",
      "longitude": "-90.10830644359065"
    }
  },
  {
    "service_request": "2024-1156678",
    "request_type": "Safety & Permits",
    "request_reason": "Licenses & Permits",
    "date_created": "2024-12-21T11:20:43.000",
    "date_modified": "2024-12-21T11:20:43.000",
    "request_status": "Pending",
    "responsible_agency": "Safety and Permits",
    "final_address": "5025 Loyola Ave",
    "address_councildis": "B",
    "status": "Pending",
    "rowid": "1156678",
    "final_x": "3668590.71252",
    "final_y": "522897.466363",
    "longitude": "-90.10912422434274",
    "latitude": "29.932172153428326",
    "geocoded_column": {
      "latitude": "29.932172153428326",
      "longitude": "-90.10912422434274"
    }
  },
  {
    "service_request": "2024-1156677",
    "request_type": "Safety & Permits",
    "request_reason": "Licenses & Permits",
    "date_created": "2024-12-21T11:19:25.000",
    "date_modified": "2024-12-21T11:19:25.000",
    "request_status": "Pending",
    "responsible_agency": "Safety and Permits",
    "final_address": "5019 Loyola Ave",
    "address_councildis": "B",
    "status": "Pending",
    "rowid": "1156677",
    "final_x": "3668627.00833",
    "final_y": "522896.840571",
    "longitude": "-90.1090096627713",
    "latitude": "29.93216936637557",
    "geocoded_column": {
      "latitude": "29.93216936637557",
      "longitude": "-90.1090096627713"
    }
  },
  {
    "service_request": "2024-1156676",
    "request_type": "Street and Traffic Signs",
    "request_reason": "Traffic or Parking Sign Damaged or Missing",
    "date_created": "2024-12-21T11:10:32.000",
    "date_modified": "2024-12-21T11:10:32.000",
    "request_status": "Pending",
    "responsible_agency": "Department of Public Works",
    "final_address": "JOSEPH CT & WILLOW ST & JOSEPH ST",
    "address_councildis": "A",
    "status": "Pending",
    "rowid": "1156676",
    "final_x": "3667567.9",
    "final_y": "525429.98",
    "longitude": "-90.11226795674388",
    "latitude": "29.939165762911077",
    "geocoded_column": {
      "latitude": "29.939165762911077",
      "longitude": "-90.11226795674388"
    }
  },
  {
    "service_request": "2024-1156675",
    "request_type": "Trash/Recycling",
    "request_reason": "Return Trash Cart",
    "date_created": "2024-12-21T10:41:00.000",
    "date_modified": "2024-12-21T10:41:01.000",
    "request_status": "Pending",
    "responsible_agency": "Department of Sanitation",
    "final_address": "4439 Annunciation St",
    "address_councildis": "B",
    "status": "Assigned to Contractor",
    "contractor": "IV Waste",
    "rowid": "1156675",
    "final_x": "3670790.94785",
    "final_y": "517751.635318",
    "longitude": "-90.10235279874362",
    "latitude": "29.917957938949204",
    "geocoded_column": {
      "latitude": "29.917957938949204",
      "longitude": "-90.10235279874362"
    }
  },
  {
    "service_request": "2024-1156674",
    "request_type": "Trash/Recycling",
    "request_reason": "Request a Large Item Pick Up",
    "date_created": "2024-12-21T10:23:40.000",
    "date_modified": "2024-12-21T10:23:41.000",
    "request_status": "Pending",
    "responsible_agency": "Department of Sanitation",
    "final_address": "2428 Valmont St",
    "address_councildis": "B",
    "status": "Assigned to Contractor",
    "contractor": "IV Waste",
    "rowid": "1156674",
    "final_x": "3668220.16698",
    "final_y": "524545.053308",
    "longitude": "-90.11023848461471",
    "latitude": "29.93671337028804",
    "geocoded_column": {
      "latitude": "29.93671337028804",
      "longitude": "-90.11023848461471"
    }
  },
  {
    "service_request": "2024-1156673",
    "request_type": "Trash/Recycling",
    "request_reason": "Replace Trash Cart",
    "date_created": "2024-12-21T10:22:43.000",
    "date_modified": "2024-12-21T10:22:44.000",
    "request_status": "Pending",
    "responsible_agency": "Department of Sanitation",
    "final_address": "1206 Arabella St",
    "address_councildis": "A",
    "status": "Assigned to Contractor",
    "contractor": "IV Waste",
    "rowid": "1156673",
    "final_x": "3666104.38215",
    "final_y": "520360.728504",
    "longitude": "-90.11705836162413",
    "latitude": "29.92526973488013",
    "geocoded_column": {
      "latitude": "29.92526973488013",
      "longitude": "-90.11705836162413"
    }
  },
  {
    "service_request": "2024-1156672",
    "request_type": "Property Maintenance",
    "request_reason": "Property Maintenance",
    "date_created": "2024-12-21T10:09:02.000",
    "date_modified": "2024-12-21T10:09:02.000",
    "request_status": "Pending",
    "responsible_agency": "Department of Code Enforcement",
    "final_address": "4914 Constance St",
    "address_councildis": "B",
    "status": "Pending",
    "rowid": "1156672",
    "final_x": "3668833.9417",
    "final_y": "518168.139382",
    "longitude": "-90.10851596212954",
    "latitude": "29.91916085861073",
    "geocoded_column": {
      "latitude": "29.91916085861073",
      "longitude": "-90.10851596212954"
    }
  },
  {
    "service_request": "2024-1156671",
    "request_type": "Trash/Recycling",
    "request_reason": "Replace Recycling Cart",
    "date_created": "2024-12-21T09:20:47.000",
    "date_modified": "2024-12-21T09:20:47.000",
    "request_status": "Pending",
    "responsible_agency": "Department of Sanitation",
    "final_address": "626 Congress St",
    "address_councildis": "C",
    "status": "Pending",
    "rowid": "1156671",
    "final_x": "3690277.351",
    "final_y": "533945.833733",
    "longitude": "-90.04026826097889",
    "latitude": "29.961896462005882",
    "geocoded_column": {
      "latitude": "29.961896462005882",
      "longitude": "-90.04026826097889"
    }
  },
  {
    "service_request": "2024-1156670",
    "request_type": "Trash/Recycling",
    "request_reason": "Illegal Dumping",
    "date_created": "2024-12-21T09:09:37.000",
    "date_modified": "2024-12-21T09:09:37.000",
    "request_status": "Pending",
    "responsible_agency": "Department of Sanitation",
    "final_address": "813 N Prieur St",
    "address_councildis": "D",
    "status": "Pending",
    "rowid": "1156670",
    "final_x": "3679174.57371",
    "final_y": "535660.285126",
    "longitude": "-90.0752696408915",
    "latitude": "29.966950462453585",
    "geocoded_column": {
      "latitude": "29.966950462453585",
      "longitude": "-90.0752696408915"
    }
  },
  {
    "service_request": "2024-1156669",
    "request_type": "Trash/Recycling",
    "request_reason": "Request a Large Item Pick Up",
    "date_created": "2024-12-21T08:41:07.000",
    "date_modified": "2024-12-21T08:41:08.000",
    "request_status": "Pending",
    "responsible_agency": "Department of Sanitation",
    "final_address": "472 Walnut St",
    "address_councildis": "A",
    "status": "Assigned to Contractor",
    "contractor": "IV Waste",
    "rowid": "1156669",
    "final_x": "3662695.07488",
    "final_y": "523363.608187",
    "longitude": "-90.12772078290557",
    "latitude": "29.933625778170747",
    "geocoded_column": {
      "latitude": "29.933625778170747",
      "longitude": "-90.12772078290557"
    }
  },
  {
    "service_request": "2024-1156668",
    "request_type": "Trash/Recycling",
    "request_reason": "Request a Large Item Pick Up",
    "date_created": "2024-12-21T08:30:20.000",
    "date_modified": "2024-12-21T08:30:21.000",
    "request_status": "Pending",
    "responsible_agency": "Department of Sanitation",
    "final_address": "1724 Rousselin Dr",
    "address_councildis": "D",
    "status": "Assigned to Contractor",
    "contractor": "IV Waste",
    "rowid": "1156668",
    "final_x": "3679936.23189",
    "final_y": "540689.614667",
    "longitude": "-90.0726895837578",
    "latitude": "29.980756367673845",
    "geocoded_column": {
      "latitude": "29.980756367673845",
      "longitude": "-90.0726895837578"
    }
  },
  {
    "service_request": "2024-1156667",
    "request_type": "Abandoned Vehicles",
    "request_reason": "Abandoned/Junk Vehicles",
    "date_created": "2024-12-21T08:17:31.000",
    "date_modified": "2024-12-21T08:17:31.000",
    "request_status": "Pending",
    "responsible_agency": "Department of Public Works",
    "final_address": "3136 N Robertson St",
    "address_councildis": "C",
    "status": "Pending",
    "rowid": "1156667",
    "final_x": "3689649.66588",
    "final_y": "537373.737224",
    "longitude": "-90.04212840504819",
    "latitude": "29.971341457662255",
    "geocoded_column": {
      "latitude": "29.971341457662255",
      "longitude": "-90.04212840504819"
    }
  },
  {
    "service_request": "2024-1156666",
    "request_type": "Property Maintenance",
    "request_reason": "Property Maintenance",
    "date_created": "2024-12-21T08:08:07.000",
    "date_modified": "2024-12-21T08:08:07.000",
    "request_status": "Pending",
    "responsible_agency": "Department of Code Enforcement",
    "final_address": "1430 Clouet St",
    "address_councildis": "C",
    "status": "Pending",
    "rowid": "1156666",
    "final_x": "3689317.14998",
    "final_y": "537407.60884",
    "longitude": "-90.04317732956989",
    "latitude": "29.97144489144419",
    "geocoded_column": {
      "latitude": "29.97144489144419",
      "longitude": "-90.04317732956989"
    }
  },
  {
    "service_request": "2024-1156665",
    "request_type": "Trash/Recycling",
    "request_reason": "Request a Large Item Pick Up",
    "date_created": "2024-12-21T07:17:53.000",
    "date_modified": "2024-12-21T07:17:54.000",
    "request_status": "Pending",
    "responsible_agency": "Department of Sanitation",
    "final_address": "517 Conrad St",
    "address_councildis": "A",
    "status": "Assigned to Contractor",
    "contractor": "IV Waste",
    "rowid": "1156665",
    "final_x": "3668535.05684",
    "final_y": "554430.853528",
    "longitude": "-90.10823558840374",
    "latitude": "30.018879991631948",
    "geocoded_column": {
      "latitude": "30.018879991631948",
      "longitude": "-90.10823558840374"
    }
  },
  {
    "service_request": "2024-1156664",
    "request_type": "Street and Traffic Signs",
    "request_reason": "Traffic or Parking Sign Damaged or Missing",
    "date_created": "2024-12-21T07:05:56.000",
    "date_modified": "2024-12-21T07:05:56.000",
    "request_status": "Pending",
    "responsible_agency": "Department of Public Works",
    "final_address": "225 Walnut St",
    "address_councildis": "A",
    "status": "Pending",
    "rowid": "1156664",
    "final_x": "3661395.55418",
    "final_y": "521207.350969",
    "longitude": "-90.13189469890942",
    "latitude": "29.927734279295464",
    "geocoded_column": {
      "latitude": "29.927734279295464",
      "longitude": "-90.13189469890942"
    }
  },
  {
    "service_request": "2024-1156663",
    "request_type": "Abandoned Vehicles",
    "request_reason": "Abandoned/Junk Vehicles",
    "date_created": "2024-12-21T07:04:58.000",
    "date_modified": "2024-12-21T07:04:58.000",
    "request_status": "Pending",
    "responsible_agency": "Department of Public Works",
    "final_address": "2108 Ellen Park Pl",
    "address_councildis": "C",
    "status": "Pending",
    "rowid": "1156663",
    "final_x": "3702998.86052",
    "final_y": "523124.798587",
    "longitude": "-90.00049351074013",
    "latitude": "29.93174157464847",
    "geocoded_column": {
      "latitude": "29.93174157464847",
      "longitude": "-90.00049351074013"
    }
  },
  {
    "service_request": "2024-1156662",
    "request_type": "Trash/Recycling",
    "request_reason": "Start Trash Service",
    "date_created": "2024-12-21T06:41:37.000",
    "date_modified": "2024-12-21T06:41:38.000",
    "request_status": "Pending",
    "responsible_agency": "Department of Sanitation",
    "final_address": "7747 Downman Rd",
    "address_councildis": "D",
    "status": "Assigned to Contractor",
    "contractor": "Waste Pro",
    "rowid": "1156662",
    "final_x": "3694518.57091",
    "final_y": "559031.6511",
    "longitude": "-90.02597138502458",
    "latitude": "30.030740977682246",
    "geocoded_column": {
      "latitude": "30.030740977682246",
      "longitude": "-90.02597138502458"
    }
  },
  {
    "service_request": "2024-1156661",
    "request_type": "Roads and Streets",
    "request_reason": "Pothole",
    "date_created": "2024-12-21T06:09:05.000",
    "date_modified": "2024-12-21T06:09:05.000",
    "request_status": "Pending",
    "responsible_agency": "Department of Public Works",
    "final_address": "3822 Octavia St",
    "address_councildis": "A",
    "status": "Pending",
    "rowid": "1156661",
    "final_x": "3668748.93102",
    "final_y": "529530.563009",
    "longitude": "-90.10840088796502",
    "latitude": "29.950406376162874",
    "geocoded_column": {
      "latitude": "29.950406376162874",
      "longitude": "-90.10840088796502"
    }
  },
  {
    "service_request": "2024-1156660",
    "request_type": "Trash/Recycling",
    "request_reason": "Request a Large Item Pick Up",
    "date_created": "2024-12-20T22:20:28.000",
    "date_modified": "2024-12-20T22:20:29.000",
    "request_status": "Pending",
    "responsible_agency": "Department of Sanitation",
    "final_address": "4573 Francisco Verrett Dr",
    "address_councildis": "E",
    "status": "Assigned to Contractor",
    "contractor": "Waste Pro",
    "rowid": "1156660",
    "final_x": "3704378.12938",
    "final_y": "554068.224216",
    "longitude": "-89.99499839612224",
    "latitude": "30.016780471898205",
    "geocoded_column": {
      "latitude": "30.016780471898205",
      "longitude": "-89.99499839612224"
    }
  },
  {
    "service_request": "2024-1156659",
    "request_type": "Abandoned Vehicles",
    "request_reason": "Abandoned/Junk Vehicles",
    "date_created": "2024-12-20T22:04:39.000",
    "date_modified": "2024-12-20T22:04:39.000",
    "request_status": "Pending",
    "responsible_agency": "Department of Public Works",
    "final_address": "ST BERNARD AVE & FLORIDA AVE",
    "address_councildis": "D",
    "status": "Pending",
    "rowid": "1156659",
    "final_x": "3678757.3",
    "final_y": "544430.88",
    "longitude": "-90.07628353498092",
    "latitude": "29.99107915391023",
    "geocoded_column": {
      "latitude": "29.99107915391023",
      "longitude": "-90.07628353498092"
    }
  },
  {
    "service_request": "2024-1156658",
    "request_type": "Trash/Recycling",
    "request_reason": "Replace Recycling Cart",
    "date_created": "2024-12-20T22:03:57.000",
    "date_modified": "2024-12-20T22:03:57.000",
    "request_status": "Pending",
    "responsible_agency": "Department of Sanitation",
    "final_address": "700 BLK Fourth St",
    "address_councildis": "B",
    "status": "Pending",
    "rowid": "1156658",
    "final_x": "3678033.33911",
    "final_y": "519917.241777",
    "longitude": "-90.07941772214406",
    "latitude": "29.923696730460698",
    "geocoded_column": {
      "latitude": "29.923696730460698",
      "longitude": "-90.07941772214406"
    }
  },
  {
    "service_request": "2024-1156657",
    "request_type": "Abandoned Vehicles",
    "request_reason": "Abandoned/Junk Vehicles",
    "date_created": "2024-12-20T22:01:52.000",
    "date_modified": "2024-12-20T22:01:52.000",
    "request_status": "Pending",
    "responsible_agency": "Department of Public Works",
    "final_address": "ST BERNARD AVE & FLORIDA AVE",
    "address_councildis": "D",
    "status": "Pending",
    "rowid": "1156657",
    "final_x": "3678757.3",
    "final_y": "544430.88",
    "longitude": "-90.07628353498092",
    "latitude": "29.99107915391023",
    "geocoded_column": {
      "latitude": "29.99107915391023",
      "longitude": "-90.07628353498092"
    }
  },
  {
    "service_request": "2024-1156656",
    "request_type": "Trash/Recycling",
    "request_reason": "Request a Large Item Pick Up",
    "date_created": "2024-12-20T20:54:06.000",
    "date_modified": "2024-12-20T20:54:07.000",
    "request_status": "Pending",
    "responsible_agency": "Department of Sanitation",
    "final_address": "11341 N Parkwood Ct",
    "address_councildis": "E",
    "status": "Assigned to Contractor",
    "contractor": "Waste Pro",
    "rowid": "1156656",
    "final_x": "3716932.57445",
    "final_y": "559625.744285",
    "longitude": "-89.95512089138047",
    "latitude": "30.031652271027017",
    "geocoded_column": {
      "latitude": "30.031652271027017",
      "longitude": "-89.95512089138047"
    }
  },
  {
    "service_request": "2024-1156655",
    "request_type": "Trash/Recycling",
    "request_reason": "Missed Trash Pick-Up",
    "date_created": "2024-12-20T20:51:36.000",
    "date_modified": "2024-12-21T06:48:26.000",
    "case_close_date": "2024-12-21T00:48:26.000",
    "request_status": "Closed",
    "responsible_agency": "Department of Sanitation",
    "final_address": "3418 S Robertson St",
    "address_councildis": "B",
    "status": "Invalid Request",
    "contractor": "IV Waste",
    "contractor_action": "Invalid",
    "rowid": "1156655",
    "final_x": "3672625.18395",
    "final_y": "524687.269372",
    "longitude": "-90.09632677011002",
    "latitude": "29.936974393386233",
    "geocoded_column": {
      "latitude": "29.936974393386233",
      "longitude": "-90.09632677011002"
    }
  },
  {
    "service_request": "2024-1156654",
    "request_type": "General Services",
    "request_reason": "General Service Request",
    "date_created": "2024-12-20T20:23:11.000",
    "date_modified": "2024-12-20T20:23:11.000",
    "request_status": "Pending",
    "responsible_agency": "Orleans Parish Communication District",
    "final_address": "4700 BLK Werner Dr",
    "address_councildis": "E",
    "status": "Pending",
    "rowid": "1156654",
    "final_x": "3704767.62258",
    "final_y": "555296.183487",
    "longitude": "-89.99372241161224",
    "latitude": "30.02014437267428",
    "geocoded_column": {
      "latitude": "30.02014437267428",
      "longitude": "-89.99372241161224"
    }
  },
  {
    "service_request": "2024-1156653",
    "request_type": "General Services",
    "request_reason": "General Service Request",
    "date_created": "2024-12-20T20:19:54.000",
    "date_modified": "2024-12-20T20:19:54.000",
    "request_status": "Pending",
    "responsible_agency": "Orleans Parish Communication District",
    "final_address": "5406 S Rocheblave St",
    "address_councildis": "A",
    "status": "Pending",
    "rowid": "1156653",
    "final_x": "3668790.54926",
    "final_y": "528266.148224",
    "longitude": "-90.10831216134768",
    "latitude": "29.946928424308954",
    "geocoded_column": {
      "latitude": "29.946928424308954",
      "longitude": "-90.10831216134768"
    }
  },
  {
    "service_request": "2024-1156652",
    "request_type": "Streetlights",
    "request_reason": "Streetlight Outage/Malfunction",
    "date_created": "2024-12-20T19:33:26.000",
    "date_modified": "2024-12-20T19:33:26.000",
    "request_status": "Pending",
    "responsible_agency": "Department of Public Works",
    "final_address": "WEST END BLVD & DOWNS ST",
    "address_councildis": "A",
    "status": "Pending",
    "contractor": "Legacy Professional Services",
    "rowid": "1156652",
    "final_x": "3666770.3",
    "final_y": "553206.48",
    "longitude": "-90.11385278946197",
    "latitude": "30.015565158512178",
    "geocoded_column": {
      "latitude": "30.015565158512178",
      "longitude": "-90.11385278946197"
    }
  },
  {
    "service_request": "2024-1156651",
    "request_type": "Trash/Recycling",
    "request_reason": "Request a Large Item Pick Up",
    "date_created": "2024-12-20T18:55:29.000",
    "date_modified": "2024-12-20T18:55:30.000",
    "request_status": "Pending",
    "responsible_agency": "Department of Sanitation",
    "final_address": "7742 Briarwood Dr",
    "address_councildis": "E",
    "status": "Assigned to Contractor",
    "contractor": "Waste Pro",
    "rowid": "1156651",
    "final_x": "3717007.29957",
    "final_y": "571447.733224",
    "longitude": "-89.95443519553656",
    "latitude": "30.064155431364313",
    "geocoded_column": {
      "latitude": "30.064155431364313",
      "longitude": "-89.95443519553656"
    }
  },
  {
    "service_request": "2024-1156650",
    "request_type": "Parks & Parkways",
    "request_reason": "Request Tree Service (Right of Way/Public Property)",
    "date_created": "2024-12-20T18:53:36.000",
    "date_modified": "2024-12-20T18:53:36.000",
    "request_status": "Pending",
    "responsible_agency": "Department of Parks & Parkway",
    "final_address": "6339 Milne Blvd",
    "address_councildis": "A",
    "status": "Pending",
    "rowid": "1156650",
    "final_x": "3667379.77703",
    "final_y": "549807.127508",
    "longitude": "-90.11204159097564",
    "latitude": "30.006200279321913",
    "geocoded_column": {
      "latitude": "30.006200279321913",
      "longitude": "-90.11204159097564"
    }
  },
  {
    "service_request": "2024-1156649",
    "request_type": "Streetlights",
    "request_reason": "New Streetlight Request",
    "date_created": "2024-12-20T18:44:55.000",
    "date_modified": "2024-12-20T18:44:57.000",
    "request_status": "Pending",
    "responsible_agency": "Department of Public Works",
    "final_address": "6339 Milne Blvd",
    "address_councildis": "A",
    "status": "Pending",
    "contractor": "Legacy Professional Services",
    "rowid": "1156649",
    "final_x": "3667379.77703",
    "final_y": "549807.127508",
    "longitude": "-90.11204159097564",
    "latitude": "30.006200279321913",
    "geocoded_column": {
      "latitude": "30.006200279321913",
      "longitude": "-90.11204159097564"
    }
  },
  {
    "service_request": "2024-1156648",
    "request_type": "General Services",
    "request_reason": "General Service Request",
    "date_created": "2024-12-20T18:39:56.000",
    "date_modified": "2024-12-20T18:39:56.000",
    "request_status": "Pending",
    "responsible_agency": "Orleans Parish Communication District",
    "final_address": "239 Opal St",
    "address_councildis": "D",
    "status": "Pending",
    "rowid": "1156648",
    "final_x": "3667350.24289",
    "final_y": "555570.936025",
    "longitude": "-90.11194079735627",
    "latitude": "30.022049593089214",
    "geocoded_column": {
      "latitude": "30.022049593089214",
      "longitude": "-90.11194079735627"
    }
  },
  {
    "service_request": "2024-1156647",
    "request_type": "Trash/Recycling",
    "request_reason": "Replace Trash Cart",
    "date_created": "2024-12-20T18:24:28.000",
    "date_modified": "2024-12-20T18:24:29.000",
    "request_status": "Pending",
    "responsible_agency": "Department of Sanitation",
    "final_address": "2431 Palmer Ave",
    "address_councildis": "A",
    "status": "Assigned to Contractor",
    "contractor": "IV Waste",
    "rowid": "1156647",
    "final_x": "3666476.30407",
    "final_y": "525769.359293",
    "longitude": "-90.1157028867942",
    "latitude": "29.94013088778818",
    "geocoded_column": {
      "latitude": "29.94013088778818",
      "longitude": "-90.1157028867942"
    }
  },
  {
    "service_request": "2024-1156646",
    "request_type": "Drainage",
    "request_reason": "Catch Basin Clogged",
    "date_created": "2024-12-20T18:21:48.000",
    "date_modified": "2024-12-21T08:00:26.000",
    "request_status": "Pending",
    "responsible_agency": "Department of Public Works",
    "final_address": "CAMEO ST & OPAL ST",
    "address_councildis": "D",
    "status": "Inspected",
    "rowid": "1156646",
    "final_x": "3667645.3",
    "final_y": "555314.88",
    "longitude": "-90.11101711899795",
    "latitude": "30.021336878647052",
    "geocoded_column": {
      "latitude": "30.021336878647052",
      "longitude": "-90.11101711899795"
    }
  },
  {
    "service_request": "2024-1156645",
    "request_type": "Abandoned Vehicles",
    "request_reason": "Abandoned/Junk Vehicles",
    "date_created": "2024-12-20T18:06:22.000",
    "date_modified": "2024-12-20T18:06:22.000",
    "request_status": "Pending",
    "responsible_agency": "Department of Public Works",
    "final_address": "209 Opal St Unit A",
    "address_councildis": "D",
    "status": "Pending",
    "rowid": "1156645",
    "final_x": "3667134.39655",
    "final_y": "555589.047833",
    "longitude": "-90.11262220998977",
    "latitude": "30.022105718696004",
    "geocoded_column": {
      "latitude": "30.022105718696004",
      "longitude": "-90.11262220998977"
    }
  },
  {
    "service_request": "2024-1156644",
    "request_type": "Trash/Recycling",
    "request_reason": "Illegal Dumping",
    "date_created": "2024-12-20T17:30:11.000",
    "date_modified": "2024-12-20T17:30:11.000",
    "request_status": "Pending",
    "responsible_agency": "Department of Sanitation",
    "final_address": "2515 S Saratoga St",
    "address_councildis": "B",
    "status": "Pending",
    "rowid": "1156644",
    "final_x": "3675585.12398",
    "final_y": "524486.170108",
    "longitude": "-90.08698897514657",
    "latitude": "29.93633324020013",
    "geocoded_column": {
      "latitude": "29.93633324020013",
      "longitude": "-90.08698897514657"
    }
  },
  {
    "service_request": "2024-1156643",
    "request_type": "Trash/Recycling",
    "request_reason": "Order Recycling Cart",
    "date_created": "2024-12-20T17:30:00.000",
    "date_modified": "2024-12-20T17:30:00.000",
    "request_status": "Pending",
    "responsible_agency": "Department of Sanitation",
    "final_address": "5103 Annunciation St",
    "address_councildis": "B",
    "status": "Pending",
    "rowid": "1156643",
    "final_x": "3668255.39981",
    "final_y": "517585.800502",
    "longitude": "-90.11036174898474",
    "latitude": "29.917576601690342",
    "geocoded_column": {
      "latitude": "29.917576601690342",
      "longitude": "-90.11036174898474"
    }
  },
  {
    "service_request": "2024-1156642",
    "request_type": "Streetlights",
    "request_reason": "Streetlight Outage/Malfunction",
    "date_created": "2024-12-20T17:27:46.000",
    "date_modified": "2024-12-20T17:27:47.000",
    "request_status": "Pending",
    "responsible_agency": "Department of Public Works",
    "final_address": "1114 Lyons St",
    "address_councildis": "B",
    "status": "Pending",
    "contractor": "Legacy Professional Services",
    "rowid": "1156642",
    "final_x": "3669122.73076",
    "final_y": "519402.919991",
    "longitude": "-90.1075627048249",
    "latitude": "29.92254762370062",
    "geocoded_column": {
      "latitude": "29.92254762370062",
      "longitude": "-90.1075627048249"
    }
  },
  {
    "service_request": "2024-1156641",
    "request_type": "Trash/Recycling",
    "request_reason": "Replace Trash Cart",
    "date_created": "2024-12-20T17:05:47.000",
    "date_modified": "2024-12-20T17:05:48.000",
    "request_status": "Pending",
    "responsible_agency": "Department of Sanitation",
    "final_address": "4838 Rosalia Dr",
    "address_councildis": "E",
    "status": "Assigned to Contractor",
    "contractor": "Waste Pro",
    "rowid": "1156641",
    "final_x": "3711056.58065",
    "final_y": "556578.426714",
    "longitude": "-89.97380340288049",
    "latitude": "30.023466373965782",
    "geocoded_column": {
      "latitude": "30.023466373965782",
      "longitude": "-89.97380340288049"
    }
  },
  {
    "service_request": "2024-1156640",
    "request_type": "Trash/Recycling",
    "request_reason": "Request a Large Item Pick Up",
    "date_created": "2024-12-20T16:53:53.000",
    "date_modified": "2024-12-20T16:53:54.000",
    "request_status": "Pending",
    "responsible_agency": "Department of Sanitation",
    "final_address": "15001 Emory Rd",
    "address_councildis": "E",
    "status": "Assigned to Contractor",
    "contractor": "Waste Pro",
    "rowid": "1156640",
    "final_x": "3720915.04601",
    "final_y": "574138.401898",
    "longitude": "-89.94197937600815",
    "latitude": "30.071423753550658",
    "geocoded_column": {
      "latitude": "30.071423753550658",
      "longitude": "-89.94197937600815"
    }
  },
  {
    "service_request": "2024-1156639",
    "request_type": "Property Maintenance",
    "request_reason": "Property Maintenance",
    "date_created": "2024-12-20T16:51:36.000",
    "date_modified": "2024-12-20T16:51:36.000",
    "request_status": "Pending",
    "responsible_agency": "Department of Code Enforcement",
    "final_address": "2037 First St",
    "address_councildis": "B",
    "status": "Pending",
    "rowid": "1156639",
    "final_x": "3676020.40193",
    "final_y": "524683.305148",
    "longitude": "-90.08560800966494",
    "latitude": "29.93686227132431",
    "geocoded_column": {
      "latitude": "29.93686227132431",
      "longitude": "-90.08560800966494"
    }
  },
  {
    "service_request": "2024-1156638",
    "request_type": "Trash/Recycling",
    "request_reason": "Request a Large Item Pick Up",
    "date_created": "2024-12-20T16:48:55.000",
    "date_modified": "2024-12-20T16:48:56.000",
    "request_status": "Pending",
    "responsible_agency": "Department of Sanitation",
    "final_address": "2120 Bienville Ave",
    "address_councildis": "B",
    "status": "Assigned to Contractor",
    "contractor": "IV Waste",
    "rowid": "1156638",
    "final_x": "3677549.05518",
    "final_y": "534337.779589",
    "longitude": "-90.08044870129669",
    "latitude": "29.963362994896123",
    "geocoded_column": {
      "latitude": "29.963362994896123",
      "longitude": "-90.08044870129669"
    }
  },
  {
    "service_request": "2024-1156637",
    "request_type": "Trash/Recycling",
    "request_reason": "Request a Large Item Pick Up",
    "date_created": "2024-12-20T16:36:40.000",
    "date_modified": "2024-12-20T16:36:41.000",
    "request_status": "Pending",
    "responsible_agency": "Department of Sanitation",
    "final_address": "7809 Symmes Ave",
    "address_councildis": "E",
    "status": "Assigned to Contractor",
    "contractor": "Waste Pro",
    "rowid": "1156637",
    "final_x": "3707596.36721",
    "final_y": "565177.376354",
    "longitude": "-89.98441699741372",
    "latitude": "30.0472225212974",
    "geocoded_column": {
      "latitude": "30.0472225212974",
      "longitude": "-89.98441699741372"
    }
  },
  {
    "service_request": "2024-1156636",
    "request_type": "Mosquito, Termite & Rodent Control",
    "request_reason": "Mosquito Complaint",
    "date_created": "2024-12-20T16:18:38.000",
    "date_modified": "2024-12-20T16:18:39.000",
    "request_status": "Pending",
    "responsible_agency": "Mosquito, Termite & Rodent Control Board",
    "final_address": "1581 Steeple Chase Ln",
    "address_councildis": "C",
    "status": "Pending",
    "rowid": "1156636",
    "final_x": "3699928.17815",
    "final_y": "525085.859709",
    "longitude": "-90.01011575828029",
    "latitude": "29.937231667988097",
    "geocoded_column": {
      "latitude": "29.937231667988097",
      "longitude": "-90.01011575828029"
    }
  },
  {
    "service_request": "2024-1156635",
    "request_type": "Trash/Recycling",
    "request_reason": "Request a Large Item Pick Up",
    "date_created": "2024-12-20T16:17:01.000",
    "date_modified": "2024-12-20T16:17:02.000",
    "request_status": "Pending",
    "responsible_agency": "Department of Sanitation",
    "final_address": "1822 E Homestead Dr",
    "address_councildis": "C",
    "status": "Assigned to Contractor",
    "contractor": "Richards Disposal",
    "rowid": "1156635",
    "final_x": "3697199.83299",
    "final_y": "525190.673725",
    "longitude": "-90.0187254690665",
    "latitude": "29.937606221867753",
    "geocoded_column": {
      "latitude": "29.937606221867753",
      "longitude": "-90.0187254690665"
    }
  },
  {
    "service_request": "2024-1156634",
    "request_type": "Trash/Recycling",
    "request_reason": "Request a Large Item Pick Up",
    "date_created": "2024-12-20T16:11:03.000",
    "date_modified": "2024-12-20T16:11:04.000",
    "request_status": "Pending",
    "responsible_agency": "Department of Sanitation",
    "final_address": "1627 Steeple Chase Ln",
    "address_councildis": "C",
    "status": "Assigned to Contractor",
    "contractor": "Richards Disposal",
    "rowid": "1156634",
    "final_x": "3699908.02845",
    "final_y": "524723.912444",
    "longitude": "-90.01019256672579",
    "latitude": "29.93623707869219",
    "geocoded_column": {
      "latitude": "29.93623707869219",
      "longitude": "-90.01019256672579"
    }
  },
  {
    "service_request": "2024-1156633",
    "request_type": "Trash/Recycling",
    "request_reason": "Request a Large Item Pick Up",
    "date_created": "2024-12-20T16:08:10.000",
    "date_modified": "2024-12-20T16:08:11.000",
    "request_status": "Pending",
    "responsible_agency": "Department of Sanitation",
    "final_address": "7095 Edgefield Dr",
    "address_councildis": "E",
    "status": "Assigned to Contractor",
    "contractor": "Waste Pro",
    "rowid": "1156633",
    "final_x": "3718586.25023",
    "final_y": "569528.63703",
    "longitude": "-89.94951732889695",
    "latitude": "30.05882637719464",
    "geocoded_column": {
      "latitude": "30.05882637719464",
      "longitude": "-89.94951732889695"
    }
  },
  {
    "service_request": "2024-1156632",
    "request_type": "Trash/Recycling",
    "request_reason": "MIssed Recycling Pick-Up",
    "date_created": "2024-12-20T16:03:09.000",
    "date_modified": "2024-12-20T17:03:01.000",
    "case_close_date": "2024-12-20T11:03:01.000",
    "request_status": "Closed",
    "responsible_agency": "Department of Sanitation",
    "final_address": "1840 Charbonnet St",
    "address_councildis": "E",
    "status": "Invalid Request",
    "contractor": "Waste Pro",
    "contractor_action": "Invalid Request",
    "rowid": "1156632",
    "final_x": "3699334.35997",
    "final_y": "536576.064775",
    "longitude": "-90.01157202190971",
    "latitude": "29.96884451311015",
    "geocoded_column": {
      "latitude": "29.96884451311015",
      "longitude": "-90.01157202190971"
    }
  },
  {
    "service_request": "2024-1156631",
    "request_type": "Trash/Recycling",
    "request_reason": "Order Second Trash Cart",
    "date_created": "2024-12-20T16:02:42.000",
    "date_modified": "2024-12-20T16:02:43.000",
    "request_status": "Pending",
    "responsible_agency": "Department of Sanitation",
    "final_address": "1318 Moss St",
    "address_councildis": "A",
    "status": "Assigned to Contractor",
    "contractor": "IV Waste",
    "rowid": "1156631",
    "final_x": "3675389.64347",
    "final_y": "540492.545227",
    "longitude": "-90.08705649412845",
    "latitude": "29.98035125199552",
    "geocoded_column": {
      "latitude": "29.98035125199552",
      "longitude": "-90.08705649412845"
    }
  },
  {
    "service_request": "2024-1156630",
    "request_type": "Safety & Permits",
    "request_reason": "Zoning Enforcement",
    "date_created": "2024-12-20T16:01:27.000",
    "date_modified": "2024-12-20T16:01:28.000",
    "request_status": "Pending",
    "responsible_agency": "Safety and Permits",
    "final_address": "DUMAINE ST & MOSS ST",
    "address_councildis": "A",
    "status": "Pending",
    "rowid": "1156630",
    "final_x": "3674482.5",
    "final_y": "539565.48",
    "longitude": "-90.08995341743724",
    "latitude": "29.977829238658742",
    "geocoded_column": {
      "latitude": "29.977829238658742",
      "longitude": "-90.08995341743724"
    }
  },
  {
    "service_request": "2024-1156629",
    "request_type": "Trash/Recycling",
    "request_reason": "Missed Trash Pick-Up",
    "date_created": "2024-12-20T15:57:21.000",
    "date_modified": "2024-12-20T17:01:59.000",
    "case_close_date": "2024-12-20T11:01:59.000",
    "request_status": "Closed",
    "responsible_agency": "Department of Sanitation",
    "final_address": "3100 St Anthony Ave",
    "address_councildis": "D",
    "status": "Invalid Request",
    "contractor": "IV Waste",
    "contractor_action": "Invalid Request",
    "rowid": "1156629",
    "final_x": "3682779.51861",
    "final_y": "543953.238734",
    "longitude": "-90.06359501948397",
    "latitude": "29.98964386553366",
    "geocoded_column": {
      "latitude": "29.98964386553366",
      "longitude": "-90.06359501948397"
    }
  },
  {
    "service_request": "2024-1156628",
    "request_type": "Abandoned Vehicles",
    "request_reason": "Abandoned/Junk Vehicles",
    "date_created": "2024-12-20T15:55:12.000",
    "date_modified": "2024-12-20T15:55:13.000",
    "request_status": "Pending",
    "responsible_agency": "Department of Public Works",
    "final_address": "709 N Murat St",
    "address_councildis": "A",
    "status": "Pending",
    "rowid": "1156628",
    "final_x": "3671029.72526",
    "final_y": "541206.432972",
    "longitude": "-90.10080275580731",
    "latitude": "29.982443870509442",
    "geocoded_column": {
      "latitude": "29.982443870509442",
      "longitude": "-90.10080275580731"
    }
  },
  {
    "service_request": "2024-1156627",
    "request_type": "Trash/Recycling",
    "request_reason": "Replace Trash Cart",
    "date_created": "2024-12-20T15:54:18.000",
    "date_modified": "2024-12-20T15:54:19.000",
    "request_status": "Pending",
    "responsible_agency": "Department of Sanitation",
    "final_address": "4601 Perelli Dr",
    "address_councildis": "E",
    "status": "Assigned to Contractor",
    "contractor": "Waste Pro",
    "rowid": "1156627",
    "final_x": "3711880.48773",
    "final_y": "555177.142617",
    "longitude": "-89.97125268811554",
    "latitude": "30.019586487954115",
    "geocoded_column": {
      "latitude": "30.019586487954115",
      "longitude": "-89.97125268811554"
    }
  },
  {
    "service_request": "2024-1156626",
    "request_type": "Trash/Recycling",
    "request_reason": "MIssed Recycling Pick-Up",
    "date_created": "2024-12-20T15:53:44.000",
    "date_modified": "2024-12-20T16:59:31.000",
    "case_close_date": "2024-12-20T10:59:31.000",
    "request_status": "Closed",
    "responsible_agency": "Department of Sanitation",
    "final_address": "926 Louisa St",
    "address_councildis": "C",
    "status": "Invalid Request",
    "contractor": "IV Waste",
    "contractor_action": "Invalid Request",
    "rowid": "1156626",
    "final_x": "3689382.34127",
    "final_y": "535313.727622",
    "longitude": "-90.04304591061202",
    "latitude": "29.965685434220003",
    "geocoded_column": {
      "latitude": "29.965685434220003",
      "longitude": "-90.04304591061202"
    }
  },
  {
    "service_request": "2024-1156625",
    "request_type": "Roads and Streets",
    "request_reason": "Push-up/Pavement Expansion",
    "date_created": "2024-12-20T15:47:27.000",
    "date_modified": "2024-12-21T08:39:00.000",
    "request_status": "Pending",
    "responsible_agency": "Department of Public Works",
    "final_address": "1332 Frankfort St",
    "address_councildis": "D",
    "status": "Inspected",
    "rowid": "1156625",
    "final_x": "3677528.76014",
    "final_y": "555760.754073",
    "longitude": "-90.0797726780793",
    "latitude": "30.022269270073675",
    "geocoded_column": {
      "latitude": "30.022269270073675",
      "longitude": "-90.0797726780793"
    }
  },
  {
    "service_request": "2024-1156624",
    "request_type": "Streetlights",
    "request_reason": "Streetlight Outage/Malfunction",
    "date_created": "2024-12-20T15:42:51.000",
    "date_modified": "2024-12-20T15:42:52.000",
    "request_status": "Pending",
    "responsible_agency": "Department of Public Works",
    "final_address": "2301 Louisa St",
    "address_councildis": "D",
    "status": "Pending",
    "contractor": "Legacy Professional Services",
    "rowid": "1156624",
    "final_x": "3690739.33552",
    "final_y": "540404.760139",
    "longitude": "-90.03857892231983",
    "latitude": "29.979641887265",
    "geocoded_column": {
      "latitude": "29.979641887265",
      "longitude": "-90.03857892231983"
    }
  },
  {
    "service_request": "2024-1156623",
    "request_type": "Utility Poles",
    "request_reason": "Wires Sagging/Hanging Low",
    "date_created": "2024-12-20T15:38:45.000",
    "date_modified": "2024-12-20T15:38:48.000",
    "request_status": "Pending",
    "responsible_agency": "Utility Company Collective",
    "final_address": "3420 Clara St",
    "address_councildis": "B",
    "status": "Pending",
    "rowid": "1156623",
    "final_x": "3672301.40059",
    "final_y": "525386.509117",
    "longitude": "-90.09732516123522",
    "latitude": "29.93890668286918",
    "geocoded_column": {
      "latitude": "29.93890668286918",
      "longitude": "-90.09732516123522"
    }
  },
  {
    "service_request": "2024-1156622",
    "request_type": "Trash/Recycling",
    "request_reason": "Request a Large Item Pick Up",
    "date_created": "2024-12-20T15:38:23.000",
    "date_modified": "2024-12-20T15:38:24.000",
    "request_status": "Pending",
    "responsible_agency": "Department of Sanitation",
    "final_address": "9 Tennyson Pl",
    "address_councildis": "C",
    "status": "Assigned to Contractor",
    "contractor": "Richards Disposal",
    "rowid": "1156622",
    "final_x": "3704830.2931",
    "final_y": "517427.244406",
    "longitude": "-89.99492202165032",
    "latitude": "29.916016576643006",
    "geocoded_column": {
      "latitude": "29.916016576643006",
      "longitude": "-89.99492202165032"
    }
  },
  {
    "service_request": "2024-1156621",
    "request_type": "Trash/Recycling",
    "request_reason": "Repair Recycling Cart",
    "date_created": "2024-12-20T15:35:39.000",
    "date_modified": "2024-12-20T15:35:40.000",
    "request_status": "Pending",
    "responsible_agency": "Department of Sanitation",
    "final_address": "6514 Pontchartrain Blvd",
    "address_councildis": "A",
    "status": "Pending",
    "rowid": "1156621",
    "final_x": "3666205.94241",
    "final_y": "551474.717717",
    "longitude": "-90.11569405206944",
    "latitude": "30.010819921430187",
    "geocoded_column": {
      "latitude": "30.010819921430187",
      "longitude": "-90.11569405206944"
    }
  },
  {
    "service_request": "2024-1156620",
    "request_type": "Trash/Recycling",
    "request_reason": "Replace Trash Cart",
    "date_created": "2024-12-20T15:35:08.000",
    "date_modified": "2024-12-20T15:35:10.000",
    "request_status": "Pending",
    "responsible_agency": "Department of Sanitation",
    "final_address": "6514 Pontchartrain Blvd",
    "address_councildis": "A",
    "status": "Assigned to Contractor",
    "contractor": "IV Waste",
    "rowid": "1156620",
    "final_x": "3666205.94241",
    "final_y": "551474.717717",
    "longitude": "-90.11569405206944",
    "latitude": "30.010819921430187",
    "geocoded_column": {
      "latitude": "30.010819921430187",
      "longitude": "-90.11569405206944"
    }
  },
  {
    "service_request": "2024-1156619",
    "request_type": "Trash/Recycling",
    "request_reason": "Request a Large Item Pick Up",
    "date_created": "2024-12-20T15:18:32.000",
    "date_modified": "2024-12-20T15:18:34.000",
    "request_status": "Pending",
    "responsible_agency": "Department of Sanitation",
    "final_address": "415 S Alexander St",
    "address_councildis": "A",
    "status": "Assigned to Contractor",
    "contractor": "IV Waste",
    "rowid": "1156619",
    "final_x": "3669139.80916",
    "final_y": "538106.073993",
    "longitude": "-90.10687687447187",
    "latitude": "29.97397469308735",
    "geocoded_column": {
      "latitude": "29.97397469308735",
      "longitude": "-90.10687687447187"
    }
  },
  {
    "service_request": "2024-1156618",
    "request_type": "Safety & Permits",
    "request_reason": "Zoning Enforcement",
    "date_created": "2024-12-20T15:11:32.000",
    "date_modified": "2024-12-20T15:11:32.000",
    "request_status": "Pending",
    "responsible_agency": "Safety and Permits",
    "final_address": "2225 Amelia St",
    "address_councildis": "B",
    "status": "Pending",
    "rowid": "1156618",
    "final_x": "3672600.48264",
    "final_y": "523477.578811",
    "longitude": "-90.09644597881488",
    "latitude": "29.93364886969383",
    "geocoded_column": {
      "latitude": "29.93364886969383",
      "longitude": "-90.09644597881488"
    }
  },
  {
    "service_request": "2024-1156617",
    "request_type": "Trash/Recycling",
    "request_reason": "Repair Trash Cart",
    "date_created": "2024-12-20T15:10:13.000",
    "date_modified": "2024-12-20T15:10:14.000",
    "request_status": "Pending",
    "responsible_agency": "Department of Sanitation",
    "final_address": "2731 Ursulines Ave",
    "address_councildis": "A",
    "status": "Assigned to Contractor",
    "contractor": "IV Waste",
    "rowid": "1156617",
    "final_x": "3677270.00699",
    "final_y": "538522.638601",
    "longitude": "-90.0811854909971",
    "latitude": "29.974878317430278",
    "geocoded_column": {
      "latitude": "29.974878317430278",
      "longitude": "-90.0811854909971"
    }
  },
  {
    "service_request": "2024-1156616",
    "request_type": "Trash/Recycling",
    "request_reason": "Request a Large Item Pick Up",
    "date_created": "2024-12-20T15:10:01.000",
    "date_modified": "2024-12-20T15:10:02.000",
    "request_status": "Pending",
    "responsible_agency": "Department of Sanitation",
    "final_address": "1232 S Saratoga St",
    "address_councildis": "B",
    "status": "Assigned to Contractor",
    "contractor": "IV Waste",
    "rowid": "1156616",
    "final_x": "3677946.82242",
    "final_y": "527161.711039",
    "longitude": "-90.0794405778039",
    "latitude": "29.943619247997038",
    "geocoded_column": {
      "latitude": "29.943619247997038",
      "longitude": "-90.0794405778039"
    }
  },
  {
    "service_request": "2024-1156615",
    "request_type": "Trash/Recycling",
    "request_reason": "Request a Large Item Pick Up",
    "date_created": "2024-12-20T15:09:52.000",
    "date_modified": "2024-12-20T15:09:53.000",
    "request_status": "Pending",
    "responsible_agency": "Department of Sanitation",
    "final_address": "1913 W Homestead Dr",
    "address_councildis": "C",
    "status": "Assigned to Contractor",
    "contractor": "Richards Disposal",
    "rowid": "1156615",
    "final_x": "3696854.68528",
    "final_y": "524885.203132",
    "longitude": "-90.01982617504373",
    "latitude": "29.936777166920255",
    "geocoded_column": {
      "latitude": "29.936777166920255",
      "longitude": "-90.01982617504373"
    }
  },
  {
    "service_request": "2024-1156614",
    "request_type": "Trash/Recycling",
    "request_reason": "Illegal Dumping",
    "date_created": "2024-12-20T15:06:38.000",
    "date_modified": "2024-12-20T15:06:39.000",
    "request_status": "Pending",
    "responsible_agency": "Department of Sanitation",
    "final_address": "2725 Josephine St",
    "address_councildis": "B",
    "status": "Pending",
    "rowid": "1156614",
    "final_x": "3675410.00865",
    "final_y": "527253.947135",
    "longitude": "-90.08744681175817",
    "latitude": "29.94394895479527",
    "geocoded_column": {
      "latitude": "29.94394895479527",
      "longitude": "-90.08744681175817"
    }
  },
  {
    "service_request": "2024-1156613",
    "request_type": "Streetlights",
    "request_reason": "Streetlight Outage/Malfunction",
    "date_created": "2024-12-20T15:06:15.000",
    "date_modified": "2024-12-20T15:06:16.000",
    "request_status": "Pending",
    "responsible_agency": "Department of Public Works",
    "final_address": "5600 BLK Rosemary Pl",
    "address_councildis": "A",
    "status": "Pending",
    "contractor": "Legacy Professional Services",
    "rowid": "1156613",
    "final_x": "3667193.00088",
    "final_y": "545369.292907",
    "longitude": "-90.1127810085349",
    "latitude": "29.99400323887222",
    "geocoded_column": {
      "latitude": "29.99400323887222",
      "longitude": "-90.1127810085349"
    }
  },
  {
    "service_request": "2024-1156612",
    "request_type": "Trash/Recycling",
    "request_reason": "Repair Trash Cart",
    "date_created": "2024-12-20T15:05:47.000",
    "date_modified": "2024-12-20T15:05:48.000",
    "request_status": "Pending",
    "responsible_agency": "Department of Sanitation",
    "final_address": "3805 Havana Pl",
    "address_councildis": "D",
    "status": "Assigned to Contractor",
    "contractor": "IV Waste",
    "rowid": "1156612",
    "final_x": "3680760.98837",
    "final_y": "546063.130768",
    "longitude": "-90.06989750451191",
    "latitude": "29.995506672735146",
    "geocoded_column": {
      "latitude": "29.995506672735146",
      "longitude": "-90.06989750451191"
    }
  },
  {
    "service_request": "2024-1156611",
    "request_type": "Trash/Recycling",
    "request_reason": "Order Second Trash Cart",
    "date_created": "2024-12-20T15:04:44.000",
    "date_modified": "2024-12-20T15:04:45.000",
    "request_status": "Pending",
    "responsible_agency": "Department of Sanitation",
    "final_address": "1520 Dufossat St",
    "address_councildis": "B",
    "status": "Assigned to Contractor",
    "contractor": "IV Waste",
    "rowid": "1156611",
    "final_x": "3668021.84634",
    "final_y": "520604.332856",
    "longitude": "-90.1109973100833",
    "latitude": "29.925883465381688",
    "geocoded_column": {
      "latitude": "29.925883465381688",
      "longitude": "-90.1109973100833"
    }
  },
  {
    "service_request": "2024-1156610",
    "request_type": "Streetlights",
    "request_reason": "Streetlight Outage/Malfunction",
    "date_created": "2024-12-20T15:02:08.000",
    "date_modified": "2024-12-20T15:02:09.000",
    "request_status": "Pending",
    "responsible_agency": "Department of Public Works",
    "final_address": "500 BLK Florida Blvd",
    "address_councildis": "A",
    "status": "Pending",
    "contractor": "Legacy Professional Services",
    "rowid": "1156610",
    "final_x": "3667755.35409",
    "final_y": "545474.124391",
    "longitude": "-90.11100107553654",
    "latitude": "29.994275006526983",
    "geocoded_column": {
      "latitude": "29.994275006526983",
      "longitude": "-90.11100107553654"
    }
  },
  {
    "service_request": "2024-1156609",
    "request_type": "Streetlights",
    "request_reason": "Streetlight Outage/Malfunction",
    "date_created": "2024-12-20T15:00:58.000",
    "date_modified": "2024-12-20T15:00:59.000",
    "request_status": "Pending",
    "responsible_agency": "Department of Public Works",
    "final_address": "6300 Argonne Blvd",
    "address_councildis": "A",
    "status": "Pending",
    "contractor": "Legacy Professional Services",
    "rowid": "1156609",
    "final_x": "3670263.31745",
    "final_y": "549349.481619",
    "longitude": "-90.10294728065384",
    "latitude": "30.00485709009762",
    "geocoded_column": {
      "latitude": "30.00485709009762",
      "longitude": "-90.10294728065384"
    }
  },
  {
    "service_request": "2024-1156608",
    "request_type": "Trash/Recycling",
    "request_reason": "Request a Large Item Pick Up",
    "date_created": "2024-12-20T14:59:27.000",
    "date_modified": "2024-12-20T14:59:28.000",
    "request_status": "Pending",
    "responsible_agency": "Department of Sanitation",
    "final_address": "1031 Burdette St",
    "address_councildis": "A",
    "status": "Assigned to Contractor",
    "contractor": "IV Waste",
    "rowid": "1156608",
    "final_x": "3662548.25613",
    "final_y": "527288.862207",
    "longitude": "-90.12805393782207",
    "latitude": "29.94442322762445",
    "geocoded_column": {
      "latitude": "29.94442322762445",
      "longitude": "-90.12805393782207"
    }
  },
  {
    "service_request": "2024-1156607",
    "request_type": "Roads and Streets",
    "request_reason": "Debris in Driving Lanes",
    "date_created": "2024-12-20T14:54:47.000",
    "date_modified": "2024-12-20T14:54:48.000",
    "request_status": "Pending",
    "responsible_agency": "Department of Public Works",
    "final_address": "2217 St Andrew St",
    "address_councildis": "B",
    "status": "Pending",
    "rowid": "1156607",
    "final_x": "3676702.24193",
    "final_y": "526084.15827",
    "longitude": "-90.08340716177133",
    "latitude": "29.9406937237957",
    "geocoded_column": {
      "latitude": "29.9406937237957",
      "longitude": "-90.08340716177133"
    }
  },
  {
    "service_request": "2024-1156606",
    "request_type": "Trash/Recycling",
    "request_reason": "Order Recycling Cart",
    "date_created": "2024-12-20T14:51:37.000",
    "date_modified": "2024-12-20T14:51:37.000",
    "request_status": "Pending",
    "responsible_agency": "Department of Sanitation",
    "final_address": "1318 Moss St",
    "address_councildis": "A",
    "status": "Pending",
    "rowid": "1156606",
    "final_x": "3675389.64347",
    "final_y": "540492.545227",
    "longitude": "-90.08705649412845",
    "latitude": "29.98035125199552",
    "geocoded_column": {
      "latitude": "29.98035125199552",
      "longitude": "-90.08705649412845"
    }
  },
  {
    "service_request": "2024-1156605",
    "request_type": "Abandoned Vehicles",
    "request_reason": "Abandoned/Junk Vehicles",
    "date_created": "2024-12-20T14:50:04.000",
    "date_modified": "2024-12-20T14:50:04.000",
    "request_status": "Pending",
    "responsible_agency": "Department of Public Works",
    "final_address": "2719 Iberville St",
    "address_councildis": "B",
    "status": "Pending",
    "rowid": "1156605",
    "final_x": "3675466.28795",
    "final_y": "535621.351302",
    "longitude": "-90.08698176676025",
    "latitude": "29.966954838210313",
    "geocoded_column": {
      "latitude": "29.966954838210313",
      "longitude": "-90.08698176676025"
    }
  },
  {
    "service_request": "2024-1156604",
    "request_type": "Trash/Recycling",
    "request_reason": "Request a Large Item Pick Up",
    "date_created": "2024-12-20T14:40:08.000",
    "date_modified": "2024-12-20T14:40:09.000",
    "request_status": "Pending",
    "responsible_agency": "Department of Sanitation",
    "final_address": "922 Esplanade Ave",
    "address_councildis": "C",
    "status": "Assigned to Contractor",
    "contractor": "Empire Services",
    "rowid": "1156604",
    "final_x": "3683292.8173",
    "final_y": "534913.109254",
    "longitude": "-90.06229040798526",
    "latitude": "29.96477101557513",
    "geocoded_column": {
      "latitude": "29.96477101557513",
      "longitude": "-90.06229040798526"
    }
  },
  {
    "service_request": "2024-1156603",
    "request_type": "Street and Traffic Signs",
    "request_reason": "Additional Signage Request",
    "date_created": "2024-12-20T14:38:48.000",
    "date_modified": "2024-12-20T14:38:49.000",
    "request_status": "Pending",
    "responsible_agency": "Department of Public Works",
    "final_address": "PRESSBURG ST & WRIGHT RD",
    "address_councildis": "E",
    "status": "Pending",
    "rowid": "1156603",
    "final_x": "3716653.2",
    "final_y": "557524.58",
    "longitude": "-89.95608352553835",
    "latitude": "30.025884146682564",
    "geocoded_column": {
      "latitude": "30.025884146682564",
      "longitude": "-89.95608352553835"
    }
  },
  {
    "service_request": "2024-1156602",
    "request_type": "Property Maintenance",
    "request_reason": "Property Maintenance",
    "date_created": "2024-12-20T14:35:33.000",
    "date_modified": "2024-12-20T15:13:33.000",
    "case_close_date": "2024-12-20T09:13:33.000",
    "request_status": "Closed",
    "responsible_agency": "Department of Code Enforcement",
    "final_address": "4646 Mirabeau Ave",
    "address_councildis": "D",
    "status": "Referred to Code Enforcement",
    "rowid": "1156602",
    "final_x": "3691191.99196",
    "final_y": "551543.980181",
    "longitude": "-90.03675115049566",
    "latitude": "30.0102566259355",
    "geocoded_column": {
      "latitude": "30.0102566259355",
      "longitude": "-90.03675115049566"
    }
  },
  {
    "service_request": "2024-1156601",
    "request_type": "Trash/Recycling",
    "request_reason": "Request a Large Item Pick Up",
    "date_created": "2024-12-20T14:32:14.000",
    "date_modified": "2024-12-20T14:32:15.000",
    "request_status": "Pending",
    "responsible_agency": "Department of Sanitation",
    "final_address": "7524 Lady Gray St",
    "address_councildis": "E",
    "status": "Assigned to Contractor",
    "contractor": "Waste Pro",
    "rowid": "1156601",
    "final_x": "3710185.12606",
    "final_y": "564848.77501",
    "longitude": "-89.97624748878619",
    "latitude": "30.046234949483047",
    "geocoded_column": {
      "latitude": "30.046234949483047",
      "longitude": "-89.97624748878619"
    }
  },
  {
    "service_request": "2024-1156600",
    "request_type": "Trash/Recycling",
    "request_reason": "Request a Large Item Pick Up",
    "date_created": "2024-12-20T14:28:39.000",
    "date_modified": "2024-12-20T14:28:40.000",
    "request_status": "Pending",
    "responsible_agency": "Department of Sanitation",
    "final_address": "7818 Green St",
    "address_councildis": "A",
    "status": "Assigned to Contractor",
    "contractor": "IV Waste",
    "rowid": "1156600",
    "final_x": "3663825.32339",
    "final_y": "528993.583616",
    "longitude": "-90.1239650411339",
    "latitude": "29.949073665295394",
    "geocoded_column": {
      "latitude": "29.949073665295394",
      "longitude": "-90.1239650411339"
    }
  },
  {
    "service_request": "2024-1156599",
    "request_type": "Trash/Recycling",
    "request_reason": "Request a Large Item Pick Up",
    "date_created": "2024-12-20T14:25:02.000",
    "date_modified": "2024-12-20T14:25:03.000",
    "request_status": "Pending",
    "responsible_agency": "Department of Sanitation",
    "final_address": "4949 De Montluzin St",
    "address_councildis": "D",
    "status": "Assigned to Contractor",
    "contractor": "IV Waste",
    "rowid": "1156599",
    "final_x": "3687127.49129",
    "final_y": "551356.030613",
    "longitude": "-90.04959904796888",
    "latitude": "30.009865668761687",
    "geocoded_column": {
      "latitude": "30.009865668761687",
      "longitude": "-90.04959904796888"
    }
  },
  {
    "service_request": "2024-1156598",
    "request_type": "Trash/Recycling",
    "request_reason": "Request a Large Item Pick Up",
    "date_created": "2024-12-20T14:20:56.000",
    "date_modified": "2024-12-20T14:20:57.000",
    "request_status": "Pending",
    "responsible_agency": "Department of Sanitation",
    "final_address": "9009 Heaton St",
    "address_councildis": "A",
    "status": "Assigned to Contractor",
    "contractor": "IV Waste",
    "rowid": "1156598",
    "final_x": "3666957.57972",
    "final_y": "538813.395849",
    "longitude": "-90.11374509395326",
    "latitude": "29.975983636399985",
    "geocoded_column": {
      "latitude": "29.975983636399985",
      "longitude": "-90.11374509395326"
    }
  },
  {
    "service_request": "2024-1156597",
    "request_type": "Trash/Recycling",
    "request_reason": "Request a Large Item Pick Up",
    "date_created": "2024-12-20T14:19:56.000",
    "date_modified": "2024-12-20T14:19:57.000",
    "request_status": "Pending",
    "responsible_agency": "Department of Sanitation",
    "final_address": "4919 Eunice Dr",
    "address_councildis": "E",
    "status": "Assigned to Contractor",
    "contractor": "Waste Pro",
    "rowid": "1156597",
    "final_x": "3710502.99499",
    "final_y": "556874.971034",
    "longitude": "-89.97554149781074",
    "latitude": "30.024299803071067",
    "geocoded_column": {
      "latitude": "30.024299803071067",
      "longitude": "-89.97554149781074"
    }
  },
  {
    "service_request": "2024-1156596",
    "request_type": "Trash/Recycling",
    "request_reason": "Illegal Dumping",
    "date_created": "2024-12-20T14:18:26.000",
    "date_modified": "2024-12-20T14:18:26.000",
    "request_status": "Pending",
    "responsible_agency": "Department of Sanitation",
    "final_address": "1 Music St",
    "address_councildis": "D",
    "status": "Pending",
    "rowid": "1156596",
    "final_x": "3686617.95337",
    "final_y": "540713.497035",
    "longitude": "-90.05158497539794",
    "latitude": "29.980618212221565",
    "geocoded_column": {
      "latitude": "29.980618212221565",
      "longitude": "-90.05158497539794"
    }
  },
  {
    "service_request": "2024-1156595",
    "request_type": "General Services",
    "request_reason": "General Service Request",
    "date_created": "2024-12-20T13:59:30.000",
    "date_modified": "2024-12-20T14:01:55.000",
    "case_close_date": "2024-12-20T08:01:55.000",
    "request_status": "Closed",
    "responsible_agency": "Orleans Parish Communication District",
    "final_address": "919 Bourbon St",
    "address_councildis": "C",
    "status": "Referred to External Agency",
    "rowid": "1156595",
    "final_x": "3682784.45621",
    "final_y": "533410.737348",
    "longitude": "-90.06394833600532",
    "latitude": "29.96065550382579",
    "geocoded_column": {
      "latitude": "29.96065550382579",
      "longitude": "-90.06394833600532"
    }
  },
  {
    "service_request": "2024-1156594",
    "request_type": "Trash/Recycling",
    "request_reason": "Request a Large Item Pick Up",
    "date_created": "2024-12-20T13:56:51.000",
    "date_modified": "2024-12-20T13:56:51.000",
    "request_status": "Pending",
    "responsible_agency": "Department of Sanitation",
    "final_address": "4416 Duplessis St",
    "address_councildis": "D",
    "status": "Assigned to Contractor",
    "contractor": "IV Waste",
    "rowid": "1156594",
    "final_x": "3678175.91886",
    "final_y": "548645.930707",
    "longitude": "-90.07797411322342",
    "latitude": "30.00268658050746",
    "geocoded_column": {
      "latitude": "30.00268658050746",
      "longitude": "-90.07797411322342"
    }
  },
  {
    "service_request": "2024-1156593",
    "request_type": "Trash/Recycling",
    "request_reason": "Request a Large Item Pick Up",
    "date_created": "2024-12-20T13:55:53.000",
    "date_modified": "2024-12-20T13:55:54.000",
    "request_status": "Pending",
    "responsible_agency": "Department of Sanitation",
    "final_address": "546 S Tonti St",
    "address_councildis": "B",
    "status": "Assigned to Contractor",
    "contractor": "IV Waste",
    "rowid": "1156593",
    "final_x": "3675344.62817",
    "final_y": "532779.622212",
    "longitude": "-90.08746354528382",
    "latitude": "29.959144678673137",
    "geocoded_column": {
      "latitude": "29.959144678673137",
      "longitude": "-90.08746354528382"
    }
  },
  {
    "service_request": "2024-1156592",
    "request_type": "Trash/Recycling",
    "request_reason": "Request a Large Item Pick Up",
    "date_created": "2024-12-20T13:55:29.000",
    "date_modified": "2024-12-20T13:55:30.000",
    "request_status": "Pending",
    "responsible_agency": "Department of Sanitation",
    "final_address": "632 Wagner St",
    "address_councildis": "C",
    "status": "Assigned to Contractor",
    "contractor": "Richards Disposal",
    "rowid": "1156592",
    "final_x": "3690608.60163",
    "final_y": "529087.925056",
    "longitude": "-90.03939545950345",
    "latitude": "29.948528614612144",
    "geocoded_column": {
      "latitude": "29.948528614612144",
      "longitude": "-90.03939545950345"
    }
  },
  {
    "service_request": "2024-1156591",
    "request_type": "Trash/Recycling",
    "request_reason": "Dead Animal Pick Up",
    "date_created": "2024-12-20T13:54:37.000",
    "date_modified": "2024-12-20T13:54:37.000",
    "request_status": "Pending",
    "responsible_agency": "Department of Sanitation",
    "final_address": "I 10 W SERVICE RD & WRIGHT RD",
    "address_councildis": "E",
    "status": "Assigned to Contractor",
    "contractor": "Waste Pro",
    "rowid": "1156591",
    "final_x": "3712734.1",
    "final_y": "563386.88",
    "longitude": "-89.96824655099546",
    "latitude": "30.042132073687252",
    "geocoded_column": {
      "latitude": "30.042132073687252",
      "longitude": "-89.96824655099546"
    }
  },
  {
    "service_request": "2024-1156590",
    "request_type": "Trash/Recycling",
    "request_reason": "Order Recycling Cart",
    "date_created": "2024-12-20T13:40:30.000",
    "date_modified": "2024-12-20T13:40:31.000",
    "request_status": "Pending",
    "responsible_agency": "Department of Sanitation",
    "final_address": "2025 N Rocheblave St",
    "address_councildis": "D",
    "status": "Pending",
    "rowid": "1156590",
    "final_x": "3682611.9078",
    "final_y": "540970.011275",
    "longitude": "-90.0642288234875",
    "latitude": "29.981446145833353",
    "geocoded_column": {
      "latitude": "29.981446145833353",
      "longitude": "-90.0642288234875"
    }
  },
  {
    "service_request": "2024-1156589",
    "request_type": "Trash/Recycling",
    "request_reason": "Request a Large Item Pick Up",
    "date_created": "2024-12-20T13:38:36.000",
    "date_modified": "2024-12-20T13:38:37.000",
    "request_status": "Pending",
    "responsible_agency": "Department of Sanitation",
    "final_address": "8018 Flounder St",
    "address_councildis": "E",
    "status": "Assigned to Contractor",
    "contractor": "Waste Pro",
    "rowid": "1156589",
    "final_x": "3699579.84797",
    "final_y": "561649.383199",
    "longitude": "-90.00988219386356",
    "latitude": "30.03777897220292",
    "geocoded_column": {
      "latitude": "30.03777897220292",
      "longitude": "-90.00988219386356"
    }
  },
  {
    "service_request": "2024-1156587",
    "request_type": "Trash/Recycling",
    "request_reason": "Request a Large Item Pick Up",
    "date_created": "2024-12-20T13:20:06.000",
    "date_modified": "2024-12-20T13:20:07.000",
    "request_status": "Pending",
    "responsible_agency": "Department of Sanitation",
    "final_address": "4445 Dale St",
    "address_councildis": "E",
    "status": "Assigned to Contractor",
    "contractor": "Waste Pro",
    "rowid": "1156587",
    "final_x": "3699646.4952",
    "final_y": "553444.216727",
    "longitude": "-90.00997104952312",
    "latitude": "30.015215798268095",
    "geocoded_column": {
      "latitude": "30.015215798268095",
      "longitude": "-90.00997104952312"
    }
  },