[
  {
    "service_request": "2022-872522",
    "request_type": "Property Maintenance",
    "request_reason": "Property Maintenance",
    "date_created": "2022-04-06T00:52:53.000",
    "date_modified": "2022-04-06T00:52:53.000",
    "request_status": "Pending",
    "responsible_agency": "Department of Code Enforcement",
    "final_address": "2901 Bacchus Dr",
    "address_councildis": "C",
    "status": "Pending",
    "rowid": "872522",
    "final_x": "3710171.21905",
    "final_y": "518790.990839",
    "longitude": "-89.97801321936292",
    "latitude": "29.919593782842306",
    "geocoded_column": {
      "latitude": "29.919593782842306",
      "longitude": "-89.97801321936292"
    }
  },
  {
    "service_request": "2022-872521",
    "request_type": "Trash/Recycling",
    "request_reason": "Start Trash Service",
    "date_created": "2022-04-06T00:44:10.000",
    "date_modified": "2022-04-06T00:44:11.000",
    "request_status": "Pending",
    "responsible_agency": "Department of Sanitation",
    "final_address": "5701 Warrington Dr",
    "address_councildis": "D",
    "status": "Assigned to Contractor",
    "contractor": "Metro Disposal",
    "rowid": "872521",
    "final_x": "3680892.63669",
    "final_y": "553680.934615",
    "longitude": "-90.06921616133165",
    "latitude": "30.016448906451384",
    "geocoded_column": {
      "latitude": "30.016448906451384",
      "longitude": "-90.06921616133165"
    }
  },
  {
    "service_request": "2022-872520",
    "request_type": "Traffic Signals/Signs/Striping/Streetlights",
    "request_reason": "Traffic Signal Malfunctioning/Damaged",
    "date_created": "2022-04-06T00:04:21.000",
    "date_modified": "2022-04-06T00:04:21.000",
    "request_status": "Pending",
    "responsible_agency": "Department of Public Works",
    "final_address": "PALMETTO ST & CHERRY ST",
    "address_councildis": "A",
    "status": "Pending",
    "rowid": "872520",
    "final_x": "3664991.7",
    "final_y": "537977.18",
    "longitude": "-90.1199819013071",
    "latitude": "29.973741708965985",
    "geocoded_column": {
      "latitude": "29.973741708965985",
      "longitude": "-90.1199819013071"
    }
  },
  {
    "service_request": "2022-872519",
    "request_type": "Traffic Signals/Signs/Striping/Streetlights",
    "request_reason": "Street Light Outage/Malfunction",
    "date_created": "2022-04-05T23:49:07.000",
    "date_modified": "2022-04-05T23:49:09.000",
    "request_status": "Pending",
    "responsible_agency": "Department of Public Works",
    "final_address": "5967 Dreux Ave",
    "address_councildis": "D",
    "status": "Pending",
    "contractor": "Royal Engineering",
    "rowid": "872519",
    "final_x": "3696523.85834",
    "final_y": "553917.456407",
    "longitude": "-90.01981992340478",
    "latitude": "30.016615822783674",
    "geocoded_column": {
      "latitude": "30.016615822783674",
      "longitude": "-90.01981992340478"
    }
  },
  {
    "service_request": "2022-872518",
    "request_type": "Roads/Drainage",
    "request_reason": "Catch Basin - Broken/Damage",
    "date_created": "2022-04-05T23:05:28.000",
    "date_modified": "2022-04-05T23:05:28.000",
    "request_status": "Pending",
    "responsible_agency": "Department of Public Works",
    "final_address": "1558 Maura Pl",
    "address_councildis": "C",
    "status": "Pending",
    "rowid": "872518",
    "final_x": "3699309.83703",
    "final_y": "525273.585725",
    "longitude": "-90.01206105343395",
    "latitude": "29.937767469077667",
    "geocoded_column": {
      "latitude": "29.937767469077667",
      "longitude": "-90.01206105343395"
    }
  },
  {
    "service_request": "2022-872517",
    "request_type": "Traffic Signals/Signs/Striping/Streetlights",
    "request_reason": "Street Light Outage/Malfunction",
    "date_created": "2022-04-05T22:55:10.000",
    "date_modified": "2022-04-05T22:55:11.000",
    "request_status": "Pending",
    "responsible_agency": "Department of Public Works",
    "final_address": "1230 Constance St",
    "address_councildis": "B",
    "status": "Pending",
    "contractor": "Royal Engineering",
    "rowid": "872517",
    "final_x": "3680975.70082",
    "final_y": "525295.433213",
    "longitude": "-90.0699425818155",
    "latitude": "29.938396120482047",
    "geocoded_column": {
      "latitude": "29.938396120482047",
      "longitude": "-90.0699425818155"
    }
  },
  {
    "service_request": "2022-872514",
    "request_type": "Trash/Recycling",
    "request_reason": "Request a Large Item Pick Up",
    "date_created": "2022-04-05T22:09:48.000",
    "date_modified": "2022-04-05T22:09:49.000",
    "request_status": "Pending",
    "responsible_agency": "Department of Sanitation",
    "final_address": "3226 Palmyra St, New Orleans, Louisiana, 70119",
    "address_councildis": "B",
    "status": "Assigned to Contractor",
    "contractor": "Richards Disposal",
    "rowid": "872514",
    "final_x": "3673166.43374",
    "final_y": "535676.397895",
    "longitude": "-90.09424284549077",
    "latitude": "29.96717478269423",
    "geocoded_column": {
      "latitude": "29.96717478269423",
      "longitude": "-90.09424284549077"
    }
  },
  {
    "service_request": "2022-872513",
    "request_type": "Trash/Recycling",
    "request_reason": "MIssed Recycling Pick-Up",
    "date_created": "2022-04-05T21:31:47.000",
    "date_modified": "2022-04-05T21:31:47.000",
    "request_status": "Pending",
    "responsible_agency": "Department of Sanitation",
    "final_address": "5334 Constance St",
    "address_councildis": "B",
    "status": "Assigned to Contractor",
    "contractor": "Richards Disposal",
    "rowid": "872513",
    "final_x": "3667145.55258",
    "final_y": "518266.61439",
    "longitude": "-90.11384205758269",
    "latitude": "29.919481151139163",
    "geocoded_column": {
      "latitude": "29.919481151139163",
      "longitude": "-90.11384205758269"
    }
  },
  {
    "service_request": "2022-872512",
    "request_type": "Property Maintenance",
    "request_reason": "Property Maintenance",
    "date_created": "2022-04-05T21:19:57.000",
    "date_modified": "2022-04-05T21:19:57.000",
    "request_status": "Pending",
    "responsible_agency": "Department of Code Enforcement",
    "final_address": "716 Soraparu St",
    "address_councildis": "B",
    "status": "Pending",
    "rowid": "872512",
    "final_x": "3679026.97442",
    "final_y": "520559.202488",
    "longitude": "-90.07625894737109",
    "latitude": "29.92543197731056",
    "geocoded_column": {
      "latitude": "29.92543197731056",
      "longitude": "-90.07625894737109"
    }
  },
  {
    "service_request": "2022-872511",
    "request_type": "Property Maintenance",
    "request_reason": "Property Maintenance",
    "date_created": "2022-04-05T21:19:27.000",
    "date_modified": "2022-04-05T21:19:27.000",
    "request_status": "Pending",
    "responsible_agency": "Department of Code Enforcement",
    "final_address": "714 Soraparu St",
    "address_councildis": "B",
    "status": "Pending",
    "rowid": "872511",
    "final_x": "3679031.87925",
    "final_y": "520551.76076",
    "longitude": "-90.07624372206739",
    "latitude": "29.92541136702356",
    "geocoded_column": {
      "latitude": "29.92541136702356",
      "longitude": "-90.07624372206739"
    }
  },
  {
    "service_request": "2022-872510",
    "request_type": "Traffic Signals/Signs/Striping/Streetlights",
    "request_reason": "Street Light Outage/Malfunction",
    "date_created": "2022-04-05T21:18:16.000",
    "date_modified": "2022-04-05T21:18:16.000",
    "request_status": "Pending",
    "responsible_agency": "Department of Public Works",
    "final_address": "6009 Bullard Ave",
    "address_councildis": "E",
    "status": "Pending",
    "contractor": "Royal Engineering",
    "rowid": "872510",
    "final_x": "3715593.12466",
    "final_y": "564353.192993",
    "longitude": "-89.95917441640516",
    "latitude": "30.04469507838046",
    "geocoded_column": {
      "latitude": "30.04469507838046",
      "longitude": "-89.95917441640516"
    }
  },
  {
    "service_request": "2022-872509",
    "request_type": "Roads/Drainage",
    "request_reason": "Damaged Sidewalk",
    "date_created": "2022-04-05T21:15:37.000",
    "date_modified": "2022-04-05T21:15:37.000",
    "request_status": "Pending",
    "responsible_agency": "Department of Public Works",
    "final_address": "601 Julia St",
    "address_councildis": "B",
    "status": "Pending",
    "rowid": "872509",
    "final_x": "3680753.44405",
    "final_y": "527980.228927",
    "longitude": "-90.07055085586124",
    "latitude": "29.945785149994595",
    "geocoded_column": {
      "latitude": "29.945785149994595",
      "longitude": "-90.07055085586124"
    }
  },
  {
    "service_request": "2022-872508",
    "request_type": "Traffic Signals/Signs/Striping/Streetlights",
    "request_reason": "Additional signage",
    "date_created": "2022-04-05T21:12:17.000",
    "date_modified": "2022-04-05T21:12:17.000",
    "request_status": "Pending",
    "responsible_agency": "Department of Public Works",
    "final_address": "835 Julia St",
    "address_councildis": "B",
    "status": "Pending",
    "rowid": "872508",
    "final_x": "3679723.8436",
    "final_y": "528227.776256",
    "longitude": "-90.07379305504593",
    "latitude": "29.946496982187416",
    "geocoded_column": {
      "latitude": "29.946496982187416",
      "longitude": "-90.07379305504593"
    }
  },
  {
    "service_request": "2022-872507",
    "request_type": "Roads/Drainage",
    "request_reason": "Damaged Sidewalk",
    "date_created": "2022-04-05T21:09:15.000",
    "date_modified": "2022-04-05T21:09:15.000",
    "request_status": "Pending",
    "responsible_agency": "Department of Public Works",
    "final_address": "759 Carondelet St",
    "address_councildis": "B",
    "status": "Pending",
    "rowid": "872507",
    "final_x": "3679980.28738",
    "final_y": "528215.049216",
    "longitude": "-90.0729838131294",
    "latitude": "29.946454233551023",
    "geocoded_column": {
      "latitude": "29.946454233551023",
      "longitude": "-90.0729838131294"
    }
  },
  {
    "service_request": "2022-872506",
    "request_type": "Traffic Signals/Signs/Striping/Streetlights",
    "request_reason": "Street Light Outage/Malfunction",
    "date_created": "2022-04-05T21:05:56.000",
    "date_modified": "2022-04-05T21:05:57.000",
    "request_status": "Pending",
    "responsible_agency": "Department of Public Works",
    "final_address": "5999 Bullard Ave",
    "address_councildis": "E",
    "status": "Pending",
    "contractor": "Royal Engineering",
    "rowid": "872506",
    "final_x": "3716190.90642",
    "final_y": "563497.356448",
    "longitude": "-89.9573176520887",
    "latitude": "30.042322150301143",
    "geocoded_column": {
      "latitude": "30.042322150301143",
      "longitude": "-89.9573176520887"
    }
  },
  {
    "service_request": "2022-872505",
    "request_type": "Traffic Signals/Signs/Striping/Streetlights",
    "request_reason": "Street Light Outage/Malfunction",
    "date_created": "2022-04-05T21:03:46.000",
    "date_modified": "2022-04-05T21:03:47.000",
    "request_status": "Pending",
    "responsible_agency": "Department of Public Works",
    "final_address": "5951 Bullard Ave",
    "address_councildis": "E",
    "status": "Pending",
    "contractor": "Royal Engineering",
    "rowid": "872505",
    "final_x": "3716749.37682",
    "final_y": "563227.737184",
    "longitude": "-89.95556293479711",
    "latitude": "30.04156235457294",
    "geocoded_column": {
      "latitude": "30.04156235457294",
      "longitude": "-89.95556293479711"
    }
  },
  {
    "service_request": "2022-872504",
    "request_type": "Traffic Signals/Signs/Striping/Streetlights",
    "request_reason": "Street Light Outage/Malfunction",
    "date_created": "2022-04-05T20:59:36.000",
    "date_modified": "2022-04-05T20:59:37.000",
    "request_status": "Pending",
    "responsible_agency": "Department of Public Works",
    "final_address": "5696 Bullard Ave",
    "address_councildis": "E",
    "status": "Pending",
    "contractor": "Royal Engineering",
    "rowid": "872504",
    "final_x": "3716827.01983",
    "final_y": "561993.640671",
    "longitude": "-89.95536446036684",
    "latitude": "30.03816652213847",
    "geocoded_column": {
      "latitude": "30.03816652213847",
      "longitude": "-89.95536446036684"
    }
  },
  {
    "service_request": "2022-872503",
    "request_type": "Roads/Drainage",
    "request_reason": "Pothole",
    "date_created": "2022-04-05T20:55:33.000",
    "date_modified": "2022-04-05T20:55:33.000",
    "request_status": "Pending",
    "responsible_agency": "Department of Public Works",
    "final_address": "3665 Tchoupitoulas St",
    "address_councildis": "B",
    "status": "Pending",
    "rowid": "872503",
    "final_x": "3674089.39329",
    "final_y": "517795.891126",
    "longitude": "-90.0919398825908",
    "latitude": "29.917981780522116",
    "geocoded_column": {
      "latitude": "29.917981780522116",
      "longitude": "-90.0919398825908"
    }
  },
  {
    "service_request": "2022-872502",
    "request_type": "Roads/Drainage",
    "request_reason": "Accessibility Ramps, Curbs and Sidewalk Repair",
    "date_created": "2022-04-05T19:24:26.000",
    "date_modified": "2022-04-05T19:24:26.000",
    "request_status": "Pending",
    "responsible_agency": "Department of Public Works",
    "final_address": "7801 Devine Ave",
    "address_councildis": "E",
    "status": "Pending",
    "rowid": "872502",
    "final_x": "3705497.98942",
    "final_y": "563511.740896",
    "longitude": "-89.99111062549073",
    "latitude": "30.042710441832853",
    "geocoded_column": {
      "latitude": "30.042710441832853",
      "longitude": "-89.99111062549073"
    }
  },
  {
    "service_request": "2022-872501",
    "request_type": "Trash/Recycling",
    "request_reason": "Request a Large Item Pick Up",
    "date_created": "2022-04-05T18:59:59.000",
    "date_modified": "2022-04-05T18:59:59.000",
    "request_status": "Pending",
    "responsible_agency": "Department of Sanitation",
    "final_address": "8316 Sycamore Pl, New Orleans, Louisiana, 70118",
    "status": "Assigned to Contractor",
    "rowid": "872501",
    "longitude": "0.0",
    "latitude": "0.0",
    "geocoded_column": {
      "latitude": "0.0",
      "longitude": "0.0"
    }
  },
  {
    "service_request": "2022-872499",
    "request_type": "Roads/Drainage",
    "request_reason": "Pothole",
    "date_created": "2022-04-05T18:57:34.000",
    "date_modified": "2022-04-05T18:57:34.000",
    "request_status": "Pending",
    "responsible_agency": "Department of Public Works",
    "final_address": "2415 Columbus St",
    "address_councildis": "D",
    "status": "Pending",
    "rowid": "872499",
    "final_x": "3679398.60219",
    "final_y": "539028.680266",
    "longitude": "-90.07444528970798",
    "latitude": "29.976205626475394",
    "geocoded_column": {
      "latitude": "29.976205626475394",
      "longitude": "-90.07444528970798"
    }
  },
  {
    "service_request": "2022-872497",
    "request_type": "Trash/Recycling",
    "request_reason": "Replace Trash Cart",
    "date_created": "2022-04-05T18:34:04.000",
    "date_modified": "2022-04-05T18:34:04.000",
    "request_status": "Pending",
    "responsible_agency": "Department of Sanitation",
    "final_address": "2224 S Lopez St",
    "address_councildis": "A",
    "status": "Assigned to Contractor",
    "contractor": "Richards Disposal",
    "rowid": "872497",
    "final_x": "3669039.50996",
    "final_y": "528986.917376",
    "longitude": "-90.10750175214972",
    "latitude": "29.948902983559847",
    "geocoded_column": {
      "latitude": "29.948902983559847",
      "longitude": "-90.10750175214972"
    }
  },
  {
    "service_request": "2022-872496",
    "request_type": "Trash/Recycling",
    "request_reason": "Missed Trash Pick-Up",
    "date_created": "2022-04-05T18:31:24.000",
    "date_modified": "2022-04-05T18:31:25.000",
    "request_status": "Pending",
    "responsible_agency": "Department of Sanitation",
    "final_address": "1512 General Pershing St",
    "address_councildis": "B",
    "status": "Assigned to Contractor",
    "contractor": "Richards Disposal",
    "rowid": "872496",
    "final_x": "3671215.61991",
    "final_y": "520705.571577",
    "longitude": "-90.10091205336771",
    "latitude": "29.92606777202637",
    "geocoded_column": {
      "latitude": "29.92606777202637",
      "longitude": "-90.10091205336771"
    }
  },
  {
    "service_request": "2022-872495",
    "request_type": "Trash/Recycling",
    "request_reason": "Missed Trash Pick-Up",
    "date_created": "2022-04-05T18:18:09.000",
    "date_modified": "2022-04-05T18:18:10.000",
    "request_status": "Pending",
    "responsible_agency": "Department of Sanitation",
    "final_address": "1927 Marengo St",
    "address_councildis": "B",
    "status": "Assigned to Contractor",
    "contractor": "Richards Disposal",
    "rowid": "872495",
    "final_x": "3671901.55585",
    "final_y": "522286.386874",
    "longitude": "-90.09869297941121",
    "latitude": "29.93039420264244",
    "geocoded_column": {
      "latitude": "29.93039420264244",
      "longitude": "-90.09869297941121"
    }
  },
  {
    "service_request": "2022-872494",
    "request_type": "Trash/Recycling",
    "request_reason": "Illegal Dumping",
    "date_created": "2022-04-05T18:16:52.000",
    "date_modified": "2022-04-05T18:16:52.000",
    "request_status": "Pending",
    "responsible_agency": "Department of Sanitation",
    "final_address": "2529 Jefferson Ave",
    "address_councildis": "B",
    "status": "Pending",
    "rowid": "872494",
    "final_x": "3668170.48429",
    "final_y": "524862.2327",
    "longitude": "-90.11038464829609",
    "latitude": "29.937586969852422",
    "geocoded_column": {
      "latitude": "29.937586969852422",
      "longitude": "-90.11038464829609"
    }
  },
  {
    "service_request": "2022-872493",
    "request_type": "Roads/Drainage",
    "request_reason": "Ditch Issue",
    "date_created": "2022-04-05T18:00:48.000",
    "date_modified": "2022-04-05T18:00:48.000",
    "request_status": "Pending",
    "responsible_agency": "Department of Public Works",
    "final_address": "1301 Lowerline St",
    "address_councildis": "A",
    "status": "Pending",
    "rowid": "872493",
    "final_x": "3663972.40563",
    "final_y": "527103.266687",
    "longitude": "-90.12356365182451",
    "latitude": "29.943871631808648",
    "geocoded_column": {
      "latitude": "29.943871631808648",
      "longitude": "-90.12356365182451"
    }
  },
  {
    "service_request": "2022-872492",
    "request_type": "Trash/Recycling",
    "request_reason": "Request a Large Item Pick Up",
    "date_created": "2022-04-05T17:55:27.000",
    "date_modified": "2022-04-05T17:55:28.000",
    "request_status": "Pending",
    "responsible_agency": "Department of Sanitation",
    "final_address": "1532 N Derbigny St, New Orleans, Louisiana, 70116",
    "address_councildis": "D",
    "status": "Assigned to Contractor",
    "contractor": "Metro Disposal",
    "rowid": "872492",
    "final_x": "3681614.2422",
    "final_y": "537592.807496",
    "longitude": "-90.06749774746051",
    "latitude": "29.972190354834957",
    "geocoded_column": {
      "latitude": "29.972190354834957",
      "longitude": "-90.06749774746051"
    }
  },
  {
    "service_request": "2022-872491",
    "request_type": "Trash/Recycling",
    "request_reason": "Missed Trash Pick-Up",
    "date_created": "2022-04-05T17:55:23.000",
    "date_modified": "2022-04-05T17:55:23.000",
    "request_status": "Pending",
    "responsible_agency": "Department of Sanitation",
    "final_address": "1421 General Pershing St, New Orleans, Louisiana, 70115",
    "address_councildis": "B",
    "status": "Assigned to Contractor",
    "contractor": "Richards Disposal",
    "rowid": "872491",
    "final_x": "3671361.78433",
    "final_y": "520550.771576",
    "longitude": "-90.10045591150714",
    "latitude": "29.925637797976027",
    "geocoded_column": {
      "latitude": "29.925637797976027",
      "longitude": "-90.10045591150714"
    }
  },
  {
    "service_request": "2022-872490",
    "request_type": "Trash/Recycling",
    "request_reason": "Missed Trash Pick-Up",
    "date_created": "2022-04-05T17:51:38.000",
    "date_modified": "2022-04-05T18:51:57.000",
    "request_status": "Pending",
    "responsible_agency": "Department of Sanitation",
    "final_address": "1641 Hollygrove St, New Orleans, Louisiana, 70118",
    "address_councildis": "A",
    "status": "Assigned to Contractor",
    "contractor": "Richards Disposal",
    "rowid": "872490",
    "final_x": "3660797.21062",
    "final_y": "531751.273731",
    "longitude": "-90.13343498717845",
    "latitude": "29.956743959245436",
    "geocoded_column": {
      "latitude": "29.956743959245436",
      "longitude": "-90.13343498717845"
    }
  },
  {
    "service_request": "2022-872489",
    "request_type": "Trash/Recycling",
    "request_reason": "Missed Trash Pick-Up",
    "date_created": "2022-04-05T17:50:35.000",
    "date_modified": "2022-04-05T17:50:35.000",
    "request_status": "Pending",
    "responsible_agency": "Department of Sanitation",
    "final_address": "1641 Hollygrove St, New Orleans, Louisiana, 70118",
    "address_councildis": "A",
    "status": "Assigned to Contractor",
    "contractor": "Richards Disposal",
    "rowid": "872489",
    "final_x": "3660797.21062",
    "final_y": "531751.273731",
    "longitude": "-90.13343498717845",
    "latitude": "29.956743959245436",
    "geocoded_column": {
      "latitude": "29.956743959245436",
      "longitude": "-90.13343498717845"
    }
  },
  {
    "service_request": "2022-872488",
    "request_type": "Trash/Recycling",
    "request_reason": "Replace Trash Cart",
    "date_created": "2022-04-05T17:32:43.000",
    "date_modified": "2022-04-05T17:32:44.000",
    "request_status": "Pending",
    "responsible_agency": "Department of Sanitation",
    "final_address": "4633 Dart St",
    "address_councildis": "B",
    "status": "Assigned to Contractor",
    "contractor": "Richards Disposal",
    "rowid": "872488",
    "final_x": "3669125.99137",
    "final_y": "531725.207875",
    "longitude": "-90.10713616915234",
    "latitude": "29.95642984055844",
    "geocoded_column": {
      "latitude": "29.95642984055844",
      "longitude": "-90.10713616915234"
    }
  },
  {
    "service_request": "2022-872487",
    "request_type": "Trash/Recycling",
    "request_reason": "Illegal Dumping",
    "date_created": "2022-04-05T17:32:41.000",
    "date_modified": "2022-04-05T17:32:41.000",
    "request_status": "Pending",
    "responsible_agency": "Department of Sanitation",
    "final_address": "5012 Cucullu St",
    "address_councildis": "B",
    "status": "Pending",
    "rowid": "872487",
    "final_x": "3668709.03905",
    "final_y": "525589.642365",
    "longitude": "-90.10865984124374",
    "latitude": "29.939571296067406",
    "geocoded_column": {
      "latitude": "29.939571296067406",
      "longitude": "-90.10865984124374"
    }
  },
  {
    "service_request": "2022-872486",
    "request_type": "Abandoned Vehicles",
    "request_reason": "Abandoned/Junk Vehicles",
    "date_created": "2022-04-05T17:28:03.000",
    "date_modified": "2022-04-05T17:28:03.000",
    "request_status": "Pending",
    "responsible_agency": "Department of Public Works",
    "final_address": "8016 Belfast St",
    "address_councildis": "A",
    "status": "Pending",
    "rowid": "872486",
    "final_x": "3665751.94151",
    "final_y": "532102.021059",
    "longitude": "-90.11777772352873",
    "latitude": "29.95756480368929",
    "geocoded_column": {
      "latitude": "29.95756480368929",
      "longitude": "-90.11777772352873"
    }
  },
  {
    "service_request": "2022-872485",
    "request_type": "Parks & Parkways",
    "request_reason": "Request Tree Service (Right of Way/Public Property)",
    "date_created": "2022-04-05T17:26:51.000",
    "date_modified": "2022-04-05T17:26:51.000",
    "request_status": "Closed",
    "responsible_agency": "Department of Parks & Parkway",
    "final_address": "6323 Mckenna St",
    "address_councildis": "A",
    "status": "Resolved",
    "rowid": "872485",
    "final_x": "3667541.06029",
    "final_y": "529553.137153",
    "longitude": "-90.11221396794242",
    "latitude": "29.950503897364356",
    "geocoded_column": {
      "latitude": "29.950503897364356",
      "longitude": "-90.11221396794242"
    }
  },
  {
    "service_request": "2022-872484",
    "request_type": "Traffic Signals/Signs/Striping/Streetlights",
    "request_reason": "Additional signage",
    "date_created": "2022-04-05T17:25:08.000",
    "date_modified": "2022-04-05T17:25:08.000",
    "request_status": "Pending",
    "responsible_agency": "Department of Public Works",
    "final_address": "5500 Hawthorne Pl",
    "address_councildis": "A",
    "status": "Pending",
    "rowid": "872484",
    "final_x": "3667683.60429",
    "final_y": "544160.862158",
    "longitude": "-90.11127196820074",
    "latitude": "29.99066608949739",
    "geocoded_column": {
      "latitude": "29.99066608949739",
      "longitude": "-90.11127196820074"
    }
  },
  {
    "service_request": "2022-872483",
    "request_type": "Abandoned Vehicles",
    "request_reason": "Abandoned/Junk Vehicles",
    "date_created": "2022-04-05T17:19:19.000",
    "date_modified": "2022-04-05T17:19:19.000",
    "request_status": "Pending",
    "responsible_agency": "Department of Public Works",
    "final_address": "5000 Canal St",
    "address_councildis": "A",
    "status": "Pending",
    "rowid": "872483",
    "final_x": "3668116.39751",
    "final_y": "540478.898187",
    "longitude": "-90.1100290436831",
    "latitude": "29.980529241365396",
    "geocoded_column": {
      "latitude": "29.980529241365396",
      "longitude": "-90.1100290436831"
    }
  },
  {
    "service_request": "2022-872482",
    "request_type": "Abandoned Vehicles",
    "request_reason": "Abandoned/Junk Vehicles",
    "date_created": "2022-04-05T17:10:29.000",
    "date_modified": "2022-04-05T17:10:29.000",
    "request_status": "Pending",
    "responsible_agency": "Department of Public Works",
    "final_address": "1102 General Pershing St",
    "address_councildis": "B",
    "status": "Pending",
    "rowid": "872482",
    "final_x": "3671324.0859",
    "final_y": "519601.272568",
    "longitude": "-90.1006071598157",
    "latitude": "29.923028094001545",
    "geocoded_column": {
      "latitude": "29.923028094001545",
      "longitude": "-90.1006071598157"
    }
  },
  {
    "service_request": "2022-872481",
    "request_type": "Trash/Recycling",
    "request_reason": "Replace Trash Cart",
    "date_created": "2022-04-05T17:02:07.000",
    "date_modified": "2022-04-05T17:02:08.000",
    "request_status": "Pending",
    "responsible_agency": "Department of Sanitation",
    "final_address": "4424 Francesco Rd",
    "address_councildis": "E",
    "status": "Assigned to Contractor",
    "contractor": "Metro Disposal",
    "rowid": "872481",
    "final_x": "3761937.88841",
    "final_y": "572856.014761",
    "longitude": "-89.81235073562613",
    "latitude": "30.066464306840096",
    "geocoded_column": {
      "latitude": "30.066464306840096",
      "longitude": "-89.81235073562613"
    }
  },
  {
    "service_request": "2022-872480",
    "request_type": "Trash/Recycling",
    "request_reason": "Missed Trash Pick-Up",
    "date_created": "2022-04-05T16:59:53.000",
    "date_modified": "2022-04-05T16:59:54.000",
    "request_status": "Pending",
    "responsible_agency": "Department of Sanitation",
    "final_address": "4619 Tchoupitoulas St",
    "address_councildis": "B",
    "status": "Assigned to Contractor",
    "contractor": "Richards Disposal",
    "rowid": "872480",
    "final_x": "3670270.42721",
    "final_y": "517405.406645",
    "longitude": "-90.10400752667132",
    "latitude": "29.917021285327113",
    "geocoded_column": {
      "latitude": "29.917021285327113",
      "longitude": "-90.10400752667132"
    }
  },
  {
    "service_request": "2022-872479",
    "request_type": "Roads/Drainage",
    "request_reason": "Pothole",
    "date_created": "2022-04-05T16:59:50.000",
    "date_modified": "2022-04-05T16:59:50.000",
    "request_status": "Pending",
    "responsible_agency": "Department of Public Works",
    "final_address": "7150 Lake Barrington Dr",
    "address_councildis": "E",
    "status": "Pending",
    "rowid": "872479",
    "final_x": "3712215.74418",
    "final_y": "564246.650849",
    "longitude": "-89.96985240414227",
    "latitude": "30.044513067027896",
    "geocoded_column": {
      "latitude": "30.044513067027896",
      "longitude": "-89.96985240414227"
    }
  },
  {
    "service_request": "2022-872478",
    "request_type": "Trash/Recycling",
    "request_reason": "Missed Trash Pick-Up",
    "date_created": "2022-04-05T16:59:40.000",
    "date_modified": "2022-04-05T16:59:40.000",
    "request_status": "Pending",
    "responsible_agency": "Department of Sanitation",
    "final_address": "4617 Tchoupitoulas St",
    "address_councildis": "B",
    "status": "Assigned to Contractor",
    "contractor": "Richards Disposal",
    "rowid": "872478",
    "final_x": "3670283.01402",
    "final_y": "517407.142773",
    "longitude": "-90.10396773847461",
    "latitude": "29.91702568781164",
    "geocoded_column": {
      "latitude": "29.91702568781164",
      "longitude": "-90.10396773847461"
    }
  },
  {
    "service_request": "2022-872477",
    "request_type": "Trash/Recycling",
    "request_reason": "Replace Trash Cart",
    "date_created": "2022-04-05T16:59:12.000",
    "date_modified": "2022-04-05T16:59:13.000",
    "request_status": "Pending",
    "responsible_agency": "Department of Sanitation",
    "final_address": "4618 Laurel St",
    "address_councildis": "B",
    "status": "Assigned to Contractor",
    "contractor": "Richards Disposal",
    "rowid": "872477",
    "final_x": "3670209.28833",
    "final_y": "517922.97567",
    "longitude": "-90.10418298289463",
    "latitude": "29.91844624011208",
    "geocoded_column": {
      "latitude": "29.91844624011208",
      "longitude": "-90.10418298289463"
    }
  },
  {
    "service_request": "2022-872476",
    "request_type": "Abandoned Vehicles",
    "request_reason": "Abandoned/Junk Vehicles",
    "date_created": "2022-04-05T16:56:16.000",
    "date_modified": "2022-04-05T16:56:16.000",
    "request_status": "Pending",
    "responsible_agency": "Department of Public Works",
    "final_address": "7130 Lake Barrington Dr",
    "address_councildis": "E",
    "status": "Pending",
    "rowid": "872476",
    "final_x": "3712286.26488",
    "final_y": "564149.340513",
    "longitude": "-89.96963318886533",
    "latitude": "30.044243195306894",
    "geocoded_column": {
      "latitude": "30.044243195306894",
      "longitude": "-89.96963318886533"
    }
  },
  {
    "service_request": "2022-872475",
    "request_type": "Trash/Recycling",
    "request_reason": "Missed Trash Pick-Up",
    "date_created": "2022-04-05T16:55:11.000",
    "date_modified": "2022-04-05T16:55:12.000",
    "request_status": "Pending",
    "responsible_agency": "Department of Sanitation",
    "final_address": "506 Abalon Ct, New Orleans, Louisiana, 70114",
    "address_councildis": "C",
    "status": "Assigned to Contractor",
    "contractor": "Richards Disposal",
    "rowid": "872475",
    "final_x": "3688942.77609",
    "final_y": "530156.670145",
    "longitude": "-90.04461720141003",
    "latitude": "29.95151891631089",
    "geocoded_column": {
      "latitude": "29.95151891631089",
      "longitude": "-90.04461720141003"
    }
  },
  {
    "service_request": "2022-872474",
    "request_type": "Trash/Recycling",
    "request_reason": "Request a Large Item Pick Up",
    "date_created": "2022-04-05T16:54:53.000",
    "date_modified": "2022-04-05T16:54:54.000",
    "request_status": "Pending",
    "responsible_agency": "Department of Sanitation",
    "final_address": "1518 Arts St",
    "address_councildis": "C",
    "status": "Assigned to Contractor",
    "contractor": "Metro Disposal",
    "rowid": "872474",
    "final_x": "3687036.8863",
    "final_y": "538125.489545",
    "longitude": "-90.05035332967411",
    "latitude": "29.973489211000782",
    "geocoded_column": {
      "latitude": "29.973489211000782",
      "longitude": "-90.05035332967411"
    }
  },
  {
    "service_request": "2022-872472",
    "request_type": "Trash/Recycling",
    "request_reason": "Illegal Dumping",
    "date_created": "2022-04-05T16:47:48.000",
    "date_modified": "2022-04-05T16:47:48.000",
    "request_status": "Pending",
    "responsible_agency": "Department of Sanitation",
    "final_address": "226 Decatur St",
    "address_councildis": "C",
    "status": "Pending",
    "rowid": "872472",
    "final_x": "3682216.75951",
    "final_y": "530715.955522",
    "longitude": "-90.06583513961745",
    "latitude": "29.95326305125929",
    "geocoded_column": {
      "latitude": "29.95326305125929",
      "longitude": "-90.06583513961745"
    }
  },
  {
    "service_request": "2022-872471",
    "request_type": "Roads/Drainage",
    "request_reason": "Pothole",
    "date_created": "2022-04-05T16:45:35.000",
    "date_modified": "2022-04-05T16:45:35.000",
    "request_status": "Pending",
    "responsible_agency": "Department of Public Works",
    "final_address": "4001 Frenchmen St",
    "address_councildis": "D",
    "status": "Pending",
    "rowid": "872471",
    "final_x": "3683775.48732",
    "final_y": "547404.889873",
    "longitude": "-90.06032790900039",
    "latitude": "29.999104291172056",
    "geocoded_column": {
      "latitude": "29.999104291172056",
      "longitude": "-90.06032790900039"
    }
  },
  {
    "service_request": "2022-872470",
    "request_type": "Trash/Recycling",
    "request_reason": "Illegal Dumping",
    "date_created": "2022-04-05T16:45:24.000",
    "date_modified": "2022-04-05T16:45:24.000",
    "request_status": "Pending",
    "responsible_agency": "Department of Sanitation",
    "final_address": "204 Decatur St",
    "address_councildis": "C",
    "status": "Pending",
    "rowid": "872470",
    "final_x": "3682113.60322",
    "final_y": "530578.103042",
    "longitude": "-90.06616567614071",
    "latitude": "29.95288714082833",
    "geocoded_column": {
      "latitude": "29.95288714082833",
      "longitude": "-90.06616567614071"
    }
  },
  {
    "service_request": "2022-872469",
    "request_type": "Traffic Signals/Signs/Striping/Streetlights",
    "request_reason": "Traffic Sign Missing/Damaged",
    "date_created": "2022-04-05T16:41:59.000",
    "date_modified": "2022-04-05T16:41:59.000",
    "request_status": "Pending",
    "responsible_agency": "Department of Public Works",
    "final_address": "4500 N Rampart St",
    "address_councildis": "C",
    "status": "Pending",
    "rowid": "872469",
    "final_x": "3693230.17149",
    "final_y": "534455.348933",
    "longitude": "-90.03092547123619",
    "latitude": "29.963205494692694",
    "geocoded_column": {
      "latitude": "29.963205494692694",
      "longitude": "-90.03092547123619"
    }
  },
  {
    "service_request": "2022-872468",
    "request_type": "Traffic Signals/Signs/Striping/Streetlights",
    "request_reason": "Street Light Outage/Malfunction",
    "date_created": "2022-04-05T16:35:19.000",
    "date_modified": "2022-04-05T16:35:19.000",
    "request_status": "Pending",
    "responsible_agency": "Department of Public Works",
    "final_address": "2008 Bodenger Blvd",
    "address_councildis": "C",
    "status": "Pending",
    "contractor": "Royal Engineering",
    "rowid": "872468",
    "final_x": "3688496.73609",
    "final_y": "524388.890556",
    "longitude": "-90.0462301453908",
    "latitude": "29.935673272682905",
    "geocoded_column": {
      "latitude": "29.935673272682905",
      "longitude": "-90.0462301453908"
    }
  },
  {
    "service_request": "2022-872467",
    "request_type": "Roads/Drainage",
    "request_reason": "Accessibility Ramps, Curbs and Sidewalk Repair",
    "date_created": "2022-04-05T16:34:04.000",
    "date_modified": "2022-04-05T16:34:04.000",
    "request_status": "Pending",
    "responsible_agency": "Department of Public Works",
    "final_address": "2701 N Rampart St",
    "address_councildis": "C",
    "status": "Pending",
    "rowid": "872467",
    "final_x": "3687355.7775",
    "final_y": "536019.474247",
    "longitude": "-90.04942073396685",
    "latitude": "29.96768858412163",
    "geocoded_column": {
      "latitude": "29.96768858412163",
      "longitude": "-90.04942073396685"
    }
  },
  {
    "service_request": "2022-872465",
    "request_type": "Trash/Recycling",
    "request_reason": "Replace Recycling Cart",
    "date_created": "2022-04-05T16:32:57.000",
    "date_modified": "2022-04-05T16:32:57.000",
    "request_status": "Pending",
    "responsible_agency": "Department of Sanitation",
    "final_address": "7028 Orleans Ave",
    "address_councildis": "A",
    "status": "Pending",
    "rowid": "872465",
    "final_x": "3671425.82619",
    "final_y": "554035.804696",
    "longitude": "-90.0991152020211",
    "latitude": "30.017708447628834",
    "geocoded_column": {
      "latitude": "30.017708447628834",
      "longitude": "-90.0991152020211"
    }
  },
  {
    "service_request": "2022-872464",
    "request_type": "Property Maintenance",
    "request_reason": "Property Maintenance",
    "date_created": "2022-04-05T16:31:59.000",
    "date_modified": "2022-04-05T16:31:59.000",
    "request_status": "Pending",
    "responsible_agency": "Department of Code Enforcement",
    "final_address": "1439 St Roch Ave",
    "address_councildis": "C",
    "status": "Pending",
    "rowid": "872464",
    "final_x": "3686446.63183",
    "final_y": "537858.488329",
    "longitude": "-90.0522269006313",
    "latitude": "29.97277321037334",
    "geocoded_column": {
      "latitude": "29.97277321037334",
      "longitude": "-90.0522269006313"
    }
  },
  {
    "service_request": "2022-872463",
    "request_type": "Trash/Recycling",
    "request_reason": "Replace Trash Cart",
    "date_created": "2022-04-05T16:30:42.000",
    "date_modified": "2022-04-05T16:30:43.000",
    "request_status": "Pending",
    "responsible_agency": "Department of Sanitation",
    "final_address": "7028 Orleans Ave",
    "address_councildis": "A",
    "status": "Assigned to Contractor",
    "contractor": "Metro Disposal",
    "rowid": "872463",
    "final_x": "3671425.82619",
    "final_y": "554035.804696",
    "longitude": "-90.0991152020211",
    "latitude": "30.017708447628834",
    "geocoded_column": {
      "latitude": "30.017708447628834",
      "longitude": "-90.0991152020211"
    }
  },
  {
    "service_request": "2022-872462",
    "request_type": "Property Maintenance",
    "request_reason": "Property Maintenance",
    "date_created": "2022-04-05T16:24:10.000",
    "date_modified": "2022-04-05T16:24:10.000",
    "request_status": "Pending",
    "responsible_agency": "Department of Code Enforcement",
    "final_address": "9711 Chef Menteur Hwy",
    "address_councildis": "E",
    "status": "Pending",
    "rowid": "872462",
    "final_x": "3711636.54379",
    "final_y": "554880.293272",
    "longitude": "-89.97203460545568",
    "latitude": "30.018778239566355",
    "geocoded_column": {
      "latitude": "30.018778239566355",
      "longitude": "-89.97203460545568"
    }
  },
  {
    "service_request": "2022-872461",
    "request_type": "Trash/Recycling",
    "request_reason": "Repair Trash Cart",
    "date_created": "2022-04-05T16:23:46.000",
    "date_modified": "2022-04-05T16:23:47.000",
    "request_status": "Pending",
    "responsible_agency": "Department of Sanitation",
    "final_address": "718 Hillary St, New Orleans, Louisiana, 70118",
    "address_councildis": "A",
    "status": "Assigned to Contractor",
    "contractor": "Richards Disposal",
    "rowid": "872461",
    "final_x": "3662193.4176",
    "final_y": "526013.025662",
    "longitude": "-90.12921660208632",
    "latitude": "29.94092534170045",
    "geocoded_column": {
      "latitude": "29.94092534170045",
      "longitude": "-90.12921660208632"
    }
  },
  {
    "service_request": "2022-872460",
    "request_type": "Trash/Recycling",
    "request_reason": "MIssed Recycling Pick-Up",
    "date_created": "2022-04-05T16:21:27.000",
    "date_modified": "2022-04-05T16:21:28.000",
    "request_status": "Pending",
    "responsible_agency": "Department of Sanitation",
    "final_address": "2420 Gravier St",
    "address_councildis": "B",
    "status": "Assigned to Contractor",
    "contractor": "Richards Disposal",
    "rowid": "872460",
    "final_x": "3675029.24789",
    "final_y": "532769.903172",
    "longitude": "-90.08845977373535",
    "latitude": "29.959127379731946",
    "geocoded_column": {
      "latitude": "29.959127379731946",
      "longitude": "-90.08845977373535"
    }
  },
  {
    "service_request": "2022-872459",
    "request_type": "Trash/Recycling",
    "request_reason": "Missed Trash Pick-Up",
    "date_created": "2022-04-05T16:18:34.000",
    "date_modified": "2022-04-05T16:18:59.000",
    "request_status": "Pending",
    "responsible_agency": "Department of Sanitation",
    "final_address": "1525 Aline St",
    "address_councildis": "B",
    "status": "Assigned to Contractor",
    "contractor": "Richards Disposal",
    "rowid": "872459",
    "final_x": "3673918.5972",
    "final_y": "521084.039097",
    "longitude": "-90.09236658799759",
    "latitude": "29.927028220068124",
    "geocoded_column": {
      "latitude": "29.927028220068124",
      "longitude": "-90.09236658799759"
    }
  },
  {
    "service_request": "2022-872458",
    "request_type": "Abandoned Vehicles",
    "request_reason": "Abandoned/Junk Vehicles",
    "date_created": "2022-04-05T16:17:55.000",
    "date_modified": "2022-04-05T16:17:55.000",
    "request_status": "Pending",
    "responsible_agency": "Department of Public Works",
    "final_address": "CLEVELAND AVE & S ST PATRICK ST",
    "address_councildis": "A",
    "status": "Pending",
    "rowid": "872458",
    "final_x": "3668863.8",
    "final_y": "539506.18",
    "longitude": "-90.10770127837372",
    "latitude": "29.97783263360543",
    "geocoded_column": {
      "latitude": "29.97783263360543",
      "longitude": "-90.10770127837372"
    }
  },
  {
    "service_request": "2022-872457",
    "request_type": "Abandoned Vehicles",
    "request_reason": "Abandoned/Junk Vehicles",
    "date_created": "2022-04-05T16:17:17.000",
    "date_modified": "2022-04-05T16:17:47.000",
    "request_status": "Pending",
    "responsible_agency": "Department of Public Works",
    "final_address": "CLEVELAND AVE & S ST PATRICK ST",
    "address_councildis": "A",
    "status": "Pending",
    "rowid": "872457",
    "final_x": "3668863.8",
    "final_y": "539506.18",
    "longitude": "-90.10770127837372",
    "latitude": "29.97783263360543",
    "geocoded_column": {
      "latitude": "29.97783263360543",
      "longitude": "-90.10770127837372"
    }
  },
  {
    "service_request": "2022-872456",
    "request_type": "Abandoned Vehicles",
    "request_reason": "Abandoned/Junk Vehicles",
    "date_created": "2022-04-05T16:16:07.000",
    "date_modified": "2022-04-05T16:16:49.000",
    "request_status": "Pending",
    "responsible_agency": "Department of Public Works",
    "final_address": "BANKS ST & S BERNADOTTE ST",
    "address_councildis": "A",
    "status": "Pending",
    "rowid": "872456",
    "final_x": "3668083.2",
    "final_y": "539091.18",
    "longitude": "-90.11018068361487",
    "latitude": "29.976714458673086",
    "geocoded_column": {
      "latitude": "29.976714458673086",
      "longitude": "-90.11018068361487"
    }
  },
  {
    "service_request": "2022-872455",
    "request_type": "Abandoned Vehicles",
    "request_reason": "Abandoned/Junk Vehicles",
    "date_created": "2022-04-05T16:14:13.000",
    "date_modified": "2022-04-05T16:14:13.000",
    "request_status": "Pending",
    "responsible_agency": "Department of Public Works",
    "final_address": "New Orleans, Louisiana",
    "status": "Pending",
    "rowid": "872455",
    "longitude": "0.0",
    "latitude": "0.0",
    "geocoded_column": {
      "latitude": "0.0",
      "longitude": "0.0"
    }
  },
  {
    "service_request": "2022-872454",
    "request_type": "Mosquito, Termite & Rodent Control",
    "request_reason": "Non-Rodent Complaint (Mice, Possums, Snakes)",
    "date_created": "2022-04-05T16:11:26.000",
    "date_modified": "2022-04-05T16:11:26.000",
    "request_status": "Pending",
    "responsible_agency": "Mosquito, Termite & Rodent Control Board",
    "final_address": "8500 Forshey St",
    "address_councildis": "A",
    "status": "Pending",
    "rowid": "872454",
    "final_x": "3665896.33799",
    "final_y": "534876.846918",
    "longitude": "-90.11722876624108",
    "latitude": "29.96519045036156",
    "geocoded_column": {
      "latitude": "29.96519045036156",
      "longitude": "-90.11722876624108"
    }
  },
  {
    "service_request": "2022-872453",
    "request_type": "Roads/Drainage",
    "request_reason": "Street Flooding / Drainage",
    "date_created": "2022-04-05T16:09:31.000",
    "date_modified": "2022-04-05T16:09:31.000",
    "request_status": "Pending",
    "responsible_agency": "Department of Public Works",
    "final_address": "2549 Dumaine St",
    "address_councildis": "D",
    "status": "Pending",
    "rowid": "872453",
    "final_x": "3677667.18952",
    "final_y": "537167.238472",
    "longitude": "-90.07997791095183",
    "latitude": "29.97113949124866",
    "geocoded_column": {
      "latitude": "29.97113949124866",
      "longitude": "-90.07997791095183"
    }
  },
  {
    "service_request": "2022-872452",
    "request_type": "Mosquito, Termite & Rodent Control",
    "request_reason": "Rodent Complaint (Rats)",
    "date_created": "2022-04-05T16:08:16.000",
    "date_modified": "2022-04-05T16:08:16.000",
    "request_status": "Pending",
    "responsible_agency": "Mosquito, Termite & Rodent Control Board",
    "final_address": "8500 Forshey St",
    "address_councildis": "A",
    "status": "Pending",
    "rowid": "872452",
    "final_x": "3665896.33799",
    "final_y": "534876.846918",
    "longitude": "-90.11722876624108",
    "latitude": "29.96519045036156",
    "geocoded_column": {
      "latitude": "29.96519045036156",
      "longitude": "-90.11722876624108"
    }
  },
  {
    "service_request": "2022-872451",
    "request_type": "Property Maintenance",
    "request_reason": "Property Maintenance",
    "date_created": "2022-04-05T16:02:51.000",
    "date_modified": "2022-04-05T16:02:51.000",
    "request_status": "Pending",
    "responsible_agency": "Department of Code Enforcement",
    "final_address": "1500 BLK Delery St",
    "address_councildis": "E",
    "status": "Pending",
    "rowid": "872451",
    "final_x": "3701044.58278",
    "final_y": "534444.950255",
    "longitude": "-90.00624901557354",
    "latitude": "29.962930359305446",
    "geocoded_column": {
      "latitude": "29.962930359305446",
      "longitude": "-90.00624901557354"
    }
  },
  {
    "service_request": "2022-872450",
    "request_type": "Traffic Signals/Signs/Striping/Streetlights",
    "request_reason": "Traffic Signal Malfunctioning/Damaged",
    "date_created": "2022-04-05T15:58:52.000",
    "date_modified": "2022-04-05T15:58:52.000",
    "request_status": "Pending",
    "responsible_agency": "Department of Public Works",
    "final_address": "1600 Cleveland Ave",
    "address_councildis": "B",
    "status": "Pending",
    "rowid": "872450",
    "final_x": "3678373.562",
    "final_y": "532211.828931",
    "longitude": "-90.07791855488779",
    "latitude": "29.957492535122803",
    "geocoded_column": {
      "latitude": "29.957492535122803",
      "longitude": "-90.07791855488779"
    }
  },
  {
    "service_request": "2022-872449",
    "request_type": "Trash/Recycling",
    "request_reason": "Missed Trash Pick-Up",
    "date_created": "2022-04-05T15:56:45.000",
    "date_modified": "2022-04-05T15:56:46.000",
    "request_status": "Pending",
    "responsible_agency": "Department of Sanitation",
    "final_address": "1917 Upperline St",
    "address_councildis": "B",
    "status": "Assigned to Contractor",
    "contractor": "Richards Disposal",
    "rowid": "872449",
    "final_x": "3669151.64967",
    "final_y": "521938.802746",
    "longitude": "-90.10738577525973",
    "latitude": "29.929519644215603",
    "geocoded_column": {
      "latitude": "29.929519644215603",
      "longitude": "-90.10738577525973"
    }
  },
  {
    "service_request": "2022-872448",
    "request_type": "Abandoned Vehicles",
    "request_reason": "Abandoned/Junk Vehicles",
    "date_created": "2022-04-05T15:55:26.000",
    "date_modified": "2022-04-05T15:55:26.000",
    "request_status": "Pending",
    "responsible_agency": "Department of Public Works",
    "final_address": "2321 Ursulines Ave",
    "address_councildis": "D",
    "status": "Pending",
    "rowid": "872448",
    "final_x": "3678872.01288",
    "final_y": "537259.890632",
    "longitude": "-90.076169705425",
    "latitude": "29.971357960922006",
    "geocoded_column": {
      "latitude": "29.971357960922006",
      "longitude": "-90.076169705425"
    }
  },
  {
    "service_request": "2022-872447",
    "request_type": "Roads/Drainage",
    "request_reason": "Catch Basin - Broken/Damage",
    "date_created": "2022-04-05T15:53:12.000",
    "date_modified": "2022-04-05T15:53:12.000",
    "request_status": "Pending",
    "responsible_agency": "Department of Public Works",
    "final_address": "2130 Annunciation St",
    "address_councildis": "B",
    "status": "Pending",
    "rowid": "872447",
    "final_x": "3679668.24898",
    "final_y": "521287.759161",
    "longitude": "-90.07420937135875",
    "latitude": "29.927415909818915",
    "geocoded_column": {
      "latitude": "29.927415909818915",
      "longitude": "-90.07420937135875"
    }
  },
  {
    "service_request": "2022-872446",
    "request_type": "Property Maintenance",
    "request_reason": "Property Maintenance",
    "date_created": "2022-04-05T15:51:21.000",
    "date_modified": "2022-04-05T15:51:21.000",
    "request_status": "Pending",
    "responsible_agency": "Department of Code Enforcement",
    "final_address": "3014 Holiday Dr",
    "address_councildis": "C",
    "status": "Pending",
    "rowid": "872446",
    "final_x": "3698875.24714",
    "final_y": "519797.701432",
    "longitude": "-90.01363218845437",
    "latitude": "29.922724446032788",
    "geocoded_column": {
      "latitude": "29.922724446032788",
      "longitude": "-90.01363218845437"
    }
  },
  {
    "service_request": "2022-872445",
    "request_type": "Trash/Recycling",
    "request_reason": "Replace Trash Cart",
    "date_created": "2022-04-05T15:50:47.000",
    "date_modified": "2022-04-05T15:50:48.000",
    "request_status": "Pending",
    "responsible_agency": "Department of Sanitation",
    "final_address": "4515 Tchoupitoulas St",
    "address_councildis": "B",
    "status": "Assigned to Contractor",
    "contractor": "Richards Disposal",
    "rowid": "872445",
    "final_x": "3670648.76449",
    "final_y": "517518.410998",
    "longitude": "-90.10280950061293",
    "latitude": "29.917320845137358",
    "geocoded_column": {
      "latitude": "29.917320845137358",
      "longitude": "-90.10280950061293"
    }
  },
  {
    "service_request": "2022-872444",
    "request_type": "Trash/Recycling",
    "request_reason": "Request a Large Item Pick Up",
    "date_created": "2022-04-05T15:48:18.000",
    "date_modified": "2022-04-05T15:48:19.000",
    "request_status": "Pending",
    "responsible_agency": "Department of Sanitation",
    "final_address": "1918 S Gayoso St",
    "address_councildis": "B",
    "status": "Assigned to Contractor",
    "contractor": "Richards Disposal",
    "rowid": "872444",
    "final_x": "3670121.54196",
    "final_y": "529556.462657",
    "longitude": "-90.10406600882041",
    "latitude": "29.95043717292334",
    "geocoded_column": {
      "latitude": "29.95043717292334",
      "longitude": "-90.10406600882041"
    }
  },
  {
    "service_request": "2022-872443",
    "request_type": "Parks & Parkways",
    "request_reason": "Request Tree Service (Right of Way/Public Property)",
    "date_created": "2022-04-05T15:44:56.000",
    "date_modified": "2022-04-05T15:44:56.000",
    "request_status": "Pending",
    "responsible_agency": "Department of Parks & Parkway",
    "final_address": "3527 Prytania St",
    "address_councildis": "B",
    "status": "Pending",
    "rowid": "872443",
    "final_x": "3673721.10376",
    "final_y": "520936.419193",
    "longitude": "-90.09299506863934",
    "latitude": "29.92662819264314",
    "geocoded_column": {
      "latitude": "29.92662819264314",
      "longitude": "-90.09299506863934"
    }
  },
  {
    "service_request": "2022-872442",
    "request_type": "Trash/Recycling",
    "request_reason": "Request a Large Item Pick Up",
    "date_created": "2022-04-05T15:43:03.000",
    "date_modified": "2022-04-05T15:43:04.000",
    "request_status": "Pending",
    "responsible_agency": "Department of Sanitation",
    "final_address": "1111 Constantinople St",
    "address_councildis": "B",
    "status": "Assigned to Contractor",
    "contractor": "Richards Disposal",
    "rowid": "872442",
    "final_x": "3672494.65767",
    "final_y": "519771.679096",
    "longitude": "-90.09690630607031",
    "latitude": "29.923461977995228",
    "geocoded_column": {
      "latitude": "29.923461977995228",
      "longitude": "-90.09690630607031"
    }
  },
  {
    "service_request": "2022-872441",
    "request_type": "Traffic Signals/Signs/Striping/Streetlights",
    "request_reason": "Street Light Outage/Malfunction",
    "date_created": "2022-04-05T15:40:09.000",
    "date_modified": "2022-04-05T15:40:10.000",
    "request_status": "Pending",
    "responsible_agency": "Department of Public Works",
    "final_address": "2008 Bodenger Blvd",
    "address_councildis": "C",
    "status": "Pending",
    "contractor": "Royal Engineering",
    "rowid": "872441",
    "final_x": "3688496.73609",
    "final_y": "524388.890556",
    "longitude": "-90.0462301453908",
    "latitude": "29.935673272682905",
    "geocoded_column": {
      "latitude": "29.935673272682905",
      "longitude": "-90.0462301453908"
    }
  },
  {
    "service_request": "2022-872440",
    "request_type": "Property Maintenance",
    "request_reason": "Property Maintenance",
    "date_created": "2022-04-05T15:37:42.000",
    "date_modified": "2022-04-05T15:37:42.000",
    "request_status": "Pending",
    "responsible_agency": "Department of Code Enforcement",
    "final_address": "5531 New England Dr",
    "address_councildis": "E",
    "status": "Pending",
    "rowid": "872440",
    "final_x": "3723777.2983",
    "final_y": "563767.483041",
    "longitude": "-89.93333160936383",
    "latitude": "30.042812205355606",
    "geocoded_column": {
      "latitude": "30.042812205355606",
      "longitude": "-89.93333160936383"
    }
  },
  {
    "service_request": "2022-872435",
    "request_type": "Property Maintenance",
    "request_reason": "Property Maintenance",
    "date_created": "2022-04-05T15:25:36.000",
    "date_modified": "2022-04-05T15:25:36.000",
    "request_status": "Pending",
    "responsible_agency": "Department of Code Enforcement",
    "final_address": "1810 Governor Nicholls St",
    "address_councildis": "D",
    "status": "Pending",
    "rowid": "872435",
    "final_x": "3680480.70792",
    "final_y": "536323.670727",
    "longitude": "-90.07112179016744",
    "latitude": "29.968735049007595",
    "geocoded_column": {
      "latitude": "29.968735049007595",
      "longitude": "-90.07112179016744"
    }
  },
  {
    "service_request": "2022-872434",
    "request_type": "Abandoned Vehicles",
    "request_reason": "Abandoned/Junk Vehicles",
    "date_created": "2022-04-05T15:25:06.000",
    "date_modified": "2022-04-05T15:27:49.000",
    "request_status": "Pending",
    "responsible_agency": "Department of Public Works",
    "final_address": "3528 Monroe St",
    "address_councildis": "A",
    "status": "Pending",
    "rowid": "872434",
    "final_x": "3666034.70093",
    "final_y": "536055.806215",
    "longitude": "-90.1167522922658",
    "latitude": "29.96842815992007",
    "geocoded_column": {
      "latitude": "29.96842815992007",
      "longitude": "-90.1167522922658"
    }
  },
  {
    "service_request": "2022-872431",
    "request_type": "Traffic Signals/Signs/Striping/Streetlights",
    "request_reason": "Traffic Sign Missing/Damaged",
    "date_created": "2022-04-05T15:17:10.000",
    "date_modified": "2022-04-05T15:17:10.000",
    "request_status": "Pending",
    "responsible_agency": "Department of Public Works",
    "final_address": "1935 Delachaise St",
    "address_councildis": "B",
    "status": "Pending",
    "rowid": "872431",
    "final_x": "3673305.4164",
    "final_y": "522684.937658",
    "longitude": "-90.09424759469698",
    "latitude": "29.931448420748083",
    "geocoded_column": {
      "latitude": "29.931448420748083",
      "longitude": "-90.09424759469698"
    }
  },
  {
    "service_request": "2022-872430",
    "request_type": "Trash/Recycling",
    "request_reason": "Repair Trash Cart",
    "date_created": "2022-04-05T15:14:55.000",
    "date_modified": "2022-04-05T15:14:56.000",
    "request_status": "Pending",
    "responsible_agency": "Department of Sanitation",
    "final_address": "1669 Chippewa St",
    "address_councildis": "B",
    "status": "Assigned to Contractor",
    "contractor": "Richards Disposal",
    "rowid": "872430",
    "final_x": "3680944.06626",
    "final_y": "522304.192058",
    "longitude": "-90.0701465629236",
    "latitude": "29.93017215549153",
    "geocoded_column": {
      "latitude": "29.93017215549153",
      "longitude": "-90.0701465629236"
    }
  },
  {
    "service_request": "2022-872429",
    "request_type": "Traffic Signals/Signs/Striping/Streetlights",
    "request_reason": "Traffic Sign Missing/Damaged",
    "date_created": "2022-04-05T15:07:31.000",
    "date_modified": "2022-04-05T15:07:31.000",
    "request_status": "Pending",
    "responsible_agency": "Department of Public Works",
    "final_address": "3501 Delachaise St",
    "address_councildis": "B",
    "status": "Pending",
    "rowid": "872429",
    "final_x": "3671424.1099",
    "final_y": "527735.789631",
    "longitude": "-90.10001504341814",
    "latitude": "29.945392430757487",
    "geocoded_column": {
      "latitude": "29.945392430757487",
      "longitude": "-90.10001504341814"
    }
  },
  {
    "service_request": "2022-872428",
    "request_type": "Trash/Recycling",
    "request_reason": "Repair Trash Cart",
    "date_created": "2022-04-05T15:03:03.000",
    "date_modified": "2022-04-05T15:03:04.000",
    "request_status": "Pending",
    "responsible_agency": "Department of Sanitation",
    "final_address": "4313 Tchoupitoulas St",
    "address_councildis": "B",
    "status": "Assigned to Contractor",
    "contractor": "Richards Disposal",
    "rowid": "872428",
    "final_x": "3671461.62606",
    "final_y": "517531.479798",
    "longitude": "-90.10024330809112",
    "latitude": "29.91733275223218",
    "geocoded_column": {
      "latitude": "29.91733275223218",
      "longitude": "-90.10024330809112"
    }
  },
  {
    "service_request": "2022-872427",
    "request_type": "Roads/Drainage",
    "request_reason": "Accessibility Ramps, Curbs and Sidewalk Repair",
    "date_created": "2022-04-05T15:01:15.000",
    "date_modified": "2022-04-05T15:01:15.000",
    "request_status": "Pending",
    "responsible_agency": "Department of Public Works",
    "final_address": "1915 E Homestead Dr",
    "address_councildis": "C",
    "status": "Pending",
    "rowid": "872427",
    "final_x": "3697094.73482",
    "final_y": "524868.34662",
    "longitude": "-90.01906894176797",
    "latitude": "29.936723248757378",
    "geocoded_column": {
      "latitude": "29.936723248757378",
      "longitude": "-90.01906894176797"
    }
  },
  {
    "service_request": "2022-872426",
    "request_type": "Trash/Recycling",
    "request_reason": "Request a Large Item Pick Up",
    "date_created": "2022-04-05T15:00:13.000",
    "date_modified": "2022-04-05T15:00:15.000",
    "request_status": "Pending",
    "responsible_agency": "Department of Sanitation",
    "final_address": "2317 Harmony St",
    "address_councildis": "B",
    "status": "Assigned to Contractor",
    "contractor": "Richards Disposal",
    "rowid": "872426",
    "final_x": "3673676.7682",
    "final_y": "524218.074812",
    "longitude": "-90.09302289033769",
    "latitude": "29.93565300345886",
    "geocoded_column": {
      "latitude": "29.93565300345886",
      "longitude": "-90.09302289033769"
    }
  },
  {
    "service_request": "2022-872425",
    "request_type": "Trash/Recycling",
    "request_reason": "Illegal Dumping",
    "date_created": "2022-04-05T14:58:24.000",
    "date_modified": "2022-04-05T14:59:04.000",
    "request_status": "Pending",
    "responsible_agency": "Department of Sanitation",
    "final_address": "13000 BLK Cherbourg St",
    "address_councildis": "E",
    "status": "Pending",
    "rowid": "872425",
    "final_x": "3724227.66798",
    "final_y": "561047.685107",
    "longitude": "-89.93201340046451",
    "latitude": "30.035318743058323",
    "geocoded_column": {
      "latitude": "30.035318743058323",
      "longitude": "-89.93201340046451"
    }
  },
  {
    "service_request": "2022-872424",
    "request_type": "Abandoned Vehicles",
    "request_reason": "Abandoned/Junk Vehicles",
    "date_created": "2022-04-05T14:51:05.000",
    "date_modified": "2022-04-05T14:51:05.000",
    "request_status": "Pending",
    "responsible_agency": "Department of Public Works",
    "final_address": "1004 Fourth St",
    "address_councildis": "B",
    "status": "Pending",
    "rowid": "872424",
    "final_x": "3677460.30062",
    "final_y": "520716.764537",
    "longitude": "-90.08119901669764",
    "latitude": "29.925912389142255",
    "geocoded_column": {
      "latitude": "29.925912389142255",
      "longitude": "-90.08119901669764"
    }
  },
  {
    "service_request": "2022-872423",
    "request_type": "Trash/Recycling",
    "request_reason": "Missed Trash Pick-Up",
    "date_created": "2022-04-05T14:41:09.000",
    "date_modified": "2022-04-05T14:41:09.000",
    "request_status": "Pending",
    "responsible_agency": "Department of Sanitation",
    "final_address": "3108 Upperline St",
    "address_councildis": "B",
    "status": "Assigned to Contractor",
    "contractor": "Richards Disposal",
    "rowid": "872423",
    "final_x": "3669216.39975",
    "final_y": "526432.872062",
    "longitude": "-90.10702953829498",
    "latitude": "29.94187498473501",
    "geocoded_column": {
      "latitude": "29.94187498473501",
      "longitude": "-90.10702953829498"
    }
  },
  {
    "service_request": "2022-872422",
    "request_type": "Trash/Recycling",
    "request_reason": "Request a Large Item Pick Up",
    "date_created": "2022-04-05T14:39:06.000",
    "date_modified": "2022-04-05T14:39:07.000",
    "case_close_date": "2021-12-19T18:00:00.000",
    "request_status": "Pending",
    "responsible_agency": "Department of Sanitation",
    "final_address": "10721 Willowbrae Dr",
    "address_councildis": "E",
    "status": "Assigned to Contractor",
    "contractor": "Metro Disposal",
    "rowid": "872422",
    "final_x": "3710766.09854",
    "final_y": "564204.634401",
    "longitude": "-89.97443547906997",
    "latitude": "30.04444488962274",
    "geocoded_column": {
      "latitude": "30.04444488962274",
      "longitude": "-89.97443547906997"
    }
  },
  {
    "service_request": "2022-872419",
    "request_type": "Trash/Recycling",
    "request_reason": "Repair Trash Cart",
    "date_created": "2022-04-05T14:36:51.000",
    "date_modified": "2022-04-05T14:36:52.000",
    "request_status": "Pending",
    "responsible_agency": "Department of Sanitation",
    "final_address": "1052 Terry St",
    "address_councildis": "C",
    "status": "Assigned to Contractor",
    "contractor": "Richards Disposal",
    "rowid": "872419",
    "final_x": "3697053.5009",
    "final_y": "527410.885823",
    "longitude": "-90.01910705360189",
    "latitude": "29.94371565072948",
    "geocoded_column": {
      "latitude": "29.94371565072948",
      "longitude": "-90.01910705360189"
    }
  },
  {
    "service_request": "2022-872417",
    "request_type": "Trash/Recycling",
    "request_reason": "Replace Trash Cart",
    "date_created": "2022-04-05T14:35:02.000",
    "date_modified": "2022-04-05T14:35:02.000",
    "request_status": "Pending",
    "responsible_agency": "Department of Sanitation",
    "final_address": "6148 Dover Pl",
    "address_councildis": "C",
    "status": "Assigned to Contractor",
    "contractor": "Richards Disposal",
    "rowid": "872417",
    "final_x": "3706754.38206",
    "final_y": "519146.104951",
    "longitude": "-89.98878523418003",
    "latitude": "29.92068090862408",
    "geocoded_column": {
      "latitude": "29.92068090862408",
      "longitude": "-89.98878523418003"
    }
  },
  {
    "service_request": "2022-872416",
    "request_type": "Trash/Recycling",
    "request_reason": "Request a Large Item Pick Up",
    "date_created": "2022-04-05T14:33:43.000",
    "date_modified": "2022-04-05T14:33:44.000",
    "request_status": "Pending",
    "responsible_agency": "Department of Sanitation",
    "final_address": "1049 Terry St",
    "address_councildis": "C",
    "status": "Assigned to Contractor",
    "contractor": "Richards Disposal",
    "rowid": "872416",
    "final_x": "3696956.7073",
    "final_y": "527467.498239",
    "longitude": "-90.01941060558956",
    "latitude": "29.943874367441335",
    "geocoded_column": {
      "latitude": "29.943874367441335",
      "longitude": "-90.01941060558956"
    }
  },
  {
    "service_request": "2022-872414",
    "request_type": "Abandoned Vehicles",
    "request_reason": "Abandoned/Junk Vehicles",
    "date_created": "2022-04-05T14:31:40.000",
    "date_modified": "2022-04-05T14:31:40.000",
    "request_status": "Pending",
    "responsible_agency": "Department of Public Works",
    "final_address": "8333 Jeannette St",
    "address_councildis": "A",
    "status": "Pending",
    "rowid": "872414",
    "final_x": "3661933.34554",
    "final_y": "529872.838721",
    "longitude": "-90.12990971486317",
    "latitude": "29.95154610626974",
    "geocoded_column": {
      "latitude": "29.95154610626974",
      "longitude": "-90.12990971486317"
    }
  },
  {
    "service_request": "2022-872413",
    "request_type": "Trash/Recycling",
    "request_reason": "Request a Large Item Pick Up",
    "date_created": "2022-04-05T14:28:20.000",
    "date_modified": "2022-04-05T14:28:21.000",
    "request_status": "Pending",
    "responsible_agency": "Department of Sanitation",
    "final_address": "615 Eighth St",
    "address_councildis": "B",
    "status": "Assigned to Contractor",
    "contractor": "Richards Disposal",
    "rowid": "872413",
    "final_x": "3677088.91522",
    "final_y": "518826.639543",
    "longitude": "-90.08243650739018",
    "latitude": "29.92072631087233",
    "geocoded_column": {
      "latitude": "29.92072631087233",
      "longitude": "-90.08243650739018"
    }
  },
  {
    "service_request": "2022-872412",
    "request_type": "Trash/Recycling",
    "request_reason": "Start Trash Service",
    "date_created": "2022-04-05T14:27:32.000",
    "date_modified": "2022-04-05T14:27:33.000",
    "request_status": "Pending",
    "responsible_agency": "Department of Sanitation",
    "final_address": "1940 Feliciana St",
    "address_councildis": "D",
    "status": "Assigned to Contractor",
    "contractor": "Metro Disposal",
    "rowid": "872412",
    "final_x": "3689536.07747",
    "final_y": "539408.065994",
    "longitude": "-90.04241475077023",
    "latitude": "29.976938662345802",
    "geocoded_column": {
      "latitude": "29.976938662345802",
      "longitude": "-90.04241475077023"
    }
  },
  {
    "service_request": "2022-872411",
    "request_type": "Trash/Recycling",
    "request_reason": "Order Trash Cart",
    "date_created": "2022-04-05T14:27:21.000",
    "date_modified": "2022-04-05T14:27:22.000",
    "request_status": "Pending",
    "responsible_agency": "Department of Sanitation",
    "final_address": "1940 Feliciana St",
    "address_councildis": "D",
    "status": "Assigned to Contractor",
    "contractor": "Metro Disposal",
    "rowid": "872411",
    "final_x": "3689536.07747",
    "final_y": "539408.065994",
    "longitude": "-90.04241475077023",
    "latitude": "29.976938662345802",
    "geocoded_column": {
      "latitude": "29.976938662345802",
      "longitude": "-90.04241475077023"
    }
  },
  {
    "service_request": "2022-872410",
    "request_type": "Safety & Permits",
    "request_reason": "Licenses & Permits",
    "date_created": "2022-04-05T14:27:06.000",
    "date_modified": "2022-04-05T14:27:06.000",
    "request_status": "Pending",
    "responsible_agency": "Safety and Permits",
    "final_address": "3226 Metropolitan St",
    "address_councildis": "D",
    "status": "Pending",
    "rowid": "872410",
    "final_x": "3691372.76412",
    "final_y": "544453.048783",
    "longitude": "-90.0364335889004",
    "latitude": "29.990753531069753",
    "geocoded_column": {
      "latitude": "29.990753531069753",
      "longitude": "-90.0364335889004"
    }
  },
  {
    "service_request": "2022-872409",
    "request_type": "Trash/Recycling",
    "request_reason": "Request a Large Item Pick Up",
    "date_created": "2022-04-05T14:23:32.000",
    "date_modified": "2022-04-05T14:23:52.000",
    "case_close_date": "2021-03-31T19:00:00.000",
    "request_status": "Closed",
    "responsible_agency": "Department of Sanitation",
    "final_address": "7522 Jeannette St",
    "address_councildis": "A",
    "status": "Resolved",
    "contractor": "Richards Disposal",
    "rowid": "872409",
    "final_x": "3664069.328",
    "final_y": "527748.667711",
    "longitude": "-90.12323612034218",
    "latitude": "29.945643463521094",
    "geocoded_column": {
      "latitude": "29.945643463521094",
      "longitude": "-90.12323612034218"
    }
  },
  {
    "service_request": "2022-872408",
    "request_type": "Trash/Recycling",
    "request_reason": "Missed Trash Pick-Up",
    "date_created": "2022-04-05T14:23:28.000",
    "date_modified": "2022-04-05T14:23:29.000",
    "request_status": "Pending",
    "responsible_agency": "Department of Sanitation",
    "final_address": "2313 Dumaine St",
    "address_councildis": "D",
    "status": "Assigned to Contractor",
    "contractor": "Richards Disposal",
    "rowid": "872408",
    "final_x": "3678429.75707",
    "final_y": "536599.886023",
    "longitude": "-90.07758925548242",
    "latitude": "29.969556508751623",
    "geocoded_column": {
      "latitude": "29.969556508751623",
      "longitude": "-90.07758925548242"
    }
  },
  {
    "service_request": "2022-872407",
    "request_type": "Roads/Drainage",
    "request_reason": "Street Flooding / Drainage",
    "date_created": "2022-04-05T14:23:13.000",
    "date_modified": "2022-04-05T14:23:13.000",
    "request_status": "Pending",
    "responsible_agency": "Department of Public Works",
    "final_address": "334 Octavia St",
    "address_councildis": "A",
    "status": "Pending",
    "rowid": "872407",
    "final_x": "3666084.66829",
    "final_y": "517430.576054",
    "longitude": "-90.11721876079815",
    "latitude": "29.917213310519582",
    "geocoded_column": {
      "latitude": "29.917213310519582",
      "longitude": "-90.11721876079815"
    }
  },
  {
    "service_request": "2022-872406",
    "request_type": "Abandoned Vehicles",
    "request_reason": "Abandoned/Junk Vehicles",
    "date_created": "2022-04-05T14:22:30.000",
    "date_modified": "2022-04-05T14:22:30.000",
    "request_status": "Pending",
    "responsible_agency": "Department of Public Works",
    "final_address": "1324 S Carrollton Ave",
    "address_councildis": "A",
    "status": "Pending",
    "rowid": "872406",
    "final_x": "3662289.11911",
    "final_y": "528738.178944",
    "longitude": "-90.12882401038713",
    "latitude": "29.948415877432865",
    "geocoded_column": {
      "latitude": "29.948415877432865",
      "longitude": "-90.12882401038713"
    }
  },
  {
    "service_request": "2022-872405",
    "request_type": "Trash/Recycling",
    "request_reason": "Missed Trash Pick-Up",
    "date_created": "2022-04-05T14:21:53.000",
    "date_modified": "2022-04-05T14:21:53.000",
    "request_status": "Pending",
    "responsible_agency": "Department of Sanitation",
    "final_address": "1225 Amelia St",
    "address_councildis": "B",
    "status": "Assigned to Contractor",
    "contractor": "Richards Disposal",
    "rowid": "872405",
    "final_x": "3673550.60033",
    "final_y": "519740.946424",
    "longitude": "-90.0935741333045",
    "latitude": "29.923346100348226",
    "geocoded_column": {
      "latitude": "29.923346100348226",
      "longitude": "-90.0935741333045"
    }
  },
  {
    "service_request": "2022-872404",
    "request_type": "Trash/Recycling",
    "request_reason": "Order Recycling Cart",
    "date_created": "2022-04-05T14:20:14.000",
    "date_modified": "2022-04-05T14:20:14.000",
    "request_status": "Pending",
    "responsible_agency": "Department of Sanitation",
    "final_address": "1522 Simon Bolivar Ave",
    "address_councildis": "B",
    "status": "Pending",
    "rowid": "872404",
    "final_x": "3677250.9261",
    "final_y": "526494.983358",
    "longitude": "-90.08166070222862",
    "latitude": "29.941806888272563",
    "geocoded_column": {
      "latitude": "29.941806888272563",
      "longitude": "-90.08166070222862"
    }
  },
  {
    "service_request": "2022-872403",
    "request_type": "Safety & Permits",
    "request_reason": "Construction permit",
    "date_created": "2022-04-05T14:18:12.000",
    "date_modified": "2022-04-05T14:18:12.000",
    "request_status": "Pending",
    "responsible_agency": "Department of Code Enforcement",
    "status": "Pending",
    "rowid": "872403",
    "longitude": "0.0",
    "latitude": "0.0",
    "geocoded_column": {
      "latitude": "0.0",
      "longitude": "0.0"
    }
  },
  {
    "service_request": "2022-872402",
    "request_type": "Trash/Recycling",
    "request_reason": "Request a Large Item Pick Up",
    "date_created": "2022-04-05T14:15:34.000",
    "date_modified": "2022-04-05T14:15:35.000",
    "request_status": "Pending",
    "responsible_agency": "Department of Sanitation",
    "final_address": "2814 Milan St",
    "address_councildis": "B",
    "status": "Assigned to Contractor",
    "contractor": "Richards Disposal",
    "rowid": "872402",
    "final_x": "3671113.47892",
    "final_y": "525286.454781",
    "longitude": "-90.10107897281598",
    "latitude": "29.938666746737002",
    "geocoded_column": {
      "latitude": "29.938666746737002",
      "longitude": "-90.10107897281598"
    }
  },
  {
    "service_request": "2022-872401",
    "request_type": "Trash/Recycling",
    "request_reason": "Request a Large Item Pick Up",
    "date_created": "2022-04-05T14:14:18.000",
    "date_modified": "2022-04-05T14:14:19.000",
    "request_status": "Pending",
    "responsible_agency": "Department of Sanitation",
    "final_address": "4530 Virgilian St",
    "address_councildis": "D",
    "status": "Assigned to Contractor",
    "contractor": "Metro Disposal",
    "rowid": "872401",
    "final_x": "3697500.86058",
    "final_y": "552682.052886",
    "longitude": "-90.01677787792684",
    "latitude": "30.013188097632",
    "geocoded_column": {
      "latitude": "30.013188097632",
      "longitude": "-90.01677787792684"
    }
  },
  {
    "service_request": "2022-872399",
    "request_type": "Trash/Recycling",
    "request_reason": "Missed Trash Pick-Up",
    "date_created": "2022-04-05T14:08:53.000",
    "date_modified": "2022-04-05T14:08:54.000",
    "request_status": "Pending",
    "responsible_agency": "Department of Sanitation",
    "final_address": "3631 Banks St",
    "address_councildis": "B",
    "status": "Assigned to Contractor",
    "contractor": "Richards Disposal",
    "rowid": "872399",
    "final_x": "3671701.96302",
    "final_y": "536441.096519",
    "longitude": "-90.09884165065674",
    "latitude": "29.969320910777967",
    "geocoded_column": {
      "latitude": "29.969320910777967",
      "longitude": "-90.09884165065674"
    }
  },
  {
    "service_request": "2022-872398",
    "request_type": "Trash/Recycling",
    "request_reason": "Repair Trash Cart",
    "date_created": "2022-04-05T14:00:06.000",
    "date_modified": "2022-04-05T14:00:07.000",
    "request_status": "Pending",
    "responsible_agency": "Department of Sanitation",
    "final_address": "928 N Robertson St",
    "address_councildis": "C",
    "status": "Assigned to Contractor",
    "contractor": "Richards Disposal",
    "rowid": "872398",
    "final_x": "3680689.15528",
    "final_y": "535129.375814",
    "longitude": "-90.07050506873385",
    "latitude": "29.965444832191313",
    "geocoded_column": {
      "latitude": "29.965444832191313",
      "longitude": "-90.07050506873385"
    }
  },
  {
    "service_request": "2022-872397",
    "request_type": "Trash/Recycling",
    "request_reason": "Repair Recycling Cart",
    "date_created": "2022-04-05T13:59:09.000",
    "date_modified": "2022-04-05T13:59:09.000",
    "request_status": "Pending",
    "responsible_agency": "Department of Sanitation",
    "final_address": "516 N Rendon St",
    "address_councildis": "A",
    "status": "Pending",
    "rowid": "872397",
    "final_x": "3674684.69595",
    "final_y": "537719.75508",
    "longitude": "-90.08937809763957",
    "latitude": "29.972748090334655",
    "geocoded_column": {
      "latitude": "29.972748090334655",
      "longitude": "-90.08937809763957"
    }
  },
  {
    "service_request": "2022-872396",
    "request_type": "Trash/Recycling",
    "request_reason": "Repair Recycling Cart",
    "date_created": "2022-04-05T13:59:09.000",
    "date_modified": "2022-04-05T13:59:09.000",
    "request_status": "Pending",
    "responsible_agency": "Department of Sanitation",
    "final_address": "516 N Rendon St",
    "address_councildis": "A",
    "status": "Pending",
    "rowid": "872396",
    "final_x": "3674684.69595",
    "final_y": "537719.75508",
    "longitude": "-90.08937809763957",
    "latitude": "29.972748090334655",
    "geocoded_column": {
      "latitude": "29.972748090334655",
      "longitude": "-90.08937809763957"
    }
  },
  {
    "service_request": "2022-872395",
    "request_type": "Traffic Signals/Signs/Striping/Streetlights",
    "request_reason": "Street Light Outage/Malfunction",
    "date_created": "2022-04-05T13:54:47.000",
    "date_modified": "2022-04-05T13:54:47.000",
    "request_status": "Pending",
    "responsible_agency": "Department of Public Works",
    "final_address": "1513 Gardena Dr",
    "address_councildis": "D",
    "status": "Pending",
    "contractor": "Royal Engineering",
    "rowid": "872395",
    "final_x": "3678792.95016",
    "final_y": "551618.064725",
    "longitude": "-90.07592179239859",
    "latitude": "30.010840284087493",
    "geocoded_column": {
      "latitude": "30.010840284087493",
      "longitude": "-90.07592179239859"
    }
  },
  {
    "service_request": "2022-872394",
    "request_type": "Roads/Drainage",
    "request_reason": "Street Subsidence (Sinking)",
    "date_created": "2022-04-05T13:52:29.000",
    "date_modified": "2022-04-05T13:52:29.000",
    "request_status": "Pending",
    "responsible_agency": "Department of Public Works",
    "final_address": "201 St Charles Ave",
    "address_councildis": "B",
    "status": "Pending",
    "rowid": "872394",
    "final_x": "3680907.66773",
    "final_y": "530296.154625",
    "longitude": "-90.06998330034857",
    "latitude": "29.952148492948435",
    "geocoded_column": {
      "latitude": "29.952148492948435",
      "longitude": "-90.06998330034857"
    }
  },
  {
    "service_request": "2022-872393",
    "request_type": "Trash/Recycling",
    "request_reason": "Replace Trash Cart",
    "date_created": "2022-04-05T13:48:22.000",
    "date_modified": "2022-04-05T13:48:23.000",
    "request_status": "Pending",
    "responsible_agency": "Department of Sanitation",
    "final_address": "3719 Magazine St",
    "address_councildis": "B",
    "status": "Assigned to Contractor",
    "contractor": "Richards Disposal",
    "rowid": "872393",
    "final_x": "3673472.99438",
    "final_y": "519119.769207",
    "longitude": "-90.09384031731776",
    "latitude": "29.92164037052183",
    "geocoded_column": {
      "latitude": "29.92164037052183",
      "longitude": "-90.09384031731776"
    }
  },
  {
    "service_request": "2022-872392",
    "request_type": "Trash/Recycling",
    "request_reason": "Request a Large Item Pick Up",
    "date_created": "2022-04-05T13:43:23.000",
    "date_modified": "2022-04-05T13:43:23.000",
    "request_status": "Pending",
    "responsible_agency": "Department of Sanitation",
    "final_address": "2836 Chippewa St",
    "address_councildis": "B",
    "status": "Assigned to Contractor",
    "contractor": "Richards Disposal",
    "rowid": "872392",
    "final_x": "3677643.69474",
    "final_y": "519367.486583",
    "longitude": "-90.08066665906492",
    "latitude": "29.922196800451434",
    "geocoded_column": {
      "latitude": "29.922196800451434",
      "longitude": "-90.08066665906492"
    }
  },
  {
    "service_request": "2022-872391",
    "request_type": "Trash/Recycling",
    "request_reason": "Missed Trash Pick-Up",
    "date_created": "2022-04-05T13:40:46.000",
    "date_modified": "2022-04-05T13:40:47.000",
    "request_status": "Pending",
    "responsible_agency": "Department of Sanitation",
    "final_address": "7732 Grant St",
    "address_councildis": "E",
    "status": "Assigned to Contractor",
    "contractor": "Metro Disposal",
    "rowid": "872391",
    "final_x": "3703864.52849",
    "final_y": "554120.777048",
    "longitude": "-89.99661920979618",
    "latitude": "30.01694145659764",
    "geocoded_column": {
      "latitude": "30.01694145659764",
      "longitude": "-89.99661920979618"
    }
  },
  {
    "service_request": "2022-872390",
    "request_type": "Trash/Recycling",
    "request_reason": "Replace Trash Cart",
    "date_created": "2022-04-05T13:39:40.000",
    "date_modified": "2022-04-05T13:39:41.000",
    "request_status": "Pending",
    "responsible_agency": "Department of Sanitation",
    "final_address": "7733 Duke Ct",
    "address_councildis": "E",
    "status": "Assigned to Contractor",
    "contractor": "Metro Disposal",
    "rowid": "872390",
    "final_x": "3700186.26077",
    "final_y": "561065.549918",
    "longitude": "-90.00798713394295",
    "latitude": "30.03615438529532",
    "geocoded_column": {
      "latitude": "30.03615438529532",
      "longitude": "-90.00798713394295"
    }
  },
  {
    "service_request": "2022-872389",
    "request_type": "Trash/Recycling",
    "request_reason": "Request a Large Item Pick Up",
    "date_created": "2022-04-05T13:33:24.000",
    "date_modified": "2022-04-05T13:52:34.000",
    "request_status": "Pending",
    "responsible_agency": "Department of Sanitation",
    "final_address": "New Orleans,LA",
    "address_councildis": "B",
    "status": "Assigned to Contractor",
    "contractor": "Richards Disposal",
    "rowid": "872389",
    "final_x": "3670923.02407",
    "final_y": "521490.554425",
    "longitude": "-90.10180906296975",
    "latitude": "29.92823487391336",
    "geocoded_column": {
      "latitude": "29.92823487391336",
      "longitude": "-90.10180906296975"
    }
  },
  {
    "service_request": "2022-872388",
    "request_type": "Trash/Recycling",
    "request_reason": "Missed Trash Pick-Up",
    "date_created": "2022-04-05T13:33:04.000",
    "date_modified": "2022-04-05T13:33:05.000",
    "request_status": "Pending",
    "responsible_agency": "Department of Sanitation",
    "final_address": "4018 Palmyra St",
    "address_councildis": "A",
    "status": "Assigned to Contractor",
    "contractor": "Richards Disposal",
    "rowid": "872388",
    "final_x": "3670806.78625",
    "final_y": "537485.355912",
    "longitude": "-90.10163324560915",
    "latitude": "29.972218761327376",
    "geocoded_column": {
      "latitude": "29.972218761327376",
      "longitude": "-90.10163324560915"
    }
  },
  {
    "service_request": "2022-872387",
    "request_type": "Trash/Recycling",
    "request_reason": "Request a Large Item Pick Up",
    "date_created": "2022-04-05T13:32:31.000",
    "date_modified": "2022-04-05T13:32:32.000",
    "request_status": "Pending",
    "responsible_agency": "Department of Sanitation",
    "final_address": "4018 Palmyra St",
    "address_councildis": "A",
    "status": "Assigned to Contractor",
    "contractor": "Richards Disposal",
    "rowid": "872387",
    "final_x": "3670806.78625",
    "final_y": "537485.355912",
    "longitude": "-90.10163324560915",
    "latitude": "29.972218761327376",
    "geocoded_column": {
      "latitude": "29.972218761327376",
      "longitude": "-90.10163324560915"
    }
  },
  {
    "service_request": "2022-872386",
    "request_type": "Trash/Recycling",
    "request_reason": "Order Trash Cart",
    "date_created": "2022-04-05T13:31:33.000",
    "date_modified": "2022-04-05T13:31:34.000",
    "request_status": "Pending",
    "responsible_agency": "Department of Sanitation",
    "final_address": "1711 Jackson Ave",
    "address_councildis": "B",
    "status": "Assigned to Contractor",
    "contractor": "Richards Disposal",
    "rowid": "872386",
    "final_x": "3677355.30536",
    "final_y": "524119.561596",
    "longitude": "-90.0814130952019",
    "latitude": "29.935272124965394",
    "geocoded_column": {
      "latitude": "29.935272124965394",
      "longitude": "-90.0814130952019"
    }
  },
  {
    "service_request": "2022-872385",
    "request_type": "Trash/Recycling",
    "request_reason": "Request a Large Item Pick Up",
    "date_created": "2022-04-05T13:28:09.000",
    "date_modified": "2022-04-05T13:28:10.000",
    "request_status": "Pending",
    "responsible_agency": "Department of Sanitation",
    "final_address": "1314 Frenchmen St, New Orleans, Louisiana, 70116",
    "address_councildis": "C",
    "status": "Assigned to Contractor",
    "contractor": "Metro Disposal",
    "rowid": "872385",
    "final_x": "3684493.07292",
    "final_y": "537146.233416",
    "longitude": "-90.05842162259366",
    "latitude": "29.97087466987811",
    "geocoded_column": {
      "latitude": "29.97087466987811",
      "longitude": "-90.05842162259366"
    }
  },
  {
    "service_request": "2022-872384",
    "request_type": "Trash/Recycling",
    "request_reason": "Request a Large Item Pick Up",
    "date_created": "2022-04-05T13:25:37.000",
    "date_modified": "2022-04-05T13:25:37.000",
    "request_status": "Pending",
    "responsible_agency": "Department of Sanitation",
    "final_address": "925 Washington Ave",
    "address_councildis": "B",
    "status": "Assigned to Contractor",
    "contractor": "Richards Disposal",
    "rowid": "872384",
    "final_x": "3677367.10568",
    "final_y": "520428.266104",
    "longitude": "-90.08150315515392",
    "latitude": "29.925121912022405",
    "geocoded_column": {
      "latitude": "29.925121912022405",
      "longitude": "-90.08150315515392"
    }
  },
  {
    "service_request": "2022-872383",
    "request_type": "Trash/Recycling",
    "request_reason": "Illegal Dumping",
    "date_created": "2022-04-05T13:15:55.000",
    "date_modified": "2022-04-05T13:15:55.000",
    "request_status": "Pending",
    "responsible_agency": "Department of Sanitation",
    "final_address": "6020 Curran Rd",
    "address_councildis": "E",
    "status": "Pending",
    "rowid": "872383",
    "final_x": "3695273.61392",
    "final_y": "558783.21686",
    "longitude": "-90.0235944174248",
    "latitude": "30.030034169389214",
    "geocoded_column": {
      "latitude": "30.030034169389214",
      "longitude": "-90.0235944174248"
    }
  },
  {
    "service_request": "2022-872382",
    "request_type": "Trash/Recycling",
    "request_reason": "Replace Trash Cart",
    "date_created": "2022-04-05T13:15:42.000",
    "date_modified": "2022-04-05T13:15:43.000",
    "request_status": "Pending",
    "responsible_agency": "Department of Sanitation",
    "final_address": "3929 Hamilton St",
    "address_councildis": "A",
    "status": "Assigned to Contractor",
    "contractor": "Richards Disposal",
    "rowid": "872382",
    "final_x": "3666027.64013",
    "final_y": "538019.865161",
    "longitude": "-90.11670873302911",
    "latitude": "29.973828875152382",
    "geocoded_column": {
      "latitude": "29.973828875152382",
      "longitude": "-90.11670873302911"
    }
  },
  {
    "service_request": "2022-872381",
    "request_type": "Trash/Recycling",
    "request_reason": "Start Trash Service",
    "date_created": "2022-04-05T13:07:04.000",
    "date_modified": "2022-04-05T13:10:11.000",
    "case_close_date": "2022-04-05T08:10:11.000",
    "request_status": "Closed",
    "responsible_agency": "Department of Sanitation",
    "final_address": "2239 Josephine St",
    "address_councildis": "B",
    "status": "Duplicate Case",
    "contractor": "Richards Disposal",
    "rowid": "872381",
    "final_x": "3676351.09512",
    "final_y": "526025.53331",
    "longitude": "-90.08451781069654",
    "latitude": "29.940543052232904",
    "geocoded_column": {
      "latitude": "29.940543052232904",
      "longitude": "-90.08451781069654"
    }
  },
  {
    "service_request": "2022-872380",
    "request_type": "Trash/Recycling",
    "request_reason": "Order Trash Cart",
    "date_created": "2022-04-05T13:06:31.000",
    "date_modified": "2022-04-05T13:06:31.000",
    "request_status": "Pending",
    "responsible_agency": "Department of Sanitation",
    "final_address": "2239 Josephine St",
    "address_councildis": "B",
    "status": "Assigned to Contractor",
    "contractor": "Richards Disposal",
    "rowid": "872380",
    "final_x": "3676351.09512",
    "final_y": "526025.53331",
    "longitude": "-90.08451781069654",
    "latitude": "29.940543052232904",
    "geocoded_column": {
      "latitude": "29.940543052232904",
      "longitude": "-90.08451781069654"
    }
  },
  {
    "service_request": "2022-872379",
    "request_type": "Trash/Recycling",
    "request_reason": "Order Trash Cart",
    "date_created": "2022-04-05T13:06:06.000",
    "date_modified": "2022-04-05T13:09:30.000",
    "case_close_date": "2022-04-05T08:09:30.000",
    "request_status": "Closed",
    "responsible_agency": "Department of Sanitation",
    "final_address": "2237 Josephine St",
    "address_councildis": "B",
    "status": "Duplicate Case",
    "contractor": "Richards Disposal",
    "rowid": "872379",
    "final_x": "3676360.71093",
    "final_y": "526016.498878",
    "longitude": "-90.08448776282695",
    "latitude": "29.94051792235077",
    "geocoded_column": {
      "latitude": "29.94051792235077",
      "longitude": "-90.08448776282695"
    }
  },
  {
    "service_request": "2022-872378",
    "request_type": "Traffic Signals/Signs/Striping/Streetlights",
    "request_reason": "Request for Traffic Calming due to Speeding",
    "date_created": "2022-04-05T13:05:55.000",
    "date_modified": "2022-04-05T13:05:55.000",
    "request_status": "Pending",
    "responsible_agency": "Department of Public Works",
    "final_address": "2327 Franklin Ave",
    "address_councildis": "D",
    "status": "Pending",
    "rowid": "872378",
    "final_x": "3687631.09961",
    "final_y": "541168.60558",
    "longitude": "-90.04836890752634",
    "latitude": "29.981838398323543",
    "geocoded_column": {
      "latitude": "29.981838398323543",
      "longitude": "-90.04836890752634"
    }
  },
  {
    "service_request": "2022-872377",
    "request_type": "Trash/Recycling",
    "request_reason": "Start Trash Service",
    "date_created": "2022-04-05T13:05:37.000",
    "date_modified": "2022-04-05T13:05:37.000",
    "request_status": "Pending",
    "responsible_agency": "Department of Sanitation",
    "final_address": "2237 Josephine St",
    "address_councildis": "B",
    "status": "Assigned to Contractor",
    "contractor": "Richards Disposal",
    "rowid": "872377",
    "final_x": "3676360.71093",
    "final_y": "526016.498878",
    "longitude": "-90.08448776282695",
    "latitude": "29.94051792235077",
    "geocoded_column": {
      "latitude": "29.94051792235077",
      "longitude": "-90.08448776282695"
    }
  },
  {
    "service_request": "2022-872376",
    "request_type": "Roads/Drainage",
    "request_reason": "Damaged Sidewalk",
    "date_created": "2022-04-05T13:04:45.000",
    "date_modified": "2022-04-05T13:04:45.000",
    "request_status": "Pending",
    "responsible_agency": "Department of Public Works",
    "final_address": "145 Baronne St",
    "address_councildis": "B",
    "status": "Pending",
    "rowid": "872376",
    "final_x": "3680210.42965",
    "final_y": "530782.770882",
    "longitude": "-90.07216794110155",
    "latitude": "29.953507643074527",
    "geocoded_column": {
      "latitude": "29.953507643074527",
      "longitude": "-90.07216794110155"
    }
  },
  {
    "service_request": "2022-872375",
    "request_type": "Traffic Signals/Signs/Striping/Streetlights",
    "request_reason": "Traffic Sign Missing/Damaged",
    "date_created": "2022-04-05T13:01:49.000",
    "date_modified": "2022-04-05T13:01:49.000",
    "request_status": "Pending",
    "responsible_agency": "Department of Public Works",
    "final_address": "N GALVEZ ST & ST BERNARD AVE",
    "address_councildis": "D",
    "status": "Pending",
    "rowid": "872375",
    "final_x": "3681276.6",
    "final_y": "539516.38",
    "longitude": "-90.06849701914136",
    "latitude": "29.977489764684236",
    "geocoded_column": {
      "latitude": "29.977489764684236",
      "longitude": "-90.06849701914136"
    }
  },
  {
    "service_request": "2022-872374",
    "request_type": "Abandoned Vehicles",
    "request_reason": "Abandoned/Junk Vehicles",
    "date_created": "2022-04-05T12:59:08.000",
    "date_modified": "2022-04-05T13:01:06.000",
    "request_status": "Pending",
    "responsible_agency": "Department of Public Works",
    "final_address": "2621 Joliet St",
    "address_councildis": "A",
    "status": "Pending",
    "rowid": "872374",
    "final_x": "3664452.79712",
    "final_y": "533172.96666",
    "longitude": "-90.12184430185675",
    "latitude": "29.96054738601903",
    "geocoded_column": {
      "latitude": "29.96054738601903",
      "longitude": "-90.12184430185675"
    }
  },
  {
    "service_request": "2022-872373",
    "request_type": "Trash/Recycling",
    "request_reason": "Order Trash Cart",
    "date_created": "2022-04-05T12:57:56.000",
    "date_modified": "2022-04-05T12:57:57.000",
    "request_status": "Pending",
    "responsible_agency": "Department of Sanitation",
    "final_address": "4675 Dodt Ave",
    "address_councildis": "E",
    "status": "Assigned to Contractor",
    "contractor": "Metro Disposal",
    "rowid": "872373",
    "final_x": "3705543.97399",
    "final_y": "555003.449561",
    "longitude": "-89.99128023785116",
    "latitude": "30.019314487886795",
    "geocoded_column": {
      "latitude": "30.019314487886795",
      "longitude": "-89.99128023785116"
    }
  },
  {
    "service_request": "2022-872372",
    "request_type": "Traffic Signals/Signs/Striping/Streetlights",
    "request_reason": "Striping/Road Surface Markings",
    "date_created": "2022-04-05T12:57:17.000",
    "date_modified": "2022-04-05T12:57:17.000",
    "request_status": "Pending",
    "responsible_agency": "Department of Public Works",
    "final_address": "422 S Hennessey St",
    "address_councildis": "A",
    "status": "Pending",
    "rowid": "872372",
    "final_x": "3669450.77114",
    "final_y": "537778.229",
    "longitude": "-90.10590587513008",
    "latitude": "29.973064073952486",
    "geocoded_column": {
      "latitude": "29.973064073952486",
      "longitude": "-90.10590587513008"
    }
  },
  {
    "service_request": "2022-872369",
    "request_type": "Trash/Recycling",
    "request_reason": "Request a Large Item Pick Up",
    "date_created": "2022-04-05T12:49:37.000",
    "date_modified": "2022-04-05T12:49:38.000",
    "request_status": "Pending",
    "responsible_agency": "Department of Sanitation",
    "final_address": "939 Pacific Ave",
    "address_councildis": "C",
    "status": "Assigned to Contractor",
    "contractor": "Richards Disposal",
    "rowid": "872369",
    "final_x": "3688369.57999",
    "final_y": "527983.887487",
    "longitude": "-90.0465041184922",
    "latitude": "29.945562221359943",
    "geocoded_column": {
      "latitude": "29.945562221359943",
      "longitude": "-90.0465041184922"
    }
  },
  {
    "service_request": "2022-872368",
    "request_type": "Trash/Recycling",
    "request_reason": "Missed Trash Pick-Up",
    "date_created": "2022-04-05T12:49:16.000",
    "date_modified": "2022-04-05T12:49:16.000",
    "request_status": "Pending",
    "responsible_agency": "Department of Sanitation",
    "final_address": "4164 Canal St",
    "address_councildis": "A",
    "status": "Assigned to Contractor",
    "contractor": "Richards Disposal",
    "rowid": "872368",
    "final_x": "3670607.78151",
    "final_y": "538574.640969",
    "longitude": "-90.10222477635834",
    "latitude": "29.975219808385457",
    "geocoded_column": {
      "latitude": "29.975219808385457",
      "longitude": "-90.10222477635834"
    }
  },
  {
    "service_request": "2022-872367",
    "request_type": "Traffic Signals/Signs/Striping/Streetlights",
    "request_reason": "Street Light Outage/Malfunction",
    "date_created": "2022-04-05T12:48:55.000",
    "date_modified": "2022-04-05T12:48:57.000",
    "request_status": "Pending",
    "responsible_agency": "Department of Public Works",
    "final_address": "135 Carondelet St",
    "address_councildis": "B",
    "status": "Pending",
    "contractor": "Royal Engineering",
    "rowid": "872367",
    "final_x": "3680664.42837",
    "final_y": "530636.065794",
    "longitude": "-90.070739510147",
    "latitude": "29.953090505941493",
    "geocoded_column": {
      "latitude": "29.953090505941493",
      "longitude": "-90.070739510147"
    }
  },
  {
    "service_request": "2022-872366",
    "request_type": "Property Maintenance",
    "request_reason": "Property Maintenance",
    "date_created": "2022-04-05T12:44:27.000",
    "date_modified": "2022-04-05T12:44:27.000",
    "request_status": "Pending",
    "responsible_agency": "Department of Code Enforcement",
    "final_address": "341 Opelousas Ave",
    "address_councildis": "C",
    "status": "Pending",
    "rowid": "872366",
    "final_x": "3686412.28546",
    "final_y": "528900.371136",
    "longitude": "-90.05265157950822",
    "latitude": "29.948142535843836",
    "geocoded_column": {
      "latitude": "29.948142535843836",
      "longitude": "-90.05265157950822"
    }
  },