[
  {
    "service_request": "2026-1289263",
    "request_type": "Health Related Request",
    "request_reason": "Noise Ordinance Complaint",
    "date_created": "2026-06-09T23:28:13.000",
    "date_modified": "2026-06-09T23:28:15.000",
    "request_status": "Pending",
    "responsible_agency": "Health Department",
    "final_address": "801 Bourbon St, New Orleans, Louisiana, 70116",
    "address_councildis": "C",
    "status": "Pending",
    "rowid": "1289263",
    "final_x": "3682490.98735",
    "final_y": "533018.672772",
    "longitude": "-90.06488875731978",
    "latitude": "29.959586396383013",
    "geocoded_column": {
      "latitude": "29.959586396383013",
      "longitude": "-90.06488875731978"
    }
  },
  {
    "service_request": "2026-1289262",
    "request_type": "Health Related Request",
    "request_reason": "Noise Ordinance Complaint",
    "date_created": "2026-06-09T23:27:24.000",
    "date_modified": "2026-06-09T23:27:35.000",
    "request_status": "Pending",
    "responsible_agency": "Health Department",
    "final_address": "Bourbon St, New Orleans, Louisiana, 70112",
    "address_councildis": "C",
    "status": "Pending",
    "rowid": "1289262",
    "final_x": "3681146.39893",
    "final_y": "531272.414338",
    "longitude": "-90.06919549071922",
    "latitude": "29.95482563751313",
    "geocoded_column": {
      "latitude": "29.95482563751313",
      "longitude": "-90.06919549071922"
    }
  },
  {
    "service_request": "2026-1289261",
    "request_type": "Health Related Request",
    "request_reason": "Noise Ordinance Complaint",
    "date_created": "2026-06-09T23:26:37.000",
    "date_modified": "2026-06-09T23:26:41.000",
    "request_status": "Pending",
    "responsible_agency": "Health Department",
    "final_address": "800 Bourbon St, New Orleans, Louisiana, 70116",
    "address_councildis": "C",
    "status": "Pending",
    "rowid": "1289261",
    "final_x": "3682553.51528",
    "final_y": "533013.631428",
    "longitude": "-90.06469148499534",
    "latitude": "29.95957063099051",
    "geocoded_column": {
      "latitude": "29.95957063099051",
      "longitude": "-90.06469148499534"
    }
  },
  {
    "service_request": "2026-1289260",
    "request_type": "Street and Traffic Signs",
    "request_reason": "One Way Sign Missing or Damaged",
    "date_created": "2026-06-09T22:45:47.000",
    "date_modified": "2026-06-09T22:45:49.000",
    "request_status": "Pending",
    "responsible_agency": "Department of Public Works",
    "final_address": "2473 N Johnson St",
    "address_councildis": "D",
    "status": "Pending",
    "rowid": "1289260",
    "final_x": "3686863.05135",
    "final_y": "539819.929546",
    "longitude": "-90.05084243967458",
    "latitude": "29.978153676085526",
    "geocoded_column": {
      "latitude": "29.978153676085526",
      "longitude": "-90.05084243967458"
    }
  },
  {
    "service_request": "2026-1289259",
    "request_type": "Health Related Request",
    "request_reason": "Noise Ordinance Complaint",
    "date_created": "2026-06-09T22:39:43.000",
    "date_modified": "2026-06-09T22:39:45.000",
    "request_status": "Pending",
    "responsible_agency": "Health Department",
    "final_address": "801 Bourbon St, New Orleans, Louisiana, 70116",
    "address_councildis": "C",
    "status": "Pending",
    "rowid": "1289259",
    "final_x": "3682490.98735",
    "final_y": "533018.672772",
    "longitude": "-90.06488875731978",
    "latitude": "29.959586396383013",
    "geocoded_column": {
      "latitude": "29.959586396383013",
      "longitude": "-90.06488875731978"
    }
  },
  {
    "service_request": "2026-1289258",
    "request_type": "Health Related Request",
    "request_reason": "Noise Ordinance Complaint",
    "date_created": "2026-06-09T22:39:03.000",
    "date_modified": "2026-06-09T22:39:06.000",
    "request_status": "Pending",
    "responsible_agency": "Health Department",
    "final_address": "800 Bourbon St, New Orleans, Louisiana, 70116",
    "address_councildis": "C",
    "status": "Pending",
    "rowid": "1289258",
    "final_x": "3682553.51528",
    "final_y": "533013.631428",
    "longitude": "-90.06469148499534",
    "latitude": "29.95957063099051",
    "geocoded_column": {
      "latitude": "29.95957063099051",
      "longitude": "-90.06469148499534"
    }
  },
  {
    "service_request": "2026-1289257",
    "request_type": "Streetlights",
    "request_reason": "Streetlight Outage/Malfunction",
    "date_created": "2026-06-09T21:51:35.000",
    "date_modified": "2026-06-09T21:51:36.000",
    "request_status": "Pending",
    "responsible_agency": "Department of Public Works",
    "final_address": "456 Crystal St",
    "address_councildis": "D",
    "status": "Pending",
    "rowid": "1289257",
    "final_x": "3668218.1218",
    "final_y": "556169.58857",
    "longitude": "-90.10917830166784",
    "latitude": "30.023670208997654",
    "geocoded_column": {
      "latitude": "30.023670208997654",
      "longitude": "-90.10917830166784"
    }
  },
  {
    "service_request": "2026-1289256",
    "request_type": "Health Related Request",
    "request_reason": "Noise Ordinance Complaint",
    "date_created": "2026-06-09T21:49:15.000",
    "date_modified": "2026-06-09T21:49:16.000",
    "request_status": "Pending",
    "responsible_agency": "Health Department",
    "final_address": "801 Bourbon St, New Orleans, Louisiana, 70116",
    "address_councildis": "C",
    "status": "Pending",
    "rowid": "1289256",
    "final_x": "3682490.98735",
    "final_y": "533018.672772",
    "longitude": "-90.06488875731978",
    "latitude": "29.959586396383013",
    "geocoded_column": {
      "latitude": "29.959586396383013",
      "longitude": "-90.06488875731978"
    }
  },
  {
    "service_request": "2026-1289255",
    "request_type": "Property Maintenance",
    "request_reason": "Property Maintenance",
    "date_created": "2026-06-09T21:48:35.000",
    "date_modified": "2026-06-09T21:48:39.000",
    "request_status": "Pending",
    "responsible_agency": "Department of Code Enforcement",
    "final_address": "1506 Conti St",
    "address_councildis": "C",
    "status": "Pending",
    "rowid": "1289255",
    "final_x": "3679686.15426",
    "final_y": "533125.588228",
    "longitude": "-90.07374206067149",
    "latitude": "29.95996545508881",
    "geocoded_column": {
      "latitude": "29.95996545508881",
      "longitude": "-90.07374206067149"
    }
  },
  {
    "service_request": "2026-1289254",
    "request_type": "Health Related Request",
    "request_reason": "Noise Ordinance Complaint",
    "date_created": "2026-06-09T21:42:26.000",
    "date_modified": "2026-06-09T21:42:30.000",
    "request_status": "Pending",
    "responsible_agency": "Health Department",
    "final_address": "800 Bourbon St, New Orleans, Louisiana, 70116",
    "address_councildis": "C",
    "status": "Pending",
    "rowid": "1289254",
    "final_x": "3682553.51528",
    "final_y": "533013.631428",
    "longitude": "-90.06469148499534",
    "latitude": "29.95957063099051",
    "geocoded_column": {
      "latitude": "29.95957063099051",
      "longitude": "-90.06469148499534"
    }
  },
  {
    "service_request": "2026-1289253",
    "request_type": "Trash/Recycling",
    "request_reason": "Request a Large Item Pick Up",
    "date_created": "2026-06-09T21:11:21.000",
    "date_modified": "2026-06-09T21:11:22.000",
    "request_status": "Pending",
    "responsible_agency": "Department of Sanitation",
    "final_address": "3615 Elysian Fields Ave",
    "address_councildis": "D",
    "status": "Assigned to Contractor",
    "contractor": "IV Waste",
    "rowid": "1289253",
    "final_x": "3684377.11714",
    "final_y": "546015.30152",
    "longitude": "-90.0584761911619",
    "latitude": "29.99526502865968",
    "geocoded_column": {
      "latitude": "29.99526502865968",
      "longitude": "-90.0584761911619"
    }
  },
  {
    "service_request": "2026-1289252",
    "request_type": "Streetlights",
    "request_reason": "Streetlight Outage/Malfunction",
    "date_created": "2026-06-09T21:05:25.000",
    "date_modified": "2026-06-09T21:05:26.000",
    "request_status": "Pending",
    "responsible_agency": "Department of Public Works",
    "final_address": "1601 Coliseum St",
    "address_councildis": "B",
    "status": "Pending",
    "rowid": "1289252",
    "final_x": "3679741.14338",
    "final_y": "524718.734908",
    "longitude": "-90.07386021369419",
    "latitude": "29.936847761983497",
    "geocoded_column": {
      "latitude": "29.936847761983497",
      "longitude": "-90.07386021369419"
    }
  },
  {
    "service_request": "2026-1289251",
    "request_type": "Trash/Recycling",
    "request_reason": "Change Size of Trash Cart",
    "date_created": "2026-06-09T20:55:12.000",
    "date_modified": "2026-06-09T20:55:13.000",
    "request_status": "Pending",
    "responsible_agency": "Department of Sanitation",
    "final_address": "3015 Castiglione St",
    "address_councildis": "D",
    "status": "Assigned to Contractor",
    "contractor": "IV Waste",
    "rowid": "1289251",
    "final_x": "3678989.52277",
    "final_y": "542622.526029",
    "longitude": "-90.0756126965431",
    "latitude": "29.9860998065675",
    "geocoded_column": {
      "latitude": "29.9860998065675",
      "longitude": "-90.0756126965431"
    }
  },
  {
    "service_request": "2026-1289250",
    "request_type": "Trash/Recycling",
    "request_reason": "Order Recycling Cart",
    "date_created": "2026-06-09T20:54:03.000",
    "date_modified": "2026-06-09T20:54:04.000",
    "request_status": "Pending",
    "responsible_agency": "Department of Sanitation",
    "final_address": "3015 Castiglione St",
    "address_councildis": "D",
    "status": "Pending",
    "rowid": "1289250",
    "final_x": "3678989.52277",
    "final_y": "542622.526029",
    "longitude": "-90.0756126965431",
    "latitude": "29.9860998065675",
    "geocoded_column": {
      "latitude": "29.9860998065675",
      "longitude": "-90.0756126965431"
    }
  },
  {
    "service_request": "2026-1289249",
    "request_type": "Trash/Recycling",
    "request_reason": "Repair Trash Cart",
    "date_created": "2026-06-09T20:52:27.000",
    "date_modified": "2026-06-09T20:52:30.000",
    "request_status": "Pending",
    "responsible_agency": "Department of Sanitation",
    "final_address": "4867 Citrus Dr",
    "address_councildis": "E",
    "status": "Assigned to Contractor",
    "contractor": "Waste Pro",
    "rowid": "1289249",
    "final_x": "3710747.44088",
    "final_y": "556774.68905",
    "longitude": "-89.97477285782689",
    "latitude": "30.024016100113382",
    "geocoded_column": {
      "latitude": "30.024016100113382",
      "longitude": "-89.97477285782689"
    }
  },
  {
    "service_request": "2026-1289248",
    "request_type": "Trash/Recycling",
    "request_reason": "Return Trash Cart",
    "date_created": "2026-06-09T20:35:58.000",
    "date_modified": "2026-06-09T20:36:00.000",
    "request_status": "Pending",
    "responsible_agency": "Department of Sanitation",
    "final_address": "41 Park Timbers Dr",
    "address_councildis": "C",
    "status": "Assigned to Contractor",
    "contractor": "Richards Disposal",
    "rowid": "1289248",
    "final_x": "3699147.17533",
    "final_y": "517260.035893",
    "longitude": "-90.01286613606509",
    "latitude": "29.915738116236618",
    "geocoded_column": {
      "latitude": "29.915738116236618",
      "longitude": "-90.01286613606509"
    }
  },
  {
    "service_request": "2026-1289247",
    "request_type": "Abandoned Vehicles",
    "request_reason": "Abandoned/Junk Vehicles",
    "date_created": "2026-06-09T20:32:54.000",
    "date_modified": "2026-06-09T20:32:56.000",
    "request_status": "Pending",
    "responsible_agency": "Department of Public Works",
    "final_address": "1817 Bartholomew St",
    "address_councildis": "D",
    "status": "Pending",
    "rowid": "1289247",
    "final_x": "3692540.12323",
    "final_y": "538070.840329",
    "longitude": "-90.03297498533263",
    "latitude": "29.97316836686762",
    "geocoded_column": {
      "latitude": "29.97316836686762",
      "longitude": "-90.03297498533263"
    }
  },
  {
    "service_request": "2026-1289246",
    "request_type": "Trash/Recycling",
    "request_reason": "Damaged Caused By Contractor",
    "date_created": "2026-06-09T20:25:55.000",
    "date_modified": "2026-06-09T20:25:58.000",
    "request_status": "Pending",
    "responsible_agency": "Department of Sanitation",
    "final_address": "5313 Wildair Dr",
    "address_councildis": "D",
    "status": "Assigned to Contractor",
    "contractor": "IV Waste",
    "rowid": "1289246",
    "final_x": "3681706.99042",
    "final_y": "552508.085462",
    "longitude": "-90.06668411988002",
    "latitude": "30.013199269319504",
    "geocoded_column": {
      "latitude": "30.013199269319504",
      "longitude": "-90.06668411988002"
    }
  },
  {
    "service_request": "2026-1289245",
    "request_type": "Trash/Recycling",
    "request_reason": "Repair Recycling Cart",
    "date_created": "2026-06-09T20:18:53.000",
    "date_modified": "2026-06-09T20:18:56.000",
    "request_status": "Pending",
    "responsible_agency": "Department of Sanitation",
    "final_address": "4515 Prytania St",
    "address_councildis": "B",
    "status": "Pending",
    "rowid": "1289245",
    "final_x": "3670378.68999",
    "final_y": "520371.684856",
    "longitude": "-90.10356531642955",
    "latitude": "29.925174415204975",
    "geocoded_column": {
      "latitude": "29.925174415204975",
      "longitude": "-90.10356531642955"
    }
  },
  {
    "service_request": "2026-1289243",
    "request_type": "General Services",
    "request_reason": "General Service Request",
    "date_created": "2026-06-09T20:12:47.000",
    "date_modified": "2026-06-09T20:12:49.000",
    "request_status": "Pending",
    "responsible_agency": "Orleans Parish Communication District",
    "final_address": "6326 Caldwell Dr",
    "address_councildis": "D",
    "status": "Pending",
    "rowid": "1289243",
    "final_x": "3679048.70613",
    "final_y": "556884.792346",
    "longitude": "-90.0749310164164",
    "latitude": "30.02531415535802",
    "geocoded_column": {
      "latitude": "30.02531415535802",
      "longitude": "-90.0749310164164"
    }
  },
  {
    "service_request": "2026-1289242",
    "request_type": "Trash/Recycling",
    "request_reason": "Return Recycling Cart",
    "date_created": "2026-06-09T19:41:50.000",
    "date_modified": "2026-06-09T19:41:52.000",
    "request_status": "Pending",
    "responsible_agency": "Department of Sanitation",
    "final_address": "297 Audubon Blvd",
    "address_councildis": "A",
    "status": "Pending",
    "rowid": "1289242",
    "final_x": "3667106.72801",
    "final_y": "529674.368001",
    "longitude": "-90.11358129446668",
    "latitude": "29.950849962899806",
    "geocoded_column": {
      "latitude": "29.950849962899806",
      "longitude": "-90.11358129446668"
    }
  },
  {
    "service_request": "2026-1289241",
    "request_type": "Trash/Recycling",
    "request_reason": "Repair Recycling Cart",
    "date_created": "2026-06-09T19:39:27.000",
    "date_modified": "2026-06-09T19:39:31.000",
    "request_status": "Pending",
    "responsible_agency": "Department of Sanitation",
    "final_address": "297 Audubon Blvd",
    "address_councildis": "A",
    "status": "Pending",
    "rowid": "1289241",
    "final_x": "3667106.72801",
    "final_y": "529674.368001",
    "longitude": "-90.11358129446668",
    "latitude": "29.950849962899806",
    "geocoded_column": {
      "latitude": "29.950849962899806",
      "longitude": "-90.11358129446668"
    }
  },
  {
    "service_request": "2026-1289240",
    "request_type": "Parks & Grass Service",
    "request_reason": "Park Maintenance/Clean Up",
    "date_created": "2026-06-09T19:35:49.000",
    "date_modified": "2026-06-09T19:35:51.000",
    "request_status": "Pending",
    "responsible_agency": "Department of Parks & Parkways",
    "final_address": "COUNTRY CLUB DR & ACADEMY DR",
    "address_councildis": "A",
    "status": "Pending",
    "rowid": "1289240",
    "final_x": "3665847.2",
    "final_y": "544324.78",
    "longitude": "-90.11706724305994",
    "latitude": "29.991170533584764",
    "geocoded_column": {
      "latitude": "29.991170533584764",
      "longitude": "-90.11706724305994"
    }
  },
  {
    "service_request": "2026-1289239",
    "request_type": "Trash/Recycling",
    "request_reason": "Order Second Trash Cart",
    "date_created": "2026-06-09T19:34:53.000",
    "date_modified": "2026-06-09T19:34:55.000",
    "request_status": "Pending",
    "responsible_agency": "Department of Sanitation",
    "final_address": "297 Audubon Blvd",
    "address_councildis": "A",
    "status": "Assigned to Contractor",
    "contractor": "IV Waste",
    "rowid": "1289239",
    "final_x": "3667106.72801",
    "final_y": "529674.368001",
    "longitude": "-90.11358129446668",
    "latitude": "29.950849962899806",
    "geocoded_column": {
      "latitude": "29.950849962899806",
      "longitude": "-90.11358129446668"
    }
  },
  {
    "service_request": "2026-1289238",
    "request_type": "General Services",
    "request_reason": "General Service Request",
    "date_created": "2026-06-09T19:26:59.000",
    "date_modified": "2026-06-09T19:27:00.000",
    "request_status": "Pending",
    "responsible_agency": "Orleans Parish Communication District",
    "final_address": "1032 Marais St",
    "address_councildis": "C",
    "status": "Pending",
    "rowid": "1289238",
    "final_x": "3681423.88642",
    "final_y": "535056.338758",
    "longitude": "-90.06818736924095",
    "latitude": "29.965221719633817",
    "geocoded_column": {
      "latitude": "29.965221719633817",
      "longitude": "-90.06818736924095"
    }
  },
  {
    "service_request": "2026-1289237",
    "request_type": "Tree Service",
    "request_reason": "Tree Trim",
    "date_created": "2026-06-09T19:24:07.000",
    "date_modified": "2026-06-09T19:24:09.000",
    "request_status": "Pending",
    "responsible_agency": "Department of Parks & Parkways",
    "final_address": "4666 Wright Rd",
    "address_councildis": "E",
    "status": "Pending",
    "rowid": "1289237",
    "final_x": "3716642.70572",
    "final_y": "556596.133658",
    "longitude": "-89.95615194640757",
    "latitude": "30.023331635882133",
    "geocoded_column": {
      "latitude": "30.023331635882133",
      "longitude": "-89.95615194640757"
    }
  },
  {
    "service_request": "2026-1289236",
    "request_type": "Roads and Streets",
    "request_reason": "Sidewalk Damaged or Missing",
    "date_created": "2026-06-09T19:23:57.000",
    "date_modified": "2026-06-09T19:23:59.000",
    "request_status": "Pending",
    "responsible_agency": "Department of Public Works",
    "final_address": "3226 Jackson Ave",
    "address_councildis": "B",
    "status": "Pending",
    "rowid": "1289236",
    "final_x": "3673762.40148",
    "final_y": "528658.370944",
    "longitude": "-90.09260075484025",
    "latitude": "29.947859814628703",
    "geocoded_column": {
      "latitude": "29.947859814628703",
      "longitude": "-90.09260075484025"
    }
  },
  {
    "service_request": "2026-1289235",
    "request_type": "Trash/Recycling",
    "request_reason": "Replace Trash Cart",
    "date_created": "2026-06-09T19:14:03.000",
    "date_modified": "2026-06-09T19:14:12.000",
    "request_status": "Pending",
    "responsible_agency": "Department of Sanitation",
    "final_address": "1319 Decatur St",
    "address_councildis": "C",
    "status": "Assigned to Contractor",
    "contractor": "IV Waste",
    "rowid": "1289235",
    "final_x": "3684549.6477",
    "final_y": "533860.877253",
    "longitude": "-90.05835840132018",
    "latitude": "29.961839345735036",
    "geocoded_column": {
      "latitude": "29.961839345735036",
      "longitude": "-90.05835840132018"
    }
  },
  {
    "service_request": "2026-1289234",
    "request_type": "Streetlights",
    "request_reason": "Streetlight Outage/Malfunction",
    "date_created": "2026-06-09T18:59:53.000",
    "date_modified": "2026-06-09T18:59:54.000",
    "request_status": "Pending",
    "responsible_agency": "Department of Public Works",
    "final_address": "6301 Eastover Dr",
    "address_councildis": "E",
    "status": "Pending",
    "rowid": "1289234",
    "final_x": "3717863.29727",
    "final_y": "564176.683361",
    "longitude": "-89.95200642885847",
    "latitude": "30.044134694630458",
    "geocoded_column": {
      "latitude": "30.044134694630458",
      "longitude": "-89.95200642885847"
    }
  },
  {
    "service_request": "2026-1289233",
    "request_type": "Streetlights",
    "request_reason": "Streetlight Outage/Malfunction",
    "date_created": "2026-06-09T18:56:51.000",
    "date_modified": "2026-06-09T18:56:53.000",
    "request_status": "Pending",
    "responsible_agency": "Department of Public Works",
    "final_address": "6301 Eastover Dr",
    "address_councildis": "E",
    "status": "Pending",
    "rowid": "1289233",
    "final_x": "3717863.29727",
    "final_y": "564176.683361",
    "longitude": "-89.95200642885847",
    "latitude": "30.044134694630458",
    "geocoded_column": {
      "latitude": "30.044134694630458",
      "longitude": "-89.95200642885847"
    }
  },
  {
    "service_request": "2026-1289232",
    "request_type": "Safety & Permits",
    "request_reason": "Licenses & Permits",
    "date_created": "2026-06-09T18:48:59.000",
    "date_modified": "2026-06-09T18:49:01.000",
    "request_status": "Pending",
    "responsible_agency": "Safety and Permits",
    "final_address": "1014 Music St",
    "address_councildis": "C",
    "status": "Pending",
    "rowid": "1289232",
    "final_x": "3686834.91478",
    "final_y": "536227.466311",
    "longitude": "-90.05105827747268",
    "latitude": "29.968276527251867",
    "geocoded_column": {
      "latitude": "29.968276527251867",
      "longitude": "-90.05105827747268"
    }
  },
  {
    "service_request": "2026-1289231",
    "request_type": "Trash/Recycling",
    "request_reason": "Replace Trash Cart",
    "date_created": "2026-06-09T18:40:03.000",
    "date_modified": "2026-06-09T18:40:04.000",
    "request_status": "Pending",
    "responsible_agency": "Department of Sanitation",
    "final_address": "2315 Palmer Ave",
    "address_councildis": "A",
    "status": "Assigned to Contractor",
    "contractor": "IV Waste",
    "rowid": "1289231",
    "final_x": "3666327.65927",
    "final_y": "525362.353149",
    "longitude": "-90.11618583257741",
    "latitude": "29.939016093877083",
    "geocoded_column": {
      "latitude": "29.939016093877083",
      "longitude": "-90.11618583257741"
    }
  },
  {
    "service_request": "2026-1289230",
    "request_type": "Abandoned Vehicles",
    "request_reason": "Abandoned/Junk Vehicles",
    "date_created": "2026-06-09T18:39:39.000",
    "date_modified": "2026-06-09T18:39:41.000",
    "request_status": "Pending",
    "responsible_agency": "Department of Public Works",
    "final_address": "100 BLK N Norman C Francis Pkwy",
    "address_councildis": "B",
    "status": "Pending",
    "rowid": "1289230",
    "final_x": "3673429.82436",
    "final_y": "536868.49298",
    "longitude": "-90.09337031508771",
    "latitude": "29.97044480739492",
    "geocoded_column": {
      "latitude": "29.97044480739492",
      "longitude": "-90.09337031508771"
    }
  },
  {
    "service_request": "2026-1289229",
    "request_type": "Trash/Recycling",
    "request_reason": "Request a Large Item Pick Up",
    "date_created": "2026-06-09T18:35:11.000",
    "date_modified": "2026-06-09T18:35:13.000",
    "request_status": "Pending",
    "responsible_agency": "Department of Sanitation",
    "final_address": "907 Lamanche St",
    "address_councildis": "E",
    "status": "Assigned to Contractor",
    "contractor": "Waste Pro",
    "rowid": "1289229",
    "final_x": "3698210.72624",
    "final_y": "532935.894852",
    "longitude": "-90.01525274534077",
    "latitude": "29.95887093556051",
    "geocoded_column": {
      "latitude": "29.95887093556051",
      "longitude": "-90.01525274534077"
    }
  },
  {
    "service_request": "2026-1289228",
    "request_type": "Trash/Recycling",
    "request_reason": "Replace Trash Cart",
    "date_created": "2026-06-09T18:32:49.000",
    "date_modified": "2026-06-09T18:32:51.000",
    "request_status": "Pending",
    "responsible_agency": "Department of Sanitation",
    "final_address": "2212 Clio St",
    "address_councildis": "B",
    "status": "Assigned to Contractor",
    "contractor": "IV Waste",
    "rowid": "1289228",
    "final_x": "3677248.58139",
    "final_y": "527840.174655",
    "longitude": "-90.08162171038279",
    "latitude": "29.945505789418934",
    "geocoded_column": {
      "latitude": "29.945505789418934",
      "longitude": "-90.08162171038279"
    }
  },
  {
    "service_request": "2026-1289227",
    "request_type": "Healthy Homes",
    "request_reason": "Healthy Homes",
    "date_created": "2026-06-09T18:31:01.000",
    "date_modified": "2026-06-09T18:31:02.000",
    "request_status": "Pending",
    "responsible_agency": "Department of Code Enforcement",
    "final_address": "3101 Rue Parc Fontaine",
    "address_councildis": "C",
    "status": "Pending",
    "rowid": "1289227",
    "final_x": "3700020.30845",
    "final_y": "519563.645559",
    "longitude": "-90.01002623993197",
    "latitude": "29.92204456019195",
    "geocoded_column": {
      "latitude": "29.92204456019195",
      "longitude": "-90.01002623993197"
    }
  },
  {
    "service_request": "2026-1289226",
    "request_type": "Property Maintenance",
    "request_reason": "Property Maintenance",
    "date_created": "2026-06-09T18:16:58.000",
    "date_modified": "2026-06-09T18:17:00.000",
    "request_status": "Pending",
    "responsible_agency": "Department of Code Enforcement",
    "final_address": "3101 Rue Parc Fontaine",
    "address_councildis": "C",
    "status": "Pending",
    "rowid": "1289226",
    "final_x": "3700020.30845",
    "final_y": "519563.645559",
    "longitude": "-90.01002623993197",
    "latitude": "29.92204456019195",
    "geocoded_column": {
      "latitude": "29.92204456019195",
      "longitude": "-90.01002623993197"
    }
  },
  {
    "service_request": "2026-1289225",
    "request_type": "Property Maintenance",
    "request_reason": "Property Maintenance",
    "date_created": "2026-06-09T18:16:20.000",
    "date_modified": "2026-06-09T18:16:22.000",
    "request_status": "Pending",
    "responsible_agency": "Department of Code Enforcement",
    "final_address": "6326 Caldwell Dr",
    "address_councildis": "D",
    "status": "Pending",
    "rowid": "1289225",
    "final_x": "3679048.70613",
    "final_y": "556884.792346",
    "longitude": "-90.0749310164164",
    "latitude": "30.02531415535802",
    "geocoded_column": {
      "latitude": "30.02531415535802",
      "longitude": "-90.0749310164164"
    }
  },
  {
    "service_request": "2026-1289224",
    "request_type": "Trash/Recycling",
    "request_reason": "Order Recycling Cart",
    "date_created": "2026-06-09T18:14:57.000",
    "date_modified": "2026-06-09T18:14:58.000",
    "request_status": "Pending",
    "responsible_agency": "Department of Sanitation",
    "final_address": "1637 Crete St",
    "address_councildis": "A",
    "status": "Pending",
    "rowid": "1289224",
    "final_x": "3678229.74875",
    "final_y": "540821.054603",
    "longitude": "-90.07807486102037",
    "latitude": "29.981169295188433",
    "geocoded_column": {
      "latitude": "29.981169295188433",
      "longitude": "-90.07807486102037"
    }
  },
  {
    "service_request": "2026-1289223",
    "request_type": "Trash/Recycling",
    "request_reason": "Request a Large Item Pick Up",
    "date_created": "2026-06-09T18:13:56.000",
    "date_modified": "2026-06-09T18:14:10.000",
    "request_status": "Pending",
    "responsible_agency": "Department of Sanitation",
    "final_address": "5534 S Johnson St",
    "address_councildis": "B",
    "status": "Assigned to Contractor",
    "contractor": "IV Waste",
    "rowid": "1289223",
    "final_x": "3667951.53479",
    "final_y": "527054.73907",
    "longitude": "-90.11100205039655",
    "latitude": "29.94362207937838",
    "geocoded_column": {
      "latitude": "29.94362207937838",
      "longitude": "-90.11100205039655"
    }
  },
  {
    "service_request": "2026-1289222",
    "request_type": "Health Related Request",
    "request_reason": "Noise Ordinance Complaint",
    "date_created": "2026-06-09T18:02:19.000",
    "date_modified": "2026-06-09T18:02:20.000",
    "request_status": "Pending",
    "responsible_agency": "Health Department",
    "final_address": "6326 Caldwell Dr, New Orleans, Louisiana, 70122",
    "address_councildis": "D",
    "status": "Pending",
    "rowid": "1289222",
    "final_x": "3679048.70613",
    "final_y": "556884.792346",
    "longitude": "-90.0749310164164",
    "latitude": "30.02531415535802",
    "geocoded_column": {
      "latitude": "30.02531415535802",
      "longitude": "-90.0749310164164"
    }
  },
  {
    "service_request": "2026-1289221",
    "request_type": "Streetlights",
    "request_reason": "Streetlight Outage/Malfunction",
    "date_created": "2026-06-09T17:51:32.000",
    "date_modified": "2026-06-09T17:51:34.000",
    "request_status": "Pending",
    "responsible_agency": "Department of Public Works",
    "final_address": "3518 Touro St",
    "address_councildis": "D",
    "status": "Pending",
    "rowid": "1289221",
    "final_x": "3683451.16021",
    "final_y": "545588.194704",
    "longitude": "-90.06141616795202",
    "latitude": "29.994118931917765",
    "geocoded_column": {
      "latitude": "29.994118931917765",
      "longitude": "-90.06141616795202"
    }
  },
  {
    "service_request": "2026-1289220",
    "request_type": "Property Maintenance",
    "request_reason": "Property Maintenance",
    "date_created": "2026-06-09T17:49:35.000",
    "date_modified": "2026-06-09T17:49:36.000",
    "request_status": "Pending",
    "responsible_agency": "Department of Code Enforcement",
    "final_address": "1518 Port St",
    "address_councildis": "C",
    "status": "Pending",
    "rowid": "1289220",
    "final_x": "3687804.51535",
    "final_y": "538030.030985",
    "longitude": "-90.04793238478706",
    "latitude": "29.97320307783298",
    "geocoded_column": {
      "latitude": "29.97320307783298",
      "longitude": "-90.04793238478706"
    }
  },
  {
    "service_request": "2026-1289219",
    "request_type": "Trash/Recycling",
    "request_reason": "Order Trash Cart",
    "date_created": "2026-06-09T17:35:01.000",
    "date_modified": "2026-06-09T17:35:02.000",
    "request_status": "Pending",
    "responsible_agency": "Department of Sanitation",
    "final_address": "9005 Olive St",
    "address_councildis": "A",
    "status": "Assigned to Contractor",
    "contractor": "IV Waste",
    "rowid": "1289219",
    "final_x": "3664872.52519",
    "final_y": "536388.138631",
    "longitude": "-90.12041140634454",
    "latitude": "29.96937584174801",
    "geocoded_column": {
      "latitude": "29.96937584174801",
      "longitude": "-90.12041140634454"
    }
  },
  {
    "service_request": "2026-1289218",
    "request_type": "Trash/Recycling",
    "request_reason": "Change Size of Trash Cart",
    "date_created": "2026-06-09T17:18:20.000",
    "date_modified": "2026-06-09T17:18:28.000",
    "request_status": "Pending",
    "responsible_agency": "Department of Sanitation",
    "final_address": "1309 St Bernard Ave",
    "address_councildis": "C",
    "status": "Assigned to Contractor",
    "contractor": "IV Waste",
    "rowid": "1289218",
    "final_x": "3682894.07157",
    "final_y": "536578.482503",
    "longitude": "-90.06349133629433",
    "latitude": "29.969362374020637",
    "geocoded_column": {
      "latitude": "29.969362374020637",
      "longitude": "-90.06349133629433"
    }
  },
  {
    "service_request": "2026-1289217",
    "request_type": "Trash/Recycling",
    "request_reason": "Illegal Dumping",
    "date_created": "2026-06-09T17:16:06.000",
    "date_modified": "2026-06-09T17:16:07.000",
    "request_status": "Pending",
    "responsible_agency": "Department of Sanitation",
    "final_address": "1841 Almonaster Ave",
    "address_councildis": "D",
    "status": "Pending",
    "rowid": "1289217",
    "final_x": "3687877.38985",
    "final_y": "539270.357962",
    "longitude": "-90.04765828073785",
    "latitude": "29.976611292295242",
    "geocoded_column": {
      "latitude": "29.976611292295242",
      "longitude": "-90.04765828073785"
    }
  },
  {
    "service_request": "2026-1289216",
    "request_type": "Street and Traffic Signs",
    "request_reason": "Traffic or Parking Sign Damaged or Missing",
    "date_created": "2026-06-09T17:14:32.000",
    "date_modified": "2026-06-09T17:14:34.000",
    "request_status": "Pending",
    "responsible_agency": "Department of Public Works",
    "final_address": "1918 Dublin St",
    "address_councildis": "A",
    "status": "Pending",
    "rowid": "1289216",
    "final_x": "3663454.99277",
    "final_y": "530590.08141",
    "longitude": "-90.12508118794932",
    "latitude": "29.95347426124687",
    "geocoded_column": {
      "latitude": "29.95347426124687",
      "longitude": "-90.12508118794932"
    }
  },
  {
    "service_request": "2026-1289215",
    "request_type": "Abandoned Vehicles",
    "request_reason": "Abandoned/Junk Vehicles",
    "date_created": "2026-06-09T17:13:11.000",
    "date_modified": "2026-06-09T17:13:13.000",
    "request_status": "Pending",
    "responsible_agency": "Department of Public Works",
    "final_address": "1732 Paul Morphy St",
    "address_councildis": "D",
    "status": "Pending",
    "rowid": "1289215",
    "final_x": "3679446.12699",
    "final_y": "541163.271948",
    "longitude": "-90.0742211111972",
    "latitude": "29.982073577837294",
    "geocoded_column": {
      "latitude": "29.982073577837294",
      "longitude": "-90.0742211111972"
    }
  },
  {
    "service_request": "2026-1289214",
    "request_type": "Business Issues",
    "request_reason": "Illegal Business",
    "date_created": "2026-06-09T17:07:20.000",
    "date_modified": "2026-06-09T17:07:21.000",
    "request_status": "Pending",
    "responsible_agency": "Bureau of Revenue",
    "final_address": "2600 BLK Desire St",
    "address_councildis": "D",
    "status": "Pending",
    "rowid": "1289214",
    "final_x": "3691692.68187",
    "final_y": "541799.934232",
    "longitude": "-90.03551797124965",
    "latitude": "29.98344846169432",
    "geocoded_column": {
      "latitude": "29.98344846169432",
      "longitude": "-90.03551797124965"
    }
  },
  {
    "service_request": "2026-1289213",
    "request_type": "Business Issues",
    "request_reason": "Illegal Business",
    "date_created": "2026-06-09T17:03:40.000",
    "date_modified": "2026-06-09T17:03:41.000",
    "request_status": "Pending",
    "responsible_agency": "Bureau of Revenue",
    "final_address": "2600 BLK Desire St",
    "address_councildis": "D",
    "status": "Pending",
    "rowid": "1289213",
    "final_x": "3691692.68187",
    "final_y": "541799.934232",
    "longitude": "-90.03551797124965",
    "latitude": "29.98344846169432",
    "geocoded_column": {
      "latitude": "29.98344846169432",
      "longitude": "-90.03551797124965"
    }
  },
  {
    "service_request": "2026-1289212",
    "request_type": "Trash/Recycling",
    "request_reason": "Request a Large Item Pick Up",
    "date_created": "2026-06-09T16:58:04.000",
    "date_modified": "2026-06-09T16:58:06.000",
    "request_status": "Pending",
    "responsible_agency": "Department of Sanitation",
    "final_address": "2915 Bruxelles St",
    "address_councildis": "D",
    "status": "Assigned to Contractor",
    "contractor": "IV Waste",
    "rowid": "1289212",
    "final_x": "3680323.73051",
    "final_y": "543088.221517",
    "longitude": "-90.07138225796115",
    "latitude": "29.987339970398114",
    "geocoded_column": {
      "latitude": "29.987339970398114",
      "longitude": "-90.07138225796115"
    }
  },
  {
    "service_request": "2026-1289211",
    "request_type": "Trash/Recycling",
    "request_reason": "Replace Trash Cart",
    "date_created": "2026-06-09T16:53:20.000",
    "date_modified": "2026-06-09T16:54:28.000",
    "request_status": "Pending",
    "responsible_agency": "Department of Sanitation",
    "final_address": "2601 Dryades St",
    "address_councildis": "B",
    "status": "Assigned to Contractor",
    "contractor": "IV Waste",
    "rowid": "1289211",
    "final_x": "3675774.35137",
    "final_y": "523778.458299",
    "longitude": "-90.08641589088562",
    "latitude": "29.934381603126628",
    "geocoded_column": {
      "latitude": "29.934381603126628",
      "longitude": "-90.08641589088562"
    }
  },
  {
    "service_request": "2026-1289210",
    "request_type": "Trash/Recycling",
    "request_reason": "Replace Recycling Cart",
    "date_created": "2026-06-09T16:52:29.000",
    "date_modified": "2026-06-09T16:52:30.000",
    "request_status": "Pending",
    "responsible_agency": "Department of Sanitation",
    "final_address": "5532 Camp St",
    "address_councildis": "A",
    "status": "Pending",
    "rowid": "1289210",
    "final_x": "3666247.41421",
    "final_y": "519240.306743",
    "longitude": "-90.116644407963",
    "latitude": "29.92218475231593",
    "geocoded_column": {
      "latitude": "29.92218475231593",
      "longitude": "-90.116644407963"
    }
  },
  {
    "service_request": "2026-1289209",
    "request_type": "Trash/Recycling",
    "request_reason": "Request a Large Item Pick Up",
    "date_created": "2026-06-09T16:50:55.000",
    "date_modified": "2026-06-09T16:50:56.000",
    "request_status": "Pending",
    "responsible_agency": "Department of Sanitation",
    "final_address": "1910 Andry St",
    "address_councildis": "E",
    "status": "Assigned to Contractor",
    "contractor": "Waste Pro",
    "rowid": "1289209",
    "final_x": "3697984.51427",
    "final_y": "537066.291912",
    "longitude": "-90.0158170927696",
    "latitude": "29.970235207370454",
    "geocoded_column": {
      "latitude": "29.970235207370454",
      "longitude": "-90.0158170927696"
    }
  },
  {
    "service_request": "2026-1289208",
    "request_type": "Abandoned Vehicles",
    "request_reason": "Abandoned/Junk Vehicles",
    "date_created": "2026-06-09T16:50:12.000",
    "date_modified": "2026-06-09T16:50:55.000",
    "request_status": "Pending",
    "responsible_agency": "Department of Public Works",
    "final_address": "1036 Joseph St",
    "address_councildis": "A",
    "status": "Pending",
    "rowid": "1289208",
    "final_x": "3666285.1049",
    "final_y": "519842.103352",
    "longitude": "-90.11650526047484",
    "latitude": "29.92383840316231",
    "geocoded_column": {
      "latitude": "29.92383840316231",
      "longitude": "-90.11650526047484"
    }
  },
  {
    "service_request": "2026-1289207",
    "request_type": "Roads and Streets",
    "request_reason": "Pothole",
    "date_created": "2026-06-09T16:46:46.000",
    "date_modified": "2026-06-09T16:46:47.000",
    "request_status": "Pending",
    "responsible_agency": "Department of Public Works",
    "final_address": "1600 BLK Poydras St",
    "address_councildis": "B",
    "status": "Pending",
    "rowid": "1289207",
    "final_x": "3677560.3978",
    "final_y": "530475.441133",
    "longitude": "-90.08054623479886",
    "latitude": "29.95274252390458",
    "geocoded_column": {
      "latitude": "29.95274252390458",
      "longitude": "-90.08054623479886"
    }
  },
  {
    "service_request": "2026-1289206",
    "request_type": "Trash/Recycling",
    "request_reason": "Request a Large Item Pick Up",
    "date_created": "2026-06-09T16:46:03.000",
    "date_modified": "2026-06-09T16:46:05.000",
    "request_status": "Pending",
    "responsible_agency": "Department of Sanitation",
    "final_address": "6535 Foch Rd",
    "address_councildis": "D",
    "status": "Assigned to Contractor",
    "contractor": "Waste Pro",
    "rowid": "1289206",
    "final_x": "3697109.18813",
    "final_y": "555278.230041",
    "longitude": "-90.01792118298845",
    "latitude": "30.020338973074296",
    "geocoded_column": {
      "latitude": "30.020338973074296",
      "longitude": "-90.01792118298845"
    }
  },
  {
    "service_request": "2026-1289205",
    "request_type": "Property Maintenance",
    "request_reason": "Property Maintenance",
    "date_created": "2026-06-09T16:44:16.000",
    "date_modified": "2026-06-09T16:44:18.000",
    "request_status": "Pending",
    "responsible_agency": "Department of Code Enforcement",
    "final_address": "2601 Valence St",
    "address_councildis": "B",
    "status": "Pending",
    "rowid": "1289205",
    "final_x": "3669432.54401",
    "final_y": "524327.925692",
    "longitude": "-90.10641828356368",
    "latitude": "29.936080699580955",
    "geocoded_column": {
      "latitude": "29.936080699580955",
      "longitude": "-90.10641828356368"
    }
  },
  {
    "service_request": "2026-1289204",
    "request_type": "Trash/Recycling",
    "request_reason": "Repair Trash Cart",
    "date_created": "2026-06-09T16:41:37.000",
    "date_modified": "2026-06-09T16:42:05.000",
    "request_status": "Pending",
    "responsible_agency": "Department of Sanitation",
    "final_address": "4624 Mandeville St",
    "address_councildis": "D",
    "status": "Assigned to Contractor",
    "contractor": "IV Waste",
    "rowid": "1289204",
    "final_x": "3684667.71567",
    "final_y": "549715.23138",
    "longitude": "-90.05742807764194",
    "latitude": "30.005429611288037",
    "geocoded_column": {
      "latitude": "30.005429611288037",
      "longitude": "-90.05742807764194"
    }
  },
  {
    "service_request": "2026-1289203",
    "request_type": "Trash/Recycling",
    "request_reason": "Request a Large Item Pick Up",
    "date_created": "2026-06-09T16:41:22.000",
    "date_modified": "2026-06-09T16:41:25.000",
    "request_status": "Pending",
    "responsible_agency": "Department of Sanitation",
    "final_address": "10954 N Hardy St",
    "address_councildis": "E",
    "status": "Assigned to Contractor",
    "contractor": "Waste Pro",
    "rowid": "1289203",
    "final_x": "3712882.04408",
    "final_y": "562180.612895",
    "longitude": "-89.96782442691236",
    "latitude": "30.03881047701158",
    "geocoded_column": {
      "latitude": "30.03881047701158",
      "longitude": "-89.96782442691236"
    }
  },
  {
    "service_request": "2026-1289202",
    "request_type": "Roads and Streets",
    "request_reason": "Street Subsidence (Sinking)",
    "date_created": "2026-06-09T16:40:39.000",
    "date_modified": "2026-06-09T16:40:41.000",
    "request_status": "Pending",
    "responsible_agency": "Sewerage & Water Board",
    "final_address": "UNION ST & BARONNE ST",
    "address_councildis": "B",
    "status": "Pending",
    "rowid": "1289202",
    "final_x": "3680077.9",
    "final_y": "530140.68",
    "longitude": "-90.07260872083961",
    "latitude": "29.951746119626073",
    "geocoded_column": {
      "latitude": "29.951746119626073",
      "longitude": "-90.07260872083961"
    }
  },
  {
    "service_request": "2026-1289201",
    "request_type": "Roads and Streets",
    "request_reason": "Sidewalk Damaged or Missing",
    "date_created": "2026-06-09T16:26:10.000",
    "date_modified": "2026-06-09T16:26:11.000",
    "request_status": "Pending",
    "responsible_agency": "Department of Public Works",
    "final_address": "4827 Euphrosine St",
    "address_councildis": "B",
    "status": "Pending",
    "rowid": "1289201",
    "final_x": "3669663.28334",
    "final_y": "533640.312325",
    "longitude": "-90.10537476729878",
    "latitude": "29.961679923755877",
    "geocoded_column": {
      "latitude": "29.961679923755877",
      "longitude": "-90.10537476729878"
    }
  },
  {
    "service_request": "2026-1289200",
    "request_type": "Trash/Recycling",
    "request_reason": "Request a Large Item Pick Up",
    "date_created": "2026-06-09T16:25:31.000",
    "date_modified": "2026-06-09T16:25:33.000",
    "request_status": "Pending",
    "responsible_agency": "Department of Sanitation",
    "final_address": "2020 Mediamolle Dr",
    "address_councildis": "C",
    "status": "Assigned to Contractor",
    "contractor": "Richards Disposal",
    "rowid": "1289200",
    "final_x": "3699300.22416",
    "final_y": "523850.827771",
    "longitude": "-90.01214319312686",
    "latitude": "29.933855683075233",
    "geocoded_column": {
      "latitude": "29.933855683075233",
      "longitude": "-90.01214319312686"
    }
  },
  {
    "service_request": "2026-1289199",
    "request_type": "Trash/Recycling",
    "request_reason": "Return Trash Cart",
    "date_created": "2026-06-09T16:25:14.000",
    "date_modified": "2026-06-09T16:25:17.000",
    "request_status": "Pending",
    "responsible_agency": "Department of Sanitation",
    "final_address": "1107 Napoleon Ave",
    "address_councildis": "B",
    "status": "Assigned to Contractor",
    "contractor": "IV Waste",
    "rowid": "1289199",
    "final_x": "3671051.84206",
    "final_y": "519633.057976",
    "longitude": "-90.10146545166515",
    "latitude": "29.9231235443977",
    "geocoded_column": {
      "latitude": "29.9231235443977",
      "longitude": "-90.10146545166515"
    }
  },
  {
    "service_request": "2026-1289198",
    "request_type": "Tree Service",
    "request_reason": "Tree Trim",
    "date_created": "2026-06-09T16:24:18.000",
    "date_modified": "2026-06-09T16:24:24.000",
    "request_status": "Pending",
    "responsible_agency": "Department of Parks & Parkways",
    "final_address": "1516 Camp St",
    "address_councildis": "B",
    "status": "Pending",
    "rowid": "1289198",
    "final_x": "3679806.64111",
    "final_y": "523760.020859",
    "longitude": "-90.07368670736403",
    "latitude": "29.93420963516469",
    "geocoded_column": {
      "latitude": "29.93420963516469",
      "longitude": "-90.07368670736403"
    }
  },
  {
    "service_request": "2026-1289197",
    "request_type": "Trash/Recycling",
    "request_reason": "Repair Trash Cart",
    "date_created": "2026-06-09T16:20:11.000",
    "date_modified": "2026-06-09T16:20:13.000",
    "request_status": "Pending",
    "responsible_agency": "Department of Sanitation",
    "final_address": "7600 Hansbrough Ave",
    "address_councildis": "E",
    "status": "Assigned to Contractor",
    "contractor": "Waste Pro",
    "rowid": "1289197",
    "final_x": "3707645.44203",
    "final_y": "564377.540257",
    "longitude": "-89.9842916576798",
    "latitude": "30.045021703279385",
    "geocoded_column": {
      "latitude": "30.045021703279385",
      "longitude": "-89.9842916576798"
    }
  },
  {
    "service_request": "2026-1289196",
    "request_type": "Trash/Recycling",
    "request_reason": "Request a Large Item Pick Up",
    "date_created": "2026-06-09T16:19:07.000",
    "date_modified": "2026-06-09T16:19:09.000",
    "request_status": "Pending",
    "responsible_agency": "Department of Sanitation",
    "final_address": "1429 Elysian Fields Ave",
    "address_councildis": "C",
    "status": "Assigned to Contractor",
    "contractor": "IV Waste",
    "rowid": "1289196",
    "final_x": "3685005.24732",
    "final_y": "537663.329224",
    "longitude": "-90.05678592050026",
    "latitude": "29.972280823917412",
    "geocoded_column": {
      "latitude": "29.972280823917412",
      "longitude": "-90.05678592050026"
    }
  },
  {
    "service_request": "2026-1289195",
    "request_type": "Streetlights",
    "request_reason": "Streetlight Outage/Malfunction",
    "date_created": "2026-06-09T16:18:21.000",
    "date_modified": "2026-06-09T16:18:23.000",
    "request_status": "Pending",
    "responsible_agency": "Department of Public Works",
    "final_address": "7701 Hansbrough Ave",
    "address_councildis": "E",
    "status": "Pending",
    "rowid": "1289195",
    "final_x": "3707565.07672",
    "final_y": "564699.04509",
    "longitude": "-89.98453368713834",
    "latitude": "30.045908314483913",
    "geocoded_column": {
      "latitude": "30.045908314483913",
      "longitude": "-89.98453368713834"
    }
  },
  {
    "service_request": "2026-1289194",
    "request_type": "Trash/Recycling",
    "request_reason": "Order Trash Cart",
    "date_created": "2026-06-09T16:17:40.000",
    "date_modified": "2026-06-09T16:17:42.000",
    "request_status": "Pending",
    "responsible_agency": "Department of Sanitation",
    "final_address": "5737 Franklin Ave",
    "address_councildis": "D",
    "status": "Assigned to Contractor",
    "contractor": "IV Waste",
    "rowid": "1289194",
    "final_x": "3686574.49462",
    "final_y": "554408.182552",
    "longitude": "-90.05123826525464",
    "latitude": "30.018274989350015",
    "geocoded_column": {
      "latitude": "30.018274989350015",
      "longitude": "-90.05123826525464"
    }
  },
  {
    "service_request": "2026-1289193",
    "request_type": "Trash/Recycling",
    "request_reason": "Missed Trash Pick-Up",
    "date_created": "2026-06-09T16:14:14.000",
    "date_modified": "2026-06-09T16:14:16.000",
    "request_status": "Pending",
    "responsible_agency": "Department of Sanitation",
    "final_address": "0 BLK E Blue Ridge Ct",
    "address_councildis": "E",
    "status": "Assigned to Contractor",
    "contractor": "Waste Pro",
    "rowid": "1289193",
    "final_x": "3714227.66009",
    "final_y": "567517.649201",
    "longitude": "-89.96337029824065",
    "latitude": "30.05344099987646",
    "geocoded_column": {
      "latitude": "30.05344099987646",
      "longitude": "-89.96337029824065"
    }
  },
  {
    "service_request": "2026-1289192",
    "request_type": "Roads and Streets",
    "request_reason": "Street Subsidence (Sinking)",
    "date_created": "2026-06-09T16:14:05.000",
    "date_modified": "2026-06-09T16:14:07.000",
    "request_status": "Pending",
    "responsible_agency": "Sewerage & Water Board",
    "final_address": "1429 Elysian Fields Ave",
    "address_councildis": "C",
    "status": "Pending",
    "rowid": "1289192",
    "final_x": "3685005.24732",
    "final_y": "537663.329224",
    "longitude": "-90.05678592050026",
    "latitude": "29.972280823917412",
    "geocoded_column": {
      "latitude": "29.972280823917412",
      "longitude": "-90.05678592050026"
    }
  },
  {
    "service_request": "2026-1289191",
    "request_type": "Trash/Recycling",
    "request_reason": "Request a Large Item Pick Up",
    "date_created": "2026-06-09T16:08:52.000",
    "date_modified": "2026-06-09T16:08:58.000",
    "request_status": "Pending",
    "responsible_agency": "Department of Sanitation",
    "final_address": "4646 Chrysler St",
    "address_councildis": "E",
    "status": "Assigned to Contractor",
    "contractor": "Waste Pro",
    "rowid": "1289191",
    "final_x": "3715263.57848",
    "final_y": "556434.709018",
    "longitude": "-89.9605157570778",
    "latitude": "30.02293328689707",
    "geocoded_column": {
      "latitude": "30.02293328689707",
      "longitude": "-89.9605157570778"
    }
  },
  {
    "service_request": "2026-1289190",
    "request_type": "Drainage",
    "request_reason": "Ditch and Culvert Maintenance",
    "date_created": "2026-06-09T16:07:14.000",
    "date_modified": "2026-06-09T16:07:16.000",
    "request_status": "Pending",
    "responsible_agency": "Department of Public Works",
    "final_address": "10626 Old Gentilly Rd",
    "address_councildis": "E",
    "status": "Pending",
    "rowid": "1289190",
    "final_x": "3716018.64997",
    "final_y": "554708.546968",
    "longitude": "-89.95819538608315",
    "latitude": "30.018162128869907",
    "geocoded_column": {
      "latitude": "30.018162128869907",
      "longitude": "-89.95819538608315"
    }
  },
  {
    "service_request": "2026-1289189",
    "request_type": "Safety & Permits",
    "request_reason": "Zoning Enforcement",
    "date_created": "2026-06-09T16:06:51.000",
    "date_modified": "2026-06-09T16:06:52.000",
    "request_status": "Pending",
    "responsible_agency": "Safety and Permits",
    "final_address": "7500 Branch Dr",
    "address_councildis": "E",
    "status": "Pending",
    "rowid": "1289189",
    "final_x": "3715173.83186",
    "final_y": "568033.295333",
    "longitude": "-89.96036019854496",
    "latitude": "30.05482767647663",
    "geocoded_column": {
      "latitude": "30.05482767647663",
      "longitude": "-89.96036019854496"
    }
  },
  {
    "service_request": "2026-1289188",
    "request_type": "Trash/Recycling",
    "request_reason": "Request a Large Item Pick Up",
    "date_created": "2026-06-09T16:06:24.000",
    "date_modified": "2026-06-09T16:06:26.000",
    "request_status": "Pending",
    "responsible_agency": "Department of Sanitation",
    "final_address": "20309 Old Spanish Trl",
    "address_councildis": "E",
    "status": "Assigned to Contractor",
    "contractor": "Waste Pro",
    "rowid": "1289188",
    "final_x": "3760591.94377",
    "final_y": "572627.128617",
    "longitude": "-89.81661493681592",
    "latitude": "30.065884030593143",
    "geocoded_column": {
      "latitude": "30.065884030593143",
      "longitude": "-89.81661493681592"
    }
  },
  {
    "service_request": "2026-1289187",
    "request_type": "Trash/Recycling",
    "request_reason": "Request a Large Item Pick Up",
    "date_created": "2026-06-09T16:01:44.000",
    "date_modified": "2026-06-09T16:01:46.000",
    "request_status": "Pending",
    "responsible_agency": "Department of Sanitation",
    "final_address": "2512 Peniston St",
    "address_councildis": "B",
    "status": "Assigned to Contractor",
    "contractor": "IV Waste",
    "rowid": "1289187",
    "final_x": "3672055.55758",
    "final_y": "524352.128828",
    "longitude": "-90.09813652084529",
    "latitude": "29.936069762270282",
    "geocoded_column": {
      "latitude": "29.936069762270282",
      "longitude": "-90.09813652084529"
    }
  },
  {
    "service_request": "2026-1289186",
    "request_type": "Trash/Recycling",
    "request_reason": "Request a Large Item Pick Up",
    "date_created": "2026-06-09T15:58:52.000",
    "date_modified": "2026-06-09T15:58:54.000",
    "request_status": "Pending",
    "responsible_agency": "Department of Sanitation",
    "final_address": "200 Allen Toussaint Blvd",
    "address_councildis": "A",
    "status": "Assigned to Contractor",
    "contractor": "IV Waste",
    "rowid": "1289186",
    "final_x": "3667234.92429",
    "final_y": "554766.91068",
    "longitude": "-90.11233224791346",
    "latitude": "30.01984218761291",
    "geocoded_column": {
      "latitude": "30.01984218761291",
      "longitude": "-90.11233224791346"
    }
  },
  {
    "service_request": "2026-1289185",
    "request_type": "Trash/Recycling",
    "request_reason": "Order Recycling Cart",
    "date_created": "2026-06-09T15:57:31.000",
    "date_modified": "2026-06-09T15:57:32.000",
    "request_status": "Pending",
    "responsible_agency": "Department of Sanitation",
    "final_address": "4748 Marigny St",
    "address_councildis": "D",
    "status": "Pending",
    "rowid": "1289185",
    "final_x": "3684315.35996",
    "final_y": "550493.734612",
    "longitude": "-90.05851388228268",
    "latitude": "30.007580996843775",
    "geocoded_column": {
      "latitude": "30.007580996843775",
      "longitude": "-90.05851388228268"
    }
  },
  {
    "service_request": "2026-1289184",
    "request_type": "Trash/Recycling",
    "request_reason": "Illegal Dumping",
    "date_created": "2026-06-09T15:57:26.000",
    "date_modified": "2026-06-09T16:38:12.000",
    "request_status": "Pending",
    "responsible_agency": "Department of Sanitation",
    "final_address": "1500 BLK Humanity St",
    "address_councildis": "D",
    "status": "Pending",
    "rowid": "1289184",
    "final_x": "3680337.87977",
    "final_y": "544514.630575",
    "longitude": "-90.07128794095574",
    "latitude": "29.991261665371955",
    "geocoded_column": {
      "latitude": "29.991261665371955",
      "longitude": "-90.07128794095574"
    }
  },
  {
    "service_request": "2026-1289183",
    "request_type": "Drainage",
    "request_reason": "Ditch and Culvert Maintenance",
    "date_created": "2026-06-09T15:57:24.000",
    "date_modified": "2026-06-09T15:57:27.000",
    "request_status": "Pending",
    "responsible_agency": "Department of Public Works",
    "final_address": "10626 Old Gentilly Rd",
    "address_councildis": "E",
    "status": "Pending",
    "rowid": "1289183",
    "final_x": "3716018.64997",
    "final_y": "554708.546968",
    "longitude": "-89.95819538608315",
    "latitude": "30.018162128869907",
    "geocoded_column": {
      "latitude": "30.018162128869907",
      "longitude": "-89.95819538608315"
    }
  },
  {
    "service_request": "2026-1289182",
    "request_type": "Trash/Recycling",
    "request_reason": "Request a Large Item Pick Up",
    "date_created": "2026-06-09T15:50:42.000",
    "date_modified": "2026-06-09T16:37:02.000",
    "request_status": "Pending",
    "responsible_agency": "Department of Sanitation",
    "final_address": "2528 Gravier St",
    "address_councildis": "B",
    "status": "Pending",
    "contractor": "IV Waste",
    "rowid": "1289182",
    "final_x": "3674648.39688",
    "final_y": "532972.178052",
    "longitude": "-90.0896554767643",
    "latitude": "29.959694939619048",
    "geocoded_column": {
      "latitude": "29.959694939619048",
      "longitude": "-90.0896554767643"
    }
  },
  {
    "service_request": "2026-1289181",
    "request_type": "Tree Service",
    "request_reason": "Blocking Stop Sign or Traffic Signal",
    "date_created": "2026-06-09T15:48:59.000",
    "date_modified": "2026-06-09T15:49:00.000",
    "request_status": "Pending",
    "responsible_agency": "Department of Parks & Parkways",
    "final_address": "ST CLAUDE AVE & ST MAURICE AVE",
    "address_councildis": "E",
    "status": "Pending",
    "rowid": "1289181",
    "final_x": "3699861.1",
    "final_y": "533229.18",
    "longitude": "-90.01003062095585",
    "latitude": "29.95962506108637",
    "geocoded_column": {
      "latitude": "29.95962506108637",
      "longitude": "-90.01003062095585"
    }
  },
  {
    "service_request": "2026-1289180",
    "request_type": "Trash/Recycling",
    "request_reason": "Request a Large Item Pick Up",
    "date_created": "2026-06-09T15:48:52.000",
    "date_modified": "2026-06-09T15:49:51.000",
    "request_status": "Pending",
    "responsible_agency": "Department of Sanitation",
    "final_address": "3211 Trafalgar St",
    "address_councildis": "A",
    "status": "Assigned to Contractor",
    "contractor": "IV Waste",
    "rowid": "1289180",
    "final_x": "3678330.8811",
    "final_y": "543218.69883",
    "longitude": "-90.07767245274064",
    "latitude": "29.987758935967825",
    "geocoded_column": {
      "latitude": "29.987758935967825",
      "longitude": "-90.07767245274064"
    }
  },
  {
    "service_request": "2026-1289179",
    "request_type": "Roads and Streets",
    "request_reason": "Pothole",
    "date_created": "2026-06-09T15:47:34.000",
    "date_modified": "2026-06-09T15:47:35.000",
    "request_status": "Pending",
    "responsible_agency": "Department of Public Works",
    "final_address": "2000 BLK Calhoun St",
    "address_councildis": "A",
    "status": "Pending",
    "rowid": "1289179",
    "final_x": "3665561.27153",
    "final_y": "524585.360066",
    "longitude": "-90.11863142419219",
    "latitude": "29.936901973403486",
    "geocoded_column": {
      "latitude": "29.936901973403486",
      "longitude": "-90.11863142419219"
    }
  },
  {
    "service_request": "2026-1289178",
    "request_type": "Trash/Recycling",
    "request_reason": "Request a Large Item Pick Up",
    "date_created": "2026-06-09T15:45:46.000",
    "date_modified": "2026-06-09T15:45:47.000",
    "request_status": "Pending",
    "responsible_agency": "Department of Sanitation",
    "final_address": "10810 Dwyer Rd",
    "address_councildis": "E",
    "status": "Assigned to Contractor",
    "contractor": "Waste Pro",
    "rowid": "1289178",
    "final_x": "3715291.81291",
    "final_y": "558242.00566",
    "longitude": "-89.96035811743066",
    "latitude": "30.02790170420447",
    "geocoded_column": {
      "latitude": "30.02790170420447",
      "longitude": "-89.96035811743066"
    }
  },
  {
    "service_request": "2026-1289177",
    "request_type": "Trash/Recycling",
    "request_reason": "Repair Trash Cart",
    "date_created": "2026-06-09T15:44:54.000",
    "date_modified": "2026-06-09T15:45:00.000",
    "request_status": "Pending",
    "responsible_agency": "Department of Sanitation",
    "final_address": "1628 France St",
    "address_councildis": "D",
    "status": "Assigned to Contractor",
    "contractor": "IV Waste",
    "rowid": "1289177",
    "final_x": "3692873.6367",
    "final_y": "537278.380296",
    "longitude": "-90.03195011258732",
    "latitude": "29.97097897193963",
    "geocoded_column": {
      "latitude": "29.97097897193963",
      "longitude": "-90.03195011258732"
    }
  },
  {
    "service_request": "2026-1289176",
    "request_type": "Trash/Recycling",
    "request_reason": "Illegal Dumping",
    "date_created": "2026-06-09T15:42:21.000",
    "date_modified": "2026-06-09T15:44:17.000",
    "request_status": "Pending",
    "responsible_agency": "Department of Sanitation",
    "final_address": "2724 Josephine St",
    "address_councildis": "B",
    "status": "Pending",
    "rowid": "1289176",
    "final_x": "3675356.06152",
    "final_y": "527210.429375",
    "longitude": "-90.0876186315932",
    "latitude": "29.943830908071465",
    "geocoded_column": {
      "latitude": "29.943830908071465",
      "longitude": "-90.0876186315932"
    }
  },
  {
    "service_request": "2026-1289175",
    "request_type": "Property Maintenance",
    "request_reason": "Property Maintenance",
    "date_created": "2026-06-09T15:42:11.000",
    "date_modified": "2026-06-09T15:42:13.000",
    "request_status": "Pending",
    "responsible_agency": "Department of Code Enforcement",
    "final_address": "5242 Perrier St",
    "address_councildis": "B",
    "status": "Pending",
    "rowid": "1289175",
    "final_x": "3667672.33268",
    "final_y": "519808.130552",
    "longitude": "-90.11212741167067",
    "latitude": "29.923704408383678",
    "geocoded_column": {
      "latitude": "29.923704408383678",
      "longitude": "-90.11212741167067"
    }
  },
  {
    "service_request": "2026-1289174",
    "request_type": "Property Maintenance",
    "request_reason": "Property Maintenance",
    "date_created": "2026-06-09T15:36:59.000",
    "date_modified": "2026-06-09T15:37:01.000",
    "request_status": "Pending",
    "responsible_agency": "Department of Code Enforcement",
    "final_address": "5129 Camp St",
    "address_councildis": "B",
    "status": "Pending",
    "rowid": "1289174",
    "final_x": "3668103.53786",
    "final_y": "519017.477303",
    "longitude": "-90.11079287878967",
    "latitude": "29.92151771807938",
    "geocoded_column": {
      "latitude": "29.92151771807938",
      "longitude": "-90.11079287878967"
    }
  },
  {
    "service_request": "2026-1289173",
    "request_type": "Healthy Homes",
    "request_reason": "Healthy Homes",
    "date_created": "2026-06-09T15:35:44.000",
    "date_modified": "2026-06-09T15:35:46.000",
    "request_status": "Pending",
    "responsible_agency": "Department of Code Enforcement",
    "final_address": "621 Washington Ave",
    "address_councildis": "B",
    "status": "Pending",
    "rowid": "1289173",
    "final_x": "3677999.30094",
    "final_y": "519480.620343",
    "longitude": "-90.07954024926185",
    "latitude": "29.922497187238832",
    "geocoded_column": {
      "latitude": "29.922497187238832",
      "longitude": "-90.07954024926185"
    }
  },
  {
    "service_request": "2026-1289172",
    "request_type": "Roads and Streets",
    "request_reason": "Street Subsidence (Sinking)",
    "date_created": "2026-06-09T15:33:44.000",
    "date_modified": "2026-06-09T15:35:14.000",
    "request_status": "Pending",
    "responsible_agency": "Sewerage & Water Board",
    "final_address": "4343 Spain St",
    "address_councildis": "D",
    "status": "Pending",
    "rowid": "1289172",
    "final_x": "3685198.44706",
    "final_y": "548909.256531",
    "longitude": "-90.05577977252655",
    "latitude": "30.003197211770743",
    "geocoded_column": {
      "latitude": "30.003197211770743",
      "longitude": "-90.05577977252655"
    }
  },
  {
    "service_request": "2026-1289171",
    "request_type": "Trash/Recycling",
    "request_reason": "Request a Large Item Pick Up",
    "date_created": "2026-06-09T15:30:34.000",
    "date_modified": "2026-06-09T17:01:07.000",
    "request_status": "Pending",
    "responsible_agency": "Department of Sanitation",
    "final_address": "2316 Mendez St",
    "address_councildis": "D",
    "status": "Assigned to Contractor",
    "contractor": "IV Waste",
    "rowid": "1289171",
    "final_x": "3684554.02018",
    "final_y": "553438.820887",
    "longitude": "-90.05765630032722",
    "latitude": "30.015671607525125",
    "geocoded_column": {
      "latitude": "30.015671607525125",
      "longitude": "-90.05765630032722"
    }
  },
  {
    "service_request": "2026-1289170",
    "request_type": "Trash/Recycling",
    "request_reason": "Replace Trash Cart",
    "date_created": "2026-06-09T15:28:01.000",
    "date_modified": "2026-06-09T15:28:03.000",
    "request_status": "Pending",
    "responsible_agency": "Department of Sanitation",
    "final_address": "2537 Marengo St",
    "address_councildis": "B",
    "status": "Assigned to Contractor",
    "contractor": "IV Waste",
    "rowid": "1289170",
    "final_x": "3671657.49339",
    "final_y": "524462.99238",
    "longitude": "-90.09938945332416",
    "latitude": "29.936386394169162",
    "geocoded_column": {
      "latitude": "29.936386394169162",
      "longitude": "-90.09938945332416"
    }
  },
  {
    "service_request": "2026-1289169",
    "request_type": "Trash/Recycling",
    "request_reason": "Replace Trash Cart",
    "date_created": "2026-06-09T15:28:01.000",
    "date_modified": "2026-06-09T15:28:03.000",
    "request_status": "Pending",
    "responsible_agency": "Department of Sanitation",
    "final_address": "2537 Marengo St",
    "address_councildis": "B",
    "status": "Assigned to Contractor",
    "contractor": "IV Waste",
    "rowid": "1289169",
    "final_x": "3671657.49339",
    "final_y": "524462.99238",
    "longitude": "-90.09938945332416",
    "latitude": "29.936386394169162",
    "geocoded_column": {
      "latitude": "29.936386394169162",
      "longitude": "-90.09938945332416"
    }
  },
  {
    "service_request": "2026-1289168",
    "request_type": "Trash/Recycling",
    "request_reason": "Request a Large Item Pick Up",
    "date_created": "2026-06-09T15:27:10.000",
    "date_modified": "2026-06-09T15:27:12.000",
    "request_status": "Pending",
    "responsible_agency": "Department of Sanitation",
    "final_address": "10450 Heritage Dr",
    "address_councildis": "E",
    "status": "Assigned to Contractor",
    "contractor": "Waste Pro",
    "rowid": "1289168",
    "final_x": "3709944.74289",
    "final_y": "564454.441633",
    "longitude": "-89.97702196786084",
    "latitude": "30.045158517087447",
    "geocoded_column": {
      "latitude": "30.045158517087447",
      "longitude": "-89.97702196786084"
    }
  },
  {
    "service_request": "2026-1289167",
    "request_type": "Drainage",
    "request_reason": "Catch Basin Not Draining",
    "date_created": "2026-06-09T15:25:12.000",
    "date_modified": "2026-06-09T15:25:29.000",
    "request_status": "Pending",
    "responsible_agency": "Sewerage & Water Board",
    "final_address": "14071 Partridge Ln",
    "address_councildis": "E",
    "status": "Pending",
    "rowid": "1289167",
    "final_x": "3719611.12389",
    "final_y": "571948.7114",
    "longitude": "-89.94618522856896",
    "latitude": "30.06544649717489",
    "geocoded_column": {
      "latitude": "30.06544649717489",
      "longitude": "-89.94618522856896"
    }
  },
  {
    "service_request": "2026-1289166",
    "request_type": "Trash/Recycling",
    "request_reason": "Illegal Dumping",
    "date_created": "2026-06-09T15:23:27.000",
    "date_modified": "2026-06-09T15:23:29.000",
    "request_status": "Pending",
    "responsible_agency": "Department of Sanitation",
    "final_address": "1100 BLK Andry St",
    "address_councildis": "E",
    "status": "Pending",
    "rowid": "1289166",
    "final_x": "3697223.33189",
    "final_y": "534179.374014",
    "longitude": "-90.01832560629411",
    "latitude": "29.962321256610764",
    "geocoded_column": {
      "latitude": "29.962321256610764",
      "longitude": "-90.01832560629411"
    }
  },
  {
    "service_request": "2026-1289165",
    "request_type": "Trash/Recycling",
    "request_reason": "Repair Trash Cart",
    "date_created": "2026-06-09T15:22:35.000",
    "date_modified": "2026-06-09T15:23:08.000",
    "request_status": "Pending",
    "responsible_agency": "Department of Sanitation",
    "final_address": "9438 Oleander St",
    "address_councildis": "A",
    "status": "Assigned to Contractor",
    "contractor": "IV Waste",
    "rowid": "1289165",
    "final_x": "3663132.45895",
    "final_y": "536928.646088",
    "longitude": "-90.12588871203356",
    "latitude": "29.970912591277354",
    "geocoded_column": {
      "latitude": "29.970912591277354",
      "longitude": "-90.12588871203356"
    }
  },
  {
    "service_request": "2026-1289164",
    "request_type": "Streetlights",
    "request_reason": "Streetlight Knocked Down/Leaning",
    "date_created": "2026-06-09T15:21:13.000",
    "date_modified": "2026-06-09T15:21:15.000",
    "request_status": "Pending",
    "responsible_agency": "Department of Public Works",
    "final_address": "CAMEO ST & SAPPHIRE ST",
    "address_councildis": "D",
    "status": "Pending",
    "rowid": "1289164",
    "final_x": "3667543.5",
    "final_y": "555229.28",
    "longitude": "-90.11134166456019",
    "latitude": "30.02110449456024",
    "geocoded_column": {
      "latitude": "30.02110449456024",
      "longitude": "-90.11134166456019"
    }
  },
  {
    "service_request": "2026-1289163",
    "request_type": "Tree Service",
    "request_reason": "Tree Trim",
    "date_created": "2026-06-09T15:17:37.000",
    "date_modified": "2026-06-09T15:17:39.000",
    "request_status": "Pending",
    "responsible_agency": "Department of Parks & Parkways",
    "final_address": "3138 Monroe St",
    "address_councildis": "A",
    "status": "Pending",
    "rowid": "1289163",
    "final_x": "3665148.58356",
    "final_y": "535085.800774",
    "longitude": "-90.11958315499216",
    "latitude": "29.96578680494858",
    "geocoded_column": {
      "latitude": "29.96578680494858",
      "longitude": "-90.11958315499216"
    }
  },
  {
    "service_request": "2026-1289162",
    "request_type": "Property Maintenance",
    "request_reason": "Property Maintenance",
    "date_created": "2026-06-09T15:15:01.000",
    "date_modified": "2026-06-09T15:59:07.000",
    "request_status": "Pending",
    "responsible_agency": "Department of Code Enforcement",
    "final_address": "2615 N Miro St",
    "address_councildis": "D",
    "status": "Pending",
    "rowid": "1289162",
    "final_x": "3687790.46863",
    "final_y": "540635.591307",
    "longitude": "-90.047884432278",
    "latitude": "29.980367882903487",
    "geocoded_column": {
      "latitude": "29.980367882903487",
      "longitude": "-90.047884432278"
    }
  },
  {
    "service_request": "2026-1289161",
    "request_type": "Trash/Recycling",
    "request_reason": "Request a Large Item Pick Up",
    "date_created": "2026-06-09T15:14:10.000",
    "date_modified": "2026-06-09T15:14:12.000",
    "request_status": "Pending",
    "responsible_agency": "Department of Sanitation",
    "final_address": "6021 Wright Rd",
    "address_councildis": "E",
    "status": "Assigned to Contractor",
    "contractor": "Waste Pro",
    "rowid": "1289161",
    "final_x": "3713311.47621",
    "final_y": "562694.333856",
    "longitude": "-89.96644794965384",
    "latitude": "30.040208924761295",
    "geocoded_column": {
      "latitude": "30.040208924761295",
      "longitude": "-89.96644794965384"
    }
  },
  {
    "service_request": "2026-1289160",
    "request_type": "Abandoned Vehicles",
    "request_reason": "Abandoned/Junk Vehicles",
    "date_created": "2026-06-09T15:13:11.000",
    "date_modified": "2026-06-09T15:13:13.000",
    "request_status": "Pending",
    "responsible_agency": "Department of Public Works",
    "final_address": "101 West Robert E Lee Blvd",
    "address_councildis": "D",
    "status": "Pending",
    "rowid": "1289160",
    "final_x": "3666734.08109",
    "final_y": "555016.436761",
    "longitude": "-90.11390636608914",
    "latitude": "30.02054296132822",
    "geocoded_column": {
      "latitude": "30.02054296132822",
      "longitude": "-90.11390636608914"
    }
  },
  {
    "service_request": "2026-1289159",
    "request_type": "Homeless Related Request",
    "request_reason": "Homeless Encampment Complaint",
    "date_created": "2026-06-09T15:07:29.000",
    "date_modified": "2026-06-09T15:07:30.000",
    "request_status": "Pending",
    "responsible_agency": "Office Of Homeless Services And Strategy",
    "final_address": "840 Valence St",
    "address_councildis": "B",
    "status": "Pending",
    "rowid": "1289159",
    "final_x": "3669897.02119",
    "final_y": "518634.810871",
    "longitude": "-90.1051445632408",
    "latitude": "29.920412768731616",
    "geocoded_column": {
      "latitude": "29.920412768731616",
      "longitude": "-90.1051445632408"
    }
  },
  {
    "service_request": "2026-1289158",
    "request_type": "Drainage",
    "request_reason": "Catch Basin Not Draining",
    "date_created": "2026-06-09T15:06:46.000",
    "date_modified": "2026-06-09T15:06:48.000",
    "request_status": "Pending",
    "responsible_agency": "Sewerage & Water Board",
    "final_address": "WEST END BLVD & OPAL ST",
    "address_councildis": "D",
    "status": "Pending",
    "rowid": "1289158",
    "final_x": "3667030.6",
    "final_y": "555546.08",
    "longitude": "-90.11295162821882",
    "latitude": "30.021990612497145",
    "geocoded_column": {
      "latitude": "30.021990612497145",
      "longitude": "-90.11295162821882"
    }
  },
  {
    "service_request": "2026-1289157",
    "request_type": "Trash/Recycling",
    "request_reason": "Repair Trash Cart",
    "date_created": "2026-06-09T15:06:26.000",
    "date_modified": "2026-06-09T15:06:27.000",
    "request_status": "Pending",
    "responsible_agency": "Department of Sanitation",
    "final_address": "503 Olivier St",
    "address_councildis": "C",
    "status": "Assigned to Contractor",
    "contractor": "Richards Disposal",
    "rowid": "1289157",
    "final_x": "3687221.91004",
    "final_y": "529878.073345",
    "longitude": "-90.05006069868841",
    "latitude": "29.95080597638288",
    "geocoded_column": {
      "latitude": "29.95080597638288",
      "longitude": "-90.05006069868841"
    }
  },
  {
    "service_request": "2026-1289156",
    "request_type": "Homeless Related Request",
    "request_reason": "Homeless Encampment Complaint",
    "date_created": "2026-06-09T15:04:06.000",
    "date_modified": "2026-06-09T15:04:08.000",
    "request_status": "Pending",
    "responsible_agency": "Office Of Homeless Services And Strategy",
    "final_address": "900 Napoleon Ave",
    "address_councildis": "B",
    "status": "Pending",
    "rowid": "1289156",
    "final_x": "3670816.23329",
    "final_y": "518803.454263",
    "longitude": "-90.10223731581735",
    "latitude": "29.920849360685466",
    "geocoded_column": {
      "latitude": "29.920849360685466",
      "longitude": "-90.10223731581735"
    }
  },
  {
    "service_request": "2026-1289155",
    "request_type": "Trash/Recycling",
    "request_reason": "Missed Trash Pick-Up",
    "date_created": "2026-06-09T15:03:21.000",
    "date_modified": "2026-06-09T17:38:19.000",
    "case_close_date": "2026-06-09T12:38:17.000",
    "request_status": "Closed",
    "responsible_agency": "Department of Sanitation",
    "final_address": "9522 Palm St",
    "address_councildis": "A",
    "status": "Invalid Request",
    "contractor": "IV Waste",
    "contractor_action": "Invalid Request",
    "rowid": "1289155",
    "final_x": "3663890.5673",
    "final_y": "538083.111433",
    "longitude": "-90.12345600097476",
    "latitude": "29.97406500060092",
    "geocoded_column": {
      "latitude": "29.97406500060092",
      "longitude": "-90.12345600097476"
    }
  },
  {
    "service_request": "2026-1289154",
    "request_type": "Drainage",
    "request_reason": "Catch Basin Not Draining",
    "date_created": "2026-06-09T15:02:43.000",
    "date_modified": "2026-06-09T15:02:46.000",
    "request_status": "Pending",
    "responsible_agency": "Sewerage & Water Board",
    "final_address": "300 BLK Opal St",
    "address_councildis": "D",
    "status": "Pending",
    "rowid": "1289154",
    "final_x": "3667726.63597",
    "final_y": "555209.653148",
    "longitude": "-90.1107636663813",
    "latitude": "30.02104515617002",
    "geocoded_column": {
      "latitude": "30.02104515617002",
      "longitude": "-90.1107636663813"
    }
  },
  {
    "service_request": "2026-1289153",
    "request_type": "Trash/Recycling",
    "request_reason": "Request a Large Item Pick Up",
    "date_created": "2026-06-09T15:01:43.000",
    "date_modified": "2026-06-09T15:01:45.000",
    "request_status": "Pending",
    "responsible_agency": "Department of Sanitation",
    "final_address": "4942 Gabriel Dr",
    "address_councildis": "E",
    "status": "Assigned to Contractor",
    "contractor": "Waste Pro",
    "rowid": "1289153",
    "final_x": "3708710.29393",
    "final_y": "556856.748826",
    "longitude": "-89.98120673463323",
    "latitude": "30.02430798772829",
    "geocoded_column": {
      "latitude": "30.02430798772829",
      "longitude": "-89.98120673463323"
    }
  },
  {
    "service_request": "2026-1289152",
    "request_type": "Trash/Recycling",
    "request_reason": "Return Recycling Cart",
    "date_created": "2026-06-09T15:01:36.000",
    "date_modified": "2026-06-09T15:01:37.000",
    "request_status": "Pending",
    "responsible_agency": "Department of Sanitation",
    "final_address": "2220 Short St",
    "address_councildis": "A",
    "status": "Pending",
    "rowid": "1289152",
    "final_x": "3664746.11552",
    "final_y": "530824.815618",
    "longitude": "-90.12099651024916",
    "latitude": "29.954082205659414",
    "geocoded_column": {
      "latitude": "29.954082205659414",
      "longitude": "-90.12099651024916"
    }
  },
  {
    "service_request": "2026-1289151",
    "request_type": "Property Maintenance",
    "request_reason": "Property Maintenance",
    "date_created": "2026-06-09T15:00:24.000",
    "date_modified": "2026-06-09T15:00:25.000",
    "request_status": "Pending",
    "responsible_agency": "Department of Code Enforcement",
    "final_address": "8903 Olive St",
    "address_councildis": "A",
    "status": "Pending",
    "rowid": "1289151",
    "final_x": "3665145.15181",
    "final_y": "536137.286087",
    "longitude": "-90.11955881811795",
    "latitude": "29.96867814228249",
    "geocoded_column": {
      "latitude": "29.96867814228249",
      "longitude": "-90.11955881811795"
    }
  },
  {
    "service_request": "2026-1289150",
    "request_type": "Trash/Recycling",
    "request_reason": "Request a Large Item Pick Up",
    "date_created": "2026-06-09T14:59:05.000",
    "date_modified": "2026-06-09T14:59:07.000",
    "request_status": "Pending",
    "responsible_agency": "Department of Sanitation",
    "final_address": "2417 Marais St",
    "address_councildis": "C",
    "status": "Assigned to Contractor",
    "contractor": "IV Waste",
    "rowid": "1289150",
    "final_x": "3686662.49871",
    "final_y": "536839.112328",
    "longitude": "-90.0515811666542",
    "latitude": "29.969963644710976",
    "geocoded_column": {
      "latitude": "29.969963644710976",
      "longitude": "-90.0515811666542"
    }
  },
  {
    "service_request": "2026-1289149",
    "request_type": "Property Maintenance",
    "request_reason": "Property Maintenance",
    "date_created": "2026-06-09T14:57:21.000",
    "date_modified": "2026-06-09T14:57:24.000",
    "request_status": "Pending",
    "responsible_agency": "Department of Code Enforcement",
    "final_address": "5226 Dauphine St",
    "address_councildis": "E",
    "status": "Pending",
    "rowid": "1289149",
    "final_x": "3696441.12554",
    "final_y": "532908.642628",
    "longitude": "-90.02084165205605",
    "latitude": "29.958851855011588",
    "geocoded_column": {
      "latitude": "29.958851855011588",
      "longitude": "-90.02084165205605"
    }
  },
  {
    "service_request": "2026-1289148",
    "request_type": "Trash/Recycling",
    "request_reason": "Order Recycling Cart",
    "date_created": "2026-06-09T14:55:43.000",
    "date_modified": "2026-06-09T14:55:44.000",
    "request_status": "Pending",
    "responsible_agency": "Department of Sanitation",
    "final_address": "3010 Bienville Ave",
    "address_councildis": "B",
    "status": "Pending",
    "rowid": "1289148",
    "final_x": "3674696.94651",
    "final_y": "536516.938439",
    "longitude": "-90.0893806478862",
    "latitude": "29.969440387249954",
    "geocoded_column": {
      "latitude": "29.969440387249954",
      "longitude": "-90.0893806478862"
    }
  },
  {
    "service_request": "2026-1289147",
    "request_type": "Abandoned Vehicles",
    "request_reason": "Abandoned/Junk Vehicles",
    "date_created": "2026-06-09T14:55:22.000",
    "date_modified": "2026-06-09T14:55:23.000",
    "request_status": "Pending",
    "responsible_agency": "Department of Public Works",
    "final_address": "8900 Olive St",
    "address_councildis": "A",
    "status": "Pending",
    "rowid": "1289147",
    "final_x": "3665103.44711",
    "final_y": "536082.387527",
    "longitude": "-90.11969236080941",
    "latitude": "29.968528404058787",
    "geocoded_column": {
      "latitude": "29.968528404058787",
      "longitude": "-90.11969236080941"
    }
  },
  {
    "service_request": "2026-1289146",
    "request_type": "Trash/Recycling",
    "request_reason": "Request a Large Item Pick Up",
    "date_created": "2026-06-09T14:52:35.000",
    "date_modified": "2026-06-09T14:52:37.000",
    "request_status": "Pending",
    "responsible_agency": "Department of Sanitation",
    "final_address": "3153 State Street Dr",
    "address_councildis": "B",
    "status": "Assigned to Contractor",
    "contractor": "IV Waste",
    "rowid": "1289146",
    "final_x": "3667591.66381",
    "final_y": "527971.220607",
    "longitude": "-90.1121074226305",
    "latitude": "29.94615265792306",
    "geocoded_column": {
      "latitude": "29.94615265792306",
      "longitude": "-90.1121074226305"
    }
  },
  {
    "service_request": "2026-1289145",
    "request_type": "Trash/Recycling",
    "request_reason": "Request a Large Item Pick Up",
    "date_created": "2026-06-09T14:48:27.000",
    "date_modified": "2026-06-09T14:48:43.000",
    "request_status": "Pending",
    "responsible_agency": "Department of Sanitation",
    "final_address": "3034 Marais St",
    "address_councildis": "C",
    "status": "Assigned to Contractor",
    "contractor": "IV Waste",
    "rowid": "1289145",
    "final_x": "3688791.7622",
    "final_y": "536395.005895",
    "longitude": "-90.04487253514812",
    "latitude": "29.968676844047295",
    "geocoded_column": {
      "latitude": "29.968676844047295",
      "longitude": "-90.04487253514812"
    }
  },
  {
    "service_request": "2026-1289144",
    "request_type": "Mosquito, Termite & Rodent Control",
    "request_reason": "Rodent Complaint (Mice & Rats)",
    "date_created": "2026-06-09T14:46:33.000",
    "date_modified": "2026-06-09T14:47:23.000",
    "request_status": "Pending",
    "responsible_agency": "Mosquito, Termite & Rodent Control Board",
    "final_address": "1544 N Broad St",
    "address_councildis": "D",
    "status": "Pending",
    "rowid": "1289144",
    "final_x": "3678975.18331",
    "final_y": "539837.09601",
    "longitude": "-90.07575454970288",
    "latitude": "29.97844127483669",
    "geocoded_column": {
      "latitude": "29.97844127483669",
      "longitude": "-90.07575454970288"
    }
  },
  {
    "service_request": "2026-1289143",
    "request_type": "Trash/Recycling",
    "request_reason": "Illegal Dumping",
    "date_created": "2026-06-09T14:46:03.000",
    "date_modified": "2026-06-09T14:46:04.000",
    "request_status": "Pending",
    "responsible_agency": "Department of Sanitation",
    "final_address": "8800 BLK Dwyer Rd",
    "address_councildis": "E",
    "status": "Pending",
    "rowid": "1289143",
    "final_x": "3708324.76114",
    "final_y": "557029.223984",
    "longitude": "-89.98241851194764",
    "latitude": "30.02479473053765",
    "geocoded_column": {
      "latitude": "30.02479473053765",
      "longitude": "-89.98241851194764"
    }
  },
  {
    "service_request": "2026-1289142",
    "request_type": "Abandoned Vehicles",
    "request_reason": "Abandoned/Junk Vehicles",
    "date_created": "2026-06-09T14:45:10.000",
    "date_modified": "2026-06-09T14:45:12.000",
    "request_status": "Pending",
    "responsible_agency": "Department of Public Works",
    "final_address": "ROBERT ST & S PRIEUR ST",
    "address_councildis": "B",
    "status": "Pending",
    "rowid": "1289142",
    "final_x": "3668910.8",
    "final_y": "526698.28",
    "longitude": "-90.10798542260991",
    "latitude": "29.942613760173074",
    "geocoded_column": {
      "latitude": "29.942613760173074",
      "longitude": "-90.10798542260991"
    }
  },
  {
    "service_request": "2026-1289141",
    "request_type": "Trash/Recycling",
    "request_reason": "Request a Large Item Pick Up",
    "date_created": "2026-06-09T14:41:18.000",
    "date_modified": "2026-06-09T16:59:46.000",
    "request_status": "Pending",
    "responsible_agency": "Department of Sanitation",
    "final_address": "2212 Mandolin St",
    "address_councildis": "D",
    "status": "Assigned to Contractor",
    "contractor": "IV Waste",
    "rowid": "1289141",
    "final_x": "3684282.05865",
    "final_y": "548428.428306",
    "longitude": "-90.05869167401632",
    "latitude": "30.001903169422256",
    "geocoded_column": {
      "latitude": "30.001903169422256",
      "longitude": "-90.05869167401632"
    }
  },
  {
    "service_request": "2026-1289140",
    "request_type": "General Services",
    "request_reason": "General Service Request",
    "date_created": "2026-06-09T14:39:47.000",
    "date_modified": "2026-06-09T14:41:21.000",
    "case_close_date": "2026-06-09T09:41:20.000",
    "request_status": "Closed",
    "responsible_agency": "Orleans Parish Communication District",
    "final_address": "2500 Constance St",
    "address_councildis": "B",
    "status": "Referred to External Agency",
    "rowid": "1289140",
    "final_x": "3678013.42779",
    "final_y": "520972.335289",
    "longitude": "-90.07944412888668",
    "latitude": "29.926598493902475",
    "geocoded_column": {
      "latitude": "29.926598493902475",
      "longitude": "-90.07944412888668"
    }
  },
  {
    "service_request": "2026-1289139",
    "request_type": "Trash/Recycling",
    "request_reason": "Request a Large Item Pick Up",
    "date_created": "2026-06-09T14:39:29.000",
    "date_modified": "2026-06-09T14:39:31.000",
    "request_status": "Pending",
    "responsible_agency": "Department of Sanitation",
    "final_address": "1028 S Carrollton Ave",
    "address_councildis": "A",
    "status": "Assigned to Contractor",
    "contractor": "IV Waste",
    "rowid": "1289139",
    "final_x": "3661629.3776",
    "final_y": "528031.567423",
    "longitude": "-90.13093051159083",
    "latitude": "29.946491974796704",
    "geocoded_column": {
      "latitude": "29.946491974796704",
      "longitude": "-90.13093051159083"
    }
  },
  {
    "service_request": "2026-1289138",
    "request_type": "Traffic Signals",
    "request_reason": "Traffic Signal Malfunctioning or Damaged",
    "date_created": "2026-06-09T14:38:51.000",
    "date_modified": "2026-06-09T14:38:54.000",
    "request_status": "Pending",
    "responsible_agency": "Department of Public Works",
    "final_address": "GENERAL DE GAULLE DR & WOODLAND DR",
    "address_councildis": "C",
    "status": "Pending",
    "rowid": "1289138",
    "final_x": "3705348.1",
    "final_y": "514982.18",
    "longitude": "-89.99337788359405",
    "latitude": "29.909276849557717",
    "geocoded_column": {
      "latitude": "29.909276849557717",
      "longitude": "-89.99337788359405"
    }
  },
  {
    "service_request": "2026-1289137",
    "request_type": "Safety & Permits",
    "request_reason": "Zoning Enforcement",
    "date_created": "2026-06-09T14:37:38.000",
    "date_modified": "2026-06-09T14:39:41.000",
    "request_status": "Pending",
    "responsible_agency": "Safety and Permits",
    "final_address": "5000 Toulon St",
    "address_councildis": "E",
    "status": "Pending",
    "rowid": "1289137",
    "final_x": "3723619.60262",
    "final_y": "561251.68387",
    "longitude": "-89.93392708835012",
    "latitude": "30.035900089350214",
    "geocoded_column": {
      "latitude": "30.035900089350214",
      "longitude": "-89.93392708835012"
    }
  },
  {
    "service_request": "2026-1289136",
    "request_type": "Trash/Recycling",
    "request_reason": "Request a Large Item Pick Up",
    "date_created": "2026-06-09T14:33:38.000",
    "date_modified": "2026-06-09T14:33:46.000",
    "request_status": "Pending",
    "responsible_agency": "Department of Sanitation",
    "final_address": "7309 Mayo Rd",
    "address_councildis": "E",
    "status": "Assigned to Contractor",
    "contractor": "Waste Pro",
    "rowid": "1289136",
    "final_x": "3701214.55025",
    "final_y": "559900.015005",
    "longitude": "-90.00478026822975",
    "latitude": "30.032916874032527",
    "geocoded_column": {
      "latitude": "30.032916874032527",
      "longitude": "-90.00478026822975"
    }
  },
  {
    "service_request": "2026-1289135",
    "request_type": "Streetlights",
    "request_reason": "Streetlight Outage/Malfunction",
    "date_created": "2026-06-09T14:32:42.000",
    "date_modified": "2026-06-09T14:34:13.000",
    "request_status": "Pending",
    "responsible_agency": "Department of Public Works",
    "final_address": "7818 Colapissa St",
    "address_councildis": "B",
    "status": "Pending",
    "rowid": "1289135",
    "final_x": "3667207.54804",
    "final_y": "532736.044548",
    "longitude": "-90.1131600111487",
    "latitude": "29.959265620296595",
    "geocoded_column": {
      "latitude": "29.959265620296595",
      "longitude": "-90.1131600111487"
    }
  },
  {
    "service_request": "2026-1289134",
    "request_type": "Streetlights",
    "request_reason": "Streetlight Outage/Malfunction",
    "date_created": "2026-06-09T14:31:17.000",
    "date_modified": "2026-06-09T14:31:19.000",
    "request_status": "Pending",
    "responsible_agency": "Department of Public Works",
    "final_address": "15025 Emory Rd",
    "address_councildis": "E",
    "status": "Pending",
    "rowid": "1289134",
    "final_x": "3721090.02022",
    "final_y": "574184.010794",
    "longitude": "-89.94142448381731",
    "latitude": "30.071543315572608",
    "geocoded_column": {
      "latitude": "30.071543315572608",
      "longitude": "-89.94142448381731"
    }
  },
  {
    "service_request": "2026-1289133",
    "request_type": "Trash/Recycling",
    "request_reason": "Repair Trash Cart",
    "date_created": "2026-06-09T14:30:09.000",
    "date_modified": "2026-06-09T14:30:11.000",
    "request_status": "Pending",
    "responsible_agency": "Department of Sanitation",
    "final_address": "1400 Elizardi Blvd",
    "address_councildis": "C",
    "status": "Assigned to Contractor",
    "contractor": "Richards Disposal",
    "rowid": "1289133",
    "final_x": "3694867.63133",
    "final_y": "526057.88531",
    "longitude": "-90.02605713083608",
    "latitude": "29.940064122107977",
    "geocoded_column": {
      "latitude": "29.940064122107977",
      "longitude": "-90.02605713083608"
    }
  },
  {
    "service_request": "2026-1289132",
    "request_type": "Traffic Signals",
    "request_reason": "Traffic Signal Malfunctioning or Damaged",
    "date_created": "2026-06-09T14:29:12.000",
    "date_modified": "2026-06-09T14:29:14.000",
    "request_status": "Pending",
    "responsible_agency": "Department of Public Works",
    "final_address": "900 BLK Canal St",
    "address_councildis": "C",
    "status": "Pending",
    "rowid": "1289132",
    "final_x": "3680501.46934",
    "final_y": "531248.857237",
    "longitude": "-90.071232750969",
    "latitude": "29.95478041188438",
    "geocoded_column": {
      "latitude": "29.95478041188438",
      "longitude": "-90.071232750969"
    }
  },
  {
    "service_request": "2026-1289131",
    "request_type": "Roads and Streets",
    "request_reason": "Pothole",
    "date_created": "2026-06-09T14:29:02.000",
    "date_modified": "2026-06-09T14:29:03.000",
    "request_status": "Pending",
    "responsible_agency": "Department of Public Works",
    "final_address": "5517 N Robertson St",
    "address_councildis": "E",
    "status": "Pending",
    "rowid": "1289131",
    "final_x": "3698273.78224",
    "final_y": "535358.126726",
    "longitude": "-90.01496562721007",
    "latitude": "29.965529216295362",
    "geocoded_column": {
      "latitude": "29.965529216295362",
      "longitude": "-90.01496562721007"
    }
  },
  {
    "service_request": "2026-1289130",
    "request_type": "Abandoned Vehicles",
    "request_reason": "Abandoned/Junk Vehicles",
    "date_created": "2026-06-09T14:28:15.000",
    "date_modified": "2026-06-09T14:28:16.000",
    "request_status": "Pending",
    "responsible_agency": "Department of Public Works",
    "final_address": "4675 Lurline St",
    "address_councildis": "E",
    "status": "Pending",
    "rowid": "1289130",
    "final_x": "3712087.65349",
    "final_y": "555765.039641",
    "longitude": "-89.9705760276166",
    "latitude": "30.02119620121863",
    "geocoded_column": {
      "latitude": "30.02119620121863",
      "longitude": "-89.9705760276166"
    }
  },
  {
    "service_request": "2026-1289129",
    "request_type": "Trash/Recycling",
    "request_reason": "Repair Recycling Cart",
    "date_created": "2026-06-09T14:27:45.000",
    "date_modified": "2026-06-09T14:27:46.000",
    "request_status": "Pending",
    "responsible_agency": "Department of Sanitation",
    "final_address": "3806 Bienville Ave",
    "address_councildis": "A",
    "status": "Pending",
    "rowid": "1289129",
    "final_x": "3672456.60423",
    "final_y": "538218.640329",
    "longitude": "-90.09639783137253",
    "latitude": "29.97418617853066",
    "geocoded_column": {
      "latitude": "29.97418617853066",
      "longitude": "-90.09639783137253"
    }
  },
  {
    "service_request": "2026-1289128",
    "request_type": "Trash/Recycling",
    "request_reason": "Request a Large Item Pick Up",
    "date_created": "2026-06-09T14:26:24.000",
    "date_modified": "2026-06-09T16:58:57.000",
    "request_status": "Pending",
    "responsible_agency": "Department of Sanitation",
    "final_address": "5764 Wildair Dr",
    "address_councildis": "D",
    "status": "Assigned to Contractor",
    "contractor": "IV Waste",
    "rowid": "1289128",
    "final_x": "3681471.94844",
    "final_y": "554468.630616",
    "longitude": "-90.0673582895973",
    "latitude": "30.018597197455822",
    "geocoded_column": {
      "latitude": "30.018597197455822",
      "longitude": "-90.0673582895973"
    }
  },
  {
    "service_request": "2026-1289127",
    "request_type": "Mosquito, Termite & Rodent Control",
    "request_reason": "Non-Rodent Complaint (Possums & Snakes)",
    "date_created": "2026-06-09T14:25:37.000",
    "date_modified": "2026-06-09T14:25:38.000",
    "request_status": "Pending",
    "responsible_agency": "Mosquito, Termite & Rodent Control Board",
    "final_address": "6017 Warfield St",
    "address_councildis": "D",
    "status": "Pending",
    "rowid": "1289127",
    "final_x": "3696907.24042",
    "final_y": "552433.615766",
    "longitude": "-90.01866239640913",
    "latitude": "30.012523729710505",
    "geocoded_column": {
      "latitude": "30.012523729710505",
      "longitude": "-90.01866239640913"
    }
  },
  {
    "service_request": "2026-1289126",
    "request_type": "Trash/Recycling",
    "request_reason": "Request a Large Item Pick Up",
    "date_created": "2026-06-09T14:24:14.000",
    "date_modified": "2026-06-09T14:24:16.000",
    "request_status": "Pending",
    "responsible_agency": "Department of Sanitation",
    "final_address": "4900 Lancelot Dr",
    "address_councildis": "E",
    "status": "Assigned to Contractor",
    "contractor": "Waste Pro",
    "rowid": "1289126",
    "final_x": "3707280.49937",
    "final_y": "556462.766682",
    "longitude": "-89.98573922751619",
    "latitude": "30.023271004518307",
    "geocoded_column": {
      "latitude": "30.023271004518307",
      "longitude": "-89.98573922751619"
    }
  },
  {
    "service_request": "2026-1289125",
    "request_type": "Trash/Recycling",
    "request_reason": "Request a Large Item Pick Up",
    "date_created": "2026-06-09T14:23:43.000",
    "date_modified": "2026-06-09T14:23:45.000",
    "request_status": "Pending",
    "responsible_agency": "Department of Sanitation",
    "final_address": "2539 Columbus St",
    "address_councildis": "D",
    "status": "Assigned to Contractor",
    "contractor": "IV Waste",
    "rowid": "1289125",
    "final_x": "3678914.15234",
    "final_y": "539441.882506",
    "longitude": "-90.0759610051361",
    "latitude": "29.977356415979948",
    "geocoded_column": {
      "latitude": "29.977356415979948",
      "longitude": "-90.0759610051361"
    }
  },
  {
    "service_request": "2026-1289124",
    "request_type": "Tree Service",
    "request_reason": "Tree Trim",
    "date_created": "2026-06-09T14:22:25.000",
    "date_modified": "2026-06-09T14:22:27.000",
    "request_status": "Pending",
    "responsible_agency": "Department of Parks & Parkways",
    "final_address": "8600 Grant St",
    "address_councildis": "E",
    "status": "Pending",
    "rowid": "1289124",
    "final_x": "3707155.13214",
    "final_y": "554299.675992",
    "longitude": "-89.98621571257121",
    "latitude": "30.017327397606618",
    "geocoded_column": {
      "latitude": "30.017327397606618",
      "longitude": "-89.98621571257121"
    }
  },
  {
    "service_request": "2026-1289123",
    "request_type": "Property Maintenance",
    "request_reason": "Property Maintenance",
    "date_created": "2026-06-09T14:22:15.000",
    "date_modified": "2026-06-09T14:22:54.000",
    "request_status": "Pending",
    "responsible_agency": "Department of Code Enforcement",
    "final_address": "1316 Prytania St",
    "address_councildis": "B",
    "status": "Pending",
    "rowid": "1289123",
    "final_x": "3679948.24309",
    "final_y": "525645.731069",
    "longitude": "-90.07317420418572",
    "latitude": "29.9393904334464",
    "geocoded_column": {
      "latitude": "29.9393904334464",
      "longitude": "-90.07317420418572"
    }
  },