[
  {
    "service_request": "2024-1069568",
    "request_type": "Healthy Homes",
    "request_reason": "Healthy Homes",
    "date_created": "2024-02-21T23:39:40.000",
    "date_modified": "2024-02-21T23:39:40.000",
    "request_status": "Pending",
    "responsible_agency": "Department of Code Enforcement",
    "final_address": "2019 Dumaine St",
    "address_councildis": "D",
    "status": "Pending",
    "rowid": "1069568",
    "final_x": "3679248.85019",
    "final_y": "535969.814343",
    "longitude": "-90.07502434120687",
    "latitude": "29.96779931941338",
    "geocoded_column": {
      "latitude": "29.96779931941338",
      "longitude": "-90.07502434120687"
    }
  },
  {
    "service_request": "2024-1069567",
    "request_type": "Roads/Drainage",
    "request_reason": "Pothole",
    "date_created": "2024-02-21T23:18:49.000",
    "date_modified": "2024-02-21T23:18:49.000",
    "request_status": "Pending",
    "responsible_agency": "Department of Public Works",
    "final_address": "1301 Constantinople St",
    "address_councildis": "B",
    "status": "Pending",
    "rowid": "1069567",
    "final_x": "3672430.66305",
    "final_y": "520250.7726",
    "longitude": "-90.09709199725775",
    "latitude": "29.924781230435865",
    "geocoded_column": {
      "latitude": "29.924781230435865",
      "longitude": "-90.09709199725775"
    }
  },
  {
    "service_request": "2024-1069566",
    "request_type": "Roads/Drainage",
    "request_reason": "Street Subsidence (Sinking)",
    "date_created": "2024-02-21T21:51:13.000",
    "date_modified": "2024-02-21T21:51:13.000",
    "request_status": "Pending",
    "responsible_agency": "Department of Public Works",
    "final_address": "0 BLK English Turn Dr",
    "address_councildis": "C",
    "status": "Pending",
    "rowid": "1069566",
    "final_x": "3719414.96304",
    "final_y": "514425.700923",
    "longitude": "-89.94900214222162",
    "latitude": "29.9072869181151",
    "geocoded_column": {
      "latitude": "29.9072869181151",
      "longitude": "-89.94900214222162"
    }
  },
  {
    "service_request": "2024-1069565",
    "request_type": "Trash/Recycling",
    "request_reason": "Return Recycling Cart",
    "date_created": "2024-02-21T21:34:13.000",
    "date_modified": "2024-02-21T21:34:13.000",
    "request_status": "Pending",
    "responsible_agency": "Department of Sanitation",
    "final_address": "4000 Constance St",
    "address_councildis": "B",
    "status": "Pending",
    "rowid": "1069565",
    "final_x": "3672526.53006",
    "final_y": "518524.538359",
    "longitude": "-90.09684817851132",
    "latitude": "29.92003179335413",
    "geocoded_column": {
      "latitude": "29.92003179335413",
      "longitude": "-90.09684817851132"
    }
  },
  {
    "service_request": "2024-1069564",
    "request_type": "Traffic Signals/Signs/Striping/Streetlights",
    "request_reason": "Street Light Outage/Malfunction",
    "date_created": "2024-02-21T21:14:45.000",
    "date_modified": "2024-02-21T21:14:46.000",
    "request_status": "Pending",
    "responsible_agency": "Department of Public Works",
    "final_address": "4926 Perrier St",
    "address_councildis": "B",
    "status": "Assigned to Contractor",
    "contractor": "Legacy Professional Services",
    "rowid": "1069564",
    "final_x": "3668807.39873",
    "final_y": "519847.531576",
    "longitude": "-90.10854308266862",
    "latitude": "29.92377943643999",
    "geocoded_column": {
      "latitude": "29.92377943643999",
      "longitude": "-90.10854308266862"
    }
  },
  {
    "service_request": "2024-1069563",
    "request_type": "Roads/Drainage",
    "request_reason": "Street Subsidence (Sinking)",
    "date_created": "2024-02-21T20:58:09.000",
    "date_modified": "2024-02-21T20:58:09.000",
    "request_status": "Pending",
    "responsible_agency": "Department of Public Works",
    "final_address": "1800 Wagner St",
    "address_councildis": "C",
    "status": "Pending",
    "rowid": "1069563",
    "final_x": "3690380.11817",
    "final_y": "524360.985852",
    "longitude": "-90.04028529851878",
    "latitude": "29.93553823867745",
    "geocoded_column": {
      "latitude": "29.93553823867745",
      "longitude": "-90.04028529851878"
    }
  },
  {
    "service_request": "2024-1069562",
    "request_type": "Traffic Signals/Signs/Striping/Streetlights",
    "request_reason": "Street Light Outage/Malfunction",
    "date_created": "2024-02-21T20:18:57.000",
    "date_modified": "2024-02-21T20:18:58.000",
    "request_status": "Pending",
    "responsible_agency": "Department of Public Works",
    "final_address": "1643 Bartholomew St",
    "address_councildis": "D",
    "status": "Assigned to Contractor",
    "contractor": "Legacy Professional Services",
    "rowid": "1069562",
    "final_x": "3692389.28189",
    "final_y": "537511.367176",
    "longitude": "-90.0334714147145",
    "latitude": "29.971634720325603",
    "geocoded_column": {
      "latitude": "29.971634720325603",
      "longitude": "-90.0334714147145"
    }
  },
  {
    "service_request": "2024-1069561",
    "request_type": "Trash/Recycling",
    "request_reason": "Request a Large Item Pick Up",
    "date_created": "2024-02-21T20:13:08.000",
    "date_modified": "2024-02-21T20:13:08.000",
    "request_status": "Pending",
    "responsible_agency": "Department of Sanitation",
    "final_address": "4731 Dauphine St",
    "address_councildis": "E",
    "status": "Assigned to Contractor",
    "contractor": "Waste Pro",
    "rowid": "1069561",
    "final_x": "3694593.21053",
    "final_y": "533433.713348",
    "longitude": "-90.02665796309971",
    "latitude": "29.960353686717127",
    "geocoded_column": {
      "latitude": "29.960353686717127",
      "longitude": "-90.02665796309971"
    }
  },
  {
    "service_request": "2024-1069559",
    "request_type": "Roads/Drainage",
    "request_reason": "Street Subsidence (Sinking)",
    "date_created": "2024-02-21T20:09:35.000",
    "date_modified": "2024-02-21T20:09:35.000",
    "request_status": "Pending",
    "responsible_agency": "Department of Public Works",
    "final_address": "0 BLK English Turn Pkwy",
    "address_councildis": "C",
    "status": "Pending",
    "rowid": "1069559",
    "final_x": "3714478.8315",
    "final_y": "516189.451005",
    "longitude": "-89.96451447055301",
    "latitude": "29.912299665809115",
    "geocoded_column": {
      "latitude": "29.912299665809115",
      "longitude": "-89.96451447055301"
    }
  },
  {
    "service_request": "2024-1069558",
    "request_type": "Abandoned Vehicles",
    "request_reason": "Abandoned/Junk Vehicles",
    "date_created": "2024-02-21T20:04:48.000",
    "date_modified": "2024-02-21T20:04:48.000",
    "request_status": "Pending",
    "responsible_agency": "Department of Public Works",
    "final_address": "225 Eliza St",
    "address_councildis": "C",
    "status": "Pending",
    "rowid": "1069558",
    "final_x": "3686254.26761",
    "final_y": "529321.486529",
    "longitude": "-90.05313564974263",
    "latitude": "29.94930531510513",
    "geocoded_column": {
      "latitude": "29.94930531510513",
      "longitude": "-90.05313564974263"
    }
  },
  {
    "service_request": "2024-1069557",
    "request_type": "Trash/Recycling",
    "request_reason": "Request a Large Item Pick Up",
    "date_created": "2024-02-21T19:57:22.000",
    "date_modified": "2024-02-21T19:57:23.000",
    "request_status": "Pending",
    "responsible_agency": "Department of Sanitation",
    "final_address": "5912 Airway St",
    "address_councildis": "D",
    "status": "Assigned to Contractor",
    "contractor": "Waste Pro",
    "rowid": "1069557",
    "final_x": "3696390.3944",
    "final_y": "552792.441878",
    "longitude": "-90.02028234321958",
    "latitude": "30.013526662060663",
    "geocoded_column": {
      "latitude": "30.013526662060663",
      "longitude": "-90.02028234321958"
    }
  },
  {
    "service_request": "2024-1069556",
    "request_type": "Trash/Recycling",
    "request_reason": "Missed Trash Pick-Up",
    "date_created": "2024-02-21T19:08:14.000",
    "date_modified": "2024-02-21T19:08:14.000",
    "request_status": "Pending",
    "responsible_agency": "Department of Sanitation",
    "final_address": "7720 Spruce St",
    "address_councildis": "A",
    "status": "Assigned to Contractor",
    "contractor": "Richards Disposal",
    "rowid": "1069556",
    "final_x": "3664775.48429",
    "final_y": "529563.764545",
    "longitude": "-90.12094590667361",
    "latitude": "29.950613869573143",
    "geocoded_column": {
      "latitude": "29.950613869573143",
      "longitude": "-90.12094590667361"
    }
  },
  {
    "service_request": "2024-1069555",
    "request_type": "Roads/Drainage",
    "request_reason": "Street Subsidence (Sinking)",
    "date_created": "2024-02-21T19:02:54.000",
    "date_modified": "2024-02-21T19:02:54.000",
    "request_status": "Pending",
    "responsible_agency": "Department of Public Works",
    "final_address": "0 BLK English Turn Pkwy",
    "address_councildis": "C",
    "status": "Pending",
    "rowid": "1069555",
    "final_x": "3714478.8315",
    "final_y": "516189.451005",
    "longitude": "-89.96451447055301",
    "latitude": "29.912299665809115",
    "geocoded_column": {
      "latitude": "29.912299665809115",
      "longitude": "-89.96451447055301"
    }
  },
  {
    "service_request": "2024-1069553",
    "request_type": "Traffic Signals/Signs/Striping/Streetlights",
    "request_reason": "Street Light Outage/Malfunction",
    "date_created": "2024-02-21T18:15:35.000",
    "date_modified": "2024-02-21T18:15:35.000",
    "request_status": "Pending",
    "responsible_agency": "Department of Public Works",
    "final_address": "5936 Law St, New Orleans, Louisiana, 70117",
    "status": "Assigned to Contractor",
    "contractor": "Legacy Professional Services",
    "rowid": "1069553",
    "longitude": "0.0",
    "latitude": "0.0",
    "geocoded_column": {
      "latitude": "0.0",
      "longitude": "0.0"
    }
  },
  {
    "service_request": "2024-1069552",
    "request_type": "Traffic Signals/Signs/Striping/Streetlights",
    "request_reason": "Street Light Outage/Malfunction",
    "date_created": "2024-02-21T18:14:37.000",
    "date_modified": "2024-02-21T18:14:37.000",
    "request_status": "Pending",
    "responsible_agency": "Department of Public Works",
    "final_address": "2606 Gordon St, New Orleans, Louisiana, 70117",
    "address_councildis": "E",
    "status": "Assigned to Contractor",
    "contractor": "Legacy Professional Services",
    "rowid": "1069552",
    "final_x": "3701309.80452",
    "final_y": "538869.135625",
    "longitude": "-90.00524955372448",
    "latitude": "29.975086821609285",
    "geocoded_column": {
      "latitude": "29.975086821609285",
      "longitude": "-90.00524955372448"
    }
  },
  {
    "service_request": "2024-1069551",
    "request_type": "Trash/Recycling",
    "request_reason": "Replace Trash Cart",
    "date_created": "2024-02-21T18:07:58.000",
    "date_modified": "2024-02-21T18:07:58.000",
    "request_status": "Pending",
    "responsible_agency": "Department of Sanitation",
    "final_address": "4029 Elba St",
    "address_councildis": "B",
    "status": "Assigned to Contractor",
    "contractor": "Richards Disposal",
    "rowid": "1069551",
    "final_x": "3670690.0882",
    "final_y": "529871.369665",
    "longitude": "-90.10226014820044",
    "latitude": "29.951286280184327",
    "geocoded_column": {
      "latitude": "29.951286280184327",
      "longitude": "-90.10226014820044"
    }
  },
  {
    "service_request": "2024-1069550",
    "request_type": "Roads/Drainage",
    "request_reason": "Pothole",
    "date_created": "2024-02-21T18:03:54.000",
    "date_modified": "2024-02-21T18:03:54.000",
    "request_status": "Pending",
    "responsible_agency": "Department of Public Works",
    "final_address": "0 BLK Woodland Hwy",
    "status": "Pending",
    "rowid": "1069550",
    "final_x": "3708877.09205",
    "final_y": "512138.169081",
    "longitude": "-89.98234569181606",
    "latitude": "29.90134285349414",
    "geocoded_column": {
      "latitude": "29.90134285349414",
      "longitude": "-89.98234569181606"
    }
  },
  {
    "service_request": "2024-1069549",
    "request_type": "Trash/Recycling",
    "request_reason": "Replace Trash Cart",
    "date_created": "2024-02-21T17:53:34.000",
    "date_modified": "2024-02-21T17:53:34.000",
    "request_status": "Pending",
    "responsible_agency": "Department of Sanitation",
    "final_address": "3928 S Pin OaK Av",
    "address_councildis": "C",
    "status": "Assigned to Contractor",
    "contractor": "Richards Disposal",
    "rowid": "1069549",
    "final_x": "3704964.1978",
    "final_y": "513583.627954",
    "longitude": "-89.99464110741441",
    "latitude": "29.905443648212163",
    "geocoded_column": {
      "latitude": "29.905443648212163",
      "longitude": "-89.99464110741441"
    }
  },
  {
    "service_request": "2024-1069548",
    "request_type": "Roads/Drainage",
    "request_reason": "Street Subsidence (Sinking)",
    "date_created": "2024-02-21T17:52:30.000",
    "date_modified": "2024-02-21T17:52:30.000",
    "request_status": "Pending",
    "responsible_agency": "Department of Public Works",
    "final_address": "0 BLK English Turn Pkwy",
    "address_councildis": "C",
    "status": "Pending",
    "rowid": "1069548",
    "final_x": "3714478.8315",
    "final_y": "516189.451005",
    "longitude": "-89.96451447055301",
    "latitude": "29.912299665809115",
    "geocoded_column": {
      "latitude": "29.912299665809115",
      "longitude": "-89.96451447055301"
    }
  },
  {
    "service_request": "2024-1069547",
    "request_type": "Traffic Signals/Signs/Striping/Streetlights",
    "request_reason": "Street Light Outage/Malfunction",
    "date_created": "2024-02-21T17:48:27.000",
    "date_modified": "2024-02-21T17:48:27.000",
    "request_status": "Pending",
    "responsible_agency": "Department of Public Works",
    "final_address": "3601 St Bernard Ave",
    "address_councildis": "D",
    "status": "Assigned to Contractor",
    "contractor": "Legacy Professional Services",
    "rowid": "1069547",
    "final_x": "3678356.92942",
    "final_y": "545461.438224",
    "longitude": "-90.07751253492788",
    "latitude": "29.993924898238106",
    "geocoded_column": {
      "latitude": "29.993924898238106",
      "longitude": "-90.07751253492788"
    }
  },
  {
    "service_request": "2024-1069546",
    "request_type": "Roads/Drainage",
    "request_reason": "Street Subsidence (Sinking)",
    "date_created": "2024-02-21T17:48:10.000",
    "date_modified": "2024-02-21T17:48:10.000",
    "request_status": "Pending",
    "responsible_agency": "Department of Public Works",
    "final_address": "0 BLK English Turn Pkwy",
    "address_councildis": "C",
    "status": "Pending",
    "rowid": "1069546",
    "final_x": "3714478.8315",
    "final_y": "516189.451005",
    "longitude": "-89.96451447055301",
    "latitude": "29.912299665809115",
    "geocoded_column": {
      "latitude": "29.912299665809115",
      "longitude": "-89.96451447055301"
    }
  },
  {
    "service_request": "2024-1069545",
    "request_type": "Trash/Recycling",
    "request_reason": "Request a Large Item Pick Up",
    "date_created": "2024-02-21T17:37:15.000",
    "date_modified": "2024-02-21T17:37:16.000",
    "request_status": "Pending",
    "responsible_agency": "Department of Sanitation",
    "final_address": "3056 Grand-Route St John St",
    "address_councildis": "A",
    "status": "Assigned to Contractor",
    "contractor": "IV Waste",
    "rowid": "1069545",
    "final_x": "3676726.11413",
    "final_y": "540266.351435",
    "longitude": "-90.08284314318564",
    "latitude": "29.979689259940486",
    "geocoded_column": {
      "latitude": "29.979689259940486",
      "longitude": "-90.08284314318564"
    }
  },
  {
    "service_request": "2024-1069544",
    "request_type": "Roads/Drainage",
    "request_reason": "Pothole",
    "date_created": "2024-02-21T17:35:24.000",
    "date_modified": "2024-02-21T17:35:24.000",
    "request_status": "Pending",
    "responsible_agency": "Department of Public Works",
    "final_address": "4216 Chestnut St",
    "address_councildis": "B",
    "status": "Pending",
    "rowid": "1069544",
    "final_x": "3671574.31393",
    "final_y": "519539.203703",
    "longitude": "-90.09981939416457",
    "latitude": "29.922850019854593",
    "geocoded_column": {
      "latitude": "29.922850019854593",
      "longitude": "-90.09981939416457"
    }
  },
  {
    "service_request": "2024-1069543",
    "request_type": "Roads/Drainage",
    "request_reason": "Street Subsidence (Sinking)",
    "date_created": "2024-02-21T17:27:18.000",
    "date_modified": "2024-02-21T17:27:18.000",
    "request_status": "Pending",
    "responsible_agency": "Department of Public Works",
    "final_address": "0 BLK English Turn Pkwy",
    "address_councildis": "C",
    "status": "Pending",
    "rowid": "1069543",
    "final_x": "3714478.8315",
    "final_y": "516189.451005",
    "longitude": "-89.96451447055301",
    "latitude": "29.912299665809115",
    "geocoded_column": {
      "latitude": "29.912299665809115",
      "longitude": "-89.96451447055301"
    }
  },
  {
    "service_request": "2024-1069542",
    "request_type": "Roads/Drainage",
    "request_reason": "Street Subsidence (Sinking)",
    "date_created": "2024-02-21T17:26:56.000",
    "date_modified": "2024-02-21T17:26:56.000",
    "request_status": "Pending",
    "responsible_agency": "Department of Public Works",
    "final_address": "0 BLK English Turn Pkwy",
    "address_councildis": "C",
    "status": "Pending",
    "rowid": "1069542",
    "final_x": "3714478.8315",
    "final_y": "516189.451005",
    "longitude": "-89.96451447055301",
    "latitude": "29.912299665809115",
    "geocoded_column": {
      "latitude": "29.912299665809115",
      "longitude": "-89.96451447055301"
    }
  },
  {
    "service_request": "2024-1069541",
    "request_type": "Roads/Drainage",
    "request_reason": "Street Subsidence (Sinking)",
    "date_created": "2024-02-21T17:24:30.000",
    "date_modified": "2024-02-21T17:24:30.000",
    "request_status": "Pending",
    "responsible_agency": "Department of Public Works",
    "final_address": "0 BLK English Turn Pkwy",
    "address_councildis": "C",
    "status": "Pending",
    "rowid": "1069541",
    "final_x": "3714478.8315",
    "final_y": "516189.451005",
    "longitude": "-89.96451447055301",
    "latitude": "29.912299665809115",
    "geocoded_column": {
      "latitude": "29.912299665809115",
      "longitude": "-89.96451447055301"
    }
  },
  {
    "service_request": "2024-1069540",
    "request_type": "Roads/Drainage",
    "request_reason": "Street Subsidence (Sinking)",
    "date_created": "2024-02-21T17:20:10.000",
    "date_modified": "2024-02-21T17:20:10.000",
    "request_status": "Pending",
    "responsible_agency": "Department of Public Works",
    "final_address": "0 BLK English Turn Pkwy",
    "address_councildis": "C",
    "status": "Pending",
    "rowid": "1069540",
    "final_x": "3717792.77435",
    "final_y": "515692.934609",
    "longitude": "-89.95407375145972",
    "latitude": "29.910825151293707",
    "geocoded_column": {
      "latitude": "29.910825151293707",
      "longitude": "-89.95407375145972"
    }
  },
  {
    "service_request": "2024-1069539",
    "request_type": "Roads/Drainage",
    "request_reason": "Street Subsidence (Sinking)",
    "date_created": "2024-02-21T17:11:23.000",
    "date_modified": "2024-02-21T17:11:23.000",
    "request_status": "Pending",
    "responsible_agency": "Department of Public Works",
    "final_address": "0 BLK English Turn Pkwy",
    "address_councildis": "C",
    "status": "Pending",
    "rowid": "1069539",
    "final_x": "3714478.8315",
    "final_y": "516189.451005",
    "longitude": "-89.96451447055301",
    "latitude": "29.912299665809115",
    "geocoded_column": {
      "latitude": "29.912299665809115",
      "longitude": "-89.96451447055301"
    }
  },
  {
    "service_request": "2024-1069538",
    "request_type": "Roads/Drainage",
    "request_reason": "Street Subsidence (Sinking)",
    "date_created": "2024-02-21T17:09:31.000",
    "date_modified": "2024-02-21T17:09:31.000",
    "request_status": "Pending",
    "responsible_agency": "Department of Public Works",
    "final_address": "0 BLK English Turn Pkwy",
    "address_councildis": "C",
    "status": "Pending",
    "rowid": "1069538",
    "final_x": "3714478.8315",
    "final_y": "516189.451005",
    "longitude": "-89.96451447055301",
    "latitude": "29.912299665809115",
    "geocoded_column": {
      "latitude": "29.912299665809115",
      "longitude": "-89.96451447055301"
    }
  },
  {
    "service_request": "2024-1069537",
    "request_type": "Trash/Recycling",
    "request_reason": "Missed Trash Pick-Up",
    "date_created": "2024-02-21T17:01:05.000",
    "date_modified": "2024-02-21T17:01:06.000",
    "request_status": "Pending",
    "responsible_agency": "Department of Sanitation",
    "final_address": "8736 Hayne Blvd",
    "address_councildis": "E",
    "status": "Assigned to Contractor",
    "contractor": "Waste Pro",
    "rowid": "1069537",
    "final_x": "3704003.43665",
    "final_y": "563849.305697",
    "longitude": "-89.99582152336016",
    "latitude": "30.043686664460576",
    "geocoded_column": {
      "latitude": "30.043686664460576",
      "longitude": "-89.99582152336016"
    }
  },
  {
    "service_request": "2024-1069536",
    "request_type": "Trash/Recycling",
    "request_reason": "Replace Trash Cart",
    "date_created": "2024-02-21T16:52:23.000",
    "date_modified": "2024-02-21T16:52:24.000",
    "request_status": "Pending",
    "responsible_agency": "Department of Sanitation",
    "final_address": "11267 Waverly Dr",
    "address_councildis": "E",
    "status": "Assigned to Contractor",
    "contractor": "Waste Pro",
    "rowid": "1069536",
    "final_x": "3717395.46399",
    "final_y": "560301.722269",
    "longitude": "-89.95363243349323",
    "latitude": "30.03349562141164",
    "geocoded_column": {
      "latitude": "30.03349562141164",
      "longitude": "-89.95363243349323"
    }
  },
  {
    "service_request": "2024-1069535",
    "request_type": "Trash/Recycling",
    "request_reason": "Illegal Dumping",
    "date_created": "2024-02-21T16:46:30.000",
    "date_modified": "2024-02-21T16:46:30.000",
    "request_status": "Pending",
    "responsible_agency": "Department of Sanitation",
    "final_address": "12550 Old Gentilly Rd",
    "address_councildis": "E",
    "status": "Pending",
    "rowid": "1069535",
    "final_x": "3722969.17113",
    "final_y": "552510.379798",
    "longitude": "-89.93631933752076",
    "latitude": "30.011886859196725",
    "geocoded_column": {
      "latitude": "30.011886859196725",
      "longitude": "-89.93631933752076"
    }
  },
  {
    "service_request": "2024-1069534",
    "request_type": "Trash/Recycling",
    "request_reason": "Missed Trash Pick-Up",
    "date_created": "2024-02-21T16:43:45.000",
    "date_modified": "2024-02-21T16:43:45.000",
    "request_status": "Pending",
    "responsible_agency": "Department of Sanitation",
    "final_address": "4925 Freret St",
    "address_councildis": "B",
    "status": "Assigned to Contractor",
    "contractor": "Richards Disposal",
    "rowid": "1069534",
    "final_x": "3668930.41652",
    "final_y": "523954.511484",
    "longitude": "-90.10801612430201",
    "latitude": "29.935068704699543",
    "geocoded_column": {
      "latitude": "29.935068704699543",
      "longitude": "-90.10801612430201"
    }
  },
  {
    "service_request": "2024-1069533",
    "request_type": "Trash/Recycling",
    "request_reason": "Request a Large Item Pick Up",
    "date_created": "2024-02-21T16:43:23.000",
    "date_modified": "2024-02-21T16:43:24.000",
    "request_status": "Pending",
    "responsible_agency": "Department of Sanitation",
    "final_address": "2808 Banks St",
    "address_councildis": "B",
    "status": "Assigned to Contractor",
    "contractor": "Richards Disposal",
    "rowid": "1069533",
    "final_x": "3674027.73992",
    "final_y": "534519.433029",
    "longitude": "-90.09156242414558",
    "latitude": "29.963967880508235",
    "geocoded_column": {
      "latitude": "29.963967880508235",
      "longitude": "-90.09156242414558"
    }
  },
  {
    "service_request": "2024-1069532",
    "request_type": "Property Maintenance",
    "request_reason": "Property Maintenance",
    "date_created": "2024-02-21T16:40:34.000",
    "date_modified": "2024-02-21T16:40:34.000",
    "request_status": "Pending",
    "responsible_agency": "Department of Code Enforcement",
    "final_address": "3613 Third St",
    "address_councildis": "B",
    "status": "Pending",
    "rowid": "1069532",
    "final_x": "3672508.45319",
    "final_y": "528870.41952",
    "longitude": "-90.09655275041506",
    "latitude": "29.948480153708015",
    "geocoded_column": {
      "latitude": "29.948480153708015",
      "longitude": "-90.09655275041506"
    }
  },
  {
    "service_request": "2024-1069531",
    "request_type": "Trash/Recycling",
    "request_reason": "Request a Large Item Pick Up",
    "date_created": "2024-02-21T16:37:52.000",
    "date_modified": "2024-02-21T16:37:53.000",
    "request_status": "Pending",
    "responsible_agency": "Department of Sanitation",
    "final_address": "4721 Nighthart St",
    "address_councildis": "E",
    "status": "Assigned to Contractor",
    "contractor": "Waste Pro",
    "rowid": "1069531",
    "final_x": "3716212.90399",
    "final_y": "556869.44201",
    "longitude": "-89.95749964338819",
    "latitude": "30.02409732212641",
    "geocoded_column": {
      "latitude": "30.02409732212641",
      "longitude": "-89.95749964338819"
    }
  },
  {
    "service_request": "2024-1069530",
    "request_type": "Roads/Drainage",
    "request_reason": "Catch Basin - Clogged",
    "date_created": "2024-02-21T16:37:40.000",
    "date_modified": "2024-02-21T16:37:40.000",
    "request_status": "Pending",
    "responsible_agency": "Department of Public Works",
    "final_address": "5700 BLK Crowder Blvd",
    "address_councildis": "E",
    "status": "Pending",
    "rowid": "1069530",
    "final_x": "3705117.44865",
    "final_y": "558161.076707",
    "longitude": "-89.99251115480055",
    "latitude": "30.028010468070335",
    "geocoded_column": {
      "latitude": "30.028010468070335",
      "longitude": "-89.99251115480055"
    }
  },
  {
    "service_request": "2024-1069529",
    "request_type": "Trash/Recycling",
    "request_reason": "Order Recycling Cart",
    "date_created": "2024-02-21T16:37:05.000",
    "date_modified": "2024-02-21T16:37:06.000",
    "request_status": "Pending",
    "responsible_agency": "Department of Sanitation",
    "final_address": "25 Thrasher St",
    "address_councildis": "D",
    "status": "Pending",
    "rowid": "1069529",
    "final_x": "3672247.97678",
    "final_y": "556207.834458",
    "longitude": "-90.09644344077223",
    "latitude": "30.023656376088258",
    "geocoded_column": {
      "latitude": "30.023656376088258",
      "longitude": "-90.09644344077223"
    }
  },
  {
    "service_request": "2024-1069528",
    "request_type": "Trash/Recycling",
    "request_reason": "Order Trash Cart",
    "date_created": "2024-02-21T16:36:43.000",
    "date_modified": "2024-02-21T16:36:44.000",
    "request_status": "Pending",
    "responsible_agency": "Department of Sanitation",
    "final_address": "25 Thrasher St",
    "address_councildis": "D",
    "status": "Assigned to Contractor",
    "contractor": "IV Waste",
    "rowid": "1069528",
    "final_x": "3672247.97678",
    "final_y": "556207.834458",
    "longitude": "-90.09644344077223",
    "latitude": "30.023656376088258",
    "geocoded_column": {
      "latitude": "30.023656376088258",
      "longitude": "-90.09644344077223"
    }
  },
  {
    "service_request": "2024-1069527",
    "request_type": "Roads/Drainage",
    "request_reason": "Catch Basin - Clogged",
    "date_created": "2024-02-21T16:32:16.000",
    "date_modified": "2024-02-21T16:32:16.000",
    "request_status": "Pending",
    "responsible_agency": "Department of Public Works",
    "final_address": "8358 Lake Forest Blvd",
    "address_councildis": "E",
    "status": "Pending",
    "rowid": "1069527",
    "final_x": "3705141.50225",
    "final_y": "557377.188699",
    "longitude": "-89.99246413392237",
    "latitude": "30.025854307032095",
    "geocoded_column": {
      "latitude": "30.025854307032095",
      "longitude": "-89.99246413392237"
    }
  },
  {
    "service_request": "2024-1069526",
    "request_type": "Roads/Drainage",
    "request_reason": "Catch Basin - Clogged",
    "date_created": "2024-02-21T16:27:25.000",
    "date_modified": "2024-02-21T16:27:25.000",
    "request_status": "Pending",
    "responsible_agency": "Department of Public Works",
    "final_address": "8358 Lake Forest Blvd",
    "address_councildis": "E",
    "status": "Pending",
    "rowid": "1069526",
    "final_x": "3705141.50225",
    "final_y": "557377.188699",
    "longitude": "-89.99246413392237",
    "latitude": "30.025854307032095",
    "geocoded_column": {
      "latitude": "30.025854307032095",
      "longitude": "-89.99246413392237"
    }
  },
  {
    "service_request": "2024-1069525",
    "request_type": "Traffic Signals/Signs/Striping/Streetlights",
    "request_reason": "Street Name Sign Damaged or Missing",
    "date_created": "2024-02-21T16:27:24.000",
    "date_modified": "2024-02-21T16:27:24.000",
    "request_status": "Pending",
    "responsible_agency": "Department of Public Works",
    "final_address": "4866 Strasbourg Pl",
    "address_councildis": "E",
    "status": "Pending",
    "rowid": "1069525",
    "final_x": "3725703.97017",
    "final_y": "561425.456478",
    "longitude": "-89.92733345899234",
    "latitude": "30.036307732895537",
    "geocoded_column": {
      "latitude": "30.036307732895537",
      "longitude": "-89.92733345899234"
    }
  },
  {
    "service_request": "2024-1069524",
    "request_type": "Trash/Recycling",
    "request_reason": "Illegal Dumping",
    "date_created": "2024-02-21T16:27:17.000",
    "date_modified": "2024-02-21T16:27:18.000",
    "request_status": "Pending",
    "responsible_agency": "Department of Sanitation",
    "final_address": "6888 Farwood Rd",
    "address_councildis": "E",
    "status": "Pending",
    "rowid": "1069524",
    "final_x": "3700605.85597",
    "final_y": "557482.428379",
    "longitude": "-90.00679223088521",
    "latitude": "30.026288836029426",
    "geocoded_column": {
      "latitude": "30.026288836029426",
      "longitude": "-90.00679223088521"
    }
  },
  {
    "service_request": "2024-1069523",
    "request_type": "Parks & Parkways",
    "request_reason": "Request Tree Service (Right of Way/Public Property)",
    "date_created": "2024-02-21T16:25:37.000",
    "date_modified": "2024-02-21T16:25:51.000",
    "request_status": "Pending",
    "responsible_agency": "Department of Parks & Parkway",
    "final_address": "1437 Allen Toussaint Blvd",
    "address_councildis": "D",
    "status": "Pending",
    "rowid": "1069523",
    "final_x": "3678236.10779",
    "final_y": "555444.131097",
    "longitude": "-90.0775485972214",
    "latitude": "30.021377375126377",
    "geocoded_column": {
      "latitude": "30.021377375126377",
      "longitude": "-90.0775485972214"
    }
  },
  {
    "service_request": "2024-1069522",
    "request_type": "Trash/Recycling",
    "request_reason": "Replace Trash Cart",
    "date_created": "2024-02-21T16:23:26.000",
    "date_modified": "2024-02-21T16:23:27.000",
    "request_status": "Pending",
    "responsible_agency": "Department of Sanitation",
    "final_address": "6478 General Diaz St",
    "address_councildis": "A",
    "status": "Assigned to Contractor",
    "contractor": "IV Waste",
    "rowid": "1069522",
    "final_x": "3669720.81114",
    "final_y": "550565.669716",
    "longitude": "-90.10461997207399",
    "latitude": "30.00821718816477",
    "geocoded_column": {
      "latitude": "30.00821718816477",
      "longitude": "-90.10461997207399"
    }
  },
  {
    "service_request": "2024-1069521",
    "request_type": "Abandoned Vehicles",
    "request_reason": "Abandoned/Junk Vehicles",
    "date_created": "2024-02-21T16:21:42.000",
    "date_modified": "2024-02-21T16:21:43.000",
    "request_status": "Pending",
    "responsible_agency": "Department of Public Works",
    "final_address": "WILLOW ST & CAMBRONNE ST",
    "address_councildis": "A",
    "status": "Pending",
    "rowid": "1069521",
    "final_x": "3661641.2",
    "final_y": "529614.58",
    "longitude": "-90.13084073131067",
    "latitude": "29.950844411244358",
    "geocoded_column": {
      "latitude": "29.950844411244358",
      "longitude": "-90.13084073131067"
    }
  },
  {
    "service_request": "2024-1069520",
    "request_type": "Trash/Recycling",
    "request_reason": "Missed Trash Pick-Up",
    "date_created": "2024-02-21T16:21:30.000",
    "date_modified": "2024-02-21T16:21:31.000",
    "request_status": "Pending",
    "responsible_agency": "Department of Sanitation",
    "final_address": "7460 Seven Oaks Rd",
    "address_councildis": "E",
    "status": "Assigned to Contractor",
    "contractor": "Waste Pro",
    "rowid": "1069520",
    "final_x": "3712317.71",
    "final_y": "565527.668194",
    "longitude": "-89.96948195986268",
    "latitude": "30.048032010391946",
    "geocoded_column": {
      "latitude": "30.048032010391946",
      "longitude": "-89.96948195986268"
    }
  },
  {
    "service_request": "2024-1069519",
    "request_type": "Trash/Recycling",
    "request_reason": "Replace Trash Cart",
    "date_created": "2024-02-21T16:15:41.000",
    "date_modified": "2024-02-21T16:15:42.000",
    "request_status": "Pending",
    "responsible_agency": "Department of Sanitation",
    "final_address": "4322 St Ann St",
    "address_councildis": "A",
    "status": "Assigned to Contractor",
    "contractor": "Richards Disposal",
    "rowid": "1069519",
    "final_x": "3671683.51553",
    "final_y": "541139.662924",
    "longitude": "-90.09874003156487",
    "latitude": "29.982240922438876",
    "geocoded_column": {
      "latitude": "29.982240922438876",
      "longitude": "-90.09874003156487"
    }
  },
  {
    "service_request": "2024-1069518",
    "request_type": "Trash/Recycling",
    "request_reason": "Replace Trash Cart",
    "date_created": "2024-02-21T16:14:16.000",
    "date_modified": "2024-02-21T16:14:16.000",
    "request_status": "Pending",
    "responsible_agency": "Department of Sanitation",
    "final_address": "4324 St Ann St",
    "address_councildis": "A",
    "status": "Assigned to Contractor",
    "contractor": "Richards Disposal",
    "rowid": "1069518",
    "final_x": "3671672.80564",
    "final_y": "541145.863308",
    "longitude": "-90.0987736476813",
    "latitude": "29.982258288667808",
    "geocoded_column": {
      "latitude": "29.982258288667808",
      "longitude": "-90.0987736476813"
    }
  },
  {
    "service_request": "2024-1069517",
    "request_type": "Trash/Recycling",
    "request_reason": "Order Recycling Cart",
    "date_created": "2024-02-21T16:11:35.000",
    "date_modified": "2024-02-21T16:11:35.000",
    "request_status": "Pending",
    "responsible_agency": "Department of Sanitation",
    "final_address": "1724 Joliet St",
    "address_councildis": "A",
    "status": "Pending",
    "rowid": "1069517",
    "final_x": "3662214.52979",
    "final_y": "530834.78893",
    "longitude": "-90.12898994237032",
    "latitude": "29.95418303610503",
    "geocoded_column": {
      "latitude": "29.95418303610503",
      "longitude": "-90.12898994237032"
    }
  },
  {
    "service_request": "2024-1069516",
    "request_type": "Trash/Recycling",
    "request_reason": "Return Trash Cart",
    "date_created": "2024-02-21T16:10:08.000",
    "date_modified": "2024-02-21T16:10:08.000",
    "request_status": "Pending",
    "responsible_agency": "Department of Sanitation",
    "final_address": "2517 Milan St",
    "address_councildis": "B",
    "status": "Assigned to Contractor",
    "contractor": "Richards Disposal",
    "rowid": "1069516",
    "final_x": "3671315.79687",
    "final_y": "524271.9559",
    "longitude": "-90.10047469298708",
    "latitude": "29.93587121916349",
    "geocoded_column": {
      "latitude": "29.93587121916349",
      "longitude": "-90.10047469298708"
    }
  },
  {
    "service_request": "2024-1069515",
    "request_type": "Trash/Recycling",
    "request_reason": "Order Recycling Cart",
    "date_created": "2024-02-21T16:10:01.000",
    "date_modified": "2024-02-21T16:10:02.000",
    "request_status": "Pending",
    "responsible_agency": "Department of Sanitation",
    "final_address": "4435 America St",
    "address_councildis": "E",
    "status": "Pending",
    "rowid": "1069515",
    "final_x": "3699918.80356",
    "final_y": "553412.796439",
    "longitude": "-90.00911183572897",
    "latitude": "30.015120754086926",
    "geocoded_column": {
      "latitude": "30.015120754086926",
      "longitude": "-90.00911183572897"
    }
  },
  {
    "service_request": "2024-1069514",
    "request_type": "Health Related Request",
    "request_reason": "Noise Ordinance Complaint",
    "date_created": "2024-02-21T16:06:42.000",
    "date_modified": "2024-02-21T16:10:20.000",
    "case_close_date": "2024-02-21T10:10:20.000",
    "request_status": "Closed",
    "responsible_agency": "Health Department",
    "final_address": "5900 BLK Old Gentilly Rd",
    "address_councildis": "E",
    "status": "Not Enough Information- Resubmittal Required",
    "rowid": "1069514",
    "final_x": "3696912.76231",
    "final_y": "550606.131843",
    "longitude": "-90.01871119346123",
    "latitude": "30.007498658900396",
    "geocoded_column": {
      "latitude": "30.007498658900396",
      "longitude": "-90.01871119346123"
    }
  },
  {
    "service_request": "2024-1069513",
    "request_type": "Trash/Recycling",
    "request_reason": "Request a Large Item Pick Up",
    "date_created": "2024-02-21T15:57:54.000",
    "date_modified": "2024-02-21T15:57:55.000",
    "request_status": "Pending",
    "responsible_agency": "Department of Sanitation",
    "final_address": "1301 Tricou St",
    "address_councildis": "E",
    "status": "Assigned to Contractor",
    "contractor": "Waste Pro",
    "rowid": "1069513",
    "final_x": "3700462.81815",
    "final_y": "533759.153861",
    "longitude": "-90.00811119040415",
    "latitude": "29.9610631785728",
    "geocoded_column": {
      "latitude": "29.9610631785728",
      "longitude": "-90.00811119040415"
    }
  },
  {
    "service_request": "2024-1069512",
    "request_type": "Trash/Recycling",
    "request_reason": "Repair Trash Cart",
    "date_created": "2024-02-21T15:57:04.000",
    "date_modified": "2024-02-21T15:57:04.000",
    "request_status": "Pending",
    "responsible_agency": "Department of Sanitation",
    "final_address": "5427 Bancroft Dr",
    "address_councildis": "D",
    "status": "Assigned to Contractor",
    "contractor": "IV Waste",
    "rowid": "1069512",
    "final_x": "3676656.2404",
    "final_y": "552302.630038",
    "longitude": "-90.08264889432814",
    "latitude": "30.012786893110963",
    "geocoded_column": {
      "latitude": "30.012786893110963",
      "longitude": "-90.08264889432814"
    }
  },
  {
    "service_request": "2024-1069511",
    "request_type": "Trash/Recycling",
    "request_reason": "Missed Trash Pick-Up",
    "date_created": "2024-02-21T15:54:17.000",
    "date_modified": "2024-02-21T15:54:18.000",
    "request_status": "Pending",
    "responsible_agency": "Department of Sanitation",
    "final_address": "1736 Audubon St",
    "address_councildis": "A",
    "status": "Assigned to Contractor",
    "contractor": "Richards Disposal",
    "rowid": "1069511",
    "final_x": "3665545.64551",
    "final_y": "528080.468031",
    "longitude": "-90.11856377627734",
    "latitude": "29.946512854554822",
    "geocoded_column": {
      "latitude": "29.946512854554822",
      "longitude": "-90.11856377627734"
    }
  },
  {
    "service_request": "2024-1069510",
    "request_type": "Trash/Recycling",
    "request_reason": "Replace Recycling Cart",
    "date_created": "2024-02-21T15:49:46.000",
    "date_modified": "2024-02-21T15:49:46.000",
    "request_status": "Pending",
    "responsible_agency": "Department of Sanitation",
    "final_address": "1905 Marengo St",
    "address_councildis": "B",
    "status": "Pending",
    "rowid": "1069510",
    "final_x": "3671906.59515",
    "final_y": "522131.439226",
    "longitude": "-90.0986823416669",
    "latitude": "29.929967997156798",
    "geocoded_column": {
      "latitude": "29.929967997156798",
      "longitude": "-90.0986823416669"
    }
  },
  {
    "service_request": "2024-1069509",
    "request_type": "Trash/Recycling",
    "request_reason": "Repair Trash Cart",
    "date_created": "2024-02-21T15:41:44.000",
    "date_modified": "2024-02-21T15:41:44.000",
    "request_status": "Pending",
    "responsible_agency": "Department of Sanitation",
    "final_address": "1325 Congress St",
    "address_councildis": "D",
    "status": "Assigned to Contractor",
    "contractor": "IV Waste",
    "rowid": "1069509",
    "final_x": "3690988.71516",
    "final_y": "536512.150023",
    "longitude": "-90.03793027517692",
    "latitude": "29.968930838690373",
    "geocoded_column": {
      "latitude": "29.968930838690373",
      "longitude": "-90.03793027517692"
    }
  },
  {
    "service_request": "2024-1069508",
    "request_type": "Trash/Recycling",
    "request_reason": "Return Recycling Cart",
    "date_created": "2024-02-21T15:37:53.000",
    "date_modified": "2024-02-21T15:37:53.000",
    "request_status": "Pending",
    "responsible_agency": "Department of Sanitation",
    "final_address": "929 Touro St, New Orleans, Louisiana, 70116",
    "address_councildis": "D",
    "status": "Pending",
    "rowid": "1069508",
    "final_x": "3684012.98153",
    "final_y": "539444.32929",
    "longitude": "-90.05985714864445",
    "latitude": "29.97720831187814",
    "geocoded_column": {
      "latitude": "29.97720831187814",
      "longitude": "-90.05985714864445"
    }
  },
  {
    "service_request": "2024-1069507",
    "request_type": "Trash/Recycling",
    "request_reason": "Replace Recycling Cart",
    "date_created": "2024-02-21T15:36:29.000",
    "date_modified": "2024-02-21T15:36:29.000",
    "request_status": "Pending",
    "responsible_agency": "Department of Sanitation",
    "final_address": "929 Touro St, New Orleans, Louisiana, 70116",
    "address_councildis": "D",
    "status": "Pending",
    "rowid": "1069507",
    "final_x": "3684012.98153",
    "final_y": "539444.32929",
    "longitude": "-90.05985714864445",
    "latitude": "29.97720831187814",
    "geocoded_column": {
      "latitude": "29.97720831187814",
      "longitude": "-90.05985714864445"
    }
  },
  {
    "service_request": "2024-1069506",
    "request_type": "Abandoned Vehicles",
    "request_reason": "Abandoned/Junk Vehicles",
    "date_created": "2024-02-21T15:35:34.000",
    "date_modified": "2024-02-21T15:37:46.000",
    "request_status": "Pending",
    "responsible_agency": "Department of Public Works",
    "final_address": "1441 Washington Ave",
    "address_councildis": "B",
    "status": "Pending",
    "rowid": "1069506",
    "final_x": "3676306.50171",
    "final_y": "522042.792058",
    "longitude": "-90.0847956112331",
    "latitude": "29.929593152901568",
    "geocoded_column": {
      "latitude": "29.929593152901568",
      "longitude": "-90.0847956112331"
    }
  },
  {
    "service_request": "2024-1069505",
    "request_type": "Trash/Recycling",
    "request_reason": "Request a Large Item Pick Up",
    "date_created": "2024-02-21T15:30:46.000",
    "date_modified": "2024-02-21T15:30:47.000",
    "request_status": "Pending",
    "responsible_agency": "Department of Sanitation",
    "final_address": "3741 Rue Delphine",
    "address_councildis": "C",
    "status": "Assigned to Contractor",
    "contractor": "Richards Disposal",
    "rowid": "1069505",
    "final_x": "3702961.81335",
    "final_y": "516744.936053",
    "longitude": "-90.00084467550288",
    "latitude": "29.91420034179204",
    "geocoded_column": {
      "latitude": "29.91420034179204",
      "longitude": "-90.00084467550288"
    }
  },
  {
    "service_request": "2024-1069504",
    "request_type": "Trash/Recycling",
    "request_reason": "Replace Trash Cart",
    "date_created": "2024-02-21T15:30:26.000",
    "date_modified": "2024-02-21T15:30:27.000",
    "request_status": "Pending",
    "responsible_agency": "Department of Sanitation",
    "final_address": "1128 Clouet St",
    "address_councildis": "C",
    "status": "Assigned to Contractor",
    "contractor": "IV Waste",
    "rowid": "1069504",
    "final_x": "3689049.51068",
    "final_y": "536311.062343",
    "longitude": "-90.04406153602659",
    "latitude": "29.968438056865253",
    "geocoded_column": {
      "latitude": "29.968438056865253",
      "longitude": "-90.04406153602659"
    }
  },
  {
    "service_request": "2024-1069501",
    "request_type": "Trash/Recycling",
    "request_reason": "Request a Large Item Pick Up",
    "date_created": "2024-02-21T15:22:52.000",
    "date_modified": "2024-02-21T15:22:53.000",
    "request_status": "Pending",
    "responsible_agency": "Department of Sanitation",
    "final_address": "4668 Bundy Rd",
    "address_councildis": "E",
    "status": "Assigned to Contractor",
    "contractor": "Waste Pro",
    "rowid": "1069501",
    "final_x": "3709330.23973",
    "final_y": "555325.729753",
    "longitude": "-89.97930500378752",
    "latitude": "30.020078153759254",
    "geocoded_column": {
      "latitude": "30.020078153759254",
      "longitude": "-89.97930500378752"
    }
  },
  {
    "service_request": "2024-1069500",
    "request_type": "Trash/Recycling",
    "request_reason": "Order Trash Cart",
    "date_created": "2024-02-21T15:21:16.000",
    "date_modified": "2024-02-21T15:21:17.000",
    "request_status": "Pending",
    "responsible_agency": "Department of Sanitation",
    "final_address": "4668 Bundy Rd",
    "address_councildis": "E",
    "status": "Assigned to Contractor",
    "contractor": "Waste Pro",
    "rowid": "1069500",
    "final_x": "3709330.23973",
    "final_y": "555325.729753",
    "longitude": "-89.97930500378752",
    "latitude": "30.020078153759254",
    "geocoded_column": {
      "latitude": "30.020078153759254",
      "longitude": "-89.97930500378752"
    }
  },
  {
    "service_request": "2024-1069499",
    "request_type": "Roads/Drainage",
    "request_reason": "Catch Basin - Clogged",
    "date_created": "2024-02-21T15:19:32.000",
    "date_modified": "2024-02-21T15:19:32.000",
    "request_status": "Pending",
    "responsible_agency": "Department of Public Works",
    "final_address": "FAIRMONT DR & MONTEREY ST",
    "address_councildis": "D",
    "status": "Pending",
    "rowid": "1069499",
    "final_x": "3684703.7",
    "final_y": "547173.88",
    "longitude": "-90.0574037973419",
    "latitude": "29.998440709303342",
    "geocoded_column": {
      "latitude": "29.998440709303342",
      "longitude": "-90.0574037973419"
    }
  },
  {
    "service_request": "2024-1069498",
    "request_type": "Roads/Drainage",
    "request_reason": "Pothole",
    "date_created": "2024-02-21T15:18:54.000",
    "date_modified": "2024-02-21T15:18:54.000",
    "request_status": "Pending",
    "responsible_agency": "Department of Public Works",
    "final_address": "1301 Constantinople St",
    "address_councildis": "B",
    "status": "Pending",
    "rowid": "1069498",
    "final_x": "3672430.66305",
    "final_y": "520250.7726",
    "longitude": "-90.09709199725775",
    "latitude": "29.924781230435865",
    "geocoded_column": {
      "latitude": "29.924781230435865",
      "longitude": "-90.09709199725775"
    }
  },
  {
    "service_request": "2024-1069497",
    "request_type": "Trash/Recycling",
    "request_reason": "Repair Trash Cart",
    "date_created": "2024-02-21T15:17:37.000",
    "date_modified": "2024-02-21T15:17:38.000",
    "request_status": "Pending",
    "responsible_agency": "Department of Sanitation",
    "final_address": "719 Henry Clay Ave",
    "address_councildis": "A",
    "status": "Assigned to Contractor",
    "contractor": "Richards Disposal",
    "rowid": "1069497",
    "final_x": "3663762.13101",
    "final_y": "519361.563831",
    "longitude": "-90.12448541662881",
    "latitude": "29.92259050016629",
    "geocoded_column": {
      "latitude": "29.92259050016629",
      "longitude": "-90.12448541662881"
    }
  },
  {
    "service_request": "2024-1069496",
    "request_type": "Trash/Recycling",
    "request_reason": "Repair Recycling Cart",
    "date_created": "2024-02-21T15:17:24.000",
    "date_modified": "2024-02-21T15:17:24.000",
    "request_status": "Pending",
    "responsible_agency": "Department of Sanitation",
    "final_address": "719 Henry Clay Ave",
    "address_councildis": "A",
    "status": "Pending",
    "rowid": "1069496",
    "final_x": "3663762.13101",
    "final_y": "519361.563831",
    "longitude": "-90.12448541662881",
    "latitude": "29.92259050016629",
    "geocoded_column": {
      "latitude": "29.92259050016629",
      "longitude": "-90.12448541662881"
    }
  },
  {
    "service_request": "2024-1069495",
    "request_type": "Trash/Recycling",
    "request_reason": "Request a Large Item Pick Up",
    "date_created": "2024-02-21T15:14:59.000",
    "date_modified": "2024-02-21T15:15:00.000",
    "request_status": "Pending",
    "responsible_agency": "Department of Sanitation",
    "final_address": "2442 Alabo St",
    "address_councildis": "E",
    "status": "Assigned to Contractor",
    "contractor": "Waste Pro",
    "rowid": "1069495",
    "final_x": "3700274.23101",
    "final_y": "538754.321993",
    "longitude": "-90.00852433508152",
    "latitude": "29.97480408859937",
    "geocoded_column": {
      "latitude": "29.97480408859937",
      "longitude": "-90.00852433508152"
    }
  },
  {
    "service_request": "2024-1069494",
    "request_type": "Trash/Recycling",
    "request_reason": "Repair Trash Cart",
    "date_created": "2024-02-21T15:11:59.000",
    "date_modified": "2024-02-21T15:12:00.000",
    "request_status": "Pending",
    "responsible_agency": "Department of Sanitation",
    "final_address": "9401 Palm St",
    "address_councildis": "A",
    "status": "Assigned to Contractor",
    "contractor": "Richards Disposal",
    "rowid": "1069494",
    "final_x": "3664341.64743",
    "final_y": "537836.441545",
    "longitude": "-90.12203961639844",
    "latitude": "29.973373636292504",
    "geocoded_column": {
      "latitude": "29.973373636292504",
      "longitude": "-90.12203961639844"
    }
  },
  {
    "service_request": "2024-1069493",
    "request_type": "Trash/Recycling",
    "request_reason": "Replace Trash Cart",
    "date_created": "2024-02-21T15:08:56.000",
    "date_modified": "2024-02-21T15:08:57.000",
    "request_status": "Pending",
    "responsible_agency": "Department of Sanitation",
    "final_address": "4602 Rosemont Pl",
    "address_councildis": "E",
    "status": "Assigned to Contractor",
    "contractor": "Waste Pro",
    "rowid": "1069493",
    "final_x": "3702712.61604",
    "final_y": "554094.696856",
    "longitude": "-90.00025970745185",
    "latitude": "30.016906645215958",
    "geocoded_column": {
      "latitude": "30.016906645215958",
      "longitude": "-90.00025970745185"
    }
  },
  {
    "service_request": "2024-1069492",
    "request_type": "Abandoned Vehicles",
    "request_reason": "Abandoned/Junk Vehicles",
    "date_created": "2024-02-21T15:05:22.000",
    "date_modified": "2024-02-21T15:05:22.000",
    "request_status": "Pending",
    "responsible_agency": "Department of Public Works",
    "final_address": "10400 BLK Prentiss Ave",
    "address_councildis": "E",
    "status": "Pending",
    "rowid": "1069492",
    "final_x": "3714051.17521",
    "final_y": "556105.908901",
    "longitude": "-89.96435904905454",
    "latitude": "30.022069100845634",
    "geocoded_column": {
      "latitude": "30.022069100845634",
      "longitude": "-89.96435904905454"
    }
  },
  {
    "service_request": "2024-1069491",
    "request_type": "Roads/Drainage",
    "request_reason": "Pothole",
    "date_created": "2024-02-21T15:04:32.000",
    "date_modified": "2024-02-21T15:04:32.000",
    "request_status": "Pending",
    "responsible_agency": "Department of Public Works",
    "final_address": "1312 Milan St",
    "address_councildis": "B",
    "status": "Pending",
    "rowid": "1069491",
    "final_x": "3671625.82823",
    "final_y": "520286.919608",
    "longitude": "-90.09963137110304",
    "latitude": "29.92490447494246",
    "geocoded_column": {
      "latitude": "29.92490447494246",
      "longitude": "-90.09963137110304"
    }
  },
  {
    "service_request": "2024-1069490",
    "request_type": "Trash/Recycling",
    "request_reason": "Order Trash Cart",
    "date_created": "2024-02-21T14:58:21.000",
    "date_modified": "2024-02-21T14:58:22.000",
    "request_status": "Pending",
    "responsible_agency": "Department of Sanitation",
    "final_address": "4499 Wilson Ave",
    "address_councildis": "E",
    "status": "Assigned to Contractor",
    "contractor": "Waste Pro",
    "rowid": "1069490",
    "final_x": "3703242.54935",
    "final_y": "553534.967831",
    "longitude": "-89.99860595146069",
    "latitude": "30.0153506417051",
    "geocoded_column": {
      "latitude": "30.0153506417051",
      "longitude": "-89.99860595146069"
    }
  },
  {
    "service_request": "2024-1069489",
    "request_type": "Trash/Recycling",
    "request_reason": "Request a Large Item Pick Up",
    "date_created": "2024-02-21T14:56:13.000",
    "date_modified": "2024-02-21T14:56:14.000",
    "request_status": "Pending",
    "responsible_agency": "Department of Sanitation",
    "final_address": "5605 N Villere St",
    "address_councildis": "E",
    "status": "Assigned to Contractor",
    "contractor": "Waste Pro",
    "rowid": "1069489",
    "final_x": "3698430.08848",
    "final_y": "534905.444358",
    "longitude": "-90.01448847559048",
    "latitude": "29.964279555547773",
    "geocoded_column": {
      "latitude": "29.964279555547773",
      "longitude": "-90.01448847559048"
    }
  },
  {
    "service_request": "2024-1069488",
    "request_type": "Trash/Recycling",
    "request_reason": "Request a Large Item Pick Up",
    "date_created": "2024-02-21T14:54:55.000",
    "date_modified": "2024-02-21T14:54:56.000",
    "request_status": "Pending",
    "responsible_agency": "Department of Sanitation",
    "final_address": "1328 Fats Domino Ave",
    "address_councildis": "E",
    "status": "Assigned to Contractor",
    "contractor": "Waste Pro",
    "rowid": "1069488",
    "final_x": "3698226.99082",
    "final_y": "534745.880262",
    "longitude": "-90.01513563438107",
    "latitude": "29.96384723729003",
    "geocoded_column": {
      "latitude": "29.96384723729003",
      "longitude": "-90.01513563438107"
    }
  },
  {
    "service_request": "2024-1069487",
    "request_type": "Trash/Recycling",
    "request_reason": "Repair Trash Cart",
    "date_created": "2024-02-21T14:54:38.000",
    "date_modified": "2024-02-21T14:54:39.000",
    "request_status": "Pending",
    "responsible_agency": "Department of Sanitation",
    "final_address": "2425 DAbadie St",
    "address_councildis": "D",
    "status": "Assigned to Contractor",
    "contractor": "IV Waste",
    "rowid": "1069487",
    "final_x": "3680224.95618",
    "final_y": "540254.978699",
    "longitude": "-90.07179277972477",
    "latitude": "29.979552532408672",
    "geocoded_column": {
      "latitude": "29.979552532408672",
      "longitude": "-90.07179277972477"
    }
  },
  {
    "service_request": "2024-1069486",
    "request_type": "Trash/Recycling",
    "request_reason": "Repair Trash Cart",
    "date_created": "2024-02-21T14:53:52.000",
    "date_modified": "2024-02-21T14:57:20.000",
    "request_status": "Pending",
    "responsible_agency": "Department of Sanitation",
    "final_address": "2425 DAbadie St",
    "address_councildis": "D",
    "status": "Assigned to Contractor",
    "contractor": "IV Waste",
    "rowid": "1069486",
    "final_x": "3680224.95618",
    "final_y": "540254.978699",
    "longitude": "-90.07179277972477",
    "latitude": "29.979552532408672",
    "geocoded_column": {
      "latitude": "29.979552532408672",
      "longitude": "-90.07179277972477"
    }
  },
  {
    "service_request": "2024-1069485",
    "request_type": "Trash/Recycling",
    "request_reason": "Order Recycling Cart",
    "date_created": "2024-02-21T14:50:26.000",
    "date_modified": "2024-02-21T14:50:27.000",
    "request_status": "Pending",
    "responsible_agency": "Department of Sanitation",
    "final_address": "4711 Bundy Rd",
    "address_councildis": "E",
    "status": "Pending",
    "rowid": "1069485",
    "final_x": "3709484.72728",
    "final_y": "555598.769881",
    "longitude": "-89.97880667808353",
    "latitude": "30.02082388709488",
    "geocoded_column": {
      "latitude": "30.02082388709488",
      "longitude": "-89.97880667808353"
    }
  },
  {
    "service_request": "2024-1069484",
    "request_type": "Trash/Recycling",
    "request_reason": "Request a Large Item Pick Up",
    "date_created": "2024-02-21T14:50:09.000",
    "date_modified": "2024-02-21T14:50:09.000",
    "request_status": "Pending",
    "responsible_agency": "Department of Sanitation",
    "final_address": "4237 S Roman St, New Orleans, Louisiana, 70125",
    "address_councildis": "B",
    "status": "Assigned to Contractor",
    "contractor": "Richards Disposal",
    "rowid": "1069484",
    "final_x": "3670722.02919",
    "final_y": "526670.834814",
    "longitude": "-90.10226786764393",
    "latitude": "29.94248491202186",
    "geocoded_column": {
      "latitude": "29.94248491202186",
      "longitude": "-90.10226786764393"
    }
  },
  {
    "service_request": "2024-1069483",
    "request_type": "Trash/Recycling",
    "request_reason": "Repair Recycling Cart",
    "date_created": "2024-02-21T14:47:41.000",
    "date_modified": "2024-02-21T14:47:42.000",
    "request_status": "Pending",
    "responsible_agency": "Department of Sanitation",
    "final_address": "4538 Orleans Ave",
    "address_councildis": "A",
    "status": "Pending",
    "rowid": "1069483",
    "final_x": "3670815.99182",
    "final_y": "541405.347276",
    "longitude": "-90.10147107867452",
    "latitude": "29.982997136842346",
    "geocoded_column": {
      "latitude": "29.982997136842346",
      "longitude": "-90.10147107867452"
    }
  },
  {
    "service_request": "2024-1069482",
    "request_type": "Trash/Recycling",
    "request_reason": "Replace Trash Cart",
    "date_created": "2024-02-21T14:47:15.000",
    "date_modified": "2024-02-21T14:47:58.000",
    "request_status": "Pending",
    "responsible_agency": "Department of Sanitation",
    "final_address": "6651 Dwyer Rd",
    "address_councildis": "E",
    "status": "Assigned to Contractor",
    "contractor": "Waste Pro",
    "rowid": "1069482",
    "final_x": "3699346.07914",
    "final_y": "555601.539353",
    "longitude": "-90.0108415479688",
    "latitude": "30.021157152269016",
    "geocoded_column": {
      "latitude": "30.021157152269016",
      "longitude": "-90.0108415479688"
    }
  },
  {
    "service_request": "2024-1069481",
    "request_type": "Roads/Drainage",
    "request_reason": "Pothole",
    "date_created": "2024-02-21T14:47:08.000",
    "date_modified": "2024-02-21T14:47:08.000",
    "request_status": "Pending",
    "responsible_agency": "Department of Public Works",
    "final_address": "1452 St Mary St",
    "address_councildis": "B",
    "status": "Pending",
    "rowid": "1069481",
    "final_x": "3678754.61442",
    "final_y": "523861.098363",
    "longitude": "-90.07700442219053",
    "latitude": "29.93451932349338",
    "geocoded_column": {
      "latitude": "29.93451932349338",
      "longitude": "-90.07700442219053"
    }
  },
  {
    "service_request": "2024-1069480",
    "request_type": "Trash/Recycling",
    "request_reason": "Request a Large Item Pick Up",
    "date_created": "2024-02-21T14:44:53.000",
    "date_modified": "2024-02-21T14:44:54.000",
    "request_status": "Pending",
    "responsible_agency": "Department of Sanitation",
    "final_address": "5348 Camp St",
    "address_councildis": "B",
    "status": "Assigned to Contractor",
    "contractor": "Richards Disposal",
    "rowid": "1069480",
    "final_x": "3667096.28666",
    "final_y": "519055.230455",
    "longitude": "-90.1139710761393",
    "latitude": "29.921651039027743",
    "geocoded_column": {
      "latitude": "29.921651039027743",
      "longitude": "-90.1139710761393"
    }
  },
  {
    "service_request": "2024-1069479",
    "request_type": "Abandoned Vehicles",
    "request_reason": "Abandoned/Junk Vehicles",
    "date_created": "2024-02-21T14:44:50.000",
    "date_modified": "2024-02-21T14:44:50.000",
    "request_status": "Pending",
    "responsible_agency": "Department of Public Works",
    "final_address": "641 Congress St",
    "address_councildis": "C",
    "status": "Pending",
    "rowid": "1069479",
    "final_x": "3690367.64873",
    "final_y": "534041.364741",
    "longitude": "-90.03997971087044",
    "latitude": "29.96215633672514",
    "geocoded_column": {
      "latitude": "29.96215633672514",
      "longitude": "-90.03997971087044"
    }
  },
  {
    "service_request": "2024-1069478",
    "request_type": "Trash/Recycling",
    "request_reason": "Request a Large Item Pick Up",
    "date_created": "2024-02-21T14:42:39.000",
    "date_modified": "2024-02-21T14:42:40.000",
    "request_status": "Pending",
    "responsible_agency": "Department of Sanitation",
    "final_address": "0 BLK Belleville Ct",
    "address_councildis": "C",
    "status": "Assigned to Contractor",
    "contractor": "Richards Disposal",
    "rowid": "1069478",
    "final_x": "3687657.76408",
    "final_y": "526987.448437",
    "longitude": "-90.04878681649089",
    "latitude": "29.942844314399935",
    "geocoded_column": {
      "latitude": "29.942844314399935",
      "longitude": "-90.04878681649089"
    }
  },
  {
    "service_request": "2024-1069477",
    "request_type": "Trash/Recycling",
    "request_reason": "Replace Trash Cart",
    "date_created": "2024-02-21T14:39:51.000",
    "date_modified": "2024-02-21T14:39:51.000",
    "request_status": "Pending",
    "responsible_agency": "Department of Sanitation",
    "final_address": "2124 Oretha Castle Haley Blvd",
    "address_councildis": "B",
    "status": "Assigned to Contractor",
    "contractor": "Richards Disposal",
    "rowid": "1069477",
    "final_x": "3676975.24027",
    "final_y": "524801.133564",
    "longitude": "-90.08258947438017",
    "latitude": "29.93715763682127",
    "geocoded_column": {
      "latitude": "29.93715763682127",
      "longitude": "-90.08258947438017"
    }
  },
  {
    "service_request": "2024-1069476",
    "request_type": "Trash/Recycling",
    "request_reason": "Request a Large Item Pick Up",
    "date_created": "2024-02-21T14:37:00.000",
    "date_modified": "2024-02-21T14:37:01.000",
    "request_status": "Pending",
    "responsible_agency": "Department of Sanitation",
    "final_address": "6379 General Haig St",
    "address_councildis": "A",
    "status": "Assigned to Contractor",
    "contractor": "IV Waste",
    "rowid": "1069476",
    "final_x": "3670834.57479",
    "final_y": "549805.872212",
    "longitude": "-90.1011270534231",
    "latitude": "30.00609512537852",
    "geocoded_column": {
      "latitude": "30.00609512537852",
      "longitude": "-90.1011270534231"
    }
  },
  {
    "service_request": "2024-1069474",
    "request_type": "Tax and Revenue",
    "request_reason": "Personal Property Tax Question",
    "date_created": "2024-02-21T14:31:51.000",
    "date_modified": "2024-02-21T14:31:52.000",
    "request_status": "Pending",
    "responsible_agency": "Bureau of Treasury",
    "final_address": "2100 St Charles Ave Unit 12H",
    "address_councildis": "B",
    "status": "Pending",
    "rowid": "1069474",
    "final_x": "3677931.93576",
    "final_y": "523764.915451",
    "longitude": "-90.07960492261849",
    "latitude": "29.93427962861416",
    "geocoded_column": {
      "latitude": "29.93427962861416",
      "longitude": "-90.07960492261849"
    }
  },
  {
    "service_request": "2024-1069473",
    "request_type": "Trash/Recycling",
    "request_reason": "Illegal Dumping",
    "date_created": "2024-02-21T14:31:49.000",
    "date_modified": "2024-02-21T14:31:49.000",
    "request_status": "Pending",
    "responsible_agency": "Department of Sanitation",
    "final_address": "FLORIDA AVE & EGANIA ST",
    "address_councildis": "E",
    "status": "Pending",
    "rowid": "1069473",
    "final_x": "3698485.2",
    "final_y": "540062.48",
    "longitude": "-90.01412694441441",
    "latitude": "29.97845780379306",
    "geocoded_column": {
      "latitude": "29.97845780379306",
      "longitude": "-90.01412694441441"
    }
  },
  {
    "service_request": "2024-1069472",
    "request_type": "Traffic Signals/Signs/Striping/Streetlights",
    "request_reason": "Street Light Outage/Malfunction",
    "date_created": "2024-02-21T14:21:09.000",
    "date_modified": "2024-02-21T14:21:09.000",
    "request_status": "Pending",
    "responsible_agency": "Department of Public Works",
    "final_address": "17 S Oak Ridge Ct",
    "address_councildis": "E",
    "status": "Assigned to Contractor",
    "contractor": "Legacy Professional Services",
    "rowid": "1069472",
    "final_x": "3713610.75691",
    "final_y": "567642.495332",
    "longitude": "-89.9653154376695",
    "latitude": "30.05380454151084",
    "geocoded_column": {
      "latitude": "30.05380454151084",
      "longitude": "-89.9653154376695"
    }
  },
  {
    "service_request": "2024-1069471",
    "request_type": "Trash/Recycling",
    "request_reason": "Missed Trash Pick-Up",
    "date_created": "2024-02-21T14:14:55.000",
    "date_modified": "2024-02-21T14:14:56.000",
    "request_status": "Pending",
    "responsible_agency": "Department of Sanitation",
    "final_address": "7710 Panola St",
    "address_councildis": "A",
    "status": "Assigned to Contractor",
    "contractor": "Richards Disposal",
    "rowid": "1069471",
    "final_x": "3665084.45536",
    "final_y": "529750.342657",
    "longitude": "-90.11996409254937",
    "latitude": "29.951117906255288",
    "geocoded_column": {
      "latitude": "29.951117906255288",
      "longitude": "-90.11996409254937"
    }
  },
  {
    "service_request": "2024-1069470",
    "request_type": "Traffic Signals/Signs/Striping/Streetlights",
    "request_reason": "Street Light Outage/Malfunction",
    "date_created": "2024-02-21T14:13:30.000",
    "date_modified": "2024-02-21T14:13:31.000",
    "request_status": "Pending",
    "responsible_agency": "Department of Public Works",
    "final_address": "2422 Clouet St",
    "address_councildis": "D",
    "status": "Assigned to Contractor",
    "contractor": "Legacy Professional Services",
    "rowid": "1069470",
    "final_x": "3690241.80438",
    "final_y": "541086.211596",
    "longitude": "-90.04012603034482",
    "latitude": "29.9815310848191",
    "geocoded_column": {
      "latitude": "29.9815310848191",
      "longitude": "-90.04012603034482"
    }
  },
  {
    "service_request": "2024-1069469",
    "request_type": "Trash/Recycling",
    "request_reason": "Missed Trash Pick-Up",
    "date_created": "2024-02-21T14:13:13.000",
    "date_modified": "2024-02-21T14:13:13.000",
    "request_status": "Pending",
    "responsible_agency": "Department of Sanitation",
    "final_address": "8160 Old Gentilly Rd",
    "address_councildis": "E",
    "status": "Assigned to Contractor",
    "contractor": "Waste Pro",
    "rowid": "1069469",
    "final_x": "3706882.46622",
    "final_y": "552471.206422",
    "longitude": "-89.98714509312181",
    "latitude": "30.012308622138285",
    "geocoded_column": {
      "latitude": "30.012308622138285",
      "longitude": "-89.98714509312181"
    }
  },
  {
    "service_request": "2024-1069468",
    "request_type": "Trash/Recycling",
    "request_reason": "Request a Large Item Pick Up",
    "date_created": "2024-02-21T14:11:20.000",
    "date_modified": "2024-02-21T14:11:20.000",
    "request_status": "Pending",
    "responsible_agency": "Department of Sanitation",
    "final_address": "410 Nashville Ave Unit D",
    "address_councildis": "A",
    "status": "Assigned to Contractor",
    "contractor": "Richards Disposal",
    "rowid": "1069468",
    "final_x": "3665187.73901",
    "final_y": "517814.38815",
    "longitude": "-90.1200370382654",
    "latitude": "29.918294818866187",
    "geocoded_column": {
      "latitude": "29.918294818866187",
      "longitude": "-90.1200370382654"
    }
  },
  {
    "service_request": "2024-1069466",
    "request_type": "Trash/Recycling",
    "request_reason": "Missed Trash Pick-Up",
    "date_created": "2024-02-21T14:04:54.000",
    "date_modified": "2024-02-21T14:04:55.000",
    "request_status": "Pending",
    "responsible_agency": "Department of Sanitation",
    "final_address": "6904 Downman Rd",
    "address_councildis": "D",
    "status": "Assigned to Contractor",
    "contractor": "Waste Pro",
    "rowid": "1069466",
    "final_x": "3695234.95626",
    "final_y": "556270.036634",
    "longitude": "-90.02380733618763",
    "latitude": "30.023125094101015",
    "geocoded_column": {
      "latitude": "30.023125094101015",
      "longitude": "-90.02380733618763"
    }
  },
  {
    "service_request": "2024-1069465",
    "request_type": "Trash/Recycling",
    "request_reason": "Replace Trash Cart",
    "date_created": "2024-02-21T13:59:00.000",
    "date_modified": "2024-02-21T13:59:00.000",
    "request_status": "Pending",
    "responsible_agency": "Department of Sanitation",
    "final_address": "1913 Foucher St",
    "address_councildis": "B",
    "status": "Assigned to Contractor",
    "contractor": "Richards Disposal",
    "rowid": "1069465",
    "final_x": "3673131.8996",
    "final_y": "522444.196794",
    "longitude": "-90.09480358194702",
    "latitude": "29.930791619414187",
    "geocoded_column": {
      "latitude": "29.930791619414187",
      "longitude": "-90.09480358194702"
    }
  },
  {
    "service_request": "2024-1069464",
    "request_type": "Trash/Recycling",
    "request_reason": "Request a Large Item Pick Up",
    "date_created": "2024-02-21T13:54:53.000",
    "date_modified": "2024-02-21T13:54:53.000",
    "request_status": "Pending",
    "responsible_agency": "Department of Sanitation",
    "final_address": "1008 Lamanche St",
    "address_councildis": "E",
    "status": "Assigned to Contractor",
    "contractor": "Waste Pro",
    "rowid": "1069464",
    "final_x": "3698220.54576",
    "final_y": "533344.11546",
    "longitude": "-90.01520690922585",
    "latitude": "29.959993086769913",
    "geocoded_column": {
      "latitude": "29.959993086769913",
      "longitude": "-90.01520690922585"
    }
  },
  {
    "service_request": "2024-1069463",
    "request_type": "Property Maintenance",
    "request_reason": "Property Maintenance",
    "date_created": "2024-02-21T13:51:45.000",
    "date_modified": "2024-02-21T14:41:36.000",
    "case_close_date": "2024-02-21T08:41:36.000",
    "request_status": "Closed",
    "responsible_agency": "Department of Code Enforcement",
    "final_address": "3526 N Claiborne Ave",
    "address_councildis": "D",
    "status": "Resolved",
    "rowid": "1069463",
    "final_x": "3691133.57878",
    "final_y": "537415.100232",
    "longitude": "-90.03744053815113",
    "latitude": "29.971409129100284",
    "geocoded_column": {
      "latitude": "29.971409129100284",
      "longitude": "-90.03744053815113"
    }
  },
  {
    "service_request": "2024-1069462",
    "request_type": "Trash/Recycling",
    "request_reason": "Order Trash Cart",
    "date_created": "2024-02-21T13:50:33.000",
    "date_modified": "2024-02-21T13:50:33.000",
    "request_status": "Pending",
    "responsible_agency": "Department of Sanitation",
    "final_address": "1833 E Homestead Dr",
    "address_councildis": "C",
    "status": "Assigned to Contractor",
    "contractor": "Richards Disposal",
    "rowid": "1069462",
    "final_x": "3697108.37405",
    "final_y": "525126.210685",
    "longitude": "-90.01901654448083",
    "latitude": "29.937431855685148",
    "geocoded_column": {
      "latitude": "29.937431855685148",
      "longitude": "-90.01901654448083"
    }
  },
  {
    "service_request": "2024-1069461",
    "request_type": "Trash/Recycling",
    "request_reason": "Request a Large Item Pick Up",
    "date_created": "2024-02-21T13:46:22.000",
    "date_modified": "2024-02-21T13:46:55.000",
    "request_status": "Pending",
    "responsible_agency": "Department of Sanitation",
    "final_address": "11040 Roger Dr Apt D",
    "address_councildis": "E",
    "status": "Assigned to Contractor",
    "contractor": "Waste Pro",
    "rowid": "1069461",
    "final_x": "3712448.69573",
    "final_y": "563514.17232",
    "longitude": "-89.96914373898365",
    "latitude": "30.042491422324932",
    "geocoded_column": {
      "latitude": "30.042491422324932",
      "longitude": "-89.96914373898365"
    }
  },
  {
    "service_request": "2024-1069460",
    "request_type": "Trash/Recycling",
    "request_reason": "Replace Trash Cart",
    "date_created": "2024-02-21T13:45:11.000",
    "date_modified": "2024-02-21T13:45:12.000",
    "request_status": "Pending",
    "responsible_agency": "Department of Sanitation",
    "final_address": "1675 N Roman St",
    "address_councildis": "D",
    "status": "Assigned to Contractor",
    "contractor": "IV Waste",
    "rowid": "1069460",
    "final_x": "3682135.498",
    "final_y": "538711.176137",
    "longitude": "-90.0658124647359",
    "latitude": "29.9752496368268",
    "geocoded_column": {
      "latitude": "29.9752496368268",
      "longitude": "-90.0658124647359"
    }
  },
  {
    "service_request": "2024-1069459",
    "request_type": "Traffic Signals/Signs/Striping/Streetlights",
    "request_reason": "Street Light Outage/Malfunction",
    "date_created": "2024-02-21T13:44:46.000",
    "date_modified": "2024-02-21T13:44:47.000",
    "request_status": "Pending",
    "responsible_agency": "Department of Public Works",
    "final_address": "2933 New Orleans St",
    "address_councildis": "D",
    "status": "Assigned to Contractor",
    "contractor": "Legacy Professional Services",
    "rowid": "1069459",
    "final_x": "3681890.64981",
    "final_y": "543281.076366",
    "longitude": "-90.06642618055076",
    "latitude": "29.987822709600827",
    "geocoded_column": {
      "latitude": "29.987822709600827",
      "longitude": "-90.06642618055076"
    }
  },
  {
    "service_request": "2024-1069458",
    "request_type": "Trash/Recycling",
    "request_reason": "Request a Large Item Pick Up",
    "date_created": "2024-02-21T13:44:03.000",
    "date_modified": "2024-02-21T13:44:04.000",
    "request_status": "Pending",
    "responsible_agency": "Department of Sanitation",
    "final_address": "4405 Walmsley Ave",
    "address_councildis": "B",
    "status": "Assigned to Contractor",
    "contractor": "Richards Disposal",
    "rowid": "1069458",
    "final_x": "3669585.96142",
    "final_y": "530117.524033",
    "longitude": "-90.10573811904726",
    "latitude": "29.95199569592841",
    "geocoded_column": {
      "latitude": "29.95199569592841",
      "longitude": "-90.10573811904726"
    }
  },
  {
    "service_request": "2024-1069457",
    "request_type": "Roads/Drainage",
    "request_reason": "Damaged Sidewalk",
    "date_created": "2024-02-21T13:41:17.000",
    "date_modified": "2024-02-21T13:41:17.000",
    "request_status": "Pending",
    "responsible_agency": "Department of Public Works",
    "final_address": "874 Harrison Ave",
    "address_councildis": "A",
    "status": "Pending",
    "rowid": "1069457",
    "final_x": "3669886.7922",
    "final_y": "549023.774867",
    "longitude": "-90.1041478416867",
    "latitude": "30.00397262192107",
    "geocoded_column": {
      "latitude": "30.00397262192107",
      "longitude": "-90.1041478416867"
    }
  },
  {
    "service_request": "2024-1069456",
    "request_type": "Trash/Recycling",
    "request_reason": "Missed Trash Pick-Up",
    "date_created": "2024-02-21T13:31:46.000",
    "date_modified": "2024-02-21T13:31:47.000",
    "request_status": "Pending",
    "responsible_agency": "Department of Sanitation",
    "final_address": "2912 Prytania St",
    "address_councildis": "B",
    "status": "Assigned to Contractor",
    "contractor": "Richards Disposal",
    "rowid": "1069456",
    "final_x": "3675712.04833",
    "final_y": "521691.998777",
    "longitude": "-90.08668424402123",
    "latitude": "29.928646382325645",
    "geocoded_column": {
      "latitude": "29.928646382325645",
      "longitude": "-90.08668424402123"
    }
  },
  {
    "service_request": "2024-1069455",
    "request_type": "Trash/Recycling",
    "request_reason": "Illegal Dumping",
    "date_created": "2024-02-21T13:29:04.000",
    "date_modified": "2024-02-21T13:29:05.000",
    "request_status": "Pending",
    "responsible_agency": "Department of Sanitation",
    "final_address": "3901 Banks St",
    "address_councildis": "A",
    "status": "Pending",
    "rowid": "1069455",
    "final_x": "3671025.27335",
    "final_y": "536959.663496",
    "longitude": "-90.1009610807456",
    "latitude": "29.970766824544977",
    "geocoded_column": {
      "latitude": "29.970766824544977",
      "longitude": "-90.1009610807456"
    }
  },
  {
    "service_request": "2024-1069454",
    "request_type": "Traffic Signals/Signs/Striping/Streetlights",
    "request_reason": "Street Light Outage/Malfunction",
    "date_created": "2024-02-21T13:28:06.000",
    "date_modified": "2024-02-21T13:28:32.000",
    "request_status": "Pending",
    "responsible_agency": "Department of Public Works",
    "final_address": "4939 Friar Tuck Dr",
    "address_councildis": "E",
    "status": "Assigned to Contractor",
    "contractor": "Legacy Professional Services",
    "rowid": "1069454",
    "final_x": "3717732.24274",
    "final_y": "557956.492379",
    "longitude": "-89.95265748906914",
    "latitude": "30.02703602720317",
    "geocoded_column": {
      "latitude": "30.02703602720317",
      "longitude": "-89.95265748906914"
    }
  },
  {
    "service_request": "2024-1069453",
    "request_type": "Trash/Recycling",
    "request_reason": "Repair Recycling Cart",
    "date_created": "2024-02-21T13:27:15.000",
    "date_modified": "2024-02-21T13:27:16.000",
    "request_status": "Pending",
    "responsible_agency": "Department of Sanitation",
    "final_address": "4540 Owens Blvd",
    "address_councildis": "D",
    "status": "Pending",
    "rowid": "1069453",
    "final_x": "3676408.48475",
    "final_y": "548913.418707",
    "longitude": "-90.08354846187137",
    "latitude": "30.003475202534048",
    "geocoded_column": {
      "latitude": "30.003475202534048",
      "longitude": "-90.08354846187137"
    }
  },
  {
    "service_request": "2024-1069452",
    "request_type": "Trash/Recycling",
    "request_reason": "Replace Trash Cart",
    "date_created": "2024-02-21T13:26:46.000",
    "date_modified": "2024-02-21T14:49:26.000",
    "request_status": "Pending",
    "responsible_agency": "Department of Sanitation",
    "final_address": "1303 Touro St, New Orleans, Louisiana, 70116",
    "address_councildis": "C",
    "status": "Assigned to Contractor",
    "contractor": "IV Waste",
    "rowid": "1069452",
    "final_x": "3684195.67471",
    "final_y": "537004.585928",
    "longitude": "-90.05936581597757",
    "latitude": "29.970494283682157",
    "geocoded_column": {
      "latitude": "29.970494283682157",
      "longitude": "-90.05936581597757"
    }
  },
  {
    "service_request": "2024-1069451",
    "request_type": "Roads/Drainage",
    "request_reason": "Catch Basin - Clogged",
    "date_created": "2024-02-21T13:26:17.000",
    "date_modified": "2024-02-21T13:26:18.000",
    "request_status": "Pending",
    "responsible_agency": "Department of Public Works",
    "final_address": "4645 Freret St",
    "address_councildis": "B",
    "status": "Pending",
    "rowid": "1069451",
    "final_x": "3669522.96263",
    "final_y": "524037.168764",
    "longitude": "-90.10614265980237",
    "latitude": "29.935278549150258",
    "geocoded_column": {
      "latitude": "29.935278549150258",
      "longitude": "-90.10614265980237"
    }
  },
  {
    "service_request": "2024-1069449",
    "request_type": "Trash/Recycling",
    "request_reason": "Repair Trash Cart",
    "date_created": "2024-02-21T13:24:21.000",
    "date_modified": "2024-02-21T13:24:22.000",
    "request_status": "Pending",
    "responsible_agency": "Department of Sanitation",
    "final_address": "7925 Zimple St",
    "address_councildis": "A",
    "status": "Assigned to Contractor",
    "contractor": "Richards Disposal",
    "rowid": "1069449",
    "final_x": "3662202.01178",
    "final_y": "527738.123967",
    "longitude": "-90.12913223003447",
    "latitude": "29.945668563892553",
    "geocoded_column": {
      "latitude": "29.945668563892553",
      "longitude": "-90.12913223003447"
    }
  },
  {
    "service_request": "2024-1069448",
    "request_type": "Trash/Recycling",
    "request_reason": "Order Recycling Cart",
    "date_created": "2024-02-21T13:23:43.000",
    "date_modified": "2024-02-21T13:23:44.000",
    "request_status": "Pending",
    "responsible_agency": "Department of Sanitation",
    "final_address": "7819 Darleen Ct",
    "address_councildis": "E",
    "status": "Pending",
    "rowid": "1069448",
    "final_x": "3717102.66232",
    "final_y": "571944.944168",
    "longitude": "-89.95411483134743",
    "latitude": "30.065519398258946",
    "geocoded_column": {
      "latitude": "30.065519398258946",
      "longitude": "-89.95411483134743"
    }
  },
  {
    "service_request": "2024-1069447",
    "request_type": "Trash/Recycling",
    "request_reason": "Replace Trash Cart",
    "date_created": "2024-02-21T13:22:28.000",
    "date_modified": "2024-02-21T13:22:29.000",
    "request_status": "Pending",
    "responsible_agency": "Department of Sanitation",
    "final_address": "1305 Touro St, New Orleans, Louisiana, 70116",
    "address_councildis": "C",
    "status": "Assigned to Contractor",
    "contractor": "IV Waste",
    "rowid": "1069447",
    "final_x": "3684194.66505",
    "final_y": "537031.847752",
    "longitude": "-90.0593680473653",
    "latitude": "29.970569275099283",
    "geocoded_column": {
      "latitude": "29.970569275099283",
      "longitude": "-90.0593680473653"
    }
  },
  {
    "service_request": "2024-1069446",
    "request_type": "Trash/Recycling",
    "request_reason": "Request a Large Item Pick Up",
    "date_created": "2024-02-21T13:22:15.000",
    "date_modified": "2024-02-21T13:22:16.000",
    "request_status": "Pending",
    "responsible_agency": "Department of Sanitation",
    "final_address": "425 River Oaks Dr",
    "address_councildis": "C",
    "status": "Assigned to Contractor",
    "contractor": "Richards Disposal",
    "rowid": "1069446",
    "final_x": "3701494.30321",
    "final_y": "521698.585913",
    "longitude": "-90.00529538046133",
    "latitude": "29.9278680203176",
    "geocoded_column": {
      "latitude": "29.9278680203176",
      "longitude": "-90.00529538046133"
    }
  },
  {
    "service_request": "2024-1069445",
    "request_type": "Trash/Recycling",
    "request_reason": "Replace Trash Cart",
    "date_created": "2024-02-21T13:20:22.000",
    "date_modified": "2024-02-21T13:20:23.000",
    "request_status": "Pending",
    "responsible_agency": "Department of Sanitation",
    "final_address": "8529 Spruce St",
    "address_councildis": "A",
    "status": "Assigned to Contractor",
    "contractor": "Richards Disposal",
    "rowid": "1069445",
    "final_x": "3662644.09792",
    "final_y": "531604.328899",
    "longitude": "-90.12760796313412",
    "latitude": "29.95628660026268",
    "geocoded_column": {
      "latitude": "29.95628660026268",
      "longitude": "-90.12760796313412"
    }
  },
  {
    "service_request": "2024-1069444",
    "request_type": "Trash/Recycling",
    "request_reason": "Replace Trash Cart",
    "date_created": "2024-02-21T13:19:49.000",
    "date_modified": "2024-02-21T13:19:50.000",
    "request_status": "Pending",
    "responsible_agency": "Department of Sanitation",
    "final_address": "8527 Spruce St",
    "address_councildis": "A",
    "status": "Assigned to Contractor",
    "contractor": "Richards Disposal",
    "rowid": "1069444",
    "final_x": "3662652.29018",
    "final_y": "531596.237123",
    "longitude": "-90.12758236346625",
    "latitude": "29.956264113465096",
    "geocoded_column": {
      "latitude": "29.956264113465096",
      "longitude": "-90.12758236346625"
    }
  },
  {
    "service_request": "2024-1069443",
    "request_type": "Parks & Parkways",
    "request_reason": "Request Tree Service (Right of Way/Public Property)",
    "date_created": "2024-02-21T13:17:47.000",
    "date_modified": "2024-02-21T13:17:47.000",
    "request_status": "Pending",
    "responsible_agency": "Department of Parks & Parkway",
    "final_address": "3331 Esplanade Ave",
    "address_councildis": "A",
    "status": "Pending",
    "rowid": "1069443",
    "final_x": "3675891.07681",
    "final_y": "540853.410187",
    "longitude": "-90.08546033959573",
    "latitude": "29.981328500611447",
    "geocoded_column": {
      "latitude": "29.981328500611447",
      "longitude": "-90.08546033959573"
    }
  },
  {
    "service_request": "2024-1069442",
    "request_type": "Trash/Recycling",
    "request_reason": "Replace Trash Cart",
    "date_created": "2024-02-21T13:17:19.000",
    "date_modified": "2024-02-21T13:53:39.000",
    "case_close_date": "2024-02-21T07:53:39.000",
    "request_status": "Closed",
    "responsible_agency": "Department of Sanitation",
    "final_address": "1303 Touro St",
    "address_councildis": "C",
    "status": "Duplicate Request",
    "contractor": "IV Waste",
    "contractor_action": "Duplicate",
    "rowid": "1069442",
    "final_x": "3684195.67471",
    "final_y": "537004.585928",
    "longitude": "-90.05936581597757",
    "latitude": "29.970494283682157",
    "geocoded_column": {
      "latitude": "29.970494283682157",
      "longitude": "-90.05936581597757"
    }
  },
  {
    "service_request": "2024-1069441",
    "request_type": "Trash/Recycling",
    "request_reason": "Replace Trash Cart",
    "date_created": "2024-02-21T13:16:35.000",
    "date_modified": "2024-02-21T13:16:36.000",
    "request_status": "Pending",
    "responsible_agency": "Department of Sanitation",
    "final_address": "1303 Touro St",
    "address_councildis": "C",
    "status": "Assigned to Contractor",
    "contractor": "IV Waste",
    "rowid": "1069441",
    "final_x": "3684195.67471",
    "final_y": "537004.585928",
    "longitude": "-90.05936581597757",
    "latitude": "29.970494283682157",
    "geocoded_column": {
      "latitude": "29.970494283682157",
      "longitude": "-90.05936581597757"
    }
  },
  {
    "service_request": "2024-1069440",
    "request_type": "Trash/Recycling",
    "request_reason": "Request a Large Item Pick Up",
    "date_created": "2024-02-21T13:15:03.000",
    "date_modified": "2024-02-21T13:15:04.000",
    "request_status": "Pending",
    "responsible_agency": "Department of Sanitation",
    "final_address": "4527 Knight Dr",
    "address_councildis": "E",
    "status": "Assigned to Contractor",
    "contractor": "Waste Pro",
    "rowid": "1069440",
    "final_x": "3708334.25668",
    "final_y": "554277.82108",
    "longitude": "-89.98249100171125",
    "latitude": "30.01722913566983",
    "geocoded_column": {
      "latitude": "30.01722913566983",
      "longitude": "-89.98249100171125"
    }
  },
  {
    "service_request": "2024-1069439",
    "request_type": "Abandoned Vehicles",
    "request_reason": "Abandoned/Junk Vehicles",
    "date_created": "2024-02-21T13:14:20.000",
    "date_modified": "2024-02-21T13:14:20.000",
    "request_status": "Pending",
    "responsible_agency": "Department of Public Works",
    "final_address": "7014 Zimpel St, New Orleans, Louisiana, 70118",
    "status": "Pending",
    "rowid": "1069439",
    "longitude": "0.0",
    "latitude": "0.0",
    "geocoded_column": {
      "latitude": "0.0",
      "longitude": "0.0"
    }
  },
  {
    "service_request": "2024-1069438",
    "request_type": "Trash/Recycling",
    "request_reason": "Repair Recycling Cart",
    "date_created": "2024-02-21T13:11:35.000",
    "date_modified": "2024-02-21T13:11:36.000",
    "request_status": "Pending",
    "responsible_agency": "Department of Sanitation",
    "final_address": "5015 S Johnson St",
    "address_councildis": "B",
    "status": "Pending",
    "rowid": "1069438",
    "final_x": "3668778.1483",
    "final_y": "526979.612286",
    "longitude": "-90.10839474067686",
    "latitude": "29.943391232749246",
    "geocoded_column": {
      "latitude": "29.943391232749246",
      "longitude": "-90.10839474067686"
    }
  },
  {
    "service_request": "2024-1069437",
    "request_type": "Trash/Recycling",
    "request_reason": "Request a Large Item Pick Up",
    "date_created": "2024-02-21T13:10:59.000",
    "date_modified": "2024-02-21T13:10:59.000",
    "request_status": "Pending",
    "responsible_agency": "Department of Sanitation",
    "final_address": "7301 Poitevent Ave",
    "address_councildis": "E",
    "status": "Assigned to Contractor",
    "contractor": "Waste Pro",
    "rowid": "1069437",
    "final_x": "3707606.33432",
    "final_y": "563079.368736",
    "longitude": "-89.98446355351594",
    "latitude": "30.041453514924523",
    "geocoded_column": {
      "latitude": "30.041453514924523",
      "longitude": "-89.98446355351594"
    }
  },
  {
    "service_request": "2024-1069436",
    "request_type": "Parks & Parkways",
    "request_reason": "Request Tree Service (Right of Way/Public Property)",
    "date_created": "2024-02-21T13:09:42.000",
    "date_modified": "2024-02-21T13:09:42.000",
    "request_status": "Pending",
    "responsible_agency": "Department of Parks & Parkway",
    "final_address": "4400 BLK Lennox Blvd",
    "address_councildis": "C",
    "status": "Pending",
    "rowid": "1069436",
    "final_x": "3700752.13684",
    "final_y": "514344.451414",
    "longitude": "-90.00790674761816",
    "latitude": "29.90767029466116",
    "geocoded_column": {
      "latitude": "29.90767029466116",
      "longitude": "-90.00790674761816"
    }
  },
  {
    "service_request": "2024-1069434",
    "request_type": "Trash/Recycling",
    "request_reason": "Request a Large Item Pick Up",
    "date_created": "2024-02-21T13:06:48.000",
    "date_modified": "2024-02-21T13:06:48.000",
    "request_status": "Pending",
    "responsible_agency": "Department of Sanitation",
    "final_address": "6013 Pasteur Blvd",
    "address_councildis": "D",
    "status": "Assigned to Contractor",
    "contractor": "IV Waste",
    "rowid": "1069434",
    "final_x": "3682860.11432",
    "final_y": "554939.329368",
    "longitude": "-90.06295570433441",
    "latitude": "30.019849202172026",
    "geocoded_column": {
      "latitude": "30.019849202172026",
      "longitude": "-90.06295570433441"
    }
  },
  {
    "service_request": "2024-1069433",
    "request_type": "Trash/Recycling",
    "request_reason": "Request a Large Item Pick Up",
    "date_created": "2024-02-21T13:06:25.000",
    "date_modified": "2024-02-21T13:06:26.000",
    "request_status": "Pending",
    "responsible_agency": "Department of Sanitation",
    "final_address": "2335 Mendez St",
    "address_councildis": "D",
    "status": "Assigned to Contractor",
    "contractor": "IV Waste",
    "rowid": "1069433",
    "final_x": "3684702.68841",
    "final_y": "553529.585111",
    "longitude": "-90.05718338327343",
    "latitude": "30.015916624011876",
    "geocoded_column": {
      "latitude": "30.015916624011876",
      "longitude": "-90.05718338327343"
    }
  },
  {
    "service_request": "2024-1069432",
    "request_type": "Abandoned Vehicles",
    "request_reason": "Abandoned/Junk Vehicles",
    "date_created": "2024-02-21T13:02:46.000",
    "date_modified": "2024-02-21T13:02:46.000",
    "request_status": "Pending",
    "responsible_agency": "Department of Public Works",
    "final_address": "1500 BLK Bartholomew St",
    "address_councildis": "D",
    "status": "Pending",
    "rowid": "1069432",
    "final_x": "3692219.59617",
    "final_y": "536983.157449",
    "longitude": "-90.03402622150556",
    "latitude": "29.970187622499175",
    "geocoded_column": {
      "latitude": "29.970187622499175",
      "longitude": "-90.03402622150556"
    }
  },
  {
    "service_request": "2024-1069431",
    "request_type": "Abandoned Vehicles",
    "request_reason": "Abandoned/Junk Vehicles",
    "date_created": "2024-02-21T13:01:59.000",
    "date_modified": "2024-02-21T13:05:16.000",
    "request_status": "Pending",
    "responsible_agency": "Department of Public Works",
    "final_address": "TOLEDANO ST & LOYOLA AVE",
    "address_councildis": "B",
    "status": "Pending",
    "rowid": "1069431",
    "final_x": "3673719.4",
    "final_y": "523668.88",
    "longitude": "-90.09290707037438",
    "latitude": "29.93414162722122",
    "geocoded_column": {
      "latitude": "29.93414162722122",
      "longitude": "-90.09290707037438"
    }
  },
  {
    "service_request": "2024-1069430",
    "request_type": "Trash/Recycling",
    "request_reason": "Request a Large Item Pick Up",
    "date_created": "2024-02-21T13:00:52.000",
    "date_modified": "2024-02-21T13:00:54.000",
    "request_status": "Pending",
    "responsible_agency": "Department of Sanitation",
    "final_address": "3227 Hamilton St",
    "address_councildis": "A",
    "status": "Assigned to Contractor",
    "contractor": "Richards Disposal",
    "rowid": "1069430",
    "final_x": "3664343.05159",
    "final_y": "536179.294279",
    "longitude": "-90.1220905051986",
    "latitude": "29.968816989192817",
    "geocoded_column": {
      "latitude": "29.968816989192817",
      "longitude": "-90.1220905051986"
    }
  },
  {
    "service_request": "2024-1069429",
    "request_type": "Traffic Signals/Signs/Striping/Streetlights",
    "request_reason": "Traffic Signal Malfunctioning/Damaged",
    "date_created": "2024-02-21T12:59:00.000",
    "date_modified": "2024-02-21T12:59:01.000",
    "request_status": "Pending",
    "responsible_agency": "Department of Public Works",
    "final_address": "ESPLANADE AVE & ROYAL ST",
    "address_councildis": "C",
    "status": "Pending",
    "rowid": "1069429",
    "final_x": "3684031.3",
    "final_y": "534397.78",
    "longitude": "-90.05997641700948",
    "latitude": "29.9633314925046",
    "geocoded_column": {
      "latitude": "29.9633314925046",
      "longitude": "-90.05997641700948"
    }
  },
  {
    "service_request": "2024-1069428",
    "request_type": "Parks & Parkways",
    "request_reason": "Request Tree Service (Right of Way/Public Property)",
    "date_created": "2024-02-21T12:57:04.000",
    "date_modified": "2024-02-21T12:57:04.000",
    "request_status": "Pending",
    "responsible_agency": "Department of Parks & Parkway",
    "final_address": "533 S Alexander St",
    "address_councildis": "A",
    "status": "Pending",
    "rowid": "1069428",
    "final_x": "3668765.90202",
    "final_y": "537680.406408",
    "longitude": "-90.10807213627888",
    "latitude": "29.97281524928413",
    "geocoded_column": {
      "latitude": "29.97281524928413",
      "longitude": "-90.10807213627888"
    }
  },
  {
    "service_request": "2024-1069427",
    "request_type": "Trash/Recycling",
    "request_reason": "Request a Large Item Pick Up",
    "date_created": "2024-02-21T12:54:38.000",
    "date_modified": "2024-02-21T12:54:38.000",
    "request_status": "Pending",
    "responsible_agency": "Department of Sanitation",
    "final_address": "10218 Springwood St",
    "address_councildis": "E",
    "status": "Assigned to Contractor",
    "contractor": "Waste Pro",
    "rowid": "1069427",
    "final_x": "3713405.87179",
    "final_y": "555626.508953",
    "longitude": "-89.9664160934333",
    "latitude": "30.02077212274711",
    "geocoded_column": {
      "latitude": "30.02077212274711",
      "longitude": "-89.9664160934333"
    }
  },
  {
    "service_request": "2024-1069426",
    "request_type": "Trash/Recycling",
    "request_reason": "Request a Large Item Pick Up",
    "date_created": "2024-02-21T12:51:18.000",
    "date_modified": "2024-02-21T12:51:19.000",
    "request_status": "Pending",
    "responsible_agency": "Department of Sanitation",
    "final_address": "7600 Forum Blvd",
    "address_councildis": "E",
    "status": "Assigned to Contractor",
    "contractor": "Waste Pro",
    "rowid": "1069426",
    "final_x": "3720290.97119",
    "final_y": "572993.773673",
    "longitude": "-89.94399612020014",
    "latitude": "30.06829733106004",
    "geocoded_column": {
      "latitude": "30.06829733106004",
      "longitude": "-89.94399612020014"
    }
  },
  {
    "service_request": "2024-1069425",
    "request_type": "Trash/Recycling",
    "request_reason": "Request a Large Item Pick Up",
    "date_created": "2024-02-21T12:45:35.000",
    "date_modified": "2024-02-21T12:45:36.000",
    "request_status": "Pending",
    "responsible_agency": "Department of Sanitation",
    "final_address": "4960 Wright Rd",
    "address_councildis": "E",
    "status": "Assigned to Contractor",
    "contractor": "Waste Pro",
    "rowid": "1069425",
    "final_x": "3716462.1694",
    "final_y": "558011.561179",
    "longitude": "-89.95666866228152",
    "latitude": "30.027229462647362",
    "geocoded_column": {
      "latitude": "30.027229462647362",
      "longitude": "-89.95666866228152"
    }
  },
  {
    "service_request": "2024-1069424",
    "request_type": "Traffic Signals/Signs/Striping/Streetlights",
    "request_reason": "Street Light Outage/Malfunction",
    "date_created": "2024-02-21T12:43:50.000",
    "date_modified": "2024-02-21T13:58:56.000",
    "case_close_date": "2024-02-21T07:58:56.000",
    "request_status": "Closed",
    "responsible_agency": "Department of Public Works",
    "final_address": "1701 Clouet St",
    "address_councildis": "D",
    "status": "Duplicate Request",
    "contractor": "Legacy Professional Services",
    "rowid": "1069424",
    "final_x": "3689602.69756",
    "final_y": "538269.005513",
    "longitude": "-90.04224487934174",
    "latitude": "29.973804585006658",
    "geocoded_column": {
      "latitude": "29.973804585006658",
      "longitude": "-90.04224487934174"
    }
  },
  {
    "service_request": "2024-1069423",
    "request_type": "Trash/Recycling",
    "request_reason": "Replace Trash Cart",
    "date_created": "2024-02-21T12:42:53.000",
    "date_modified": "2024-02-21T12:42:54.000",
    "request_status": "Pending",
    "responsible_agency": "Department of Sanitation",
    "final_address": "328 Eliza St",
    "address_councildis": "C",
    "status": "Assigned to Contractor",
    "contractor": "Richards Disposal",
    "rowid": "1069423",
    "final_x": "3686513.95503",
    "final_y": "529600.235137",
    "longitude": "-90.05230586336496",
    "latitude": "29.95006379834177",
    "geocoded_column": {
      "latitude": "29.95006379834177",
      "longitude": "-90.05230586336496"
    }
  },