[
  {
    "service_request": "2026-1279481",
    "request_type": "Trash/Recycling",
    "request_reason": "Start Trash Service",
    "date_created": "2026-05-06T23:21:00.000",
    "date_modified": "2026-05-06T23:21:02.000",
    "request_status": "Pending",
    "responsible_agency": "Department of Sanitation",
    "final_address": "2500 Flood St",
    "address_councildis": "E",
    "status": "Assigned to Contractor",
    "contractor": "Waste Pro",
    "rowid": "1279481",
    "final_x": "3699098.39274",
    "final_y": "539138.211018",
    "longitude": "-90.01222392582456",
    "latitude": "29.975896973358406",
    "geocoded_column": {
      "latitude": "29.975896973358406",
      "longitude": "-90.01222392582456"
    }
  },
  {
    "service_request": "2026-1279480",
    "request_type": "Streetlights",
    "request_reason": "Streetlight Outage/Malfunction",
    "date_created": "2026-05-06T22:50:58.000",
    "date_modified": "2026-05-06T22:50:59.000",
    "request_status": "Pending",
    "responsible_agency": "Department of Public Works",
    "final_address": "8407 Panola St",
    "address_councildis": "A",
    "status": "Pending",
    "rowid": "1279480",
    "final_x": "3663248.46803",
    "final_y": "531527.940035",
    "longitude": "-90.12570209798855",
    "latitude": "29.956059055151336",
    "geocoded_column": {
      "latitude": "29.956059055151336",
      "longitude": "-90.12570209798855"
    }
  },
  {
    "service_request": "2026-1279479",
    "request_type": "Trash/Recycling",
    "request_reason": "Request a Large Item Pick Up",
    "date_created": "2026-05-06T22:46:16.000",
    "date_modified": "2026-05-06T22:46:18.000",
    "request_status": "Pending",
    "responsible_agency": "Department of Sanitation",
    "final_address": "2113 Forstall St",
    "address_councildis": "E",
    "status": "Assigned to Contractor",
    "contractor": "Waste Pro",
    "rowid": "1279479",
    "final_x": "3697376.07978",
    "final_y": "538043.400137",
    "longitude": "-90.01770315219639",
    "latitude": "29.972941126644542",
    "geocoded_column": {
      "latitude": "29.972941126644542",
      "longitude": "-90.01770315219639"
    }
  },
  {
    "service_request": "2026-1279478",
    "request_type": "Health Related Request",
    "request_reason": "Noise Ordinance Complaint",
    "date_created": "2026-05-06T22:39:07.000",
    "date_modified": "2026-05-06T22:39:08.000",
    "request_status": "Pending",
    "responsible_agency": "Health Department",
    "final_address": "800 Bourbon St, New Orleans, Louisiana, 70116",
    "address_councildis": "C",
    "status": "Pending",
    "rowid": "1279478",
    "final_x": "3682553.51528",
    "final_y": "533013.631428",
    "longitude": "-90.06469148499534",
    "latitude": "29.95957063099051",
    "geocoded_column": {
      "latitude": "29.95957063099051",
      "longitude": "-90.06469148499534"
    }
  },
  {
    "service_request": "2026-1279477",
    "request_type": "Health Related Request",
    "request_reason": "Noise Ordinance Complaint",
    "date_created": "2026-05-06T22:37:56.000",
    "date_modified": "2026-05-06T22:37:58.000",
    "request_status": "Pending",
    "responsible_agency": "Health Department",
    "final_address": "800 Bourbon St, New Orleans, Louisiana, 70116",
    "address_councildis": "C",
    "status": "Pending",
    "rowid": "1279477",
    "final_x": "3682553.51528",
    "final_y": "533013.631428",
    "longitude": "-90.06469148499534",
    "latitude": "29.95957063099051",
    "geocoded_column": {
      "latitude": "29.95957063099051",
      "longitude": "-90.06469148499534"
    }
  },
  {
    "service_request": "2026-1279476",
    "request_type": "Property Maintenance",
    "request_reason": "Property Maintenance",
    "date_created": "2026-05-06T21:25:59.000",
    "date_modified": "2026-05-06T21:26:00.000",
    "request_status": "Pending",
    "responsible_agency": "Department of Code Enforcement",
    "final_address": "226 S Murat St",
    "address_councildis": "A",
    "status": "Pending",
    "rowid": "1279476",
    "final_x": "3669328.40826",
    "final_y": "538850.942537",
    "longitude": "-90.10625604190116",
    "latitude": "29.97601727877158",
    "geocoded_column": {
      "latitude": "29.97601727877158",
      "longitude": "-90.10625604190116"
    }
  },
  {
    "service_request": "2026-1279475",
    "request_type": "Trash/Recycling",
    "request_reason": "Request a Large Item Pick Up",
    "date_created": "2026-05-06T21:19:07.000",
    "date_modified": "2026-05-06T21:19:10.000",
    "request_status": "Pending",
    "responsible_agency": "Department of Sanitation",
    "final_address": "2741 Hudson Pl",
    "address_councildis": "C",
    "status": "Assigned to Contractor",
    "contractor": "Richards Disposal",
    "rowid": "1279475",
    "final_x": "3703311.64042",
    "final_y": "520604.01132",
    "longitude": "-89.9995987343133",
    "latitude": "29.924800278459884",
    "geocoded_column": {
      "latitude": "29.924800278459884",
      "longitude": "-89.9995987343133"
    }
  },
  {
    "service_request": "2026-1279474",
    "request_type": "Trash/Recycling",
    "request_reason": "Illegal Dumping",
    "date_created": "2026-05-06T21:07:25.000",
    "date_modified": "2026-05-06T21:07:27.000",
    "request_status": "Pending",
    "responsible_agency": "Department of Sanitation",
    "final_address": "2710 Touro St",
    "address_councildis": "D",
    "status": "Pending",
    "rowid": "1279474",
    "final_x": "3683687.63919",
    "final_y": "542555.192717",
    "longitude": "-90.06077556805384",
    "latitude": "29.985772032113747",
    "geocoded_column": {
      "latitude": "29.985772032113747",
      "longitude": "-90.06077556805384"
    }
  },
  {
    "service_request": "2026-1279473",
    "request_type": "Property Maintenance",
    "request_reason": "Property Maintenance",
    "date_created": "2026-05-06T20:51:55.000",
    "date_modified": "2026-05-06T20:51:56.000",
    "request_status": "Pending",
    "responsible_agency": "Department of Code Enforcement",
    "final_address": "5516 Dauphine St",
    "address_councildis": "E",
    "status": "Pending",
    "rowid": "1279473",
    "final_x": "3697555.75952",
    "final_y": "532620.609668",
    "longitude": "-90.01733238695968",
    "latitude": "29.958024713093863",
    "geocoded_column": {
      "latitude": "29.958024713093863",
      "longitude": "-90.01733238695968"
    }
  },
  {
    "service_request": "2026-1279472",
    "request_type": "Trash/Recycling",
    "request_reason": "Request a Large Item Pick Up",
    "date_created": "2026-05-06T20:48:02.000",
    "date_modified": "2026-05-06T20:48:04.000",
    "request_status": "Pending",
    "responsible_agency": "Department of Sanitation",
    "final_address": "14088 Partridge Ln",
    "address_councildis": "E",
    "status": "Assigned to Contractor",
    "contractor": "Waste Pro",
    "rowid": "1279472",
    "final_x": "3719855.88678",
    "final_y": "571966.791656",
    "longitude": "-89.94541082077224",
    "latitude": "30.06548806069961",
    "geocoded_column": {
      "latitude": "30.06548806069961",
      "longitude": "-89.94541082077224"
    }
  },
  {
    "service_request": "2026-1279471",
    "request_type": "Trash/Recycling",
    "request_reason": "Request a Large Item Pick Up",
    "date_created": "2026-05-06T20:38:44.000",
    "date_modified": "2026-05-06T20:38:46.000",
    "request_status": "Pending",
    "responsible_agency": "Department of Sanitation",
    "final_address": "87 Yosemite Dr",
    "address_councildis": "C",
    "status": "Assigned to Contractor",
    "contractor": "Richards Disposal",
    "rowid": "1279471",
    "final_x": "3699350.36471",
    "final_y": "515868.586868",
    "longitude": "-90.01227543201345",
    "latitude": "29.911905663181845",
    "geocoded_column": {
      "latitude": "29.911905663181845",
      "longitude": "-90.01227543201345"
    }
  },
  {
    "service_request": "2026-1279470",
    "request_type": "Road Striping",
    "request_reason": "Lane Striping or other Pavement Markings",
    "date_created": "2026-05-06T20:38:03.000",
    "date_modified": "2026-05-06T20:38:04.000",
    "request_status": "Pending",
    "responsible_agency": "Department of Public Works",
    "final_address": "3942 Delachaise St",
    "address_councildis": "B",
    "status": "Pending",
    "rowid": "1279470",
    "final_x": "3670865.11451",
    "final_y": "529301.240065",
    "longitude": "-90.10172684940501",
    "latitude": "29.94971343922635",
    "geocoded_column": {
      "latitude": "29.94971343922635",
      "longitude": "-90.10172684940501"
    }
  },
  {
    "service_request": "2026-1279469",
    "request_type": "Trash/Recycling",
    "request_reason": "Order Trash Cart",
    "date_created": "2026-05-06T20:32:08.000",
    "date_modified": "2026-05-06T20:32:09.000",
    "request_status": "Pending",
    "responsible_agency": "Department of Sanitation",
    "final_address": "4104 Hollygrove St",
    "address_councildis": "A",
    "status": "Assigned to Contractor",
    "contractor": "IV Waste",
    "rowid": "1279469",
    "final_x": "3666560.86541",
    "final_y": "538201.937097",
    "longitude": "-90.11501856995262",
    "latitude": "29.97431393376368",
    "geocoded_column": {
      "latitude": "29.97431393376368",
      "longitude": "-90.11501856995262"
    }
  },
  {
    "service_request": "2026-1279468",
    "request_type": "Property Maintenance",
    "request_reason": "Property Maintenance",
    "date_created": "2026-05-06T20:22:42.000",
    "date_modified": "2026-05-06T20:22:43.000",
    "request_status": "Pending",
    "responsible_agency": "Department of Code Enforcement",
    "final_address": "0 BLK Across St",
    "address_councildis": "E",
    "status": "Pending",
    "rowid": "1279468",
    "final_x": "3711887.63918",
    "final_y": "553972.247814",
    "longitude": "-89.97127534652184",
    "latitude": "30.01627326470007",
    "geocoded_column": {
      "latitude": "30.01627326470007",
      "longitude": "-89.97127534652184"
    }
  },
  {
    "service_request": "2026-1279467",
    "request_type": "Trash/Recycling",
    "request_reason": "Repair Trash Cart",
    "date_created": "2026-05-06T20:13:29.000",
    "date_modified": "2026-05-06T20:13:31.000",
    "request_status": "Pending",
    "responsible_agency": "Department of Sanitation",
    "final_address": "4236 Clio St",
    "address_councildis": "B",
    "status": "Assigned to Contractor",
    "contractor": "IV Waste",
    "rowid": "1279467",
    "final_x": "3671361.83777",
    "final_y": "531579.547587",
    "longitude": "-90.10008103901092",
    "latitude": "29.955963343877663",
    "geocoded_column": {
      "latitude": "29.955963343877663",
      "longitude": "-90.10008103901092"
    }
  },
  {
    "service_request": "2026-1279466",
    "request_type": "Abandoned Vehicles",
    "request_reason": "Abandoned/Junk Vehicles",
    "date_created": "2026-05-06T19:59:13.000",
    "date_modified": "2026-05-06T19:59:15.000",
    "request_status": "Pending",
    "responsible_agency": "Department of Public Works",
    "final_address": "2352 Allen Toussaint Blvd",
    "address_councildis": "D",
    "status": "Pending",
    "rowid": "1279466",
    "final_x": "3684691.98933",
    "final_y": "555726.044121",
    "longitude": "-90.05713989440225",
    "latitude": "30.021956406124993",
    "geocoded_column": {
      "latitude": "30.021956406124993",
      "longitude": "-90.05713989440225"
    }
  },
  {
    "service_request": "2026-1279465",
    "request_type": "Trash/Recycling",
    "request_reason": "Illegal Dumping",
    "date_created": "2026-05-06T19:43:15.000",
    "date_modified": "2026-05-06T19:43:17.000",
    "request_status": "Pending",
    "responsible_agency": "Department of Sanitation",
    "final_address": "2742 St Charles Ave",
    "address_councildis": "B",
    "status": "Pending",
    "rowid": "1279465",
    "final_x": "3676022.74901",
    "final_y": "522469.35577",
    "longitude": "-90.08567670604667",
    "latitude": "29.93077456294261",
    "geocoded_column": {
      "latitude": "29.93077456294261",
      "longitude": "-90.08567670604667"
    }
  },
  {
    "service_request": "2026-1279464",
    "request_type": "Trash/Recycling",
    "request_reason": "Replace Recycling Cart",
    "date_created": "2026-05-06T19:14:05.000",
    "date_modified": "2026-05-06T19:14:07.000",
    "request_status": "Pending",
    "responsible_agency": "Department of Sanitation",
    "final_address": "5919 Perrier St",
    "address_councildis": "A",
    "status": "Pending",
    "rowid": "1279464",
    "final_x": "3665381.75117",
    "final_y": "520521.974072",
    "longitude": "-90.11933409571571",
    "latitude": "29.92573418108709",
    "geocoded_column": {
      "latitude": "29.92573418108709",
      "longitude": "-90.11933409571571"
    }
  },
  {
    "service_request": "2026-1279463",
    "request_type": "Trash/Recycling",
    "request_reason": "Replace Trash Cart",
    "date_created": "2026-05-06T18:59:39.000",
    "date_modified": "2026-05-06T18:59:42.000",
    "request_status": "Pending",
    "responsible_agency": "Department of Sanitation",
    "final_address": "1743 Benton St",
    "address_councildis": "E",
    "status": "Assigned to Contractor",
    "contractor": "Waste Pro",
    "rowid": "1279463",
    "final_x": "3699843.27978",
    "final_y": "536018.000519",
    "longitude": "-90.00998518591975",
    "latitude": "29.967293885362",
    "geocoded_column": {
      "latitude": "29.967293885362",
      "longitude": "-90.00998518591975"
    }
  },
  {
    "service_request": "2026-1279462",
    "request_type": "General Services",
    "request_reason": "General Service Request",
    "date_created": "2026-05-06T18:49:51.000",
    "date_modified": "2026-05-06T18:49:53.000",
    "request_status": "Pending",
    "responsible_agency": "Orleans Parish Communication District",
    "final_address": "102 Fontainebleau Dr",
    "address_councildis": "A",
    "status": "Pending",
    "rowid": "1279462",
    "final_x": "3667190.98964",
    "final_y": "530345.428866",
    "longitude": "-90.11329267719117",
    "latitude": "29.95269269494452",
    "geocoded_column": {
      "latitude": "29.95269269494452",
      "longitude": "-90.11329267719117"
    }
  },
  {
    "service_request": "2026-1279461",
    "request_type": "General Services",
    "request_reason": "General Service Request",
    "date_created": "2026-05-06T18:37:03.000",
    "date_modified": "2026-05-06T18:37:05.000",
    "request_status": "Pending",
    "responsible_agency": "Orleans Parish Communication District",
    "final_address": "1713 W Homestead Dr",
    "address_councildis": "C",
    "status": "Pending",
    "rowid": "1279461",
    "final_x": "3696876.68407",
    "final_y": "525625.516221",
    "longitude": "-90.01972993029595",
    "latitude": "29.93881207868516",
    "geocoded_column": {
      "latitude": "29.93881207868516",
      "longitude": "-90.01972993029595"
    }
  },
  {
    "service_request": "2026-1279460",
    "request_type": "Trash/Recycling",
    "request_reason": "Illegal Dumping",
    "date_created": "2026-05-06T18:36:21.000",
    "date_modified": "2026-05-06T18:36:23.000",
    "request_status": "Pending",
    "responsible_agency": "Department of Sanitation",
    "final_address": "1118 Poland Ave",
    "address_councildis": "D",
    "status": "Pending",
    "rowid": "1279460",
    "final_x": "3693034.20496",
    "final_y": "535236.379334",
    "longitude": "-90.03151628677902",
    "latitude": "29.965359176378946",
    "geocoded_column": {
      "latitude": "29.965359176378946",
      "longitude": "-90.03151628677902"
    }
  },
  {
    "service_request": "2026-1279459",
    "request_type": "Trash/Recycling",
    "request_reason": "Order Second Trash Cart",
    "date_created": "2026-05-06T18:33:30.000",
    "date_modified": "2026-05-06T18:33:31.000",
    "request_status": "Pending",
    "responsible_agency": "Department of Sanitation",
    "final_address": "1541 General Collins Ave",
    "address_councildis": "C",
    "status": "Assigned to Contractor",
    "contractor": "Richards Disposal",
    "rowid": "1279459",
    "final_x": "3698425.32925",
    "final_y": "525393.387389",
    "longitude": "-90.01484914570551",
    "latitude": "29.938124897064974",
    "geocoded_column": {
      "latitude": "29.938124897064974",
      "longitude": "-90.01484914570551"
    }
  },
  {
    "service_request": "2026-1279458",
    "request_type": "Trash/Recycling",
    "request_reason": "Request a Large Item Pick Up",
    "date_created": "2026-05-06T18:32:33.000",
    "date_modified": "2026-05-06T18:32:34.000",
    "request_status": "Pending",
    "responsible_agency": "Department of Sanitation",
    "final_address": "2701 Octavia St",
    "address_councildis": "A",
    "status": "Assigned to Contractor",
    "contractor": "IV Waste",
    "rowid": "1279458",
    "final_x": "3667932.02349",
    "final_y": "525386.066045",
    "longitude": "-90.11111984895606",
    "latitude": "29.939034339134572",
    "geocoded_column": {
      "latitude": "29.939034339134572",
      "longitude": "-90.11111984895606"
    }
  },
  {
    "service_request": "2026-1279457",
    "request_type": "General Services",
    "request_reason": "General Service Request",
    "date_created": "2026-05-06T18:30:43.000",
    "date_modified": "2026-05-06T18:30:45.000",
    "request_status": "Pending",
    "responsible_agency": "Orleans Parish Communication District",
    "final_address": "1719 W Homestead Dr",
    "address_councildis": "C",
    "status": "Pending",
    "rowid": "1279457",
    "final_x": "3696874.07005",
    "final_y": "525587.781693",
    "longitude": "-90.0197395487357",
    "latitude": "29.93870840418527",
    "geocoded_column": {
      "latitude": "29.93870840418527",
      "longitude": "-90.0197395487357"
    }
  },
  {
    "service_request": "2026-1279456",
    "request_type": "Drainage",
    "request_reason": "Catch Basin Not Draining",
    "date_created": "2026-05-06T18:24:00.000",
    "date_modified": "2026-05-06T18:24:01.000",
    "request_status": "Pending",
    "responsible_agency": "Sewerage & Water Board",
    "final_address": "2112 Mirabeau Ave",
    "address_councildis": "D",
    "status": "Pending",
    "rowid": "1279456",
    "final_x": "3683235.42773",
    "final_y": "550563.494676",
    "longitude": "-90.06192325045829",
    "latitude": "30.00780580430185",
    "geocoded_column": {
      "latitude": "30.00780580430185",
      "longitude": "-90.06192325045829"
    }
  },
  {
    "service_request": "2026-1279455",
    "request_type": "Trash/Recycling",
    "request_reason": "Damaged Caused By Contractor",
    "date_created": "2026-05-06T18:23:41.000",
    "date_modified": "2026-05-06T18:23:43.000",
    "request_status": "Pending",
    "responsible_agency": "Department of Sanitation",
    "final_address": "2959 Law St",
    "address_councildis": "D",
    "status": "Assigned to Contractor",
    "contractor": "IV Waste",
    "rowid": "1279455",
    "final_x": "3689678.16655",
    "final_y": "541872.008908",
    "longitude": "-90.04187828122927",
    "latitude": "29.983709226364162",
    "geocoded_column": {
      "latitude": "29.983709226364162",
      "longitude": "-90.04187828122927"
    }
  },
  {
    "service_request": "2026-1279454",
    "request_type": "Trash/Recycling",
    "request_reason": "Order Trash Cart",
    "date_created": "2026-05-06T18:10:46.000",
    "date_modified": "2026-05-06T18:10:49.000",
    "request_status": "Pending",
    "responsible_agency": "Department of Sanitation",
    "final_address": "5355 Cameron Blvd",
    "address_councildis": "D",
    "status": "Assigned to Contractor",
    "contractor": "IV Waste",
    "rowid": "1279454",
    "final_x": "3682631.7748",
    "final_y": "552858.063447",
    "longitude": "-90.06375004584893",
    "latitude": "30.014133439867887",
    "geocoded_column": {
      "latitude": "30.014133439867887",
      "longitude": "-90.06375004584893"
    }
  },
  {
    "service_request": "2026-1279453",
    "request_type": "Trash/Recycling",
    "request_reason": "Replace Trash Cart",
    "date_created": "2026-05-06T18:06:12.000",
    "date_modified": "2026-05-06T18:06:14.000",
    "request_status": "Pending",
    "responsible_agency": "Department of Sanitation",
    "final_address": "10 Christopher Ct",
    "address_councildis": "E",
    "status": "Assigned to Contractor",
    "contractor": "Waste Pro",
    "rowid": "1279453",
    "final_x": "3716591.49208",
    "final_y": "570453.677031",
    "longitude": "-89.9557873583807",
    "latitude": "30.061435942061404",
    "geocoded_column": {
      "latitude": "30.061435942061404",
      "longitude": "-89.9557873583807"
    }
  },
  {
    "service_request": "2026-1279452",
    "request_type": "Utility Poles",
    "request_reason": "Wires Sagging/Hanging Low",
    "date_created": "2026-05-06T18:00:31.000",
    "date_modified": "2026-05-06T18:00:34.000",
    "request_status": "Pending",
    "responsible_agency": "Utility Company Collective",
    "final_address": "1200 BLK Melpomene St",
    "address_councildis": "B",
    "status": "Pending",
    "rowid": "1279452",
    "final_x": "3679827.36964",
    "final_y": "525140.87339",
    "longitude": "-90.07357334102923",
    "latitude": "29.938005896780428",
    "geocoded_column": {
      "latitude": "29.938005896780428",
      "longitude": "-90.07357334102923"
    }
  },
  {
    "service_request": "2026-1279451",
    "request_type": "Parks & Grass Service",
    "request_reason": "Park Maintenance/Clean Up",
    "date_created": "2026-05-06T17:53:02.000",
    "date_modified": "2026-05-06T17:53:03.000",
    "request_status": "Pending",
    "responsible_agency": "Department of Parks & Parkways",
    "final_address": "1200 BLK Race St",
    "address_councildis": "B",
    "status": "Pending",
    "rowid": "1279451",
    "final_x": "3679590.08927",
    "final_y": "523992.585005",
    "longitude": "-90.0743622873392",
    "latitude": "29.934855653993637",
    "geocoded_column": {
      "latitude": "29.934855653993637",
      "longitude": "-90.0743622873392"
    }
  },
  {
    "service_request": "2026-1279450",
    "request_type": "Parks & Grass Service",
    "request_reason": "Park Maintenance/Clean Up",
    "date_created": "2026-05-06T17:48:31.000",
    "date_modified": "2026-05-06T17:48:35.000",
    "request_status": "Pending",
    "responsible_agency": "Department of Parks & Parkways",
    "final_address": "1700 BLK Coliseum St",
    "address_councildis": "B",
    "status": "Pending",
    "rowid": "1279450",
    "final_x": "3679647.74926",
    "final_y": "524356.193529",
    "longitude": "-90.07416764115771",
    "latitude": "29.935853715328015",
    "geocoded_column": {
      "latitude": "29.935853715328015",
      "longitude": "-90.07416764115771"
    }
  },
  {
    "service_request": "2026-1279449",
    "request_type": "Trash/Recycling",
    "request_reason": "Request a Large Item Pick Up",
    "date_created": "2026-05-06T17:38:39.000",
    "date_modified": "2026-05-06T17:38:40.000",
    "request_status": "Pending",
    "responsible_agency": "Department of Sanitation",
    "final_address": "2416 Monticello St",
    "address_councildis": "E",
    "status": "Assigned to Contractor",
    "contractor": "Waste Pro",
    "rowid": "1279449",
    "final_x": "3700874.32778",
    "final_y": "538321.755977",
    "longitude": "-90.00664490933008",
    "latitude": "29.973595597658168",
    "geocoded_column": {
      "latitude": "29.973595597658168",
      "longitude": "-90.00664490933008"
    }
  },
  {
    "service_request": "2026-1279448",
    "request_type": "Abandoned Vehicles",
    "request_reason": "Abandoned/Junk Vehicles",
    "date_created": "2026-05-06T17:38:07.000",
    "date_modified": "2026-05-06T17:38:09.000",
    "request_status": "Pending",
    "responsible_agency": "Department of Public Works",
    "final_address": "7828 Spruce St",
    "address_councildis": "A",
    "status": "Pending",
    "rowid": "1279448",
    "final_x": "3664460.54317",
    "final_y": "529854.793729",
    "longitude": "-90.12193061802597",
    "latitude": "29.95142326472063",
    "geocoded_column": {
      "latitude": "29.95142326472063",
      "longitude": "-90.12193061802597"
    }
  },
  {
    "service_request": "2026-1279447",
    "request_type": "General Services",
    "request_reason": "General Service Request",
    "date_created": "2026-05-06T17:35:58.000",
    "date_modified": "2026-05-06T17:35:59.000",
    "request_status": "Pending",
    "responsible_agency": "Orleans Parish Communication District",
    "final_address": "1730 N Dupre St",
    "address_councildis": "D",
    "status": "Pending",
    "rowid": "1279447",
    "final_x": "3679149.32277",
    "final_y": "541368.529356",
    "longitude": "-90.07515144309637",
    "latitude": "29.982646928844837",
    "geocoded_column": {
      "latitude": "29.982646928844837",
      "longitude": "-90.07515144309637"
    }
  },
  {
    "service_request": "2026-1279446",
    "request_type": "Roads and Streets",
    "request_reason": "Curb Damage",
    "date_created": "2026-05-06T17:35:04.000",
    "date_modified": "2026-05-06T17:35:06.000",
    "request_status": "Pending",
    "responsible_agency": "Department of Public Works",
    "final_address": "1103 Shirley Dr",
    "address_councildis": "C",
    "status": "Pending",
    "rowid": "1279446",
    "final_x": "3693057.8527",
    "final_y": "527408.884927",
    "longitude": "-90.03172240065675",
    "latitude": "29.943835556379042",
    "geocoded_column": {
      "latitude": "29.943835556379042",
      "longitude": "-90.03172240065675"
    }
  },
  {
    "service_request": "2026-1279445",
    "request_type": "Roads and Streets",
    "request_reason": "Street Subsidence (Sinking)",
    "date_created": "2026-05-06T17:29:40.000",
    "date_modified": "2026-05-06T17:29:42.000",
    "request_status": "Pending",
    "responsible_agency": "Sewerage & Water Board",
    "final_address": "1641 Tropic Dr",
    "address_councildis": "C",
    "status": "Pending",
    "rowid": "1279445",
    "final_x": "3699436.74781",
    "final_y": "524632.536316",
    "longitude": "-90.01168373220175",
    "latitude": "29.936000781423054",
    "geocoded_column": {
      "latitude": "29.936000781423054",
      "longitude": "-90.01168373220175"
    }
  },
  {
    "service_request": "2026-1279444",
    "request_type": "Trash/Recycling",
    "request_reason": "Replace Recycling Cart",
    "date_created": "2026-05-06T17:18:33.000",
    "date_modified": "2026-05-06T17:18:34.000",
    "request_status": "Pending",
    "responsible_agency": "Department of Sanitation",
    "final_address": "5627 Chamberlain Dr",
    "address_councildis": "D",
    "status": "Pending",
    "rowid": "1279444",
    "final_x": "3679490.46101",
    "final_y": "553204.051095",
    "longitude": "-90.0736629970694",
    "latitude": "30.01518010937354",
    "geocoded_column": {
      "latitude": "30.01518010937354",
      "longitude": "-90.0736629970694"
    }
  },
  {
    "service_request": "2026-1279443",
    "request_type": "Trash/Recycling",
    "request_reason": "Request a Large Item Pick Up",
    "date_created": "2026-05-06T17:14:40.000",
    "date_modified": "2026-05-06T17:14:43.000",
    "request_status": "Pending",
    "responsible_agency": "Department of Sanitation",
    "final_address": "825 Bourbon St",
    "address_councildis": "C",
    "status": "Assigned to Contractor",
    "contractor": "IV Waste",
    "rowid": "1279443",
    "final_x": "3682603.51029",
    "final_y": "533158.254532",
    "longitude": "-90.06452855552529",
    "latitude": "29.95996677300038",
    "geocoded_column": {
      "latitude": "29.95996677300038",
      "longitude": "-90.06452855552529"
    }
  },
  {
    "service_request": "2026-1279442",
    "request_type": "Roads and Streets",
    "request_reason": "Pothole",
    "date_created": "2026-05-06T17:05:19.000",
    "date_modified": "2026-05-06T17:05:22.000",
    "request_status": "Pending",
    "responsible_agency": "Department of Public Works",
    "final_address": "1400 BLK Bourbon St",
    "address_councildis": "C",
    "status": "Pending",
    "rowid": "1279442",
    "final_x": "3683872.60794",
    "final_y": "534791.947592",
    "longitude": "-90.06046372073241",
    "latitude": "29.964420165797293",
    "geocoded_column": {
      "latitude": "29.964420165797293",
      "longitude": "-90.06046372073241"
    }
  },
  {
    "service_request": "2026-1279441",
    "request_type": "Trash/Recycling",
    "request_reason": "Order Trash Cart",
    "date_created": "2026-05-06T17:03:27.000",
    "date_modified": "2026-05-06T17:03:30.000",
    "request_status": "Pending",
    "responsible_agency": "Department of Sanitation",
    "final_address": "2324 Palmer Ave",
    "address_councildis": "A",
    "status": "Assigned to Contractor",
    "contractor": "IV Waste",
    "rowid": "1279441",
    "final_x": "3666226.39265",
    "final_y": "525480.699645",
    "longitude": "-90.11650157670546",
    "latitude": "29.939344466216667",
    "geocoded_column": {
      "latitude": "29.939344466216667",
      "longitude": "-90.11650157670546"
    }
  },
  {
    "service_request": "2026-1279440",
    "request_type": "Roads and Streets",
    "request_reason": "Pothole",
    "date_created": "2026-05-06T16:54:23.000",
    "date_modified": "2026-05-06T16:54:27.000",
    "request_status": "Pending",
    "responsible_agency": "Department of Public Works",
    "final_address": "1400 BLK Bourbon St",
    "address_councildis": "C",
    "status": "Pending",
    "rowid": "1279440",
    "final_x": "3683872.60794",
    "final_y": "534791.947592",
    "longitude": "-90.06046372073241",
    "latitude": "29.964420165797293",
    "geocoded_column": {
      "latitude": "29.964420165797293",
      "longitude": "-90.06046372073241"
    }
  },
  {
    "service_request": "2026-1279439",
    "request_type": "Trash/Recycling",
    "request_reason": "Request a Large Item Pick Up",
    "date_created": "2026-05-06T16:52:43.000",
    "date_modified": "2026-05-06T16:52:46.000",
    "request_status": "Pending",
    "responsible_agency": "Department of Sanitation",
    "final_address": "2343 Chippewa St",
    "address_councildis": "B",
    "status": "Assigned to Contractor",
    "contractor": "IV Waste",
    "rowid": "1279439",
    "final_x": "3679095.84527",
    "final_y": "520464.238776",
    "longitude": "-90.07604483278882",
    "latitude": "29.925168780310987",
    "geocoded_column": {
      "latitude": "29.925168780310987",
      "longitude": "-90.07604483278882"
    }
  },
  {
    "service_request": "2026-1279438",
    "request_type": "Trash/Recycling",
    "request_reason": "Request a Large Item Pick Up",
    "date_created": "2026-05-06T16:51:26.000",
    "date_modified": "2026-05-06T16:51:27.000",
    "request_status": "Pending",
    "responsible_agency": "Department of Sanitation",
    "final_address": "6342 Catina St",
    "address_councildis": "A",
    "status": "Assigned to Contractor",
    "contractor": "IV Waste",
    "rowid": "1279438",
    "final_x": "3666837.81818",
    "final_y": "549834.014804",
    "longitude": "-90.11375287401434",
    "latitude": "30.006290082118717",
    "geocoded_column": {
      "latitude": "30.006290082118717",
      "longitude": "-90.11375287401434"
    }
  },
  {
    "service_request": "2026-1279437",
    "request_type": "Trash/Recycling",
    "request_reason": "Request a Large Item Pick Up",
    "date_created": "2026-05-06T16:49:17.000",
    "date_modified": "2026-05-06T16:49:20.000",
    "request_status": "Pending",
    "responsible_agency": "Department of Sanitation",
    "final_address": "2511 Milan St",
    "address_councildis": "B",
    "status": "Assigned to Contractor",
    "contractor": "IV Waste",
    "rowid": "1279437",
    "final_x": "3671319.81671",
    "final_y": "524222.505532",
    "longitude": "-90.10046368197781",
    "latitude": "29.93573512771114",
    "geocoded_column": {
      "latitude": "29.93573512771114",
      "longitude": "-90.10046368197781"
    }
  },
  {
    "service_request": "2026-1279436",
    "request_type": "Roads and Streets",
    "request_reason": "Sidewalk Damaged or Missing",
    "date_created": "2026-05-06T16:48:17.000",
    "date_modified": "2026-05-06T16:48:18.000",
    "request_status": "Pending",
    "responsible_agency": "Department of Public Works",
    "final_address": "5551 New England Dr",
    "address_councildis": "E",
    "status": "Pending",
    "rowid": "1279436",
    "final_x": "3723766.96454",
    "final_y": "563869.154849",
    "longitude": "-89.93336034188842",
    "latitude": "30.04309210798505",
    "geocoded_column": {
      "latitude": "30.04309210798505",
      "longitude": "-89.93336034188842"
    }
  },
  {
    "service_request": "2026-1279435",
    "request_type": "Trash/Recycling",
    "request_reason": "Replace Trash Cart",
    "date_created": "2026-05-06T16:47:12.000",
    "date_modified": "2026-05-06T16:47:13.000",
    "request_status": "Pending",
    "responsible_agency": "Department of Sanitation",
    "final_address": "827 N Rendon St",
    "address_councildis": "A",
    "status": "Assigned to Contractor",
    "contractor": "IV Waste",
    "rowid": "1279435",
    "final_x": "3675246.59937",
    "final_y": "538798.875657",
    "longitude": "-90.08756644733037",
    "latitude": "29.975698518361373",
    "geocoded_column": {
      "latitude": "29.975698518361373",
      "longitude": "-90.08756644733037"
    }
  },
  {
    "service_request": "2026-1279434",
    "request_type": "General Services",
    "request_reason": "General Service Request",
    "date_created": "2026-05-06T16:46:59.000",
    "date_modified": "2026-05-06T16:47:01.000",
    "request_status": "Pending",
    "responsible_agency": "Orleans Parish Communication District",
    "final_address": "2623 Baronne St",
    "address_councildis": "B",
    "status": "Pending",
    "rowid": "1279434",
    "final_x": "3675835.21985",
    "final_y": "523410.652283",
    "longitude": "-90.08623636823869",
    "latitude": "29.933368435130255",
    "geocoded_column": {
      "latitude": "29.933368435130255",
      "longitude": "-90.08623636823869"
    }
  },
  {
    "service_request": "2026-1279433",
    "request_type": "Trash/Recycling",
    "request_reason": "Repair Trash Cart",
    "date_created": "2026-05-06T16:46:26.000",
    "date_modified": "2026-05-06T16:46:28.000",
    "request_status": "Pending",
    "responsible_agency": "Department of Sanitation",
    "final_address": "4625 Laurel St, New Orleans, Louisiana, 70115",
    "address_councildis": "B",
    "status": "Assigned to Contractor",
    "contractor": "IV Waste",
    "rowid": "1279433",
    "final_x": "3670153.26983",
    "final_y": "518002.761526",
    "longitude": "-90.1043571028392",
    "latitude": "29.918667278193784",
    "geocoded_column": {
      "latitude": "29.918667278193784",
      "longitude": "-90.1043571028392"
    }
  },
  {
    "service_request": "2026-1279432",
    "request_type": "Property Maintenance",
    "request_reason": "Property Maintenance",
    "date_created": "2026-05-06T16:44:12.000",
    "date_modified": "2026-05-06T16:44:19.000",
    "request_status": "Pending",
    "responsible_agency": "Department of Code Enforcement",
    "final_address": "3320 Kabel Dr",
    "address_councildis": "C",
    "status": "Pending",
    "rowid": "1279432",
    "final_x": "3700693.24343",
    "final_y": "518948.282103",
    "longitude": "-90.00792454824011",
    "latitude": "29.920331135233337",
    "geocoded_column": {
      "latitude": "29.920331135233337",
      "longitude": "-90.00792454824011"
    }
  },
  {
    "service_request": "2026-1279431",
    "request_type": "Trash/Recycling",
    "request_reason": "Request a Large Item Pick Up",
    "date_created": "2026-05-06T16:41:03.000",
    "date_modified": "2026-05-06T16:41:04.000",
    "request_status": "Pending",
    "responsible_agency": "Department of Sanitation",
    "final_address": "1905 Arts St",
    "address_councildis": "D",
    "status": "Assigned to Contractor",
    "contractor": "IV Waste",
    "rowid": "1279431",
    "final_x": "3687002.58882",
    "final_y": "539494.43009",
    "longitude": "-90.0504132418796",
    "latitude": "29.97725437219955",
    "geocoded_column": {
      "latitude": "29.97725437219955",
      "longitude": "-90.0504132418796"
    }
  },
  {
    "service_request": "2026-1279430",
    "request_type": "Tree Service",
    "request_reason": "Tree Trim",
    "date_created": "2026-05-06T16:40:02.000",
    "date_modified": "2026-05-06T16:40:03.000",
    "request_status": "Pending",
    "responsible_agency": "Department of Parks & Parkways",
    "final_address": "HARROW RD & WRIGHT RD",
    "address_councildis": "E",
    "status": "Pending",
    "rowid": "1279430",
    "final_x": "3712068.1",
    "final_y": "564123.48",
    "longitude": "-89.9703236532241",
    "latitude": "30.044179226747428",
    "geocoded_column": {
      "latitude": "30.044179226747428",
      "longitude": "-89.9703236532241"
    }
  },
  {
    "service_request": "2026-1279429",
    "request_type": "Trash/Recycling",
    "request_reason": "Request a Large Item Pick Up",
    "date_created": "2026-05-06T16:37:00.000",
    "date_modified": "2026-05-06T16:37:01.000",
    "request_status": "Pending",
    "responsible_agency": "Department of Sanitation",
    "final_address": "1218 Soniat St",
    "address_councildis": "B",
    "status": "Assigned to Contractor",
    "contractor": "IV Waste",
    "rowid": "1279429",
    "final_x": "3668339.75278",
    "final_y": "519836.7742",
    "longitude": "-90.11001963834485",
    "latitude": "29.923763593516583",
    "geocoded_column": {
      "latitude": "29.923763593516583",
      "longitude": "-90.11001963834485"
    }
  },
  {
    "service_request": "2026-1279428",
    "request_type": "Trash/Recycling",
    "request_reason": "Request a Large Item Pick Up",
    "date_created": "2026-05-06T16:36:17.000",
    "date_modified": "2026-05-06T16:36:19.000",
    "request_status": "Pending",
    "responsible_agency": "Department of Sanitation",
    "final_address": "12 Carriage Ln",
    "address_councildis": "C",
    "status": "Assigned to Contractor",
    "contractor": "Richards Disposal",
    "rowid": "1279428",
    "final_x": "3695940.59587",
    "final_y": "519889.315384",
    "longitude": "-90.0228923632517",
    "latitude": "29.923068964092447",
    "geocoded_column": {
      "latitude": "29.923068964092447",
      "longitude": "-90.0228923632517"
    }
  },
  {
    "service_request": "2026-1279427",
    "request_type": "Trash/Recycling",
    "request_reason": "Request a Large Item Pick Up",
    "date_created": "2026-05-06T16:31:47.000",
    "date_modified": "2026-05-06T16:31:49.000",
    "request_status": "Pending",
    "responsible_agency": "Department of Sanitation",
    "final_address": "4636 Virgilian St",
    "address_councildis": "D",
    "status": "Assigned to Contractor",
    "contractor": "Waste Pro",
    "rowid": "1279427",
    "final_x": "3697445.396",
    "final_y": "553267.242391",
    "longitude": "-90.01693187447684",
    "latitude": "30.014798900581063",
    "geocoded_column": {
      "latitude": "30.014798900581063",
      "longitude": "-90.01693187447684"
    }
  },
  {
    "service_request": "2026-1279426",
    "request_type": "Trash/Recycling",
    "request_reason": "Repair Trash Cart",
    "date_created": "2026-05-06T16:29:17.000",
    "date_modified": "2026-05-06T16:29:19.000",
    "request_status": "Pending",
    "responsible_agency": "Department of Sanitation",
    "final_address": "1923 Upperline St",
    "address_councildis": "B",
    "status": "Assigned to Contractor",
    "contractor": "IV Waste",
    "rowid": "1279426",
    "final_x": "3669143.81697",
    "final_y": "521982.065914",
    "longitude": "-90.10740904055021",
    "latitude": "29.92963883454404",
    "geocoded_column": {
      "latitude": "29.92963883454404",
      "longitude": "-90.10740904055021"
    }
  },
  {
    "service_request": "2026-1279425",
    "request_type": "Trash/Recycling",
    "request_reason": "Illegal Dumping",
    "date_created": "2026-05-06T16:29:17.000",
    "date_modified": "2026-05-06T16:29:19.000",
    "request_status": "Pending",
    "responsible_agency": "Department of Sanitation",
    "final_address": "2428 St Roch Ave",
    "address_councildis": "D",
    "status": "Pending",
    "rowid": "1279425",
    "final_x": "3686006.90639",
    "final_y": "541446.198988",
    "longitude": "-90.05348907525931",
    "latitude": "29.98265166416403",
    "geocoded_column": {
      "latitude": "29.98265166416403",
      "longitude": "-90.05348907525931"
    }
  },
  {
    "service_request": "2026-1279424",
    "request_type": "Property Maintenance",
    "request_reason": "Property Maintenance",
    "date_created": "2026-05-06T16:22:25.000",
    "date_modified": "2026-05-06T16:22:29.000",
    "request_status": "Pending",
    "responsible_agency": "Department of Code Enforcement",
    "final_address": "7500 BLK Lacombe St",
    "address_councildis": "E",
    "status": "Pending",
    "rowid": "1279424",
    "final_x": "3710011.88604",
    "final_y": "564713.119049",
    "longitude": "-89.97680008668382",
    "latitude": "30.045867590599215",
    "geocoded_column": {
      "latitude": "30.045867590599215",
      "longitude": "-89.97680008668382"
    }
  },
  {
    "service_request": "2026-1279423",
    "request_type": "Trash/Recycling",
    "request_reason": "Illegal Dumping",
    "date_created": "2026-05-06T16:17:14.000",
    "date_modified": "2026-05-06T16:17:15.000",
    "request_status": "Pending",
    "responsible_agency": "Department of Sanitation",
    "final_address": "3002 Toledano St",
    "address_councildis": "B",
    "status": "Pending",
    "rowid": "1279423",
    "final_x": "3672351.56046",
    "final_y": "526776.151998",
    "longitude": "-90.09711946750025",
    "latitude": "29.94272625993462",
    "geocoded_column": {
      "latitude": "29.94272625993462",
      "longitude": "-90.09711946750025"
    }
  },
  {
    "service_request": "2026-1279422",
    "request_type": "Trash/Recycling",
    "request_reason": "Order Recycling Cart",
    "date_created": "2026-05-06T16:15:28.000",
    "date_modified": "2026-05-06T16:15:30.000",
    "request_status": "Pending",
    "responsible_agency": "Department of Sanitation",
    "final_address": "3435 Freret St",
    "address_councildis": "B",
    "status": "Pending",
    "rowid": "1279422",
    "final_x": "3672625.61051",
    "final_y": "524384.722236",
    "longitude": "-90.09633573489135",
    "latitude": "29.93614247431707",
    "geocoded_column": {
      "latitude": "29.93614247431707",
      "longitude": "-90.09633573489135"
    }
  },
  {
    "service_request": "2026-1279421",
    "request_type": "Streetlights",
    "request_reason": "Streetlight Outage/Malfunction",
    "date_created": "2026-05-06T16:14:37.000",
    "date_modified": "2026-05-06T16:14:40.000",
    "request_status": "Pending",
    "responsible_agency": "Department of Public Works",
    "final_address": "2711 Joseph St",
    "address_councildis": "A",
    "status": "Pending",
    "rowid": "1279421",
    "final_x": "3667739.70535",
    "final_y": "525842.226749",
    "longitude": "-90.11171166829712",
    "latitude": "29.9402942734575",
    "geocoded_column": {
      "latitude": "29.9402942734575",
      "longitude": "-90.11171166829712"
    }
  },
  {
    "service_request": "2026-1279420",
    "request_type": "Health Related Request",
    "request_reason": "Noise Ordinance Complaint",
    "date_created": "2026-05-06T16:11:10.000",
    "date_modified": "2026-05-06T16:11:13.000",
    "request_status": "Pending",
    "responsible_agency": "Health Department",
    "final_address": "962 Allen Toussaint Blvd",
    "address_councildis": "A",
    "status": "Pending",
    "rowid": "1279420",
    "final_x": "3671131.07899",
    "final_y": "554389.610584",
    "longitude": "-90.100034458219",
    "latitude": "30.01869001408174",
    "geocoded_column": {
      "latitude": "30.01869001408174",
      "longitude": "-90.100034458219"
    }
  },
  {
    "service_request": "2026-1279419",
    "request_type": "Traffic Signals",
    "request_reason": "Traffic Signal Malfunctioning or Damaged",
    "date_created": "2026-05-06T16:07:55.000",
    "date_modified": "2026-05-06T16:07:57.000",
    "request_status": "Pending",
    "responsible_agency": "Department of Public Works",
    "final_address": "CHEF MENTEUR HWY & DOWNMAN RD & CHEF MENTEUR BRIDGE",
    "address_councildis": "D",
    "status": "Pending",
    "rowid": "1279419",
    "final_x": "3696211.9",
    "final_y": "551507.88",
    "longitude": "-90.02089277553281",
    "latitude": "30.010000220946775",
    "geocoded_column": {
      "latitude": "30.010000220946775",
      "longitude": "-90.02089277553281"
    }
  },
  {
    "service_request": "2026-1279418",
    "request_type": "Street and Traffic Signs",
    "request_reason": "One Way Sign Missing or Damaged",
    "date_created": "2026-05-06T16:00:24.000",
    "date_modified": "2026-05-06T16:01:54.000",
    "request_status": "Pending",
    "responsible_agency": "Department of Public Works",
    "final_address": "DABADIE ST & N BROAD ST",
    "address_councildis": "D",
    "status": "Pending",
    "rowid": "1279418",
    "final_x": "3679522.0",
    "final_y": "540757.58",
    "longitude": "-90.0739955506741",
    "latitude": "29.980955773336238",
    "geocoded_column": {
      "latitude": "29.980955773336238",
      "longitude": "-90.0739955506741"
    }
  },
  {
    "service_request": "2026-1279417",
    "request_type": "Property Maintenance",
    "request_reason": "Property Maintenance",
    "date_created": "2026-05-06T16:00:06.000",
    "date_modified": "2026-05-06T16:00:08.000",
    "request_status": "Pending",
    "responsible_agency": "Department of Code Enforcement",
    "final_address": "1338 Clouet St",
    "address_councildis": "C",
    "status": "Pending",
    "rowid": "1279417",
    "final_x": "3689233.23203",
    "final_y": "537060.216072",
    "longitude": "-90.0434547040658",
    "latitude": "29.97049228129597",
    "geocoded_column": {
      "latitude": "29.97049228129597",
      "longitude": "-90.0434547040658"
    }
  },
  {
    "service_request": "2026-1279416",
    "request_type": "Trash/Recycling",
    "request_reason": "Request a Large Item Pick Up",
    "date_created": "2026-05-06T15:59:17.000",
    "date_modified": "2026-05-06T15:59:19.000",
    "request_status": "Pending",
    "responsible_agency": "Department of Sanitation",
    "final_address": "6229 Caldwell Dr",
    "address_councildis": "D",
    "status": "Assigned to Contractor",
    "contractor": "IV Waste",
    "rowid": "1279416",
    "final_x": "3679492.51029",
    "final_y": "556110.47401",
    "longitude": "-90.07355556191993",
    "latitude": "30.023171653909177",
    "geocoded_column": {
      "latitude": "30.023171653909177",
      "longitude": "-90.07355556191993"
    }
  },
  {
    "service_request": "2026-1279415",
    "request_type": "Property Maintenance",
    "request_reason": "Property Maintenance",
    "date_created": "2026-05-06T15:57:09.000",
    "date_modified": "2026-05-06T15:57:10.000",
    "request_status": "Pending",
    "responsible_agency": "Department of Code Enforcement",
    "final_address": "3058 N Villere St",
    "address_councildis": "C",
    "status": "Pending",
    "rowid": "1279415",
    "final_x": "3689221.6863",
    "final_y": "537091.739208",
    "longitude": "-90.04349004604191",
    "latitude": "29.970579316210586",
    "geocoded_column": {
      "latitude": "29.970579316210586",
      "longitude": "-90.04349004604191"
    }
  },
  {
    "service_request": "2026-1279414",
    "request_type": "Streetlights",
    "request_reason": "Streetlight Outage/Malfunction",
    "date_created": "2026-05-06T15:56:21.000",
    "date_modified": "2026-05-06T15:57:53.000",
    "request_status": "Pending",
    "responsible_agency": "Department of Public Works",
    "final_address": "5451 Canal Blvd",
    "address_councildis": "A",
    "status": "Pending",
    "rowid": "1279414",
    "final_x": "3668276.89421",
    "final_y": "543612.38107",
    "longitude": "-90.10941641139493",
    "latitude": "29.989140542105496",
    "geocoded_column": {
      "latitude": "29.989140542105496",
      "longitude": "-90.10941641139493"
    }
  },
  {
    "service_request": "2026-1279413",
    "request_type": "Trash/Recycling",
    "request_reason": "Order Trash Cart",
    "date_created": "2026-05-06T15:52:17.000",
    "date_modified": "2026-05-06T15:52:18.000",
    "request_status": "Pending",
    "responsible_agency": "Department of Sanitation",
    "final_address": "2108 DAbadie St",
    "address_councildis": "D",
    "status": "Assigned to Contractor",
    "contractor": "IV Waste",
    "rowid": "1279413",
    "final_x": "3681125.52104",
    "final_y": "539476.159754",
    "longitude": "-90.06897557865726",
    "latitude": "29.977383757672133",
    "geocoded_column": {
      "latitude": "29.977383757672133",
      "longitude": "-90.06897557865726"
    }
  },
  {
    "service_request": "2026-1279412",
    "request_type": "Tree Service",
    "request_reason": "Dead or Dying Tree",
    "date_created": "2026-05-06T15:51:06.000",
    "date_modified": "2026-05-06T15:51:07.000",
    "request_status": "Pending",
    "responsible_agency": "Department of Parks & Parkways",
    "final_address": "2224 Louisiana Ave",
    "address_councildis": "B",
    "status": "Pending",
    "rowid": "1279412",
    "final_x": "3673197.78497",
    "final_y": "523680.675963",
    "longitude": "-90.09455339081428",
    "latitude": "29.934189578641437",
    "geocoded_column": {
      "latitude": "29.934189578641437",
      "longitude": "-90.09455339081428"
    }
  },
  {
    "service_request": "2026-1279411",
    "request_type": "Trash/Recycling",
    "request_reason": "Start Trash Service",
    "date_created": "2026-05-06T15:50:49.000",
    "date_modified": "2026-05-06T15:50:50.000",
    "request_status": "Pending",
    "responsible_agency": "Department of Sanitation",
    "final_address": "2108 DAbadie St",
    "address_councildis": "D",
    "status": "Assigned to Contractor",
    "contractor": "IV Waste",
    "rowid": "1279411",
    "final_x": "3681125.52104",
    "final_y": "539476.159754",
    "longitude": "-90.06897557865726",
    "latitude": "29.977383757672133",
    "geocoded_column": {
      "latitude": "29.977383757672133",
      "longitude": "-90.06897557865726"
    }
  },
  {
    "service_request": "2026-1279410",
    "request_type": "Trash/Recycling",
    "request_reason": "Return Recycling Cart",
    "date_created": "2026-05-06T15:50:42.000",
    "date_modified": "2026-05-06T15:50:43.000",
    "request_status": "Pending",
    "responsible_agency": "Department of Sanitation",
    "final_address": "6966 General Diaz St",
    "address_councildis": "A",
    "status": "Pending",
    "rowid": "1279410",
    "final_x": "3670016.12385",
    "final_y": "553803.040215",
    "longitude": "-90.10357721641559",
    "latitude": "30.017110103983274",
    "geocoded_column": {
      "latitude": "30.017110103983274",
      "longitude": "-90.10357721641559"
    }
  },
  {
    "service_request": "2026-1279409",
    "request_type": "Trash/Recycling",
    "request_reason": "Repair Trash Cart",
    "date_created": "2026-05-06T15:48:58.000",
    "date_modified": "2026-05-06T15:49:00.000",
    "request_status": "Pending",
    "responsible_agency": "Department of Sanitation",
    "final_address": "7720 Windward Ct",
    "address_councildis": "E",
    "status": "Assigned to Contractor",
    "contractor": "Waste Pro",
    "rowid": "1279409",
    "final_x": "3715450.21931",
    "final_y": "569846.184998",
    "longitude": "-89.95941790004419",
    "latitude": "30.059803267004344",
    "geocoded_column": {
      "latitude": "30.059803267004344",
      "longitude": "-89.95941790004419"
    }
  },
  {
    "service_request": "2026-1279408",
    "request_type": "Trash/Recycling",
    "request_reason": "Request a Large Item Pick Up",
    "date_created": "2026-05-06T15:48:51.000",
    "date_modified": "2026-05-06T15:48:53.000",
    "request_status": "Pending",
    "responsible_agency": "Department of Sanitation",
    "final_address": "1328 Poland Ave",
    "address_councildis": "D",
    "status": "Assigned to Contractor",
    "contractor": "IV Waste",
    "rowid": "1279408",
    "final_x": "3693225.23312",
    "final_y": "536018.055431",
    "longitude": "-90.03088497288536",
    "latitude": "29.967502540490145",
    "geocoded_column": {
      "latitude": "29.967502540490145",
      "longitude": "-90.03088497288536"
    }
  },
  {
    "service_request": "2026-1279407",
    "request_type": "Trash/Recycling",
    "request_reason": "Illegal Dumping",
    "date_created": "2026-05-06T15:48:17.000",
    "date_modified": "2026-05-06T15:48:19.000",
    "request_status": "Pending",
    "responsible_agency": "Department of Sanitation",
    "final_address": "GAWAIN DR & CHEF MENTEUR HWY",
    "address_councildis": "E",
    "status": "Pending",
    "rowid": "1279407",
    "final_x": "3707216.8",
    "final_y": "553333.78",
    "longitude": "-89.98605675205464",
    "latitude": "30.014669562872538",
    "geocoded_column": {
      "latitude": "30.014669562872538",
      "longitude": "-89.98605675205464"
    }
  },
  {
    "service_request": "2026-1279406",
    "request_type": "Trash/Recycling",
    "request_reason": "Request a Large Item Pick Up",
    "date_created": "2026-05-06T15:44:38.000",
    "date_modified": "2026-05-06T15:44:40.000",
    "request_status": "Pending",
    "responsible_agency": "Department of Sanitation",
    "final_address": "4936 Virgilian St",
    "address_councildis": "D",
    "status": "Assigned to Contractor",
    "contractor": "Waste Pro",
    "rowid": "1279406",
    "final_x": "3697298.93059",
    "final_y": "554836.806232",
    "longitude": "-90.01733767723994",
    "latitude": "30.01911923419567",
    "geocoded_column": {
      "latitude": "30.01911923419567",
      "longitude": "-90.01733767723994"
    }
  },
  {
    "service_request": "2026-1279405",
    "request_type": "Trash/Recycling",
    "request_reason": "Replace Trash Cart",
    "date_created": "2026-05-06T15:44:05.000",
    "date_modified": "2026-05-06T15:44:08.000",
    "request_status": "Pending",
    "responsible_agency": "Department of Sanitation",
    "final_address": "3229 Thalia St",
    "address_councildis": "B",
    "status": "Assigned to Contractor",
    "contractor": "IV Waste",
    "rowid": "1279405",
    "final_x": "3674412.11816",
    "final_y": "528955.11488",
    "longitude": "-90.09053917536575",
    "latitude": "29.948656401872775",
    "geocoded_column": {
      "latitude": "29.948656401872775",
      "longitude": "-90.09053917536575"
    }
  },
  {
    "service_request": "2026-1279404",
    "request_type": "Trash/Recycling",
    "request_reason": "Request a Large Item Pick Up",
    "date_created": "2026-05-06T15:42:40.000",
    "date_modified": "2026-05-06T15:42:42.000",
    "request_status": "Pending",
    "responsible_agency": "Department of Sanitation",
    "final_address": "4814 Stemway Dr",
    "address_councildis": "D",
    "status": "Assigned to Contractor",
    "contractor": "Waste Pro",
    "rowid": "1279404",
    "final_x": "3696813.50301",
    "final_y": "554514.319128",
    "longitude": "-90.01888314105888",
    "latitude": "30.01824783719075",
    "geocoded_column": {
      "latitude": "30.01824783719075",
      "longitude": "-90.01888314105888"
    }
  },
  {
    "service_request": "2026-1279403",
    "request_type": "Trash/Recycling",
    "request_reason": "Request a Large Item Pick Up",
    "date_created": "2026-05-06T15:42:30.000",
    "date_modified": "2026-05-06T15:42:32.000",
    "request_status": "Pending",
    "responsible_agency": "Department of Sanitation",
    "final_address": "2717 N Tonti St",
    "address_councildis": "D",
    "status": "Assigned to Contractor",
    "contractor": "IV Waste",
    "rowid": "1279403",
    "final_x": "3688079.89686",
    "final_y": "541027.465291",
    "longitude": "-90.04695640172429",
    "latitude": "29.981436466315188",
    "geocoded_column": {
      "latitude": "29.981436466315188",
      "longitude": "-90.04695640172429"
    }
  },
  {
    "service_request": "2026-1279402",
    "request_type": "Trash/Recycling",
    "request_reason": "Request a Large Item Pick Up",
    "date_created": "2026-05-06T15:38:02.000",
    "date_modified": "2026-05-06T15:38:04.000",
    "request_status": "Pending",
    "responsible_agency": "Department of Sanitation",
    "final_address": "5451 Canal Blvd",
    "address_councildis": "A",
    "status": "Assigned to Contractor",
    "contractor": "IV Waste",
    "rowid": "1279402",
    "final_x": "3668276.89421",
    "final_y": "543612.38107",
    "longitude": "-90.10941641139493",
    "latitude": "29.989140542105496",
    "geocoded_column": {
      "latitude": "29.989140542105496",
      "longitude": "-90.10941641139493"
    }
  },
  {
    "service_request": "2026-1279401",
    "request_type": "Trash/Recycling",
    "request_reason": "Repair Trash Cart",
    "date_created": "2026-05-06T15:32:11.000",
    "date_modified": "2026-05-06T15:32:13.000",
    "request_status": "Pending",
    "responsible_agency": "Department of Sanitation",
    "final_address": "3409 Audubon Ct",
    "address_councildis": "B",
    "status": "Assigned to Contractor",
    "contractor": "IV Waste",
    "rowid": "1279401",
    "final_x": "3668915.63764",
    "final_y": "532768.466948",
    "longitude": "-90.10776516387654",
    "latitude": "29.95930464709613",
    "geocoded_column": {
      "latitude": "29.95930464709613",
      "longitude": "-90.10776516387654"
    }
  },
  {
    "service_request": "2026-1279400",
    "request_type": "Trash/Recycling",
    "request_reason": "Repair Recycling Cart",
    "date_created": "2026-05-06T15:29:39.000",
    "date_modified": "2026-05-06T15:29:41.000",
    "request_status": "Pending",
    "responsible_agency": "Department of Sanitation",
    "final_address": "7628 Jeannette St",
    "address_councildis": "A",
    "status": "Pending",
    "rowid": "1279400",
    "final_x": "3663848.18592",
    "final_y": "527966.194367",
    "longitude": "-90.1239270926007",
    "latitude": "29.946248011815257",
    "geocoded_column": {
      "latitude": "29.946248011815257",
      "longitude": "-90.1239270926007"
    }
  },
  {
    "service_request": "2026-1279399",
    "request_type": "Trash/Recycling",
    "request_reason": "Repair Trash Cart",
    "date_created": "2026-05-06T15:28:52.000",
    "date_modified": "2026-05-06T15:28:54.000",
    "request_status": "Pending",
    "responsible_agency": "Department of Sanitation",
    "final_address": "7628 Jeannette St",
    "address_councildis": "A",
    "status": "Assigned to Contractor",
    "contractor": "IV Waste",
    "rowid": "1279399",
    "final_x": "3663848.18592",
    "final_y": "527966.194367",
    "longitude": "-90.1239270926007",
    "latitude": "29.946248011815257",
    "geocoded_column": {
      "latitude": "29.946248011815257",
      "longitude": "-90.1239270926007"
    }
  },
  {
    "service_request": "2026-1279398",
    "request_type": "Property Maintenance",
    "request_reason": "Property Maintenance",
    "date_created": "2026-05-06T15:28:30.000",
    "date_modified": "2026-05-06T15:31:57.000",
    "request_status": "Pending",
    "responsible_agency": "Department of Code Enforcement",
    "final_address": "1924 Allen St",
    "address_councildis": "D",
    "status": "Pending",
    "rowid": "1279398",
    "final_x": "3682475.25493",
    "final_y": "539227.676106",
    "longitude": "-90.06472136312773",
    "latitude": "29.976659493457653",
    "geocoded_column": {
      "latitude": "29.976659493457653",
      "longitude": "-90.06472136312773"
    }
  },
  {
    "service_request": "2026-1279397",
    "request_type": "Tree Service",
    "request_reason": "Tree Trim",
    "date_created": "2026-05-06T15:25:51.000",
    "date_modified": "2026-05-06T15:25:52.000",
    "request_status": "Pending",
    "responsible_agency": "Department of Parks & Parkways",
    "final_address": "N DORGENOIS ST & DUBREUIL ST",
    "address_councildis": "E",
    "status": "Pending",
    "rowid": "1279397",
    "final_x": "3702740.3",
    "final_y": "537812.08",
    "longitude": "-90.00077053502285",
    "latitude": "29.972134636773607",
    "geocoded_column": {
      "latitude": "29.972134636773607",
      "longitude": "-90.00077053502285"
    }
  },
  {
    "service_request": "2026-1279396",
    "request_type": "Property Maintenance",
    "request_reason": "Property Maintenance",
    "date_created": "2026-05-06T15:22:10.000",
    "date_modified": "2026-05-06T15:22:15.000",
    "request_status": "Pending",
    "responsible_agency": "Department of Code Enforcement",
    "final_address": "2516 Philip St",
    "address_councildis": "B",
    "status": "Pending",
    "rowid": "1279396",
    "final_x": "3675212.5275",
    "final_y": "526201.59571",
    "longitude": "-90.0881064222469",
    "latitude": "29.941061237266457",
    "geocoded_column": {
      "latitude": "29.941061237266457",
      "longitude": "-90.0881064222469"
    }
  },
  {
    "service_request": "2026-1279395",
    "request_type": "Trash/Recycling",
    "request_reason": "Request a Large Item Pick Up",
    "date_created": "2026-05-06T15:19:46.000",
    "date_modified": "2026-05-06T15:19:47.000",
    "request_status": "Pending",
    "responsible_agency": "Department of Sanitation",
    "final_address": "2801 Kabel Dr",
    "address_councildis": "C",
    "status": "Assigned to Contractor",
    "contractor": "Richards Disposal",
    "rowid": "1279395",
    "final_x": "3700599.53873",
    "final_y": "520877.556537",
    "longitude": "-90.00814989827113",
    "latitude": "29.925638957393918",
    "geocoded_column": {
      "latitude": "29.925638957393918",
      "longitude": "-90.00814989827113"
    }
  },
  {
    "service_request": "2026-1279394",
    "request_type": "Trash/Recycling",
    "request_reason": "Request a Large Item Pick Up",
    "date_created": "2026-05-06T15:19:42.000",
    "date_modified": "2026-05-06T15:19:44.000",
    "request_status": "Pending",
    "responsible_agency": "Department of Sanitation",
    "final_address": "422 S Lopez St",
    "address_councildis": "B",
    "status": "Assigned to Contractor",
    "contractor": "IV Waste",
    "rowid": "1279394",
    "final_x": "3673040.73115",
    "final_y": "535070.742982",
    "longitude": "-90.09466049243028",
    "latitude": "29.96551317243648",
    "geocoded_column": {
      "latitude": "29.96551317243648",
      "longitude": "-90.09466049243028"
    }
  },
  {
    "service_request": "2026-1279393",
    "request_type": "Tree Service",
    "request_reason": "Tree Trim",
    "date_created": "2026-05-06T15:18:47.000",
    "date_modified": "2026-05-06T15:31:46.000",
    "request_status": "Pending",
    "responsible_agency": "Department of Parks & Parkways",
    "final_address": "4924 Wright Rd",
    "address_councildis": "E",
    "status": "Pending",
    "rowid": "1279393",
    "final_x": "3716530.97324",
    "final_y": "557740.285915",
    "longitude": "-89.9564615511931",
    "latitude": "30.026481290838323",
    "geocoded_column": {
      "latitude": "30.026481290838323",
      "longitude": "-89.9564615511931"
    }
  },
  {
    "service_request": "2026-1279392",
    "request_type": "Trash/Recycling",
    "request_reason": "Order Recycling Cart",
    "date_created": "2026-05-06T15:17:45.000",
    "date_modified": "2026-05-06T15:17:47.000",
    "request_status": "Pending",
    "responsible_agency": "Department of Sanitation",
    "final_address": "4760 Arts St",
    "address_councildis": "D",
    "status": "Pending",
    "rowid": "1279392",
    "final_x": "3685819.49039",
    "final_y": "550753.438421",
    "longitude": "-90.05375274702102",
    "latitude": "30.00824898847265",
    "geocoded_column": {
      "latitude": "30.00824898847265",
      "longitude": "-90.05375274702102"
    }
  },
  {
    "service_request": "2026-1279391",
    "request_type": "Trash/Recycling",
    "request_reason": "Request a Large Item Pick Up",
    "date_created": "2026-05-06T15:15:15.000",
    "date_modified": "2026-05-06T15:15:17.000",
    "request_status": "Pending",
    "responsible_agency": "Department of Sanitation",
    "final_address": "2318 Valence St",
    "address_councildis": "B",
    "status": "Assigned to Contractor",
    "contractor": "IV Waste",
    "rowid": "1279391",
    "final_x": "3669392.50593",
    "final_y": "523416.714875",
    "longitude": "-90.10657548386166",
    "latitude": "29.933576341418576",
    "geocoded_column": {
      "latitude": "29.933576341418576",
      "longitude": "-90.10657548386166"
    }
  },
  {
    "service_request": "2026-1279390",
    "request_type": "Property Maintenance",
    "request_reason": "Property Maintenance",
    "date_created": "2026-05-06T15:14:24.000",
    "date_modified": "2026-05-06T15:16:09.000",
    "request_status": "Pending",
    "responsible_agency": "Department of Code Enforcement",
    "final_address": "2720 N Rampart St",
    "address_councildis": "C",
    "status": "Pending",
    "rowid": "1279390",
    "final_x": "3687470.51618",
    "final_y": "535888.828167",
    "longitude": "-90.04906301145547",
    "latitude": "29.967325817387426",
    "geocoded_column": {
      "latitude": "29.967325817387426",
      "longitude": "-90.04906301145547"
    }
  },
  {
    "service_request": "2026-1279389",
    "request_type": "Trash/Recycling",
    "request_reason": "Missed Trash Pick-Up",
    "date_created": "2026-05-06T15:11:14.000",
    "date_modified": "2026-05-06T15:48:58.000",
    "case_close_date": "2026-05-06T10:48:57.000",
    "request_status": "Closed",
    "responsible_agency": "Department of Sanitation",
    "final_address": "320 Webster St",
    "address_councildis": "A",
    "status": "Invalid Request",
    "contractor": "IV Waste",
    "contractor_action": "Invalid Request",
    "rowid": "1279389",
    "final_x": "3663499.59079",
    "final_y": "517974.064182",
    "longitude": "-90.12536032749213",
    "latitude": "29.918782921753767",
    "geocoded_column": {
      "latitude": "29.918782921753767",
      "longitude": "-90.12536032749213"
    }
  },
  {
    "service_request": "2026-1279388",
    "request_type": "Roads and Streets",
    "request_reason": "Debris in Driving Lanes",
    "date_created": "2026-05-06T15:06:37.000",
    "date_modified": "2026-05-06T15:06:40.000",
    "request_status": "Pending",
    "responsible_agency": "Department of Public Works",
    "final_address": "FRANCE RD & HAYNE BLVD",
    "address_councildis": "D",
    "status": "Pending",
    "rowid": "1279388",
    "final_x": "3690868.34",
    "final_y": "558794.79",
    "longitude": "-90.03751462024054",
    "latitude": "30.03020370998618",
    "geocoded_column": {
      "latitude": "30.03020370998618",
      "longitude": "-90.03751462024054"
    }
  },
  {
    "service_request": "2026-1279387",
    "request_type": "Trash/Recycling",
    "request_reason": "Request a Large Item Pick Up",
    "date_created": "2026-05-06T15:04:22.000",
    "date_modified": "2026-05-06T15:10:31.000",
    "request_status": "Pending",
    "responsible_agency": "Department of Sanitation",
    "final_address": "2017 Broadway St, New Orleans, Louisiana, 70118",
    "address_councildis": "A",
    "status": "Assigned to Contractor",
    "contractor": "IV Waste",
    "rowid": "1279387",
    "final_x": "3665875.79495",
    "final_y": "528939.295232",
    "longitude": "-90.11749260011227",
    "latitude": "29.948864723456214",
    "geocoded_column": {
      "latitude": "29.948864723456214",
      "longitude": "-90.11749260011227"
    }
  },
  {
    "service_request": "2026-1279386",
    "request_type": "Trash/Recycling",
    "request_reason": "Replace Trash Cart",
    "date_created": "2026-05-06T15:02:34.000",
    "date_modified": "2026-05-06T15:02:37.000",
    "request_status": "Pending",
    "responsible_agency": "Department of Sanitation",
    "final_address": "7350 Newcastle St",
    "address_councildis": "E",
    "status": "Assigned to Contractor",
    "contractor": "Waste Pro",
    "rowid": "1279386",
    "final_x": "3697368.40349",
    "final_y": "558599.560732",
    "longitude": "-90.0169815864481",
    "latitude": "30.02946318135517",
    "geocoded_column": {
      "latitude": "30.02946318135517",
      "longitude": "-90.0169815864481"
    }
  },
  {
    "service_request": "2026-1279385",
    "request_type": "Trash/Recycling",
    "request_reason": "Replace Trash Cart",
    "date_created": "2026-05-06T15:01:59.000",
    "date_modified": "2026-05-06T15:02:03.000",
    "request_status": "Pending",
    "responsible_agency": "Department of Sanitation",
    "final_address": "836 St Maurice Ave Apt 101",
    "address_councildis": "E",
    "status": "Assigned to Contractor",
    "contractor": "Waste Pro",
    "rowid": "1279385",
    "final_x": "3699444.2801",
    "final_y": "532403.623939",
    "longitude": "-90.0113769102456",
    "latitude": "29.957368305048483",
    "geocoded_column": {
      "latitude": "29.957368305048483",
      "longitude": "-90.0113769102456"
    }
  },
  {
    "service_request": "2026-1279384",
    "request_type": "Trash/Recycling",
    "request_reason": "Request a Large Item Pick Up",
    "date_created": "2026-05-06T15:01:08.000",
    "date_modified": "2026-05-06T15:01:10.000",
    "request_status": "Pending",
    "responsible_agency": "Department of Sanitation",
    "final_address": "2319 Dante St",
    "address_councildis": "A",
    "status": "Assigned to Contractor",
    "contractor": "IV Waste",
    "rowid": "1279384",
    "final_x": "3664178.70445",
    "final_y": "531824.947267",
    "longitude": "-90.12275480831327",
    "latitude": "29.95684873790151",
    "geocoded_column": {
      "latitude": "29.95684873790151",
      "longitude": "-90.12275480831327"
    }
  },
  {
    "service_request": "2026-1279383",
    "request_type": "Trash/Recycling",
    "request_reason": "Replace Recycling Cart",
    "date_created": "2026-05-06T14:49:15.000",
    "date_modified": "2026-05-06T14:49:17.000",
    "request_status": "Pending",
    "responsible_agency": "Department of Sanitation",
    "final_address": "6027 Chatham Dr",
    "address_councildis": "D",
    "status": "Pending",
    "rowid": "1279383",
    "final_x": "3679669.31938",
    "final_y": "554678.650776",
    "longitude": "-90.07304664500228",
    "latitude": "30.019229315777626",
    "geocoded_column": {
      "latitude": "30.019229315777626",
      "longitude": "-90.07304664500228"
    }
  },
  {
    "service_request": "2026-1279382",
    "request_type": "Trash/Recycling",
    "request_reason": "Request a Large Item Pick Up",
    "date_created": "2026-05-06T14:46:34.000",
    "date_modified": "2026-05-06T14:46:36.000",
    "request_status": "Pending",
    "responsible_agency": "Department of Sanitation",
    "final_address": "1438 Reynes St",
    "address_councildis": "E",
    "status": "Assigned to Contractor",
    "contractor": "Waste Pro",
    "rowid": "1279382",
    "final_x": "3696315.12016",
    "final_y": "535694.505735",
    "longitude": "-90.02113880101174",
    "latitude": "29.966515959021372",
    "geocoded_column": {
      "latitude": "29.966515959021372",
      "longitude": "-90.02113880101174"
    }
  },
  {
    "service_request": "2026-1279381",
    "request_type": "Tree Service",
    "request_reason": "Tree Trim",
    "date_created": "2026-05-06T14:45:05.000",
    "date_modified": "2026-05-06T14:45:07.000",
    "request_status": "Pending",
    "responsible_agency": "Department of Parks & Parkways",
    "final_address": "5006 Burgundy St",
    "address_councildis": "E",
    "status": "Pending",
    "rowid": "1279381",
    "final_x": "3695811.62262",
    "final_y": "533435.05114",
    "longitude": "-90.02281044059399",
    "latitude": "29.960319104280053",
    "geocoded_column": {
      "latitude": "29.960319104280053",
      "longitude": "-90.02281044059399"
    }
  },
  {
    "service_request": "2026-1279380",
    "request_type": "Property Maintenance",
    "request_reason": "Property Maintenance",
    "date_created": "2026-05-06T14:44:58.000",
    "date_modified": "2026-05-06T14:45:05.000",
    "request_status": "Pending",
    "responsible_agency": "Department of Code Enforcement",
    "final_address": "2837 Milan St",
    "address_councildis": "B",
    "status": "Pending",
    "rowid": "1279380",
    "final_x": "3671183.03867",
    "final_y": "525465.503805",
    "longitude": "-90.10085328448618",
    "latitude": "29.93915701639153",
    "geocoded_column": {
      "latitude": "29.93915701639153",
      "longitude": "-90.10085328448618"
    }
  },
  {
    "service_request": "2026-1279379",
    "request_type": "Abandoned Vehicles",
    "request_reason": "Abandoned/Junk Vehicles",
    "date_created": "2026-05-06T14:43:43.000",
    "date_modified": "2026-05-06T14:43:45.000",
    "request_status": "Pending",
    "responsible_agency": "Department of Public Works",
    "final_address": "1533 Mandeville St",
    "address_councildis": "C",
    "status": "Pending",
    "rowid": "1279379",
    "final_x": "3685669.27938",
    "final_y": "538123.612489",
    "longitude": "-90.05467257625666",
    "latitude": "29.973526084011976",
    "geocoded_column": {
      "latitude": "29.973526084011976",
      "longitude": "-90.05467257625666"
    }
  },
  {
    "service_request": "2026-1279378",
    "request_type": "Safety & Permits",
    "request_reason": "Licenses & Permits",
    "date_created": "2026-05-06T14:41:41.000",
    "date_modified": "2026-05-06T14:41:44.000",
    "request_status": "Pending",
    "responsible_agency": "Safety and Permits",
    "final_address": "2457 N Galvez St",
    "address_councildis": "D",
    "status": "Pending",
    "rowid": "1279378",
    "final_x": "3686687.02678",
    "final_y": "540182.882827",
    "longitude": "-90.05138556182146",
    "latitude": "29.9791570857515",
    "geocoded_column": {
      "latitude": "29.9791570857515",
      "longitude": "-90.05138556182146"
    }
  },
  {
    "service_request": "2026-1279377",
    "request_type": "Safety & Permits",
    "request_reason": "Zoning Enforcement",
    "date_created": "2026-05-06T14:40:03.000",
    "date_modified": "2026-05-06T14:40:06.000",
    "request_status": "Pending",
    "responsible_agency": "Safety and Permits",
    "final_address": "2837 Dumaine St",
    "address_councildis": "C",
    "status": "Pending",
    "rowid": "1279377",
    "final_x": "3676486.7691",
    "final_y": "538074.756361",
    "longitude": "-90.08367458357122",
    "latitude": "29.973670305735986",
    "geocoded_column": {
      "latitude": "29.973670305735986",
      "longitude": "-90.08367458357122"
    }
  },
  {
    "service_request": "2026-1279376",
    "request_type": "Trash/Recycling",
    "request_reason": "Repair Trash Cart",
    "date_created": "2026-05-06T14:36:38.000",
    "date_modified": "2026-05-06T14:36:41.000",
    "request_status": "Pending",
    "responsible_agency": "Department of Sanitation",
    "final_address": "5828 Magnolia St",
    "address_councildis": "A",
    "status": "Assigned to Contractor",
    "contractor": "IV Waste",
    "rowid": "1279376",
    "final_x": "3666802.00109",
    "final_y": "524902.680572",
    "longitude": "-90.114703708006",
    "latitude": "29.937738278607156",
    "geocoded_column": {
      "latitude": "29.937738278607156",
      "longitude": "-90.114703708006"
    }
  },
  {
    "service_request": "2026-1279375",
    "request_type": "Trash/Recycling",
    "request_reason": "Request a Large Item Pick Up",
    "date_created": "2026-05-06T14:35:53.000",
    "date_modified": "2026-05-06T14:40:49.000",
    "request_status": "Pending",
    "responsible_agency": "Department of Sanitation",
    "final_address": "3950 Virgil Blvd",
    "address_councildis": "D",
    "status": "Assigned to Contractor",
    "contractor": "IV Waste",
    "rowid": "1279375",
    "final_x": "3679906.31528",
    "final_y": "547067.911825",
    "longitude": "-90.07256241253101",
    "latitude": "29.998295349215773",
    "geocoded_column": {
      "latitude": "29.998295349215773",
      "longitude": "-90.07256241253101"
    }
  },
  {
    "service_request": "2026-1279374",
    "request_type": "Roads and Streets",
    "request_reason": "Pothole",
    "date_created": "2026-05-06T14:33:39.000",
    "date_modified": "2026-05-06T14:33:41.000",
    "request_status": "Pending",
    "responsible_agency": "Department of Public Works",
    "final_address": "1239 Seville Dr",
    "address_councildis": "D",
    "status": "Pending",
    "rowid": "1279374",
    "final_x": "3677096.75029",
    "final_y": "551187.663253",
    "longitude": "-90.081295614549",
    "latitude": "30.009707905628115",
    "geocoded_column": {
      "latitude": "30.009707905628115",
      "longitude": "-90.081295614549"
    }
  },
  {
    "service_request": "2026-1279373",
    "request_type": "Trash/Recycling",
    "request_reason": "Request a Large Item Pick Up",
    "date_created": "2026-05-06T14:32:16.000",
    "date_modified": "2026-05-06T14:32:18.000",
    "request_status": "Pending",
    "responsible_agency": "Department of Sanitation",
    "final_address": "1834 Moss St",
    "address_councildis": "A",
    "status": "Assigned to Contractor",
    "contractor": "IV Waste",
    "rowid": "1279373",
    "final_x": "3675283.30369",
    "final_y": "543333.24123",
    "longitude": "-90.08729479388768",
    "latitude": "29.988165364980954",
    "geocoded_column": {
      "latitude": "29.988165364980954",
      "longitude": "-90.08729479388768"
    }
  },
  {
    "service_request": "2026-1279372",
    "request_type": "Trash/Recycling",
    "request_reason": "Request a Large Item Pick Up",
    "date_created": "2026-05-06T14:29:50.000",
    "date_modified": "2026-05-06T14:29:52.000",
    "request_status": "Pending",
    "responsible_agency": "Department of Sanitation",
    "final_address": "1205 Valence St",
    "address_councildis": "B",
    "status": "Assigned to Contractor",
    "contractor": "IV Waste",
    "rowid": "1279372",
    "final_x": "3669899.03559",
    "final_y": "519801.370488",
    "longitude": "-90.10509873404295",
    "latitude": "29.923620378319395",
    "geocoded_column": {
      "latitude": "29.923620378319395",
      "longitude": "-90.10509873404295"
    }
  },
  {
    "service_request": "2026-1279371",
    "request_type": "Trash/Recycling",
    "request_reason": "Order Recycling Cart",
    "date_created": "2026-05-06T14:28:52.000",
    "date_modified": "2026-05-06T14:28:53.000",
    "request_status": "Pending",
    "responsible_agency": "Department of Sanitation",
    "final_address": "2912 Prytania St",
    "address_councildis": "B",
    "status": "Pending",
    "rowid": "1279371",
    "final_x": "3675712.04833",
    "final_y": "521691.998777",
    "longitude": "-90.08668424402123",
    "latitude": "29.928646382325645",
    "geocoded_column": {
      "latitude": "29.928646382325645",
      "longitude": "-90.08668424402123"
    }
  },
  {
    "service_request": "2026-1279370",
    "request_type": "Safety & Permits",
    "request_reason": "Construction permit",
    "date_created": "2026-05-06T14:26:11.000",
    "date_modified": "2026-05-06T14:26:13.000",
    "request_status": "Pending",
    "responsible_agency": "Safety and Permits",
    "final_address": "5802 Mckenna St",
    "address_councildis": "B",
    "status": "Pending",
    "rowid": "1279370",
    "final_x": "3668263.82381",
    "final_y": "529071.196224",
    "longitude": "-90.10994809474933",
    "latitude": "29.949157517903135",
    "geocoded_column": {
      "latitude": "29.949157517903135",
      "longitude": "-90.10994809474933"
    }
  },
  {
    "service_request": "2026-1279369",
    "request_type": "Street and Traffic Signs",
    "request_reason": "Traffic or Parking Sign Damaged or Missing",
    "date_created": "2026-05-06T14:25:34.000",
    "date_modified": "2026-05-06T14:25:36.000",
    "request_status": "Pending",
    "responsible_agency": "Department of Public Works",
    "final_address": "1905 S Carrollton Ave",
    "address_councildis": "A",
    "status": "Pending",
    "rowid": "1279369",
    "final_x": "3663792.46458",
    "final_y": "530132.098497",
    "longitude": "-90.12403085231433",
    "latitude": "29.952205167331485",
    "geocoded_column": {
      "latitude": "29.952205167331485",
      "longitude": "-90.12403085231433"
    }
  },
  {
    "service_request": "2026-1279368",
    "request_type": "Trash/Recycling",
    "request_reason": "Request a Large Item Pick Up",
    "date_created": "2026-05-06T14:25:04.000",
    "date_modified": "2026-05-06T14:25:06.000",
    "request_status": "Pending",
    "responsible_agency": "Department of Sanitation",
    "final_address": "3005 Paris Ave",
    "address_councildis": "D",
    "status": "Assigned to Contractor",
    "contractor": "IV Waste",
    "rowid": "1279368",
    "final_x": "3679966.9508",
    "final_y": "543428.862734",
    "longitude": "-90.07249735966575",
    "latitude": "29.988287413764898",
    "geocoded_column": {
      "latitude": "29.988287413764898",
      "longitude": "-90.07249735966575"
    }
  },
  {
    "service_request": "2026-1279367",
    "request_type": "Trash/Recycling",
    "request_reason": "Request a Large Item Pick Up",
    "date_created": "2026-05-06T14:23:25.000",
    "date_modified": "2026-05-06T14:23:27.000",
    "request_status": "Pending",
    "responsible_agency": "Department of Sanitation",
    "final_address": "4111 Vendome Pl",
    "address_councildis": "B",
    "status": "Assigned to Contractor",
    "contractor": "IV Waste",
    "rowid": "1279367",
    "final_x": "3668921.56647",
    "final_y": "530471.884034",
    "longitude": "-90.10782400492623",
    "latitude": "29.952989625227353",
    "geocoded_column": {
      "latitude": "29.952989625227353",
      "longitude": "-90.10782400492623"
    }
  },
  {
    "service_request": "2026-1279366",
    "request_type": "Trash/Recycling",
    "request_reason": "Repair Trash Cart",
    "date_created": "2026-05-06T14:23:15.000",
    "date_modified": "2026-05-06T14:23:20.000",
    "request_status": "Pending",
    "responsible_agency": "Department of Sanitation",
    "final_address": "835 Exposition Blvd",
    "address_councildis": "A",
    "status": "Assigned to Contractor",
    "contractor": "IV Waste",
    "rowid": "1279366",
    "final_x": "3663294.62573",
    "final_y": "520063.117112",
    "longitude": "-90.12593781541344",
    "latitude": "29.924533106008404",
    "geocoded_column": {
      "latitude": "29.924533106008404",
      "longitude": "-90.12593781541344"
    }
  },
  {
    "service_request": "2026-1279365",
    "request_type": "Abandoned Vehicles",
    "request_reason": "Abandoned/Junk Vehicles",
    "date_created": "2026-05-06T14:22:15.000",
    "date_modified": "2026-05-06T14:22:16.000",
    "request_status": "Pending",
    "responsible_agency": "Department of Public Works",
    "final_address": "ELIZA ST & BOUNY ST",
    "address_councildis": "C",
    "status": "Pending",
    "rowid": "1279365",
    "final_x": "3686341.8",
    "final_y": "529437.88",
    "longitude": "-90.05285516484166",
    "latitude": "29.949622668122064",
    "geocoded_column": {
      "latitude": "29.949622668122064",
      "longitude": "-90.05285516484166"
    }
  },
  {
    "service_request": "2026-1279364",
    "request_type": "Trash/Recycling",
    "request_reason": "Request a Large Item Pick Up",
    "date_created": "2026-05-06T14:21:20.000",
    "date_modified": "2026-05-06T14:21:22.000",
    "request_status": "Pending",
    "responsible_agency": "Department of Sanitation",
    "final_address": "2515 N Johnson St",
    "address_councildis": "D",
    "status": "Assigned to Contractor",
    "contractor": "IV Waste",
    "rowid": "1279364",
    "final_x": "3687106.66236",
    "final_y": "539856.731338",
    "longitude": "-90.0500717292672",
    "latitude": "29.978247368486148",
    "geocoded_column": {
      "latitude": "29.978247368486148",
      "longitude": "-90.0500717292672"
    }
  },
  {
    "service_request": "2026-1279363",
    "request_type": "Property Maintenance",
    "request_reason": "Property Maintenance",
    "date_created": "2026-05-06T14:20:13.000",
    "date_modified": "2026-05-06T14:20:15.000",
    "request_status": "Pending",
    "responsible_agency": "Department of Code Enforcement",
    "final_address": "1846 Egania St",
    "address_councildis": "E",
    "status": "Pending",
    "rowid": "1279363",
    "final_x": "3697593.41539",
    "final_y": "537009.806472",
    "longitude": "-90.01705426680083",
    "latitude": "29.97009225192305",
    "geocoded_column": {
      "latitude": "29.97009225192305",
      "longitude": "-90.01705426680083"
    }
  },
  {
    "service_request": "2026-1279362",
    "request_type": "Trash/Recycling",
    "request_reason": "Request a Large Item Pick Up",
    "date_created": "2026-05-06T14:17:06.000",
    "date_modified": "2026-05-06T14:17:07.000",
    "request_status": "Pending",
    "responsible_agency": "Department of Sanitation",
    "final_address": "1726 Egania St",
    "address_councildis": "E",
    "status": "Assigned to Contractor",
    "contractor": "Waste Pro",
    "rowid": "1279362",
    "final_x": "3697460.15792",
    "final_y": "536537.168327",
    "longitude": "-90.01749224597185",
    "latitude": "29.96879687475703",
    "geocoded_column": {
      "latitude": "29.96879687475703",
      "longitude": "-90.01749224597185"
    }
  },
  {
    "service_request": "2026-1279361",
    "request_type": "Tree Service",
    "request_reason": "Dead or Dying Tree",
    "date_created": "2026-05-06T14:16:41.000",
    "date_modified": "2026-05-06T14:26:04.000",
    "case_close_date": "2026-05-06T09:26:03.000",
    "request_status": "Closed",
    "responsible_agency": "Department of Parks & Parkways",
    "final_address": "0 BLK Newcomb Blvd",
    "address_councildis": "A",
    "status": "Not Enough Information- Resubmittal Required",
    "rowid": "1279361",
    "final_x": "3663743.66591",
    "final_y": "525039.010405",
    "longitude": "-90.12435461421786",
    "latitude": "29.938202224269318",
    "geocoded_column": {
      "latitude": "29.938202224269318",
      "longitude": "-90.12435461421786"
    }
  },
  {
    "service_request": "2026-1279360",
    "request_type": "Trash/Recycling",
    "request_reason": "Request a Large Item Pick Up",
    "date_created": "2026-05-06T14:16:09.000",
    "date_modified": "2026-05-06T14:16:11.000",
    "request_status": "Pending",
    "responsible_agency": "Department of Sanitation",
    "final_address": "1846 Egania St",
    "address_councildis": "E",
    "status": "Assigned to Contractor",
    "contractor": "Waste Pro",
    "rowid": "1279360",
    "final_x": "3697593.41539",
    "final_y": "537009.806472",
    "longitude": "-90.01705426680083",
    "latitude": "29.97009225192305",
    "geocoded_column": {
      "latitude": "29.97009225192305",
      "longitude": "-90.01705426680083"
    }
  },
  {
    "service_request": "2026-1279359",
    "request_type": "Trash/Recycling",
    "request_reason": "Replace Trash Cart",
    "date_created": "2026-05-06T14:12:38.000",
    "date_modified": "2026-05-06T14:12:40.000",
    "request_status": "Pending",
    "responsible_agency": "Department of Sanitation",
    "final_address": "7 Golf Villa Dr",
    "address_councildis": "C",
    "status": "Assigned to Contractor",
    "contractor": "Richards Disposal",
    "rowid": "1279359",
    "final_x": "3717729.33631",
    "final_y": "514582.742579",
    "longitude": "-89.95431614450801",
    "latitude": "29.907774615666494",
    "geocoded_column": {
      "latitude": "29.907774615666494",
      "longitude": "-89.95431614450801"
    }
  },
  {
    "service_request": "2026-1279358",
    "request_type": "Trash/Recycling",
    "request_reason": "Order Recycling Cart",
    "date_created": "2026-05-06T14:10:25.000",
    "date_modified": "2026-05-06T14:10:28.000",
    "request_status": "Pending",
    "responsible_agency": "Department of Sanitation",
    "final_address": "7 Golf Villa Dr",
    "address_councildis": "C",
    "status": "Pending",
    "rowid": "1279358",
    "final_x": "3717729.33631",
    "final_y": "514582.742579",
    "longitude": "-89.95431614450801",
    "latitude": "29.907774615666494",
    "geocoded_column": {
      "latitude": "29.907774615666494",
      "longitude": "-89.95431614450801"
    }
  },
  {
    "service_request": "2026-1279357",
    "request_type": "Trash/Recycling",
    "request_reason": "Replace Trash Cart",
    "date_created": "2026-05-06T14:08:59.000",
    "date_modified": "2026-05-06T14:09:01.000",
    "request_status": "Pending",
    "responsible_agency": "Department of Sanitation",
    "final_address": "801 Howard Ave",
    "address_councildis": "B",
    "status": "Assigned to Contractor",
    "contractor": "IV Waste",
    "rowid": "1279357",
    "final_x": "3679778.42696",
    "final_y": "527439.528895",
    "longitude": "-90.07364807650731",
    "latitude": "29.94432791517851",
    "geocoded_column": {
      "latitude": "29.94432791517851",
      "longitude": "-90.07364807650731"
    }
  },
  {
    "service_request": "2026-1279356",
    "request_type": "Roads and Streets",
    "request_reason": "Pothole",
    "date_created": "2026-05-06T14:07:57.000",
    "date_modified": "2026-05-06T14:08:00.000",
    "request_status": "Pending",
    "responsible_agency": "Department of Public Works",
    "final_address": "1926 Pleasure St",
    "address_councildis": "D",
    "status": "Pending",
    "rowid": "1279356",
    "final_x": "3682279.78504",
    "final_y": "544928.907407",
    "longitude": "-90.06513942733544",
    "latitude": "29.992341826356057",
    "geocoded_column": {
      "latitude": "29.992341826356057",
      "longitude": "-90.06513942733544"
    }
  },
  {
    "service_request": "2026-1279355",
    "request_type": "Trash/Recycling",
    "request_reason": "Replace Trash Cart",
    "date_created": "2026-05-06T14:06:35.000",
    "date_modified": "2026-05-06T14:06:37.000",
    "request_status": "Pending",
    "responsible_agency": "Department of Sanitation",
    "final_address": "1414 Monroe St",
    "address_councildis": "A",
    "status": "Assigned to Contractor",
    "contractor": "IV Waste",
    "rowid": "1279355",
    "final_x": "3660910.66592",
    "final_y": "530443.26701",
    "longitude": "-90.13311999242268",
    "latitude": "29.953144094742893",
    "geocoded_column": {
      "latitude": "29.953144094742893",
      "longitude": "-90.13311999242268"
    }
  },
  {
    "service_request": "2026-1279354",
    "request_type": "Trash/Recycling",
    "request_reason": "Illegal Dumping",
    "date_created": "2026-05-06T14:05:46.000",
    "date_modified": "2026-05-06T14:06:17.000",
    "request_status": "Pending",
    "responsible_agency": "Department of Sanitation",
    "final_address": "4900 BLK Bullard Ave",
    "address_councildis": "E",
    "status": "Pending",
    "rowid": "1279354",
    "final_x": "3719202.46904",
    "final_y": "558207.839081",
    "longitude": "-89.94800217025124",
    "latitude": "30.027678336932574",
    "geocoded_column": {
      "latitude": "30.027678336932574",
      "longitude": "-89.94800217025124"
    }
  },
  {
    "service_request": "2026-1279353",
    "request_type": "Trash/Recycling",
    "request_reason": "Order Trash Cart",
    "date_created": "2026-05-06T14:02:04.000",
    "date_modified": "2026-05-06T14:03:05.000",
    "request_status": "Pending",
    "responsible_agency": "Department of Sanitation",
    "final_address": "6111 Erin Dr",
    "address_councildis": "E",
    "status": "Pending",
    "contractor": "Waste Pro",
    "rowid": "1279353",
    "final_x": "3695899.54691",
    "final_y": "558636.210908",
    "longitude": "-90.02162179713491",
    "latitude": "30.0296102717249",
    "geocoded_column": {
      "latitude": "30.0296102717249",
      "longitude": "-90.02162179713491"
    }
  },
  {
    "service_request": "2026-1279352",
    "request_type": "Trash/Recycling",
    "request_reason": "Request a Large Item Pick Up",
    "date_created": "2026-05-06T13:57:42.000",
    "date_modified": "2026-05-06T14:11:53.000",
    "request_status": "Pending",
    "responsible_agency": "Department of Sanitation",
    "final_address": "1927 Third St",
    "address_councildis": "B",
    "status": "Assigned to Contractor",
    "contractor": "IV Waste",
    "rowid": "1279352",
    "final_x": "3675739.10331",
    "final_y": "523992.002812",
    "longitude": "-90.08651983252251",
    "latitude": "29.93496983546944",
    "geocoded_column": {
      "latitude": "29.93496983546944",
      "longitude": "-90.08651983252251"
    }
  },
  {
    "service_request": "2026-1279351",
    "request_type": "Trash/Recycling",
    "request_reason": "Request a Large Item Pick Up",
    "date_created": "2026-05-06T13:55:26.000",
    "date_modified": "2026-05-06T13:55:27.000",
    "request_status": "Pending",
    "responsible_agency": "Department of Sanitation",
    "final_address": "1614 Pace Blvd",
    "address_councildis": "C",
    "status": "Assigned to Contractor",
    "contractor": "Richards Disposal",
    "rowid": "1279351",
    "final_x": "3694450.69277",
    "final_y": "525100.987645",
    "longitude": "-90.02740789432431",
    "latitude": "29.937446055534288",
    "geocoded_column": {
      "latitude": "29.937446055534288",
      "longitude": "-90.02740789432431"
    }
  },
  {
    "service_request": "2026-1279350",
    "request_type": "Roads and Streets",
    "request_reason": "Debris in Driving Lanes",
    "date_created": "2026-05-06T13:54:12.000",
    "date_modified": "2026-05-06T13:55:28.000",
    "request_status": "Pending",
    "responsible_agency": "Department of Public Works",
    "final_address": "GIROD ST & CAMP ST",
    "address_councildis": "B",
    "status": "Pending",
    "rowid": "1279350",
    "final_x": "3680922.0",
    "final_y": "528452.38",
    "longitude": "-90.07000223300007",
    "latitude": "29.94707829838798",
    "geocoded_column": {
      "latitude": "29.94707829838798",
      "longitude": "-90.07000223300007"
    }
  },
  {
    "service_request": "2026-1279349",
    "request_type": "Trash/Recycling",
    "request_reason": "Request a Large Item Pick Up",
    "date_created": "2026-05-06T13:52:24.000",
    "date_modified": "2026-05-06T14:19:38.000",
    "request_status": "Pending",
    "responsible_agency": "Department of Sanitation",
    "final_address": "920 Congress St",
    "address_councildis": "C",
    "status": "Assigned to Contractor",
    "contractor": "IV Waste",
    "rowid": "1279349",
    "final_x": "3690538.98153",
    "final_y": "534965.289478",
    "longitude": "-90.03940572253755",
    "latitude": "29.964691487897614",
    "geocoded_column": {
      "latitude": "29.964691487897614",
      "longitude": "-90.03940572253755"
    }
  },
  {
    "service_request": "2026-1279348",
    "request_type": "Trash/Recycling",
    "request_reason": "Request a Large Item Pick Up",
    "date_created": "2026-05-06T13:49:29.000",
    "date_modified": "2026-05-06T13:49:31.000",
    "request_status": "Pending",
    "responsible_agency": "Department of Sanitation",
    "final_address": "7406 Scottsdale Dr",
    "address_councildis": "E",
    "status": "Assigned to Contractor",
    "contractor": "Waste Pro",
    "rowid": "1279348",
    "final_x": "3704243.38519",
    "final_y": "561516.535327",
    "longitude": "-89.99514928923045",
    "latitude": "30.037264762253667",
    "geocoded_column": {
      "latitude": "30.037264762253667",
      "longitude": "-89.99514928923045"
    }
  },
  {
    "service_request": "2026-1279347",
    "request_type": "Trash/Recycling",
    "request_reason": "Repair Trash Cart",
    "date_created": "2026-05-06T13:46:52.000",
    "date_modified": "2026-05-06T13:50:26.000",
    "request_status": "Pending",
    "responsible_agency": "Department of Sanitation",
    "final_address": "920 Congress St",
    "address_councildis": "C",
    "status": "Assigned to Contractor",
    "contractor": "IV Waste",
    "rowid": "1279347",
    "final_x": "3690538.98153",
    "final_y": "534965.289478",
    "longitude": "-90.03940572253755",
    "latitude": "29.964691487897614",
    "geocoded_column": {
      "latitude": "29.964691487897614",
      "longitude": "-90.03940572253755"
    }
  },
  {
    "service_request": "2026-1279346",
    "request_type": "Trash/Recycling",
    "request_reason": "Return Recycling Cart",
    "date_created": "2026-05-06T13:44:46.000",
    "date_modified": "2026-05-06T13:49:09.000",
    "request_status": "Pending",
    "responsible_agency": "Department of Sanitation",
    "final_address": "920 Congress St",
    "address_councildis": "C",
    "status": "Pending",
    "rowid": "1279346",
    "final_x": "3690538.98153",
    "final_y": "534965.289478",
    "longitude": "-90.03940572253755",
    "latitude": "29.964691487897614",
    "geocoded_column": {
      "latitude": "29.964691487897614",
      "longitude": "-90.03940572253755"
    }
  },
  {
    "service_request": "2026-1279345",
    "request_type": "Safety & Permits",
    "request_reason": "Zoning Enforcement",
    "date_created": "2026-05-06T13:42:31.000",
    "date_modified": "2026-05-06T13:42:32.000",
    "request_status": "Pending",
    "responsible_agency": "Safety and Permits",
    "final_address": "4001 Pauger St",
    "address_councildis": "D",
    "status": "Pending",
    "rowid": "1279345",
    "final_x": "3683176.86933",
    "final_y": "545833.611024",
    "longitude": "-90.06227401451955",
    "latitude": "29.994802108440513",
    "geocoded_column": {
      "latitude": "29.994802108440513",
      "longitude": "-90.06227401451955"
    }
  },
  {
    "service_request": "2026-1279344",
    "request_type": "Abandoned Vehicles",
    "request_reason": "Abandoned/Junk Vehicles",
    "date_created": "2026-05-06T13:39:03.000",
    "date_modified": "2026-05-06T13:39:05.000",
    "request_status": "Pending",
    "responsible_agency": "Department of Public Works",
    "final_address": "6100 BLK Marais St",
    "address_councildis": "E",
    "status": "Pending",
    "rowid": "1279344",
    "final_x": "3699795.53147",
    "final_y": "533566.811919",
    "longitude": "-90.01022535897945",
    "latitude": "29.960555510465376",
    "geocoded_column": {
      "latitude": "29.960555510465376",
      "longitude": "-90.01022535897945"
    }
  },
  {
    "service_request": "2026-1279343",
    "request_type": "Trash/Recycling",
    "request_reason": "Request a Large Item Pick Up",
    "date_created": "2026-05-06T13:37:16.000",
    "date_modified": "2026-05-06T14:17:33.000",
    "request_status": "Pending",
    "responsible_agency": "Department of Sanitation",
    "final_address": "904 Joseph St",
    "address_councildis": "A",
    "status": "Assigned to Contractor",
    "contractor": "IV Waste",
    "rowid": "1279343",
    "final_x": "3666165.27079",
    "final_y": "519280.130295",
    "longitude": "-90.11690236725053",
    "latitude": "29.922296652651337",
    "geocoded_column": {
      "latitude": "29.922296652651337",
      "longitude": "-90.11690236725053"
    }
  },