[
  {
    "service_request": "2024-1079038",
    "request_type": "Trash/Recycling",
    "request_reason": "Request a Large Item Pick Up",
    "date_created": "2024-03-26T23:34:24.000",
    "date_modified": "2024-03-26T23:34:25.000",
    "request_status": "Pending",
    "responsible_agency": "Department of Sanitation",
    "final_address": "4974 Tynecastle Dr",
    "address_councildis": "E",
    "status": "Assigned to Contractor",
    "contractor": "Waste Pro",
    "rowid": "1079038",
    "final_x": "3718304.07884",
    "final_y": "558413.052764",
    "longitude": "-89.95083315718811",
    "latitude": "30.028272426936212",
    "geocoded_column": {
      "latitude": "30.028272426936212",
      "longitude": "-89.95083315718811"
    }
  },
  {
    "service_request": "2024-1079037",
    "request_type": "Traffic Signals/Signs/Striping/Streetlights",
    "request_reason": "Street Light Outage/Malfunction",
    "date_created": "2024-03-26T22:55:07.000",
    "date_modified": "2024-03-26T22:55:08.000",
    "request_status": "Pending",
    "responsible_agency": "Department of Public Works",
    "final_address": "5322 Prytania St",
    "address_councildis": "B",
    "status": "Assigned to Contractor",
    "contractor": "Legacy Professional Services",
    "rowid": "1079037",
    "final_x": "3667508.73018",
    "final_y": "520132.431736",
    "longitude": "-90.11263294091742",
    "latitude": "29.924600927575128",
    "geocoded_column": {
      "latitude": "29.924600927575128",
      "longitude": "-90.11263294091742"
    }
  },
  {
    "service_request": "2024-1079036",
    "request_type": "Property Maintenance",
    "request_reason": "Property Maintenance",
    "date_created": "2024-03-26T22:43:28.000",
    "date_modified": "2024-03-26T22:43:28.000",
    "request_status": "Pending",
    "responsible_agency": "Department of Code Enforcement",
    "final_address": "8540 Tulsa St",
    "address_councildis": "E",
    "status": "Pending",
    "rowid": "1079036",
    "final_x": "3706974.1132",
    "final_y": "553831.416279",
    "longitude": "-89.98680504095107",
    "latitude": "30.016045714629456",
    "geocoded_column": {
      "latitude": "30.016045714629456",
      "longitude": "-89.98680504095107"
    }
  },
  {
    "service_request": "2024-1079035",
    "request_type": "Property Maintenance",
    "request_reason": "Property Maintenance",
    "date_created": "2024-03-26T22:42:35.000",
    "date_modified": "2024-03-26T22:42:35.000",
    "request_status": "Pending",
    "responsible_agency": "Department of Code Enforcement",
    "final_address": "8541 Chef Menteur Hwy",
    "address_councildis": "E",
    "status": "Pending",
    "rowid": "1079035",
    "final_x": "3707015.82104",
    "final_y": "553379.008983",
    "longitude": "-89.98669006278595",
    "latitude": "30.01480042128592",
    "geocoded_column": {
      "latitude": "30.01480042128592",
      "longitude": "-89.98669006278595"
    }
  },
  {
    "service_request": "2024-1079034",
    "request_type": "Property Maintenance",
    "request_reason": "Property Maintenance",
    "date_created": "2024-03-26T22:41:02.000",
    "date_modified": "2024-03-26T22:41:02.000",
    "request_status": "Pending",
    "responsible_agency": "Department of Code Enforcement",
    "final_address": "8501 Chef Menteur Hwy",
    "address_councildis": "E",
    "status": "Pending",
    "rowid": "1079034",
    "final_x": "3706763.90091",
    "final_y": "553331.841879",
    "longitude": "-89.98748775233871",
    "latitude": "30.01467886828138",
    "geocoded_column": {
      "latitude": "30.01467886828138",
      "longitude": "-89.98748775233871"
    }
  },
  {
    "service_request": "2024-1079033",
    "request_type": "Property Maintenance",
    "request_reason": "Property Maintenance",
    "date_created": "2024-03-26T22:40:48.000",
    "date_modified": "2024-03-26T22:40:48.000",
    "request_status": "Pending",
    "responsible_agency": "Department of Code Enforcement",
    "final_address": "8531 Chef Menteur Hwy",
    "address_councildis": "E",
    "status": "Pending",
    "rowid": "1079033",
    "final_x": "3706913.30468",
    "final_y": "553357.990359",
    "longitude": "-89.98701474248006",
    "latitude": "30.01474594057452",
    "geocoded_column": {
      "latitude": "30.01474594057452",
      "longitude": "-89.98701474248006"
    }
  },
  {
    "service_request": "2024-1079032",
    "request_type": "Property Maintenance",
    "request_reason": "Property Maintenance",
    "date_created": "2024-03-26T22:39:07.000",
    "date_modified": "2024-03-26T22:39:07.000",
    "request_status": "Pending",
    "responsible_agency": "Department of Code Enforcement",
    "final_address": "8501 Chef Menteur Hwy",
    "address_councildis": "E",
    "status": "Pending",
    "rowid": "1079032",
    "final_x": "3706763.90091",
    "final_y": "553331.841879",
    "longitude": "-89.98748775233871",
    "latitude": "30.01467886828138",
    "geocoded_column": {
      "latitude": "30.01467886828138",
      "longitude": "-89.98748775233871"
    }
  },
  {
    "service_request": "2024-1079031",
    "request_type": "Property Maintenance",
    "request_reason": "Property Maintenance",
    "date_created": "2024-03-26T22:34:58.000",
    "date_modified": "2024-03-26T22:34:58.000",
    "request_status": "Pending",
    "responsible_agency": "Department of Code Enforcement",
    "final_address": "8721 Dwyer Rd",
    "address_councildis": "E",
    "status": "Pending",
    "rowid": "1079031",
    "final_x": "3706913.66807",
    "final_y": "557049.627098",
    "longitude": "-89.98687653568348",
    "latitude": "30.024896499554302",
    "geocoded_column": {
      "latitude": "30.024896499554302",
      "longitude": "-89.98687653568348"
    }
  },
  {
    "service_request": "2024-1079030",
    "request_type": "Property Maintenance",
    "request_reason": "Property Maintenance",
    "date_created": "2024-03-26T22:31:46.000",
    "date_modified": "2024-03-26T22:31:46.000",
    "request_status": "Pending",
    "responsible_agency": "Department of Code Enforcement",
    "final_address": "8369 Dwyer Rd",
    "address_councildis": "E",
    "status": "Pending",
    "rowid": "1079030",
    "final_x": "3706006.05598",
    "final_y": "556791.413914",
    "longitude": "-89.98975398532167",
    "latitude": "30.024215807726787",
    "geocoded_column": {
      "latitude": "30.024215807726787",
      "longitude": "-89.98975398532167"
    }
  },
  {
    "service_request": "2024-1079029",
    "request_type": "Trash/Recycling",
    "request_reason": "Illegal Dumping",
    "date_created": "2024-03-26T22:28:51.000",
    "date_modified": "2024-03-26T22:28:51.000",
    "request_status": "Pending",
    "responsible_agency": "Department of Sanitation",
    "final_address": "4479 Wilson Ave",
    "address_councildis": "E",
    "status": "Pending",
    "rowid": "1079029",
    "final_x": "3703194.87127",
    "final_y": "553343.784535",
    "longitude": "-89.99876362629763",
    "latitude": "30.014826487682274",
    "geocoded_column": {
      "latitude": "30.014826487682274",
      "longitude": "-89.99876362629763"
    }
  },
  {
    "service_request": "2024-1079028",
    "request_type": "Property Maintenance",
    "request_reason": "Property Maintenance",
    "date_created": "2024-03-26T22:25:58.000",
    "date_modified": "2024-03-26T22:25:58.000",
    "request_status": "Pending",
    "responsible_agency": "Department of Code Enforcement",
    "final_address": "4443 Wilson Ave",
    "address_councildis": "E",
    "status": "Pending",
    "rowid": "1079028",
    "final_x": "3703234.64132",
    "final_y": "553145.246167",
    "longitude": "-89.99864527971475",
    "latitude": "30.01427930928578",
    "geocoded_column": {
      "latitude": "30.01427930928578",
      "longitude": "-89.99864527971475"
    }
  },
  {
    "service_request": "2024-1079027",
    "request_type": "Property Maintenance",
    "request_reason": "Property Maintenance",
    "date_created": "2024-03-26T22:23:07.000",
    "date_modified": "2024-03-26T22:23:07.000",
    "request_status": "Pending",
    "responsible_agency": "Department of Code Enforcement",
    "final_address": "4441 Wilson Ave",
    "address_councildis": "E",
    "status": "Pending",
    "rowid": "1079027",
    "final_x": "3703241.85777",
    "final_y": "553094.476759",
    "longitude": "-89.99862434795693",
    "latitude": "30.01413948166396",
    "geocoded_column": {
      "latitude": "30.01413948166396",
      "longitude": "-89.99862434795693"
    }
  },
  {
    "service_request": "2024-1079026",
    "request_type": "Property Maintenance",
    "request_reason": "Property Maintenance",
    "date_created": "2024-03-26T22:22:00.000",
    "date_modified": "2024-03-26T22:22:00.000",
    "request_status": "Pending",
    "responsible_agency": "Department of Code Enforcement",
    "final_address": "4437 Wilson Ave",
    "address_councildis": "E",
    "status": "Pending",
    "rowid": "1079026",
    "final_x": "3703246.02442",
    "final_y": "553045.865687",
    "longitude": "-89.99861297257154",
    "latitude": "30.014005686317823",
    "geocoded_column": {
      "latitude": "30.014005686317823",
      "longitude": "-89.99861297257154"
    }
  },
  {
    "service_request": "2024-1079025",
    "request_type": "Property Maintenance",
    "request_reason": "Property Maintenance",
    "date_created": "2024-03-26T22:20:48.000",
    "date_modified": "2024-03-26T22:20:48.000",
    "request_status": "Pending",
    "responsible_agency": "Department of Code Enforcement",
    "final_address": "4411 Wilson Ave",
    "address_councildis": "E",
    "status": "Pending",
    "rowid": "1079025",
    "final_x": "3703268.9411",
    "final_y": "552895.865687",
    "longitude": "-89.9985460887566",
    "latitude": "30.0135925095423",
    "geocoded_column": {
      "latitude": "30.0135925095423",
      "longitude": "-89.9985460887566"
    }
  },
  {
    "service_request": "2024-1079024",
    "request_type": "Trash/Recycling",
    "request_reason": "Replace Trash Cart",
    "date_created": "2024-03-26T22:05:23.000",
    "date_modified": "2024-03-26T22:05:24.000",
    "request_status": "Pending",
    "responsible_agency": "Department of Sanitation",
    "final_address": "12 Fontainebleau Dr",
    "address_councildis": "A",
    "status": "Assigned to Contractor",
    "contractor": "Richards Disposal",
    "rowid": "1079024",
    "final_x": "3665601.99751",
    "final_y": "531780.781571",
    "longitude": "-90.11826196111153",
    "latitude": "29.956685872991745",
    "geocoded_column": {
      "latitude": "29.956685872991745",
      "longitude": "-90.11826196111153"
    }
  },
  {
    "service_request": "2024-1079023",
    "request_type": "Roads/Drainage",
    "request_reason": "Pothole",
    "date_created": "2024-03-26T21:45:11.000",
    "date_modified": "2024-03-26T21:45:11.000",
    "request_status": "Pending",
    "responsible_agency": "Department of Public Works",
    "final_address": "800 BLK Soniat St",
    "address_councildis": "B",
    "status": "Pending",
    "rowid": "1079023",
    "final_x": "3668335.6797",
    "final_y": "518410.791706",
    "longitude": "-90.11008054980579",
    "latitude": "29.919842711579832",
    "geocoded_column": {
      "latitude": "29.919842711579832",
      "longitude": "-90.11008054980579"
    }
  },
  {
    "service_request": "2024-1079022",
    "request_type": "Trash/Recycling",
    "request_reason": "Request a Large Item Pick Up",
    "date_created": "2024-03-26T21:43:56.000",
    "date_modified": "2024-03-26T21:43:57.000",
    "request_status": "Pending",
    "responsible_agency": "Department of Sanitation",
    "final_address": "6229 Curie St",
    "address_councildis": "D",
    "status": "Assigned to Contractor",
    "contractor": "IV Waste",
    "rowid": "1079022",
    "final_x": "3682531.31119",
    "final_y": "556066.20169",
    "longitude": "-90.06395517081644",
    "latitude": "30.022957706865064",
    "geocoded_column": {
      "latitude": "30.022957706865064",
      "longitude": "-90.06395517081644"
    }
  },
  {
    "service_request": "2024-1079021",
    "request_type": "Roads/Drainage",
    "request_reason": "Catch Basin - Clogged",
    "date_created": "2024-03-26T21:41:17.000",
    "date_modified": "2024-03-26T21:41:17.000",
    "request_status": "Pending",
    "responsible_agency": "Department of Public Works",
    "final_address": "841 Soniat St",
    "address_councildis": "B",
    "status": "Pending",
    "rowid": "1079021",
    "final_x": "3668384.23527",
    "final_y": "518500.316407",
    "longitude": "-90.10992426590174",
    "latitude": "29.920087450877094",
    "geocoded_column": {
      "latitude": "29.920087450877094",
      "longitude": "-90.10992426590174"
    }
  },
  {
    "service_request": "2024-1079020",
    "request_type": "Trash/Recycling",
    "request_reason": "Request a Large Item Pick Up",
    "date_created": "2024-03-26T21:34:41.000",
    "date_modified": "2024-03-26T21:34:41.000",
    "request_status": "Pending",
    "responsible_agency": "Department of Sanitation",
    "final_address": "4842 Gabriel Dr",
    "address_councildis": "E",
    "status": "Assigned to Contractor",
    "contractor": "Waste Pro",
    "rowid": "1079020",
    "final_x": "3708759.61144",
    "final_y": "556382.21609",
    "longitude": "-89.98106859726059",
    "latitude": "30.023001607871134",
    "geocoded_column": {
      "latitude": "30.023001607871134",
      "longitude": "-89.98106859726059"
    }
  },
  {
    "service_request": "2024-1079019",
    "request_type": "Trash/Recycling",
    "request_reason": "Illegal Dumping",
    "date_created": "2024-03-26T21:32:29.000",
    "date_modified": "2024-03-26T21:32:29.000",
    "request_status": "Pending",
    "responsible_agency": "Department of Sanitation",
    "final_address": "6722 Chef Menteur Hwy",
    "address_councildis": "E",
    "status": "Pending",
    "rowid": "1079019",
    "final_x": "3699672.11524",
    "final_y": "551879.12143",
    "longitude": "-90.0099472144082",
    "latitude": "30.01091156435436",
    "geocoded_column": {
      "latitude": "30.01091156435436",
      "longitude": "-90.0099472144082"
    }
  },
  {
    "service_request": "2024-1079018",
    "request_type": "Trash/Recycling",
    "request_reason": "Request a Large Item Pick Up",
    "date_created": "2024-03-26T21:30:38.000",
    "date_modified": "2024-03-26T21:30:39.000",
    "request_status": "Pending",
    "responsible_agency": "Department of Sanitation",
    "final_address": "2518 Athis St",
    "address_councildis": "D",
    "status": "Assigned to Contractor",
    "contractor": "IV Waste",
    "rowid": "1079018",
    "final_x": "3685923.50537",
    "final_y": "554365.33756",
    "longitude": "-90.05329665690002",
    "latitude": "30.018177193686107",
    "geocoded_column": {
      "latitude": "30.018177193686107",
      "longitude": "-90.05329665690002"
    }
  },
  {
    "service_request": "2024-1079017",
    "request_type": "Property Maintenance",
    "request_reason": "Property Maintenance",
    "date_created": "2024-03-26T21:28:57.000",
    "date_modified": "2024-03-26T21:28:57.000",
    "request_status": "Pending",
    "responsible_agency": "Department of Code Enforcement",
    "final_address": "9999 Lake Forest Blvd",
    "address_councildis": "E",
    "status": "Pending",
    "rowid": "1079017",
    "final_x": "3710976.71409",
    "final_y": "560035.412509",
    "longitude": "-89.97392616951281",
    "latitude": "30.032974325442808",
    "geocoded_column": {
      "latitude": "30.032974325442808",
      "longitude": "-89.97392616951281"
    }
  },
  {
    "service_request": "2024-1079016",
    "request_type": "Trash/Recycling",
    "request_reason": "Illegal Dumping",
    "date_created": "2024-03-26T21:25:39.000",
    "date_modified": "2024-03-26T21:25:39.000",
    "request_status": "Pending",
    "responsible_agency": "Department of Sanitation",
    "final_address": "9999 Lake Forest Blvd",
    "address_councildis": "E",
    "status": "Pending",
    "rowid": "1079016",
    "final_x": "3710976.71409",
    "final_y": "560035.412509",
    "longitude": "-89.97392616951281",
    "latitude": "30.032974325442808",
    "geocoded_column": {
      "latitude": "30.032974325442808",
      "longitude": "-89.97392616951281"
    }
  },
  {
    "service_request": "2024-1079015",
    "request_type": "Trash/Recycling",
    "request_reason": "MIssed Recycling Pick-Up",
    "date_created": "2024-03-26T21:23:06.000",
    "date_modified": "2024-03-26T21:23:06.000",
    "request_status": "Pending",
    "responsible_agency": "Department of Sanitation",
    "final_address": "119 Ringold St",
    "address_councildis": "A",
    "status": "Assigned to Contractor",
    "contractor": "IV Waste",
    "rowid": "1079015",
    "final_x": "3666792.43565",
    "final_y": "548581.657939",
    "longitude": "-90.11393835410577",
    "latitude": "30.002847863155292",
    "geocoded_column": {
      "latitude": "30.002847863155292",
      "longitude": "-90.11393835410577"
    }
  },
  {
    "service_request": "2024-1079014",
    "request_type": "Trash/Recycling",
    "request_reason": "Repair Trash Cart",
    "date_created": "2024-03-26T21:21:10.000",
    "date_modified": "2024-03-26T21:21:11.000",
    "request_status": "Pending",
    "responsible_agency": "Department of Sanitation",
    "final_address": "New Orleans,LA",
    "status": "Assigned to Contractor",
    "rowid": "1079014",
    "longitude": "0.0",
    "latitude": "0.0",
    "geocoded_column": {
      "latitude": "0.0",
      "longitude": "0.0"
    }
  },
  {
    "service_request": "2024-1079013",
    "request_type": "Abandoned Vehicles",
    "request_reason": "Abandoned/Junk Vehicles",
    "date_created": "2024-03-26T21:09:21.000",
    "date_modified": "2024-03-26T21:09:21.000",
    "request_status": "Pending",
    "responsible_agency": "Department of Public Works",
    "final_address": "2759 Benefit St",
    "address_councildis": "D",
    "status": "Pending",
    "rowid": "1079013",
    "final_x": "3688607.28214",
    "final_y": "544781.632335",
    "longitude": "-90.04515737781306",
    "latitude": "29.99174279355666",
    "geocoded_column": {
      "latitude": "29.99174279355666",
      "longitude": "-90.04515737781306"
    }
  },
  {
    "service_request": "2024-1079012",
    "request_type": "Abandoned Vehicles",
    "request_reason": "Abandoned/Junk Vehicles",
    "date_created": "2024-03-26T20:51:29.000",
    "date_modified": "2024-03-26T20:51:29.000",
    "request_status": "Pending",
    "responsible_agency": "Department of Public Works",
    "final_address": "412 N Miro St",
    "address_councildis": "B",
    "status": "Pending",
    "rowid": "1079012",
    "final_x": "3677513.69979",
    "final_y": "535099.520838",
    "longitude": "-90.08053404938317",
    "latitude": "29.96545858786309",
    "geocoded_column": {
      "latitude": "29.96545858786309",
      "longitude": "-90.08053404938317"
    }
  },
  {
    "service_request": "2024-1079011",
    "request_type": "Traffic Signals/Signs/Striping/Streetlights",
    "request_reason": "Street Name Sign Damaged or Missing",
    "date_created": "2024-03-26T20:47:18.000",
    "date_modified": "2024-03-26T20:47:18.000",
    "request_status": "Pending",
    "responsible_agency": "Department of Public Works",
    "final_address": "STATE STREET DR & GRAPE ST",
    "address_councildis": "B",
    "status": "Pending",
    "rowid": "1079011",
    "final_x": "3668514.8",
    "final_y": "531220.28",
    "longitude": "-90.10908315065146",
    "latitude": "29.955059424899204",
    "geocoded_column": {
      "latitude": "29.955059424899204",
      "longitude": "-90.10908315065146"
    }
  },
  {
    "service_request": "2024-1079009",
    "request_type": "Roads/Drainage",
    "request_reason": "Street Flooding / Drainage",
    "date_created": "2024-03-26T20:16:44.000",
    "date_modified": "2024-03-26T20:16:44.000",
    "request_status": "Pending",
    "responsible_agency": "Department of Public Works",
    "final_address": "Conti Street & North Carrollton Avenue",
    "address_councildis": "A",
    "status": "Pending",
    "rowid": "1079009",
    "final_x": "3671880.52257",
    "final_y": "539206.860874",
    "longitude": "-90.09818359163776",
    "latitude": "29.976920537045388",
    "geocoded_column": {
      "latitude": "29.976920537045388",
      "longitude": "-90.09818359163776"
    }
  },
  {
    "service_request": "2024-1079008",
    "request_type": "Trash/Recycling",
    "request_reason": "Illegal Dumping",
    "date_created": "2024-03-26T20:12:31.000",
    "date_modified": "2024-03-26T20:12:31.000",
    "request_status": "Pending",
    "responsible_agency": "Department of Sanitation",
    "final_address": "2300 BLK N Roman St",
    "address_councildis": "D",
    "status": "Pending",
    "rowid": "1079008",
    "final_x": "3685747.35583",
    "final_y": "538958.403498",
    "longitude": "-90.05439656805571",
    "latitude": "29.97581907106312",
    "geocoded_column": {
      "latitude": "29.97581907106312",
      "longitude": "-90.05439656805571"
    }
  },
  {
    "service_request": "2024-1079007",
    "request_type": "Property Maintenance",
    "request_reason": "Property Maintenance",
    "date_created": "2024-03-26T19:44:10.000",
    "date_modified": "2024-03-26T19:44:10.000",
    "request_status": "Pending",
    "responsible_agency": "Department of Code Enforcement",
    "final_address": "6224 Argonne Blvd",
    "address_councildis": "A",
    "status": "Pending",
    "rowid": "1079007",
    "final_x": "3670232.04046",
    "final_y": "548674.250131",
    "longitude": "-90.10306899492294",
    "latitude": "30.003001362805744",
    "geocoded_column": {
      "latitude": "30.003001362805744",
      "longitude": "-90.10306899492294"
    }
  },
  {
    "service_request": "2024-1079006",
    "request_type": "Trash/Recycling",
    "request_reason": "Order Recycling Cart",
    "date_created": "2024-03-26T19:42:26.000",
    "date_modified": "2024-03-26T19:42:26.000",
    "request_status": "Pending",
    "responsible_agency": "Department of Sanitation",
    "final_address": "1701 Marigny St",
    "address_councildis": "D",
    "status": "Pending",
    "rowid": "1079006",
    "final_x": "3685278.74037",
    "final_y": "538585.738825",
    "longitude": "-90.05588970719225",
    "latitude": "29.974808747337082",
    "geocoded_column": {
      "latitude": "29.974808747337082",
      "longitude": "-90.05588970719225"
    }
  },
  {
    "service_request": "2024-1079005",
    "request_type": "Roads/Drainage",
    "request_reason": "Catch Basin - Clogged",
    "date_created": "2024-03-26T19:09:37.000",
    "date_modified": "2024-03-26T19:09:37.000",
    "request_status": "Pending",
    "responsible_agency": "Department of Public Works",
    "final_address": "2421 Cambronne St",
    "address_councildis": "A",
    "status": "Pending",
    "rowid": "1079005",
    "final_x": "3664241.8569",
    "final_y": "532424.421443",
    "longitude": "-90.1225353893967",
    "latitude": "29.958495261843943",
    "geocoded_column": {
      "latitude": "29.958495261843943",
      "longitude": "-90.1225353893967"
    }
  },
  {
    "service_request": "2024-1079004",
    "request_type": "Traffic Signals/Signs/Striping/Streetlights",
    "request_reason": "Traffic Sign Missing/Damaged",
    "date_created": "2024-03-26T19:08:39.000",
    "date_modified": "2024-03-26T19:08:39.000",
    "request_status": "Pending",
    "responsible_agency": "Department of Public Works",
    "final_address": "4024 S Pin Oak Ave",
    "address_councildis": "C",
    "status": "Pending",
    "rowid": "1079004",
    "final_x": "3704940.06974",
    "final_y": "513201.72133",
    "longitude": "-89.99473133716256",
    "latitude": "29.90439431028646",
    "geocoded_column": {
      "latitude": "29.90439431028646",
      "longitude": "-89.99473133716256"
    }
  },
  {
    "service_request": "2024-1079003",
    "request_type": "Roads/Drainage",
    "request_reason": "Street Flooding / Drainage",
    "date_created": "2024-03-26T18:54:37.000",
    "date_modified": "2024-03-26T18:54:37.000",
    "request_status": "Pending",
    "responsible_agency": "Department of Public Works",
    "final_address": "6474 Canal Blvd",
    "address_councildis": "A",
    "status": "Pending",
    "rowid": "1079003",
    "final_x": "3668620.48321",
    "final_y": "550667.082772",
    "longitude": "-90.10809283298427",
    "latitude": "30.008528435992737",
    "geocoded_column": {
      "latitude": "30.008528435992737",
      "longitude": "-90.10809283298427"
    }
  },
  {
    "service_request": "2024-1079002",
    "request_type": "Trash/Recycling",
    "request_reason": "Repair Trash Cart",
    "date_created": "2024-03-26T18:52:14.000",
    "date_modified": "2024-03-26T18:52:15.000",
    "request_status": "Pending",
    "responsible_agency": "Department of Sanitation",
    "final_address": "6474 Canal Blvd",
    "address_councildis": "A",
    "status": "Assigned to Contractor",
    "contractor": "IV Waste",
    "rowid": "1079002",
    "final_x": "3668620.48321",
    "final_y": "550667.082772",
    "longitude": "-90.10809283298427",
    "latitude": "30.008528435992737",
    "geocoded_column": {
      "latitude": "30.008528435992737",
      "longitude": "-90.10809283298427"
    }
  },
  {
    "service_request": "2024-1079001",
    "request_type": "Trash/Recycling",
    "request_reason": "Missed Trash Pick-Up",
    "date_created": "2024-03-26T18:51:12.000",
    "date_modified": "2024-03-26T18:51:13.000",
    "request_status": "Pending",
    "responsible_agency": "Department of Sanitation",
    "final_address": "7224 Walmsley Ave",
    "address_councildis": "B",
    "status": "Assigned to Contractor",
    "contractor": "Richards Disposal",
    "rowid": "1079001",
    "final_x": "3667133.42746",
    "final_y": "531347.688962",
    "longitude": "-90.11344074122005",
    "latitude": "29.955450267875644",
    "geocoded_column": {
      "latitude": "29.955450267875644",
      "longitude": "-90.11344074122005"
    }
  },
  {
    "service_request": "2024-1079000",
    "request_type": "Trash/Recycling",
    "request_reason": "Order Recycling Cart",
    "date_created": "2024-03-26T18:40:40.000",
    "date_modified": "2024-03-26T18:40:40.000",
    "request_status": "Pending",
    "responsible_agency": "Department of Sanitation",
    "final_address": "8012 Panola St",
    "address_councildis": "A",
    "status": "Pending",
    "rowid": "1079000",
    "final_x": "3664302.62477",
    "final_y": "530468.129538",
    "longitude": "-90.12240878314542",
    "latitude": "29.953114329355717",
    "geocoded_column": {
      "latitude": "29.953114329355717",
      "longitude": "-90.12240878314542"
    }
  },
  {
    "service_request": "2024-1078999",
    "request_type": "Trash/Recycling",
    "request_reason": "Request a Large Item Pick Up",
    "date_created": "2024-03-26T18:22:13.000",
    "date_modified": "2024-03-26T18:22:13.000",
    "request_status": "Pending",
    "responsible_agency": "Department of Sanitation",
    "final_address": "3415 Louisiana Avenue Pkwy, New Orleans, Louisiana, 70125",
    "status": "Assigned to Contractor",
    "rowid": "1078999",
    "longitude": "0.0",
    "latitude": "0.0",
    "geocoded_column": {
      "latitude": "0.0",
      "longitude": "0.0"
    }
  },
  {
    "service_request": "2024-1078998",
    "request_type": "Trash/Recycling",
    "request_reason": "Replace Trash Cart",
    "date_created": "2024-03-26T18:08:16.000",
    "date_modified": "2024-03-26T18:08:17.000",
    "request_status": "Pending",
    "responsible_agency": "Department of Sanitation",
    "final_address": "1528 Dublin St",
    "address_councildis": "A",
    "status": "Assigned to Contractor",
    "contractor": "Richards Disposal",
    "rowid": "1078998",
    "final_x": "3662547.14682",
    "final_y": "529598.809217",
    "longitude": "-90.12798072051595",
    "latitude": "29.950774873415405",
    "geocoded_column": {
      "latitude": "29.950774873415405",
      "longitude": "-90.12798072051595"
    }
  },
  {
    "service_request": "2024-1078997",
    "request_type": "Safety & Permits",
    "request_reason": "Safety & Permits Request (Cyber Incident Back Up)",
    "date_created": "2024-03-26T18:06:19.000",
    "date_modified": "2024-03-26T18:06:19.000",
    "request_status": "Pending",
    "responsible_agency": "Safety and Permits",
    "final_address": "1061 Camp St",
    "address_councildis": "B",
    "status": "Pending",
    "rowid": "1078997",
    "final_x": "3680402.16527",
    "final_y": "526522.600638",
    "longitude": "-90.07171063194589",
    "latitude": "29.941787798759197",
    "geocoded_column": {
      "latitude": "29.941787798759197",
      "longitude": "-90.07171063194589"
    }
  },
  {
    "service_request": "2024-1078996",
    "request_type": "Traffic Signals/Signs/Striping/Streetlights",
    "request_reason": "Street Light Outage/Malfunction",
    "date_created": "2024-03-26T17:43:36.000",
    "date_modified": "2024-03-26T17:43:37.000",
    "request_status": "Pending",
    "responsible_agency": "Department of Public Works",
    "final_address": "0 General De Gaulle Dr",
    "address_councildis": "C",
    "status": "Assigned to Contractor",
    "contractor": "Legacy Professional Services",
    "rowid": "1078996",
    "final_x": "3696916.79831",
    "final_y": "519595.817208",
    "longitude": "-90.01982150589463",
    "latitude": "29.922231209569446",
    "geocoded_column": {
      "latitude": "29.922231209569446",
      "longitude": "-90.01982150589463"
    }
  },
  {
    "service_request": "2024-1078995",
    "request_type": "Trash/Recycling",
    "request_reason": "Replace Trash Cart",
    "date_created": "2024-03-26T17:41:07.000",
    "date_modified": "2024-03-26T17:41:08.000",
    "request_status": "Pending",
    "responsible_agency": "Department of Sanitation",
    "final_address": "1720 Washington Ave Unit 4",
    "address_councildis": "B",
    "status": "Assigned to Contractor",
    "contractor": "Richards Disposal",
    "rowid": "1078995",
    "final_x": "3675549.38843",
    "final_y": "522986.934331",
    "longitude": "-90.08715326974408",
    "latitude": "29.93221189960906",
    "geocoded_column": {
      "latitude": "29.93221189960906",
      "longitude": "-90.08715326974408"
    }
  },
  {
    "service_request": "2024-1078994",
    "request_type": "Trash/Recycling",
    "request_reason": "Missed Trash Pick-Up",
    "date_created": "2024-03-26T17:39:50.000",
    "date_modified": "2024-03-26T17:39:50.000",
    "request_status": "Pending",
    "responsible_agency": "Department of Sanitation",
    "final_address": "0 BLK Across St",
    "address_councildis": "E",
    "status": "Assigned to Contractor",
    "contractor": "Waste Pro",
    "rowid": "1078994",
    "final_x": "3711887.63918",
    "final_y": "553972.247814",
    "longitude": "-89.97127534652184",
    "latitude": "30.01627326470007",
    "geocoded_column": {
      "latitude": "30.01627326470007",
      "longitude": "-89.97127534652184"
    }
  },
  {
    "service_request": "2024-1078993",
    "request_type": "Trash/Recycling",
    "request_reason": "Repair Trash Cart",
    "date_created": "2024-03-26T17:39:48.000",
    "date_modified": "2024-03-26T17:39:49.000",
    "request_status": "Pending",
    "responsible_agency": "Department of Sanitation",
    "final_address": "623 Third St",
    "address_councildis": "B",
    "status": "Assigned to Contractor",
    "contractor": "Richards Disposal",
    "rowid": "1078993",
    "final_x": "3678504.56776",
    "final_y": "519816.240184",
    "longitude": "-90.0779337185118",
    "latitude": "29.923404821094206",
    "geocoded_column": {
      "latitude": "29.923404821094206",
      "longitude": "-90.0779337185118"
    }
  },
  {
    "service_request": "2024-1078992",
    "request_type": "Trash/Recycling",
    "request_reason": "Repair Trash Cart",
    "date_created": "2024-03-26T17:37:40.000",
    "date_modified": "2024-03-26T17:37:40.000",
    "request_status": "Pending",
    "responsible_agency": "Department of Sanitation",
    "final_address": "2011 Camp St",
    "address_councildis": "B",
    "status": "Assigned to Contractor",
    "contractor": "Richards Disposal",
    "rowid": "1078992",
    "final_x": "3679182.50933",
    "final_y": "522834.092603",
    "longitude": "-90.07568915396513",
    "latitude": "29.931682488155037",
    "geocoded_column": {
      "latitude": "29.931682488155037",
      "longitude": "-90.07568915396513"
    }
  },
  {
    "service_request": "2024-1078991",
    "request_type": "Trash/Recycling",
    "request_reason": "Replace Trash Cart",
    "date_created": "2024-03-26T17:35:55.000",
    "date_modified": "2024-03-26T17:35:55.000",
    "request_status": "Pending",
    "responsible_agency": "Department of Sanitation",
    "final_address": "1200 St Andrew St",
    "address_councildis": "B",
    "status": "Assigned to Contractor",
    "contractor": "Richards Disposal",
    "rowid": "1078991",
    "final_x": "3679228.93525",
    "final_y": "522869.996795",
    "longitude": "-90.07554134840518",
    "latitude": "29.931779811694557",
    "geocoded_column": {
      "latitude": "29.931779811694557",
      "longitude": "-90.07554134840518"
    }
  },
  {
    "service_request": "2024-1078990",
    "request_type": "Trash/Recycling",
    "request_reason": "Replace Trash Cart",
    "date_created": "2024-03-26T17:34:56.000",
    "date_modified": "2024-03-26T17:34:57.000",
    "request_status": "Pending",
    "responsible_agency": "Department of Sanitation",
    "final_address": "510 Ptolemy St",
    "address_councildis": "C",
    "status": "Assigned to Contractor",
    "contractor": "Richards Disposal",
    "rowid": "1078990",
    "final_x": "3687266.56054",
    "final_y": "526095.86675",
    "longitude": "-90.05005346253864",
    "latitude": "29.94040481986494",
    "geocoded_column": {
      "latitude": "29.94040481986494",
      "longitude": "-90.05005346253864"
    }
  },
  {
    "service_request": "2024-1078989",
    "request_type": "Trash/Recycling",
    "request_reason": "Replace Trash Cart",
    "date_created": "2024-03-26T17:32:47.000",
    "date_modified": "2024-03-26T17:32:48.000",
    "request_status": "Pending",
    "responsible_agency": "Department of Sanitation",
    "final_address": "729 Lyons St",
    "address_councildis": "B",
    "status": "Assigned to Contractor",
    "contractor": "Richards Disposal",
    "rowid": "1078989",
    "final_x": "3669339.40948",
    "final_y": "518109.166966",
    "longitude": "-90.10692244545847",
    "latitude": "29.918983836695958",
    "geocoded_column": {
      "latitude": "29.918983836695958",
      "longitude": "-90.10692244545847"
    }
  },
  {
    "service_request": "2024-1078988",
    "request_type": "Trash/Recycling",
    "request_reason": "Request a Large Item Pick Up",
    "date_created": "2024-03-26T17:32:05.000",
    "date_modified": "2024-03-26T17:32:05.000",
    "request_status": "Pending",
    "responsible_agency": "Department of Sanitation",
    "final_address": "7512 Briarwood Dr",
    "address_councildis": "E",
    "status": "Assigned to Contractor",
    "contractor": "Waste Pro",
    "rowid": "1078988",
    "final_x": "3717890.23141",
    "final_y": "570348.894119",
    "longitude": "-89.9516860934125",
    "latitude": "30.061104837348843",
    "geocoded_column": {
      "latitude": "30.061104837348843",
      "longitude": "-89.9516860934125"
    }
  },
  {
    "service_request": "2024-1078987",
    "request_type": "Trash/Recycling",
    "request_reason": "Replace Trash Cart",
    "date_created": "2024-03-26T17:20:05.000",
    "date_modified": "2024-03-26T17:20:05.000",
    "request_status": "Pending",
    "responsible_agency": "Department of Sanitation",
    "final_address": "8002 Cohn St",
    "address_councildis": "A",
    "status": "Assigned to Contractor",
    "contractor": "Richards Disposal",
    "rowid": "1078987",
    "final_x": "3663883.72839",
    "final_y": "529887.555329",
    "longitude": "-90.12375083334992",
    "latitude": "29.951530103922668",
    "geocoded_column": {
      "latitude": "29.951530103922668",
      "longitude": "-90.12375083334992"
    }
  },
  {
    "service_request": "2024-1078985",
    "request_type": "Trash/Recycling",
    "request_reason": "Request a Large Item Pick Up",
    "date_created": "2024-03-26T17:08:39.000",
    "date_modified": "2024-03-26T17:08:39.000",
    "request_status": "Pending",
    "responsible_agency": "Department of Sanitation",
    "final_address": "1464 Granada Dr",
    "address_councildis": "D",
    "status": "Assigned to Contractor",
    "contractor": "IV Waste",
    "rowid": "1078985",
    "final_x": "3678126.45582",
    "final_y": "550504.606868",
    "longitude": "-90.07806604803172",
    "latitude": "30.007798767522345",
    "geocoded_column": {
      "latitude": "30.007798767522345",
      "longitude": "-90.07806604803172"
    }
  },
  {
    "service_request": "2024-1078984",
    "request_type": "Trash/Recycling",
    "request_reason": "Illegal Dumping",
    "date_created": "2024-03-26T17:07:33.000",
    "date_modified": "2024-03-26T17:07:33.000",
    "request_status": "Pending",
    "responsible_agency": "Department of Sanitation",
    "final_address": "2900 BLK Saint Claude Ave",
    "address_councildis": "C",
    "status": "Pending",
    "rowid": "1078984",
    "final_x": "3688309.86842",
    "final_y": "536241.512606",
    "longitude": "-90.04639982322969",
    "latitude": "29.96826968207525",
    "geocoded_column": {
      "latitude": "29.96826968207525",
      "longitude": "-90.04639982322969"
    }
  },
  {
    "service_request": "2024-1078983",
    "request_type": "Trash/Recycling",
    "request_reason": "Request a Large Item Pick Up",
    "date_created": "2024-03-26T17:07:24.000",
    "date_modified": "2024-03-26T17:07:25.000",
    "request_status": "Pending",
    "responsible_agency": "Department of Sanitation",
    "final_address": "1117 Bourbon St",
    "address_councildis": "C",
    "status": "Assigned to Contractor",
    "contractor": "Empire Services",
    "rowid": "1078983",
    "final_x": "3683225.10658",
    "final_y": "533981.486661",
    "longitude": "-90.06253686198471",
    "latitude": "29.962211438642672",
    "geocoded_column": {
      "latitude": "29.962211438642672",
      "longitude": "-90.06253686198471"
    }
  },
  {
    "service_request": "2024-1078982",
    "request_type": "Traffic Signals/Signs/Striping/Streetlights",
    "request_reason": "Traffic Signal Malfunctioning/Damaged",
    "date_created": "2024-03-26T17:01:23.000",
    "date_modified": "2024-03-26T17:01:24.000",
    "request_status": "Pending",
    "responsible_agency": "Department of Public Works",
    "final_address": "GENERAL DE GAULLE DR & GARDEN OAKS DR & WESTBEND PKWY",
    "address_councildis": "C",
    "status": "Pending",
    "rowid": "1078982",
    "final_x": "3696351.7",
    "final_y": "520532.68",
    "longitude": "-90.02157142374539",
    "latitude": "29.924825063772325",
    "geocoded_column": {
      "latitude": "29.924825063772325",
      "longitude": "-90.02157142374539"
    }
  },
  {
    "service_request": "2024-1078981",
    "request_type": "Traffic Signals/Signs/Striping/Streetlights",
    "request_reason": "Street Light Outage/Malfunction",
    "date_created": "2024-03-26T16:54:35.000",
    "date_modified": "2024-03-26T16:54:36.000",
    "request_status": "Pending",
    "responsible_agency": "Department of Public Works",
    "final_address": "2443 Leon C Simon Dr",
    "address_councildis": "D",
    "status": "Assigned to Contractor",
    "contractor": "Legacy Professional Services",
    "rowid": "1078981",
    "final_x": "3685078.04297",
    "final_y": "557227.862363",
    "longitude": "-90.05586716113623",
    "latitude": "30.026074021825757",
    "geocoded_column": {
      "latitude": "30.026074021825757",
      "longitude": "-90.05586716113623"
    }
  },
  {
    "service_request": "2024-1078980",
    "request_type": "Roads/Drainage",
    "request_reason": "Catch Basin - Broken/Damage",
    "date_created": "2024-03-26T16:53:17.000",
    "date_modified": "2024-03-26T16:53:18.000",
    "request_status": "Pending",
    "responsible_agency": "Department of Public Works",
    "final_address": "6251 Oxford St",
    "address_councildis": "C",
    "status": "Pending",
    "rowid": "1078980",
    "final_x": "3707371.87262",
    "final_y": "519665.5806",
    "longitude": "-89.98681684936588",
    "latitude": "29.922089347644842",
    "geocoded_column": {
      "latitude": "29.922089347644842",
      "longitude": "-89.98681684936588"
    }
  },
  {
    "service_request": "2024-1078979",
    "request_type": "Trash/Recycling",
    "request_reason": "Request a Large Item Pick Up",
    "date_created": "2024-03-26T16:52:28.000",
    "date_modified": "2024-03-26T16:52:28.000",
    "request_status": "Pending",
    "responsible_agency": "Department of Sanitation",
    "final_address": "820 Bordeaux St",
    "address_councildis": "B",
    "status": "Assigned to Contractor",
    "contractor": "Richards Disposal",
    "rowid": "1078979",
    "final_x": "3669563.15802",
    "final_y": "518435.924662",
    "longitude": "-90.10620513873985",
    "latitude": "29.919875730243916",
    "geocoded_column": {
      "latitude": "29.919875730243916",
      "longitude": "-90.10620513873985"
    }
  },
  {
    "service_request": "2024-1078978",
    "request_type": "Parks & Parkways",
    "request_reason": "Request Tree Service (Right of Way/Public Property)",
    "date_created": "2024-03-26T16:51:43.000",
    "date_modified": "2024-03-26T16:52:04.000",
    "request_status": "Pending",
    "responsible_agency": "Department of Parks & Parkway",
    "final_address": "6251 Oxford St",
    "address_councildis": "C",
    "status": "Pending",
    "rowid": "1078978",
    "final_x": "3707371.87262",
    "final_y": "519665.5806",
    "longitude": "-89.98681684936588",
    "latitude": "29.922089347644842",
    "geocoded_column": {
      "latitude": "29.922089347644842",
      "longitude": "-89.98681684936588"
    }
  },
  {
    "service_request": "2024-1078977",
    "request_type": "Trash/Recycling",
    "request_reason": "Request a Large Item Pick Up",
    "date_created": "2024-03-26T16:49:42.000",
    "date_modified": "2024-03-26T16:49:42.000",
    "request_status": "Pending",
    "responsible_agency": "Department of Sanitation",
    "final_address": "8549 Fordham Ct",
    "address_councildis": "E",
    "status": "Assigned to Contractor",
    "contractor": "Waste Pro",
    "rowid": "1078977",
    "final_x": "3705127.11742",
    "final_y": "560495.786462",
    "longitude": "-89.9923942657572",
    "latitude": "30.034429696158455",
    "geocoded_column": {
      "latitude": "30.034429696158455",
      "longitude": "-89.9923942657572"
    }
  },
  {
    "service_request": "2024-1078976",
    "request_type": "Trash/Recycling",
    "request_reason": "Request a Large Item Pick Up",
    "date_created": "2024-03-26T16:44:27.000",
    "date_modified": "2024-03-26T16:44:27.000",
    "request_status": "Pending",
    "responsible_agency": "Department of Sanitation",
    "final_address": "720 Elmira Ave",
    "address_councildis": "C",
    "status": "Assigned to Contractor",
    "contractor": "Richards Disposal",
    "rowid": "1078976",
    "final_x": "3688208.88271",
    "final_y": "528919.3232",
    "longitude": "-90.0469783341631",
    "latitude": "29.94813931149952",
    "geocoded_column": {
      "latitude": "29.94813931149952",
      "longitude": "-90.0469783341631"
    }
  },
  {
    "service_request": "2024-1078975",
    "request_type": "Trash/Recycling",
    "request_reason": "Request a Large Item Pick Up",
    "date_created": "2024-03-26T16:42:46.000",
    "date_modified": "2024-03-26T16:42:47.000",
    "request_status": "Pending",
    "responsible_agency": "Department of Sanitation",
    "final_address": "416 Leboeuf St",
    "address_councildis": "C",
    "status": "Assigned to Contractor",
    "contractor": "Richards Disposal",
    "rowid": "1078975",
    "final_x": "3689910.25033",
    "final_y": "530068.553601",
    "longitude": "-90.04156553452844",
    "latitude": "29.951246671398668",
    "geocoded_column": {
      "latitude": "29.951246671398668",
      "longitude": "-90.04156553452844"
    }
  },
  {
    "service_request": "2024-1078974",
    "request_type": "Trash/Recycling",
    "request_reason": "Replace Trash Cart",
    "date_created": "2024-03-26T16:41:39.000",
    "date_modified": "2024-03-26T16:41:40.000",
    "request_status": "Pending",
    "responsible_agency": "Department of Sanitation",
    "final_address": "2631 Peniston St",
    "address_councildis": "B",
    "status": "Assigned to Contractor",
    "contractor": "Richards Disposal",
    "rowid": "1078974",
    "final_x": "3672055.31105",
    "final_y": "524881.292412",
    "longitude": "-90.09811929028159",
    "latitude": "29.937524797849484",
    "geocoded_column": {
      "latitude": "29.937524797849484",
      "longitude": "-90.09811929028159"
    }
  },
  {
    "service_request": "2024-1078973",
    "request_type": "Trash/Recycling",
    "request_reason": "Request a Large Item Pick Up",
    "date_created": "2024-03-26T16:33:37.000",
    "date_modified": "2024-03-26T16:33:37.000",
    "request_status": "Pending",
    "responsible_agency": "Department of Sanitation",
    "final_address": "4603 S Derbigny St",
    "address_councildis": "B",
    "status": "Assigned to Contractor",
    "contractor": "Richards Disposal",
    "rowid": "1078973",
    "final_x": "3669512.6091",
    "final_y": "526205.893502",
    "longitude": "-90.10610201598439",
    "latitude": "29.94124214717398",
    "geocoded_column": {
      "latitude": "29.94124214717398",
      "longitude": "-90.10610201598439"
    }
  },
  {
    "service_request": "2024-1078972",
    "request_type": "Traffic Signals/Signs/Striping/Streetlights",
    "request_reason": "Street Light Outage/Malfunction",
    "date_created": "2024-03-26T16:33:30.000",
    "date_modified": "2024-03-26T16:33:31.000",
    "request_status": "Pending",
    "responsible_agency": "Department of Public Works",
    "final_address": "2312 Dryades St",
    "address_councildis": "B",
    "status": "Assigned to Contractor",
    "contractor": "Legacy Professional Services",
    "rowid": "1078972",
    "final_x": "3676448.00801",
    "final_y": "524142.286844",
    "longitude": "-90.08427665337723",
    "latitude": "29.93536183807982",
    "geocoded_column": {
      "latitude": "29.93536183807982",
      "longitude": "-90.08427665337723"
    }
  },
  {
    "service_request": "2024-1078971",
    "request_type": "Trash/Recycling",
    "request_reason": "Request a Large Item Pick Up",
    "date_created": "2024-03-26T16:32:49.000",
    "date_modified": "2024-03-26T16:48:20.000",
    "request_status": "Pending",
    "responsible_agency": "Department of Sanitation",
    "final_address": "1510 Paul Morphy St, New Orleans, Louisiana, 70119",
    "address_councildis": "D",
    "status": "Assigned to Contractor",
    "contractor": "IV Waste",
    "rowid": "1078971",
    "final_x": "3678458.88648",
    "final_y": "539887.536458",
    "longitude": "-90.07738345829046",
    "latitude": "29.97859553929219",
    "geocoded_column": {
      "latitude": "29.97859553929219",
      "longitude": "-90.07738345829046"
    }
  },
  {
    "service_request": "2024-1078970",
    "request_type": "Trash/Recycling",
    "request_reason": "Request a Large Item Pick Up",
    "date_created": "2024-03-26T16:30:07.000",
    "date_modified": "2024-03-26T16:30:08.000",
    "request_status": "Pending",
    "responsible_agency": "Department of Sanitation",
    "final_address": "7560 Branch Dr",
    "address_councildis": "E",
    "status": "Assigned to Contractor",
    "contractor": "Waste Pro",
    "rowid": "1078970",
    "final_x": "3714955.73483",
    "final_y": "568325.891941",
    "longitude": "-89.96103847270346",
    "latitude": "30.055639380700672",
    "geocoded_column": {
      "latitude": "30.055639380700672",
      "longitude": "-89.96103847270346"
    }
  },
  {
    "service_request": "2024-1078969",
    "request_type": "Parks & Parkways",
    "request_reason": "Request Tree Service (Right of Way/Public Property)",
    "date_created": "2024-03-26T16:30:05.000",
    "date_modified": "2024-03-26T16:30:05.000",
    "request_status": "Pending",
    "responsible_agency": "Department of Parks & Parkway",
    "final_address": "2419 Decatur St",
    "address_councildis": "C",
    "status": "Pending",
    "rowid": "1078969",
    "final_x": "3686107.96598",
    "final_y": "534256.239621",
    "longitude": "-90.05342354520306",
    "latitude": "29.962878686214506",
    "geocoded_column": {
      "latitude": "29.962878686214506",
      "longitude": "-90.05342354520306"
    }
  },
  {
    "service_request": "2024-1078968",
    "request_type": "Traffic Signals/Signs/Striping/Streetlights",
    "request_reason": "Traffic Sign Missing/Damaged",
    "date_created": "2024-03-26T16:29:48.000",
    "date_modified": "2024-03-26T16:29:48.000",
    "request_status": "Pending",
    "responsible_agency": "Department of Public Works",
    "final_address": "4700 BLK Majestic Oaks Dr",
    "address_councildis": "D",
    "status": "Pending",
    "rowid": "1078968",
    "final_x": "3697743.13564",
    "final_y": "554259.883066",
    "longitude": "-90.01595510857321",
    "latitude": "30.01751887873035",
    "geocoded_column": {
      "latitude": "30.01751887873035",
      "longitude": "-90.01595510857321"
    }
  },
  {
    "service_request": "2024-1078967",
    "request_type": "Trash/Recycling",
    "request_reason": "Replace Trash Cart",
    "date_created": "2024-03-26T16:26:19.000",
    "date_modified": "2024-03-26T16:26:20.000",
    "request_status": "Pending",
    "responsible_agency": "Department of Sanitation",
    "final_address": "7560 Branch Dr",
    "address_councildis": "E",
    "status": "Assigned to Contractor",
    "contractor": "Waste Pro",
    "rowid": "1078967",
    "final_x": "3714955.73483",
    "final_y": "568325.891941",
    "longitude": "-89.96103847270346",
    "latitude": "30.055639380700672",
    "geocoded_column": {
      "latitude": "30.055639380700672",
      "longitude": "-89.96103847270346"
    }
  },
  {
    "service_request": "2024-1078965",
    "request_type": "Abandoned Vehicles",
    "request_reason": "Abandoned/Junk Vehicles",
    "date_created": "2024-03-26T16:25:16.000",
    "date_modified": "2024-03-26T16:25:16.000",
    "request_status": "Pending",
    "responsible_agency": "Department of Public Works",
    "final_address": "5244 General Meyer Ave",
    "address_councildis": "C",
    "status": "Pending",
    "rowid": "1078965",
    "final_x": "3703361.71825",
    "final_y": "522881.544059",
    "longitude": "-89.99935695808965",
    "latitude": "29.93106109891176",
    "geocoded_column": {
      "latitude": "29.93106109891176",
      "longitude": "-89.99935695808965"
    }
  },
  {
    "service_request": "2024-1078966",
    "request_type": "Traffic Signals/Signs/Striping/Streetlights",
    "request_reason": "Traffic Signal Malfunctioning/Damaged",
    "date_created": "2024-03-26T16:25:16.000",
    "date_modified": "2024-03-26T16:25:16.000",
    "request_status": "Pending",
    "responsible_agency": "Department of Public Works",
    "final_address": "TEXAS DR & GENERAL DE GAULLE DR",
    "address_councildis": "C",
    "status": "Pending",
    "rowid": "1078966",
    "final_x": "3697104.4",
    "final_y": "520093.28",
    "longitude": "-90.01921131899712",
    "latitude": "29.923593148344256",
    "geocoded_column": {
      "latitude": "29.923593148344256",
      "longitude": "-90.01921131899712"
    }
  },
  {
    "service_request": "2024-1078964",
    "request_type": "Trash/Recycling",
    "request_reason": "Repair Trash Cart",
    "date_created": "2024-03-26T16:24:13.000",
    "date_modified": "2024-03-26T16:24:14.000",
    "request_status": "Pending",
    "responsible_agency": "Department of Sanitation",
    "final_address": "8700 Spruce St",
    "address_councildis": "A",
    "status": "Assigned to Contractor",
    "contractor": "Richards Disposal",
    "rowid": "1078964",
    "final_x": "3662230.15354",
    "final_y": "531884.220035",
    "longitude": "-90.12890577742411",
    "latitude": "29.95706818071898",
    "geocoded_column": {
      "latitude": "29.95706818071898",
      "longitude": "-90.12890577742411"
    }
  },
  {
    "service_request": "2024-1078963",
    "request_type": "Trash/Recycling",
    "request_reason": "Request a Large Item Pick Up",
    "date_created": "2024-03-26T16:23:37.000",
    "date_modified": "2024-03-26T16:23:37.000",
    "request_status": "Pending",
    "responsible_agency": "Department of Sanitation",
    "final_address": "203 Audubon Blvd",
    "address_councildis": "A",
    "status": "Assigned to Contractor",
    "contractor": "Richards Disposal",
    "rowid": "1078963",
    "final_x": "3666360.57639",
    "final_y": "528402.465856",
    "longitude": "-90.11597993864528",
    "latitude": "29.947374463402497",
    "geocoded_column": {
      "latitude": "29.947374463402497",
      "longitude": "-90.11597993864528"
    }
  },
  {
    "service_request": "2024-1078962",
    "request_type": "Traffic Signals/Signs/Striping/Streetlights",
    "request_reason": "Street Light Outage/Malfunction",
    "date_created": "2024-03-26T16:19:56.000",
    "date_modified": "2024-03-26T16:19:56.000",
    "request_status": "Pending",
    "responsible_agency": "Department of Public Works",
    "final_address": "N CLAIBORNE AVE & FRANCE ST",
    "address_councildis": "D",
    "status": "Assigned to Contractor",
    "contractor": "Legacy Professional Services",
    "rowid": "1078962",
    "final_x": "3692854.0",
    "final_y": "537030.38",
    "longitude": "-90.03202102243282",
    "latitude": "29.970297672292464",
    "geocoded_column": {
      "latitude": "29.970297672292464",
      "longitude": "-90.03202102243282"
    }
  },
  {
    "service_request": "2024-1078961",
    "request_type": "Trash/Recycling",
    "request_reason": "Request a Large Item Pick Up",
    "date_created": "2024-03-26T16:15:01.000",
    "date_modified": "2024-03-26T16:15:01.000",
    "request_status": "Pending",
    "responsible_agency": "Department of Sanitation",
    "final_address": "723 Fats Domino Ave, New Orleans, Louisiana, 70117",
    "address_councildis": "E",
    "status": "Assigned to Contractor",
    "contractor": "Waste Pro",
    "rowid": "1078961",
    "final_x": "3697727.54237",
    "final_y": "532453.301956",
    "longitude": "-90.01679601806876",
    "latitude": "29.957559250081925",
    "geocoded_column": {
      "latitude": "29.957559250081925",
      "longitude": "-90.01679601806876"
    }
  },
  {
    "service_request": "2024-1078960",
    "request_type": "Parks & Parkways",
    "request_reason": "Request Tree Service (Right of Way/Public Property)",
    "date_created": "2024-03-26T16:07:55.000",
    "date_modified": "2024-03-26T16:07:56.000",
    "request_status": "Pending",
    "responsible_agency": "Department of Parks & Parkway",
    "final_address": "243 Broadway St",
    "address_councildis": "A",
    "status": "Pending",
    "rowid": "1078960",
    "final_x": "3661356.69286",
    "final_y": "522217.478906",
    "longitude": "-90.13198394334938",
    "latitude": "29.93051293546166",
    "geocoded_column": {
      "latitude": "29.93051293546166",
      "longitude": "-90.13198394334938"
    }
  },
  {
    "service_request": "2024-1078959",
    "request_type": "Roads/Drainage",
    "request_reason": "Man hole cover issue",
    "date_created": "2024-03-26T16:03:57.000",
    "date_modified": "2024-03-26T16:03:57.000",
    "request_status": "Pending",
    "responsible_agency": "Department of Public Works",
    "final_address": "ESPLANADE AVE & N CLAIBORNE AVE",
    "address_councildis": "D",
    "status": "Pending",
    "rowid": "1078959",
    "final_x": "3681231.3",
    "final_y": "536639.18",
    "longitude": "-90.06874038104324",
    "latitude": "29.969579834804723",
    "geocoded_column": {
      "latitude": "29.969579834804723",
      "longitude": "-90.06874038104324"
    }
  },
  {
    "service_request": "2024-1078958",
    "request_type": "Roads/Drainage",
    "request_reason": "Service Cut",
    "date_created": "2024-03-26T16:01:09.000",
    "date_modified": "2024-03-26T16:01:09.000",
    "request_status": "Pending",
    "responsible_agency": "Department of Public Works",
    "final_address": "6711 Foch Rd",
    "address_councildis": "D",
    "status": "Pending",
    "rowid": "1078958",
    "final_x": "3696870.98973",
    "final_y": "556004.039769",
    "longitude": "-90.01864750001808",
    "latitude": "30.0223421912414",
    "geocoded_column": {
      "latitude": "30.0223421912414",
      "longitude": "-90.01864750001808"
    }
  },
  {
    "service_request": "2024-1078957",
    "request_type": "Trash/Recycling",
    "request_reason": "Request a Large Item Pick Up",
    "date_created": "2024-03-26T15:59:17.000",
    "date_modified": "2024-03-26T17:56:18.000",
    "case_close_date": "2024-03-26T12:56:18.000",
    "request_status": "Closed",
    "responsible_agency": "Department of Sanitation",
    "final_address": "7080 E Tamaron Blvd",
    "address_councildis": "E",
    "status": "Assigned to Contractor",
    "contractor": "Waste Pro",
    "contractor_action": "Completed",
    "rowid": "1078957",
    "final_x": "3718692.8814",
    "final_y": "568654.466789",
    "longitude": "-89.94921365898661",
    "latitude": "30.056419230731255",
    "geocoded_column": {
      "latitude": "30.056419230731255",
      "longitude": "-89.94921365898661"
    }
  },
  {
    "service_request": "2024-1078956",
    "request_type": "Parks & Parkways",
    "request_reason": "Request Tree Service (Right of Way/Public Property)",
    "date_created": "2024-03-26T15:57:09.000",
    "date_modified": "2024-03-26T15:57:09.000",
    "request_status": "Pending",
    "responsible_agency": "Department of Parks & Parkway",
    "final_address": "2836 State St",
    "address_councildis": "A",
    "status": "Pending",
    "rowid": "1078956",
    "final_x": "3667160.83354",
    "final_y": "527007.596862",
    "longitude": "-90.11350009666594",
    "latitude": "29.943515622888086",
    "geocoded_column": {
      "latitude": "29.943515622888086",
      "longitude": "-90.11350009666594"
    }
  },
  {
    "service_request": "2024-1078955",
    "request_type": "Trash/Recycling",
    "request_reason": "Repair Trash Cart",
    "date_created": "2024-03-26T15:56:34.000",
    "date_modified": "2024-03-26T15:56:35.000",
    "request_status": "Pending",
    "responsible_agency": "Department of Sanitation",
    "final_address": "4007 Eagle St",
    "address_councildis": "A",
    "status": "Assigned to Contractor",
    "contractor": "Richards Disposal",
    "rowid": "1078955",
    "final_x": "3666909.15412",
    "final_y": "537434.592456",
    "longitude": "-90.11394437830454",
    "latitude": "29.97219380523757",
    "geocoded_column": {
      "latitude": "29.97219380523757",
      "longitude": "-90.11394437830454"
    }
  },
  {
    "service_request": "2024-1078954",
    "request_type": "Traffic Signals/Signs/Striping/Streetlights",
    "request_reason": "Street Light Outage/Malfunction",
    "date_created": "2024-03-26T15:55:43.000",
    "date_modified": "2024-03-26T15:55:43.000",
    "request_status": "Pending",
    "responsible_agency": "Department of Public Works",
    "final_address": "NAPOLEON AVE & ST CHARLES AVE",
    "address_councildis": "B",
    "status": "Assigned to Contractor",
    "contractor": "Legacy Professional Services",
    "rowid": "1078954",
    "final_x": "3670814.1",
    "final_y": "520818.48",
    "longitude": "-90.10217570850496",
    "latitude": "29.926390102746048",
    "geocoded_column": {
      "latitude": "29.926390102746048",
      "longitude": "-90.10217570850496"
    }
  },
  {
    "service_request": "2024-1078953",
    "request_type": "Property Maintenance",
    "request_reason": "Property Maintenance",
    "date_created": "2024-03-26T15:54:14.000",
    "date_modified": "2024-03-26T15:54:14.000",
    "request_status": "Pending",
    "responsible_agency": "Department of Code Enforcement",
    "final_address": "4500 Virgilian St",
    "address_councildis": "D",
    "status": "Pending",
    "rowid": "1078953",
    "final_x": "3697526.22179",
    "final_y": "552425.517142",
    "longitude": "-90.0167070636959",
    "latitude": "30.012481919568398",
    "geocoded_column": {
      "latitude": "30.012481919568398",
      "longitude": "-90.0167070636959"
    }
  },
  {
    "service_request": "2024-1078952",
    "request_type": "Trash/Recycling",
    "request_reason": "Repair Trash Cart",
    "date_created": "2024-03-26T15:54:07.000",
    "date_modified": "2024-03-26T15:54:08.000",
    "request_status": "Pending",
    "responsible_agency": "Department of Sanitation",
    "final_address": "7736 Sycamore St",
    "address_councildis": "A",
    "status": "Assigned to Contractor",
    "contractor": "Richards Disposal",
    "rowid": "1078952",
    "final_x": "3665142.11047",
    "final_y": "530110.484673",
    "longitude": "-90.11977000210122",
    "latitude": "29.952106501164785",
    "geocoded_column": {
      "latitude": "29.952106501164785",
      "longitude": "-90.11977000210122"
    }
  },
  {
    "service_request": "2024-1078951",
    "request_type": "Trash/Recycling",
    "request_reason": "Repair Trash Cart",
    "date_created": "2024-03-26T15:53:30.000",
    "date_modified": "2024-03-26T15:53:31.000",
    "request_status": "Pending",
    "responsible_agency": "Department of Sanitation",
    "final_address": "2133 Burdette St",
    "address_councildis": "A",
    "status": "Assigned to Contractor",
    "contractor": "Richards Disposal",
    "rowid": "1078951",
    "final_x": "3665142.11047",
    "final_y": "530110.484673",
    "longitude": "-90.11977000210122",
    "latitude": "29.952106501164785",
    "geocoded_column": {
      "latitude": "29.952106501164785",
      "longitude": "-90.11977000210122"
    }
  },
  {
    "service_request": "2024-1078950",
    "request_type": "Trash/Recycling",
    "request_reason": "Return Recycling Cart",
    "date_created": "2024-03-26T15:53:29.000",
    "date_modified": "2024-03-26T15:53:29.000",
    "request_status": "Pending",
    "responsible_agency": "Department of Sanitation",
    "final_address": "5230 Laurel St",
    "address_councildis": "B",
    "status": "Pending",
    "rowid": "1078950",
    "final_x": "3667769.40756",
    "final_y": "517827.236598",
    "longitude": "-90.11188763622705",
    "latitude": "29.9182547289633",
    "geocoded_column": {
      "latitude": "29.9182547289633",
      "longitude": "-90.11188763622705"
    }
  },
  {
    "service_request": "2024-1078949",
    "request_type": "Trash/Recycling",
    "request_reason": "Request a Large Item Pick Up",
    "date_created": "2024-03-26T15:53:19.000",
    "date_modified": "2024-03-26T15:53:20.000",
    "request_status": "Pending",
    "responsible_agency": "Department of Sanitation",
    "final_address": "3316 Metropolitan St",
    "address_councildis": "D",
    "status": "Assigned to Contractor",
    "contractor": "IV Waste",
    "rowid": "1078949",
    "final_x": "3691473.6568",
    "final_y": "544827.461071",
    "longitude": "-90.03610150541837",
    "latitude": "29.99177988909956",
    "geocoded_column": {
      "latitude": "29.99177988909956",
      "longitude": "-90.03610150541837"
    }
  },
  {
    "service_request": "2024-1078948",
    "request_type": "Parks & Parkways",
    "request_reason": "Request Tree Service (Right of Way/Public Property)",
    "date_created": "2024-03-26T15:53:04.000",
    "date_modified": "2024-03-26T15:53:04.000",
    "request_status": "Pending",
    "responsible_agency": "Department of Parks & Parkway",
    "final_address": "2836 State St",
    "address_councildis": "A",
    "status": "Pending",
    "rowid": "1078948",
    "final_x": "3667160.83354",
    "final_y": "527007.596862",
    "longitude": "-90.11350009666594",
    "latitude": "29.943515622888086",
    "geocoded_column": {
      "latitude": "29.943515622888086",
      "longitude": "-90.11350009666594"
    }
  },
  {
    "service_request": "2024-1078947",
    "request_type": "Trash/Recycling",
    "request_reason": "Request a Large Item Pick Up",
    "date_created": "2024-03-26T15:51:24.000",
    "date_modified": "2024-03-26T15:51:25.000",
    "request_status": "Pending",
    "responsible_agency": "Department of Sanitation",
    "final_address": "2133 Burdette St",
    "address_councildis": "A",
    "status": "Assigned to Contractor",
    "contractor": "Richards Disposal",
    "rowid": "1078947",
    "final_x": "3665142.11047",
    "final_y": "530110.484673",
    "longitude": "-90.11977000210122",
    "latitude": "29.952106501164785",
    "geocoded_column": {
      "latitude": "29.952106501164785",
      "longitude": "-90.11977000210122"
    }
  },
  {
    "service_request": "2024-1078946",
    "request_type": "Trash/Recycling",
    "request_reason": "Request a Large Item Pick Up",
    "date_created": "2024-03-26T15:49:36.000",
    "date_modified": "2024-03-26T15:49:37.000",
    "request_status": "Pending",
    "responsible_agency": "Department of Sanitation",
    "final_address": "4918 S Galvez St",
    "address_councildis": "B",
    "status": "Assigned to Contractor",
    "contractor": "Richards Disposal",
    "rowid": "1078946",
    "final_x": "3669103.38318",
    "final_y": "527327.400639",
    "longitude": "-90.10735613896202",
    "latitude": "29.944337973646572",
    "geocoded_column": {
      "latitude": "29.944337973646572",
      "longitude": "-90.10735613896202"
    }
  },
  {
    "service_request": "2024-1078945",
    "request_type": "Abandoned Vehicles",
    "request_reason": "Abandoned/Junk Vehicles",
    "date_created": "2024-03-26T15:47:59.000",
    "date_modified": "2024-03-26T15:47:59.000",
    "request_status": "Pending",
    "responsible_agency": "Department of Public Works",
    "final_address": "6049 Warfield St",
    "address_councildis": "D",
    "status": "Pending",
    "rowid": "1078945",
    "final_x": "3696940.65539",
    "final_y": "552471.78799",
    "longitude": "-90.01855544037699",
    "latitude": "30.01262763478412",
    "geocoded_column": {
      "latitude": "30.01262763478412",
      "longitude": "-90.01855544037699"
    }
  },
  {
    "service_request": "2024-1078944",
    "request_type": "Roads/Drainage",
    "request_reason": "Catch Basin - Clogged",
    "date_created": "2024-03-26T15:47:38.000",
    "date_modified": "2024-03-26T15:47:39.000",
    "request_status": "Pending",
    "responsible_agency": "Department of Public Works",
    "final_address": "2626 N Rocheblave St",
    "address_councildis": "D",
    "status": "Pending",
    "rowid": "1078944",
    "final_x": "3686700.98262",
    "final_y": "541221.927436",
    "longitude": "-90.05130476646332",
    "latitude": "29.982013661959687",
    "geocoded_column": {
      "latitude": "29.982013661959687",
      "longitude": "-90.05130476646332"
    }
  },
  {
    "service_request": "2024-1078942",
    "request_type": "Trash/Recycling",
    "request_reason": "Illegal Dumping",
    "date_created": "2024-03-26T15:46:21.000",
    "date_modified": "2024-03-26T15:46:21.000",
    "request_status": "Pending",
    "responsible_agency": "Department of Sanitation",
    "final_address": "IRBY ST & READ BLVD",
    "address_councildis": "E",
    "status": "Pending",
    "rowid": "1078942",
    "final_x": "3708054.3",
    "final_y": "565287.28",
    "longitude": "-89.98296559981613",
    "latitude": "30.047509881367716",
    "geocoded_column": {
      "latitude": "30.047509881367716",
      "longitude": "-89.98296559981613"
    }
  },
  {
    "service_request": "2024-1078941",
    "request_type": "Trash/Recycling",
    "request_reason": "Order Recycling Cart",
    "date_created": "2024-03-26T15:45:44.000",
    "date_modified": "2024-03-26T15:45:44.000",
    "request_status": "Pending",
    "responsible_agency": "Department of Sanitation",
    "final_address": "1538 Dublin St",
    "address_councildis": "A",
    "status": "Pending",
    "rowid": "1078941",
    "final_x": "3662591.93472",
    "final_y": "529647.607489",
    "longitude": "-90.12783768142836",
    "latitude": "29.95090775740007",
    "geocoded_column": {
      "latitude": "29.95090775740007",
      "longitude": "-90.12783768142836"
    }
  },
  {
    "service_request": "2024-1078940",
    "request_type": "Trash/Recycling",
    "request_reason": "Request a Large Item Pick Up",
    "date_created": "2024-03-26T15:40:40.000",
    "date_modified": "2024-03-26T15:40:41.000",
    "request_status": "Pending",
    "responsible_agency": "Department of Sanitation",
    "final_address": "439 S Telemachus St",
    "address_councildis": "B",
    "status": "Assigned to Contractor",
    "contractor": "Richards Disposal",
    "rowid": "1078940",
    "final_x": "3671356.67451",
    "final_y": "536172.642503",
    "longitude": "-90.09994122684584",
    "latitude": "29.968592976708674",
    "geocoded_column": {
      "latitude": "29.968592976708674",
      "longitude": "-90.09994122684584"
    }
  },
  {
    "service_request": "2024-1078939",
    "request_type": "Trash/Recycling",
    "request_reason": "Repair Recycling Cart",
    "date_created": "2024-03-26T15:36:23.000",
    "date_modified": "2024-03-26T15:36:23.000",
    "request_status": "Pending",
    "responsible_agency": "Department of Sanitation",
    "final_address": "3654 Annunciation St",
    "address_councildis": "B",
    "status": "Pending",
    "rowid": "1078939",
    "final_x": "3674100.39432",
    "final_y": "518096.323318",
    "longitude": "-90.09189488412133",
    "latitude": "29.918807545395918",
    "geocoded_column": {
      "latitude": "29.918807545395918",
      "longitude": "-90.09189488412133"
    }
  },
  {
    "service_request": "2024-1078938",
    "request_type": "Trash/Recycling",
    "request_reason": "Request a Large Item Pick Up",
    "date_created": "2024-03-26T15:35:11.000",
    "date_modified": "2024-03-26T15:35:11.000",
    "request_status": "Pending",
    "responsible_agency": "Department of Sanitation",
    "final_address": "1922 Lapeyrouse St",
    "address_councildis": "D",
    "status": "Assigned to Contractor",
    "contractor": "IV Waste",
    "rowid": "1078938",
    "final_x": "3681111.3908",
    "final_y": "538482.481545",
    "longitude": "-90.06905483421023",
    "latitude": "29.974651915915718",
    "geocoded_column": {
      "latitude": "29.974651915915718",
      "longitude": "-90.06905483421023"
    }
  },
  {
    "service_request": "2024-1078937",
    "request_type": "Traffic Signals/Signs/Striping/Streetlights",
    "request_reason": "Additional signage",
    "date_created": "2024-03-26T15:34:47.000",
    "date_modified": "2024-03-26T15:34:47.000",
    "request_status": "Pending",
    "responsible_agency": "Department of Public Works",
    "final_address": "400 BLK Saint James St",
    "address_councildis": "B",
    "status": "Pending",
    "rowid": "1078937",
    "final_x": "3682244.93895",
    "final_y": "521817.564748",
    "longitude": "-90.06605691137044",
    "latitude": "29.928794593955825",
    "geocoded_column": {
      "latitude": "29.928794593955825",
      "longitude": "-90.06605691137044"
    }
  },
  {
    "service_request": "2024-1078936",
    "request_type": "Safety & Permits",
    "request_reason": "Licenses & Permits",
    "date_created": "2024-03-26T15:33:05.000",
    "date_modified": "2024-03-26T15:33:05.000",
    "request_status": "Pending",
    "responsible_agency": "Safety and Permits",
    "final_address": "1001 Loyola Ave",
    "address_councildis": "B",
    "status": "Pending",
    "rowid": "1078936",
    "final_x": "3678160.85288",
    "final_y": "528129.367999",
    "longitude": "-90.07873137550017",
    "latitude": "29.946273541255742",
    "geocoded_column": {
      "latitude": "29.946273541255742",
      "longitude": "-90.07873137550017"
    }
  },
  {
    "service_request": "2024-1078935",
    "request_type": "Roads/Drainage",
    "request_reason": "Catch Basin - Clogged",
    "date_created": "2024-03-26T15:30:08.000",
    "date_modified": "2024-03-26T15:30:08.000",
    "request_status": "Pending",
    "responsible_agency": "Department of Public Works",
    "final_address": "3900 BLK N Rampart St",
    "address_councildis": "C",
    "status": "Pending",
    "rowid": "1078935",
    "final_x": "3691536.67594",
    "final_y": "534907.042178",
    "longitude": "-90.03625716666079",
    "latitude": "29.96450031196257",
    "geocoded_column": {
      "latitude": "29.96450031196257",
      "longitude": "-90.03625716666079"
    }
  },
  {
    "service_request": "2024-1078933",
    "request_type": "Trash/Recycling",
    "request_reason": "Request a Large Item Pick Up",
    "date_created": "2024-03-26T15:27:24.000",
    "date_modified": "2024-03-26T15:27:25.000",
    "request_status": "Pending",
    "responsible_agency": "Department of Sanitation",
    "final_address": "849 Taft Pl",
    "address_councildis": "A",
    "status": "Assigned to Contractor",
    "contractor": "Richards Disposal",
    "rowid": "1078933",
    "final_x": "3673768.89768",
    "final_y": "539769.737482",
    "longitude": "-90.09220023699834",
    "latitude": "29.97841214956113",
    "geocoded_column": {
      "latitude": "29.97841214956113",
      "longitude": "-90.09220023699834"
    }
  },
  {
    "service_request": "2024-1078932",
    "request_type": "Roads/Drainage",
    "request_reason": "Catch Basin - Clogged",
    "date_created": "2024-03-26T15:26:49.000",
    "date_modified": "2024-03-26T15:26:49.000",
    "request_status": "Pending",
    "responsible_agency": "Department of Public Works",
    "final_address": "621 Esplanade Ave",
    "address_councildis": "C",
    "status": "Pending",
    "rowid": "1078932",
    "final_x": "3684236.55516",
    "final_y": "534348.340357",
    "longitude": "-90.05932998109972",
    "latitude": "29.96318927702033",
    "geocoded_column": {
      "latitude": "29.96318927702033",
      "longitude": "-90.05932998109972"
    }
  },
  {
    "service_request": "2024-1078931",
    "request_type": "Trash/Recycling",
    "request_reason": "Request a Large Item Pick Up",
    "date_created": "2024-03-26T15:26:28.000",
    "date_modified": "2024-03-26T15:26:29.000",
    "request_status": "Pending",
    "responsible_agency": "Department of Sanitation",
    "final_address": "4801 Pratt Dr",
    "address_councildis": "D",
    "status": "Assigned to Contractor",
    "contractor": "IV Waste",
    "rowid": "1078931",
    "final_x": "3680660.73019",
    "final_y": "550151.063828",
    "longitude": "-90.07007184349334",
    "latitude": "30.00675006956877",
    "geocoded_column": {
      "latitude": "30.00675006956877",
      "longitude": "-90.07007184349334"
    }
  },
  {
    "service_request": "2024-1078930",
    "request_type": "Roads/Drainage",
    "request_reason": "Ditch Issue",
    "date_created": "2024-03-26T15:24:09.000",
    "date_modified": "2024-03-26T15:24:09.000",
    "request_status": "Pending",
    "responsible_agency": "Department of Public Works",
    "final_address": "3413 Camp St",
    "address_councildis": "B",
    "status": "Pending",
    "rowid": "1078930",
    "final_x": "3674726.85877",
    "final_y": "519948.705848",
    "longitude": "-90.08985400686382",
    "latitude": "29.923882325219097",
    "geocoded_column": {
      "latitude": "29.923882325219097",
      "longitude": "-90.08985400686382"
    }
  },
  {
    "service_request": "2024-1078929",
    "request_type": "Trash/Recycling",
    "request_reason": "Replace Recycling Cart",
    "date_created": "2024-03-26T15:23:24.000",
    "date_modified": "2024-03-26T15:23:24.000",
    "request_status": "Pending",
    "responsible_agency": "Department of Sanitation",
    "final_address": "2523 Governor Nicholls St",
    "address_councildis": "D",
    "status": "Pending",
    "rowid": "1078929",
    "final_x": "3678519.39803",
    "final_y": "537952.406985",
    "longitude": "-90.07725933870195",
    "latitude": "29.97327277621095",
    "geocoded_column": {
      "latitude": "29.97327277621095",
      "longitude": "-90.07725933870195"
    }
  },
  {
    "service_request": "2024-1078928",
    "request_type": "Roads/Drainage",
    "request_reason": "Catch Basin - Clogged",
    "date_created": "2024-03-26T15:23:01.000",
    "date_modified": "2024-03-26T15:23:50.000",
    "request_status": "Pending",
    "responsible_agency": "Department of Public Works",
    "final_address": "210 Baronne St",
    "address_councildis": "B",
    "status": "Pending",
    "rowid": "1078928",
    "final_x": "3680240.2836",
    "final_y": "530605.158914",
    "longitude": "-90.0720798481",
    "latitude": "29.953018366512932",
    "geocoded_column": {
      "latitude": "29.953018366512932",
      "longitude": "-90.0720798481"
    }
  },
  {
    "service_request": "2024-1078927",
    "request_type": "Trash/Recycling",
    "request_reason": "Repair Trash Cart",
    "date_created": "2024-03-26T15:22:11.000",
    "date_modified": "2024-03-26T15:22:11.000",
    "request_status": "Pending",
    "responsible_agency": "Department of Sanitation",
    "final_address": "2014 General Taylor St",
    "address_councildis": "B",
    "status": "Assigned to Contractor",
    "contractor": "Richards Disposal",
    "rowid": "1078927",
    "final_x": "3672231.2539",
    "final_y": "522582.731514",
    "longitude": "-90.09764208257944",
    "latitude": "29.931199282614678",
    "geocoded_column": {
      "latitude": "29.931199282614678",
      "longitude": "-90.09764208257944"
    }
  },
  {
    "service_request": "2024-1078926",
    "request_type": "Property Maintenance",
    "request_reason": "Property Maintenance",
    "date_created": "2024-03-26T15:21:53.000",
    "date_modified": "2024-03-26T15:21:54.000",
    "request_status": "Pending",
    "responsible_agency": "Department of Code Enforcement",
    "final_address": "NEW ORLEANS ST & BENEFIT ST",
    "address_councildis": "D",
    "status": "Pending",
    "rowid": "1078926",
    "final_x": "3681761.2",
    "final_y": "544198.78",
    "longitude": "-90.06680302823224",
    "latitude": "29.990350005826677",
    "geocoded_column": {
      "latitude": "29.990350005826677",
      "longitude": "-90.06680302823224"
    }
  },
  {
    "service_request": "2024-1078925",
    "request_type": "Trash/Recycling",
    "request_reason": "Replace Trash Cart",
    "date_created": "2024-03-26T15:20:34.000",
    "date_modified": "2024-03-26T15:20:35.000",
    "request_status": "Pending",
    "responsible_agency": "Department of Sanitation",
    "final_address": "4715 Camp St",
    "address_councildis": "B",
    "status": "Assigned to Contractor",
    "contractor": "Richards Disposal",
    "rowid": "1078925",
    "final_x": "3669764.03585",
    "final_y": "519064.178615",
    "longitude": "-90.10554981430343",
    "latitude": "29.921597312842795",
    "geocoded_column": {
      "latitude": "29.921597312842795",
      "longitude": "-90.10554981430343"
    }
  },
  {
    "service_request": "2024-1078924",
    "request_type": "Trash/Recycling",
    "request_reason": "Request a Large Item Pick Up",
    "date_created": "2024-03-26T15:18:26.000",
    "date_modified": "2024-03-26T15:18:27.000",
    "request_status": "Pending",
    "responsible_agency": "Department of Sanitation",
    "final_address": "312 S Lopez St",
    "address_councildis": "B",
    "status": "Assigned to Contractor",
    "contractor": "Richards Disposal",
    "rowid": "1078924",
    "final_x": "3673335.03284",
    "final_y": "535455.343238",
    "longitude": "-90.09371795924099",
    "latitude": "29.9665619425681",
    "geocoded_column": {
      "latitude": "29.9665619425681",
      "longitude": "-90.09371795924099"
    }
  },
  {
    "service_request": "2024-1078923",
    "request_type": "Trash/Recycling",
    "request_reason": "Repair Trash Cart",
    "date_created": "2024-03-26T15:13:39.000",
    "date_modified": "2024-03-26T15:13:40.000",
    "request_status": "Pending",
    "responsible_agency": "Department of Sanitation",
    "final_address": "5242 Revel St",
    "address_councildis": "E",
    "status": "Assigned to Contractor",
    "contractor": "Waste Pro",
    "rowid": "1078923",
    "final_x": "3725035.09228",
    "final_y": "562747.269152",
    "longitude": "-89.9293960345029",
    "latitude": "30.039964723379747",
    "geocoded_column": {
      "latitude": "30.039964723379747",
      "longitude": "-89.9293960345029"
    }
  },
  {
    "service_request": "2024-1078921",
    "request_type": "Property Maintenance",
    "request_reason": "Property Maintenance",
    "date_created": "2024-03-26T15:03:31.000",
    "date_modified": "2024-03-26T15:03:31.000",
    "request_status": "Pending",
    "responsible_agency": "Department of Code Enforcement",
    "final_address": "6659 Harbourview Dr",
    "address_councildis": "E",
    "status": "Pending",
    "rowid": "1078921",
    "final_x": "3699329.67824",
    "final_y": "556112.272026",
    "longitude": "-90.01087474475604",
    "latitude": "30.022561992681663",
    "geocoded_column": {
      "latitude": "30.022561992681663",
      "longitude": "-90.01087474475604"
    }
  },
  {
    "service_request": "2024-1078920",
    "request_type": "Trash/Recycling",
    "request_reason": "Start Trash Service",
    "date_created": "2024-03-26T15:01:53.000",
    "date_modified": "2024-03-26T15:01:54.000",
    "request_status": "Pending",
    "responsible_agency": "Department of Sanitation",
    "final_address": "1125 N Robertson St",
    "address_councildis": "D",
    "status": "Assigned to Contractor",
    "contractor": "Richards Disposal",
    "rowid": "1078920",
    "final_x": "3681069.92655",
    "final_y": "535737.154567",
    "longitude": "-90.06928143750918",
    "latitude": "29.967104470997075",
    "geocoded_column": {
      "latitude": "29.967104470997075",
      "longitude": "-90.06928143750918"
    }
  },
  {
    "service_request": "2024-1078919",
    "request_type": "Roads/Drainage",
    "request_reason": "Catch Basin - Broken/Damage",
    "date_created": "2024-03-26T14:55:38.000",
    "date_modified": "2024-03-26T14:55:39.000",
    "request_status": "Pending",
    "responsible_agency": "Department of Public Works",
    "final_address": "4717 Carondelet St",
    "address_councildis": "B",
    "status": "Pending",
    "rowid": "1078919",
    "final_x": "3669534.68839",
    "final_y": "521157.595513",
    "longitude": "-90.10620299903245",
    "latitude": "29.927360299450815",
    "geocoded_column": {
      "latitude": "29.927360299450815",
      "longitude": "-90.10620299903245"
    }
  },
  {
    "service_request": "2024-1078918",
    "request_type": "Trash/Recycling",
    "request_reason": "Missed Trash Pick-Up",
    "date_created": "2024-03-26T14:49:56.000",
    "date_modified": "2024-03-26T14:49:57.000",
    "request_status": "Pending",
    "responsible_agency": "Department of Sanitation",
    "final_address": "2228 Easter Ln",
    "address_councildis": "C",
    "status": "Assigned to Contractor",
    "contractor": "Richards Disposal",
    "rowid": "1078918",
    "final_x": "3699322.4641",
    "final_y": "522951.326203",
    "longitude": "-90.01210572640409",
    "latitude": "29.93138165966102",
    "geocoded_column": {
      "latitude": "29.93138165966102",
      "longitude": "-90.01210572640409"
    }
  },
  {
    "service_request": "2024-1078917",
    "request_type": "Trash/Recycling",
    "request_reason": "Request a Large Item Pick Up",
    "date_created": "2024-03-26T14:48:39.000",
    "date_modified": "2024-03-26T14:48:40.000",
    "request_status": "Pending",
    "responsible_agency": "Department of Sanitation",
    "final_address": "1437 Tita St",
    "address_councildis": "C",
    "status": "Assigned to Contractor",
    "contractor": "Richards Disposal",
    "rowid": "1078917",
    "final_x": "3695589.96746",
    "final_y": "526070.950462",
    "longitude": "-90.02377614620458",
    "latitude": "29.940077366881557",
    "geocoded_column": {
      "latitude": "29.940077366881557",
      "longitude": "-90.02377614620458"
    }
  },
  {
    "service_request": "2024-1078916",
    "request_type": "Property Maintenance",
    "request_reason": "Property Maintenance",
    "date_created": "2024-03-26T14:42:17.000",
    "date_modified": "2024-03-26T15:24:40.000",
    "case_close_date": "2024-03-26T10:24:40.000",
    "request_status": "Closed",
    "responsible_agency": "Department of Code Enforcement",
    "final_address": "2261 Pressburg St",
    "address_councildis": "D",
    "status": "Referred to Code Enforcement",
    "rowid": "1078916",
    "final_x": "3684139.39938",
    "final_y": "554692.409624",
    "longitude": "-90.058922259547",
    "latitude": "30.01913120279681",
    "geocoded_column": {
      "latitude": "30.01913120279681",
      "longitude": "-90.058922259547"
    }
  },
  {
    "service_request": "2024-1078915",
    "request_type": "Trash/Recycling",
    "request_reason": "Missed Trash Pick-Up",
    "date_created": "2024-03-26T14:41:26.000",
    "date_modified": "2024-03-26T14:41:27.000",
    "request_status": "Pending",
    "responsible_agency": "Department of Sanitation",
    "final_address": "10211 Hillwood St",
    "address_councildis": "E",
    "status": "Assigned to Contractor",
    "contractor": "Waste Pro",
    "rowid": "1078915",
    "final_x": "3713195.46866",
    "final_y": "556763.209818",
    "longitude": "-89.96703807204184",
    "latitude": "30.023904501880455",
    "geocoded_column": {
      "latitude": "30.023904501880455",
      "longitude": "-89.96703807204184"
    }
  },
  {
    "service_request": "2024-1078914",
    "request_type": "Parks & Parkways",
    "request_reason": "Request Tree Service (Right of Way/Public Property)",
    "date_created": "2024-03-26T14:40:27.000",
    "date_modified": "2024-03-26T14:40:27.000",
    "request_status": "Pending",
    "responsible_agency": "Department of Parks & Parkway",
    "final_address": "6542 Argonne Blvd",
    "address_councildis": "A",
    "status": "Pending",
    "rowid": "1078914",
    "final_x": "3670444.89095",
    "final_y": "550959.758741",
    "longitude": "-90.10231899825877",
    "latitude": "30.009279424988545",
    "geocoded_column": {
      "latitude": "30.009279424988545",
      "longitude": "-90.10231899825877"
    }
  },
  {
    "service_request": "2024-1078913",
    "request_type": "Trash/Recycling",
    "request_reason": "Repair Recycling Cart",
    "date_created": "2024-03-26T14:39:34.000",
    "date_modified": "2024-03-26T14:39:34.000",
    "request_status": "Pending",
    "responsible_agency": "Department of Sanitation",
    "final_address": "5314 St Anthony Ave",
    "address_councildis": "D",
    "status": "Pending",
    "rowid": "1078913",
    "final_x": "3682090.1876",
    "final_y": "552537.304982",
    "longitude": "-90.06547240069479",
    "latitude": "30.01326795939257",
    "geocoded_column": {
      "latitude": "30.01326795939257",
      "longitude": "-90.06547240069479"
    }
  },
  {
    "service_request": "2024-1078912",
    "request_type": "Trash/Recycling",
    "request_reason": "Repair Trash Cart",
    "date_created": "2024-03-26T14:39:14.000",
    "date_modified": "2024-03-26T14:39:14.000",
    "request_status": "Pending",
    "responsible_agency": "Department of Sanitation",
    "final_address": "625 N Olympia St",
    "address_councildis": "A",
    "status": "Assigned to Contractor",
    "contractor": "Richards Disposal",
    "rowid": "1078912",
    "final_x": "3670591.87892",
    "final_y": "541249.266956",
    "longitude": "-90.10218424025386",
    "latitude": "29.982574592213638",
    "geocoded_column": {
      "latitude": "29.982574592213638",
      "longitude": "-90.10218424025386"
    }
  },
  {
    "service_request": "2024-1078911",
    "request_type": "Trash/Recycling",
    "request_reason": "Request a Large Item Pick Up",
    "date_created": "2024-03-26T14:38:42.000",
    "date_modified": "2024-03-26T14:38:42.000",
    "request_status": "Pending",
    "responsible_agency": "Department of Sanitation",
    "final_address": "2121 Marengo St",
    "address_councildis": "B",
    "status": "Assigned to Contractor",
    "contractor": "Richards Disposal",
    "rowid": "1078911",
    "final_x": "3671814.04327",
    "final_y": "522957.524603",
    "longitude": "-90.09894641970993",
    "latitude": "29.932242207755312",
    "geocoded_column": {
      "latitude": "29.932242207755312",
      "longitude": "-90.09894641970993"
    }
  },
  {
    "service_request": "2024-1078910",
    "request_type": "Trash/Recycling",
    "request_reason": "Repair Recycling Cart",
    "date_created": "2024-03-26T14:38:34.000",
    "date_modified": "2024-03-26T14:38:34.000",
    "request_status": "Pending",
    "responsible_agency": "Department of Sanitation",
    "final_address": "5314 St Anthony Ave",
    "address_councildis": "D",
    "status": "Pending",
    "rowid": "1078910",
    "final_x": "3682090.1876",
    "final_y": "552537.304982",
    "longitude": "-90.06547240069479",
    "latitude": "30.01326795939257",
    "geocoded_column": {
      "latitude": "30.01326795939257",
      "longitude": "-90.06547240069479"
    }
  },
  {
    "service_request": "2024-1078909",
    "request_type": "Traffic Signals/Signs/Striping/Streetlights",
    "request_reason": "Disabled Parking Sign ",
    "date_created": "2024-03-26T14:35:47.000",
    "date_modified": "2024-03-26T14:35:47.000",
    "request_status": "Pending",
    "responsible_agency": "Department of Public Works",
    "final_address": "2501 Joliet St",
    "address_councildis": "A",
    "status": "Pending",
    "rowid": "1078909",
    "final_x": "3664119.94759",
    "final_y": "532806.462724",
    "longitude": "-90.12290760454447",
    "latitude": "29.95954929230629",
    "geocoded_column": {
      "latitude": "29.95954929230629",
      "longitude": "-90.12290760454447"
    }
  },
  {
    "service_request": "2024-1078908",
    "request_type": "Trash/Recycling",
    "request_reason": "Replace Trash Cart",
    "date_created": "2024-03-26T14:35:26.000",
    "date_modified": "2024-03-26T14:35:27.000",
    "request_status": "Pending",
    "responsible_agency": "Department of Sanitation",
    "final_address": "4827 St Charles Ave",
    "address_councildis": "B",
    "status": "Assigned to Contractor",
    "contractor": "Richards Disposal",
    "rowid": "1078908",
    "final_x": "3669161.30273",
    "final_y": "520846.653561",
    "longitude": "-90.1073921895602",
    "latitude": "29.92651629804633",
    "geocoded_column": {
      "latitude": "29.92651629804633",
      "longitude": "-90.1073921895602"
    }
  },
  {
    "service_request": "2024-1078907",
    "request_type": "Roads/Drainage",
    "request_reason": "Catch Basin - Clogged",
    "date_created": "2024-03-26T14:33:22.000",
    "date_modified": "2024-03-26T14:33:51.000",
    "request_status": "Pending",
    "responsible_agency": "Department of Public Works",
    "final_address": "4700 Banks St",
    "address_councildis": "A",
    "status": "Pending",
    "rowid": "1078907",
    "final_x": "3668294.92282",
    "final_y": "538856.515017",
    "longitude": "-90.10951991063293",
    "latitude": "29.976062992760877",
    "geocoded_column": {
      "latitude": "29.976062992760877",
      "longitude": "-90.10951991063293"
    }
  },
  {
    "service_request": "2024-1078906",
    "request_type": "Traffic Signals/Signs/Striping/Streetlights",
    "request_reason": "Street Light Outage/Malfunction",
    "date_created": "2024-03-26T14:32:35.000",
    "date_modified": "2024-03-26T14:32:35.000",
    "request_status": "Pending",
    "responsible_agency": "Department of Public Works",
    "final_address": "4305 Genoa St",
    "address_councildis": "E",
    "status": "Assigned to Contractor",
    "contractor": "Legacy Professional Services",
    "rowid": "1078906",
    "final_x": "3760890.42557",
    "final_y": "573148.737065",
    "longitude": "-89.81564958142262",
    "latitude": "30.067307347068233",
    "geocoded_column": {
      "latitude": "30.067307347068233",
      "longitude": "-89.81564958142262"
    }
  },
  {
    "service_request": "2024-1078905",
    "request_type": "Trash/Recycling",
    "request_reason": "Illegal Dumping",
    "date_created": "2024-03-26T14:30:43.000",
    "date_modified": "2024-03-26T14:30:43.000",
    "request_status": "Pending",
    "responsible_agency": "Department of Sanitation",
    "final_address": "950 Josephine St",
    "address_councildis": "B",
    "status": "Pending",
    "rowid": "1078905",
    "final_x": "3679392.29563",
    "final_y": "521960.612922",
    "longitude": "-90.07505716297808",
    "latitude": "29.929274372583826",
    "geocoded_column": {
      "latitude": "29.929274372583826",
      "longitude": "-90.07505716297808"
    }
  },
  {
    "service_request": "2024-1078904",
    "request_type": "Traffic Signals/Signs/Striping/Streetlights",
    "request_reason": "Street Light Outage/Malfunction",
    "date_created": "2024-03-26T14:29:13.000",
    "date_modified": "2024-03-26T14:29:14.000",
    "request_status": "Pending",
    "responsible_agency": "Department of Public Works",
    "final_address": "20345 Old Spanish Trl",
    "address_councildis": "E",
    "status": "Assigned to Contractor",
    "contractor": "Legacy Professional Services",
    "rowid": "1078904",
    "final_x": "3760869.83203",
    "final_y": "572524.515625",
    "longitude": "-89.81574081413167",
    "latitude": "30.06559177518805",
    "geocoded_column": {
      "latitude": "30.06559177518805",
      "longitude": "-89.81574081413167"
    }
  },
  {
    "service_request": "2024-1078903",
    "request_type": "Property Maintenance",
    "request_reason": "Property Maintenance",
    "date_created": "2024-03-26T14:26:04.000",
    "date_modified": "2024-03-26T14:26:04.000",
    "request_status": "Pending",
    "responsible_agency": "Department of Code Enforcement",
    "final_address": "5327 Eastern St",
    "address_councildis": "D",
    "status": "Pending",
    "rowid": "1078903",
    "final_x": "3687908.11113",
    "final_y": "552539.991702",
    "longitude": "-90.04709080558497",
    "latitude": "30.013097056540513",
    "geocoded_column": {
      "latitude": "30.013097056540513",
      "longitude": "-90.04709080558497"
    }
  },
  {
    "service_request": "2024-1078902",
    "request_type": "Trash/Recycling",
    "request_reason": "Order Trash Cart",
    "date_created": "2024-03-26T14:25:40.000",
    "date_modified": "2024-03-26T14:25:41.000",
    "request_status": "Pending",
    "responsible_agency": "Department of Sanitation",
    "final_address": "5222 Wilton Dr",
    "address_councildis": "D",
    "status": "Assigned to Contractor",
    "contractor": "IV Waste",
    "rowid": "1078902",
    "final_x": "3681881.17781",
    "final_y": "551747.560405",
    "longitude": "-90.06616035395653",
    "latitude": "30.011102805429886",
    "geocoded_column": {
      "latitude": "30.011102805429886",
      "longitude": "-90.06616035395653"
    }
  },
  {
    "service_request": "2024-1078901",
    "request_type": "Traffic Signals/Signs/Striping/Streetlights",
    "request_reason": "Traffic Sign Missing/Damaged",
    "date_created": "2024-03-26T14:23:27.000",
    "date_modified": "2024-03-26T14:23:27.000",
    "request_status": "Pending",
    "responsible_agency": "Department of Public Works",
    "final_address": "7513 Plum St",
    "address_councildis": "A",
    "status": "Pending",
    "rowid": "1078901",
    "final_x": "3663826.99168",
    "final_y": "527267.613887",
    "longitude": "-90.12401728898989",
    "latitude": "29.944327754651958",
    "geocoded_column": {
      "latitude": "29.944327754651958",
      "longitude": "-90.12401728898989"
    }
  },
  {
    "service_request": "2024-1078900",
    "request_type": "Trash/Recycling",
    "request_reason": "Request a Large Item Pick Up",
    "date_created": "2024-03-26T14:22:42.000",
    "date_modified": "2024-03-26T17:56:52.000",
    "case_close_date": "2024-03-26T12:56:52.000",
    "request_status": "Closed",
    "responsible_agency": "Department of Sanitation",
    "final_address": "53 Marywood Ct",
    "address_councildis": "E",
    "status": "Assigned to Contractor",
    "contractor": "Waste Pro",
    "contractor_action": "Completed",
    "rowid": "1078900",
    "final_x": "3712068.5635",
    "final_y": "566980.591076",
    "longitude": "-89.97021476869486",
    "latitude": "30.052035110516993",
    "geocoded_column": {
      "latitude": "30.052035110516993",
      "longitude": "-89.97021476869486"
    }
  },
  {
    "service_request": "2024-1078899",
    "request_type": "Trash/Recycling",
    "request_reason": "Request a Large Item Pick Up",
    "date_created": "2024-03-26T14:21:59.000",
    "date_modified": "2024-03-26T14:22:00.000",
    "request_status": "Pending",
    "responsible_agency": "Department of Sanitation",
    "final_address": "3510 Livingston St",
    "address_councildis": "A",
    "status": "Assigned to Contractor",
    "contractor": "Richards Disposal",
    "rowid": "1078899",
    "final_x": "3663875.2512",
    "final_y": "537874.958153",
    "longitude": "-90.12351131396612",
    "latitude": "29.97349309281398",
    "geocoded_column": {
      "latitude": "29.97349309281398",
      "longitude": "-90.12351131396612"
    }
  },
  {
    "service_request": "2024-1078898",
    "request_type": "Safety & Permits",
    "request_reason": "Safety & Permits Request (Cyber Incident Back Up)",
    "date_created": "2024-03-26T14:17:37.000",
    "date_modified": "2024-03-26T14:17:37.000",
    "request_status": "Pending",
    "responsible_agency": "Safety and Permits",
    "final_address": "1922 Constance St",
    "address_councildis": "B",
    "status": "Pending",
    "rowid": "1078898",
    "final_x": "3679900.75631",
    "final_y": "522374.973178",
    "longitude": "-90.07343766674441",
    "latitude": "29.93039836461747",
    "geocoded_column": {
      "latitude": "29.93039836461747",
      "longitude": "-90.07343766674441"
    }
  },
  {
    "service_request": "2024-1078897",
    "request_type": "Traffic Signals/Signs/Striping/Streetlights",
    "request_reason": "Street Light Outage/Malfunction",
    "date_created": "2024-03-26T14:17:11.000",
    "date_modified": "2024-03-26T14:17:12.000",
    "request_status": "Pending",
    "responsible_agency": "Department of Public Works",
    "final_address": "536 Washington Ave",
    "address_councildis": "B",
    "status": "Assigned to Contractor",
    "contractor": "Legacy Professional Services",
    "rowid": "1078897",
    "final_x": "3678006.62338",
    "final_y": "519298.211383",
    "longitude": "-90.079523435735",
    "latitude": "29.92199540136581",
    "geocoded_column": {
      "latitude": "29.92199540136581",
      "longitude": "-90.079523435735"
    }
  },
  {
    "service_request": "2024-1078896",
    "request_type": "Trash/Recycling",
    "request_reason": "Request a Large Item Pick Up",
    "date_created": "2024-03-26T14:14:28.000",
    "date_modified": "2024-03-26T14:14:29.000",
    "request_status": "Pending",
    "responsible_agency": "Department of Sanitation",
    "final_address": "242 W Kenilworth St",
    "address_councildis": "A",
    "status": "Assigned to Contractor",
    "contractor": "IV Waste",
    "rowid": "1078896",
    "final_x": "3665329.19482",
    "final_y": "546277.870544",
    "longitude": "-90.11863810761467",
    "latitude": "29.996555974898463",
    "geocoded_column": {
      "latitude": "29.996555974898463",
      "longitude": "-90.11863810761467"
    }
  },