[
  {
    "service_request": "2025-1175448",
    "request_type": "Trash/Recycling",
    "request_reason": "Illegal Dumping",
    "date_created": "2025-03-13T23:17:18.000",
    "date_modified": "2025-03-13T23:17:19.000",
    "request_status": "Pending",
    "responsible_agency": "Department of Sanitation",
    "final_address": "1512 Louisa St",
    "address_councildis": "D",
    "status": "Pending",
    "rowid": "1175448",
    "final_x": "3689931.10697",
    "final_y": "537480.02292",
    "longitude": "-90.0412357921289",
    "latitude": "29.971624982462505",
    "geocoded_column": {
      "latitude": "29.971624982462505",
      "longitude": "-90.0412357921289"
    }
  },
  {
    "service_request": "2025-1175447",
    "request_type": "Property Maintenance",
    "request_reason": "Property Maintenance",
    "date_created": "2025-03-13T23:14:03.000",
    "date_modified": "2025-03-13T23:14:06.000",
    "request_status": "Pending",
    "responsible_agency": "Department of Code Enforcement",
    "final_address": "1512 Louisa St",
    "address_councildis": "D",
    "status": "Pending",
    "rowid": "1175447",
    "final_x": "3689931.10697",
    "final_y": "537480.02292",
    "longitude": "-90.0412357921289",
    "latitude": "29.971624982462505",
    "geocoded_column": {
      "latitude": "29.971624982462505",
      "longitude": "-90.0412357921289"
    }
  },
  {
    "service_request": "2025-1175446",
    "request_type": "Abandoned Vehicles",
    "request_reason": "Abandoned/Junk Vehicles",
    "date_created": "2025-03-13T23:06:29.000",
    "date_modified": "2025-03-13T23:06:30.000",
    "request_status": "Pending",
    "responsible_agency": "Department of Public Works",
    "final_address": "1916 France St",
    "address_councildis": "D",
    "status": "Pending",
    "rowid": "1175446",
    "final_x": "3693129.90083",
    "final_y": "538314.505033",
    "longitude": "-90.03110361247862",
    "latitude": "29.97381994119079",
    "geocoded_column": {
      "latitude": "29.97381994119079",
      "longitude": "-90.03110361247862"
    }
  },
  {
    "service_request": "2025-1175445",
    "request_type": "Trash/Recycling",
    "request_reason": "Request a Large Item Pick Up",
    "date_created": "2025-03-13T22:48:50.000",
    "date_modified": "2025-03-13T22:48:52.000",
    "request_status": "Pending",
    "responsible_agency": "Department of Sanitation",
    "final_address": "3315 Burgundy St",
    "address_councildis": "C",
    "status": "Assigned to Contractor",
    "contractor": "IV Waste",
    "rowid": "1175445",
    "final_x": "3689754.61513",
    "final_y": "535003.90663",
    "longitude": "-90.04188131493734",
    "latitude": "29.964822002975385",
    "geocoded_column": {
      "latitude": "29.964822002975385",
      "longitude": "-90.04188131493734"
    }
  },
  {
    "service_request": "2025-1175444",
    "request_type": "Trash/Recycling",
    "request_reason": "Request a Large Item Pick Up",
    "date_created": "2025-03-13T21:26:22.000",
    "date_modified": "2025-03-13T21:26:24.000",
    "request_status": "Pending",
    "responsible_agency": "Department of Sanitation",
    "final_address": "7611 Wave Dr",
    "address_councildis": "E",
    "status": "Assigned to Contractor",
    "contractor": "Waste Pro",
    "rowid": "1175444",
    "final_x": "3715087.86155",
    "final_y": "568729.221413",
    "longitude": "-89.96060557701115",
    "latitude": "30.05674401924518",
    "geocoded_column": {
      "latitude": "30.05674401924518",
      "longitude": "-89.96060557701115"
    }
  },
  {
    "service_request": "2025-1175443",
    "request_type": "Trash/Recycling",
    "request_reason": "Request a Large Item Pick Up",
    "date_created": "2025-03-13T21:21:24.000",
    "date_modified": "2025-03-13T21:21:26.000",
    "request_status": "Pending",
    "responsible_agency": "Department of Sanitation",
    "final_address": "2220 Marengo St",
    "address_councildis": "B",
    "status": "Assigned to Contractor",
    "contractor": "IV Waste",
    "rowid": "1175443",
    "final_x": "3671677.45627",
    "final_y": "523289.957371",
    "longitude": "-90.09936631103979",
    "latitude": "29.933160335891035",
    "geocoded_column": {
      "latitude": "29.933160335891035",
      "longitude": "-90.09936631103979"
    }
  },
  {
    "service_request": "2025-1175442",
    "request_type": "Trash/Recycling",
    "request_reason": "Replace Trash Cart",
    "date_created": "2025-03-13T21:09:49.000",
    "date_modified": "2025-03-13T21:09:51.000",
    "request_status": "Pending",
    "responsible_agency": "Department of Sanitation",
    "final_address": "2331 Terpsichore St",
    "address_councildis": "B",
    "status": "Assigned to Contractor",
    "contractor": "IV Waste",
    "rowid": "1175442",
    "final_x": "3676297.80705",
    "final_y": "527084.981374",
    "longitude": "-90.08464959949258",
    "latitude": "29.94345778196578",
    "geocoded_column": {
      "latitude": "29.94345778196578",
      "longitude": "-90.08464959949258"
    }
  },
  {
    "service_request": "2025-1175441",
    "request_type": "Streetlights",
    "request_reason": "Streetlight Outage/Malfunction",
    "date_created": "2025-03-13T20:48:12.000",
    "date_modified": "2025-03-13T20:48:14.000",
    "request_status": "Pending",
    "responsible_agency": "Department of Public Works",
    "final_address": "19 Lark St",
    "address_councildis": "D",
    "status": "Pending",
    "contractor": "Legacy Professional Services",
    "rowid": "1175441",
    "final_x": "3675882.88417",
    "final_y": "556304.448474",
    "longitude": "-90.08495452990218",
    "latitude": "30.023813640106567",
    "geocoded_column": {
      "latitude": "30.023813640106567",
      "longitude": "-90.08495452990218"
    }
  },
  {
    "service_request": "2025-1175440",
    "request_type": "Trash/Recycling",
    "request_reason": "Damaged Caused By Contractor",
    "date_created": "2025-03-13T20:44:30.000",
    "date_modified": "2025-03-13T20:44:32.000",
    "request_status": "Pending",
    "responsible_agency": "Department of Sanitation",
    "final_address": "1527 Valmont St",
    "address_councildis": "B",
    "status": "Assigned to Contractor",
    "contractor": "IV Waste",
    "rowid": "1175440",
    "final_x": "3667844.85607",
    "final_y": "520659.496761",
    "longitude": "-90.11155416096132",
    "latitude": "29.926040339007677",
    "geocoded_column": {
      "latitude": "29.926040339007677",
      "longitude": "-90.11155416096132"
    }
  },
  {
    "service_request": "2025-1175439",
    "request_type": "Trash/Recycling",
    "request_reason": "Replace Trash Cart",
    "date_created": "2025-03-13T20:41:22.000",
    "date_modified": "2025-03-13T20:41:24.000",
    "request_status": "Pending",
    "responsible_agency": "Department of Sanitation",
    "final_address": "4626 Bienville Ave",
    "address_councildis": "A",
    "status": "Assigned to Contractor",
    "contractor": "IV Waste",
    "rowid": "1175439",
    "final_x": "3669680.85511",
    "final_y": "540331.699083",
    "longitude": "-90.1050927798792",
    "latitude": "29.980078475640102",
    "geocoded_column": {
      "latitude": "29.980078475640102",
      "longitude": "-90.1050927798792"
    }
  },
  {
    "service_request": "2025-1175438",
    "request_type": "Property Maintenance",
    "request_reason": "Property Maintenance",
    "date_created": "2025-03-13T20:21:38.000",
    "date_modified": "2025-03-13T20:21:40.000",
    "request_status": "Pending",
    "responsible_agency": "Department of Code Enforcement",
    "final_address": "1694 N Claiborne Ave",
    "address_councildis": "C",
    "status": "Pending",
    "rowid": "1175438",
    "final_x": "3682972.7076",
    "final_y": "537771.833352",
    "longitude": "-90.06320122288228",
    "latitude": "29.97264127907846",
    "geocoded_column": {
      "latitude": "29.97264127907846",
      "longitude": "-90.06320122288228"
    }
  },
  {
    "service_request": "2025-1175437",
    "request_type": "Trash/Recycling",
    "request_reason": "Repair Trash Cart",
    "date_created": "2025-03-13T20:05:03.000",
    "date_modified": "2025-03-13T20:05:06.000",
    "request_status": "Pending",
    "responsible_agency": "Department of Sanitation",
    "final_address": "1703 S Carrollton Ave",
    "address_councildis": "A",
    "status": "Assigned to Contractor",
    "contractor": "IV Waste",
    "rowid": "1175437",
    "final_x": "3663293.84384",
    "final_y": "529598.738113",
    "longitude": "-90.1256230229845",
    "latitude": "29.95075305871633",
    "geocoded_column": {
      "latitude": "29.95075305871633",
      "longitude": "-90.1256230229845"
    }
  },
  {
    "service_request": "2025-1175436",
    "request_type": "Property Maintenance",
    "request_reason": "Property Maintenance",
    "date_created": "2025-03-13T20:03:02.000",
    "date_modified": "2025-03-13T20:03:04.000",
    "request_status": "Pending",
    "responsible_agency": "Department of Code Enforcement",
    "final_address": "1108 Touro St",
    "address_councildis": "C",
    "status": "Pending",
    "rowid": "1175436",
    "final_x": "3684196.15644",
    "final_y": "536334.191879",
    "longitude": "-90.05938783343147",
    "latitude": "29.96865091782905",
    "geocoded_column": {
      "latitude": "29.96865091782905",
      "longitude": "-90.05938783343147"
    }
  },
  {
    "service_request": "2025-1175435",
    "request_type": "Abandoned Vehicles",
    "request_reason": "Abandoned/Junk Vehicles",
    "date_created": "2025-03-13T19:58:42.000",
    "date_modified": "2025-03-13T19:58:44.000",
    "request_status": "Pending",
    "responsible_agency": "Department of Public Works",
    "final_address": "1131 Rev. John Raphael, Jr. Way",
    "address_councildis": "B",
    "status": "Pending",
    "rowid": "1175435",
    "final_x": "3677189.66222",
    "final_y": "528053.884031",
    "longitude": "-90.08180036750734",
    "latitude": "29.9460951889288",
    "geocoded_column": {
      "latitude": "29.9460951889288",
      "longitude": "-90.08180036750734"
    }
  },
  {
    "service_request": "2025-1175434",
    "request_type": "Abandoned Vehicles",
    "request_reason": "Abandoned/Junk Vehicles",
    "date_created": "2025-03-13T19:57:37.000",
    "date_modified": "2025-03-13T19:57:38.000",
    "request_status": "Pending",
    "responsible_agency": "Department of Public Works",
    "final_address": "4810 Cleveland Ave",
    "address_councildis": "A",
    "status": "Pending",
    "rowid": "1175434",
    "final_x": "3668438.62087",
    "final_y": "539752.824714",
    "longitude": "-90.10903582255834",
    "latitude": "29.97852332161885",
    "geocoded_column": {
      "latitude": "29.97852332161885",
      "longitude": "-90.10903582255834"
    }
  },
  {
    "service_request": "2025-1175433",
    "request_type": "Abandoned Vehicles",
    "request_reason": "Abandoned/Junk Vehicles",
    "date_created": "2025-03-13T19:57:30.000",
    "date_modified": "2025-03-13T19:57:31.000",
    "request_status": "Pending",
    "responsible_agency": "Department of Public Works",
    "final_address": "4810 Cleveland Ave",
    "address_councildis": "A",
    "status": "Pending",
    "rowid": "1175433",
    "final_x": "3668438.62087",
    "final_y": "539752.824714",
    "longitude": "-90.10903582255834",
    "latitude": "29.97852332161885",
    "geocoded_column": {
      "latitude": "29.97852332161885",
      "longitude": "-90.10903582255834"
    }
  },
  {
    "service_request": "2025-1175432",
    "request_type": "Abandoned Vehicles",
    "request_reason": "Abandoned/Junk Vehicles",
    "date_created": "2025-03-13T19:57:19.000",
    "date_modified": "2025-03-13T19:57:21.000",
    "request_status": "Pending",
    "responsible_agency": "Department of Public Works",
    "final_address": "4810 Cleveland Ave",
    "address_councildis": "A",
    "status": "Pending",
    "rowid": "1175432",
    "final_x": "3668438.62087",
    "final_y": "539752.824714",
    "longitude": "-90.10903582255834",
    "latitude": "29.97852332161885",
    "geocoded_column": {
      "latitude": "29.97852332161885",
      "longitude": "-90.10903582255834"
    }
  },
  {
    "service_request": "2025-1175431",
    "request_type": "Safety & Permits",
    "request_reason": "Zoning Enforcement",
    "date_created": "2025-03-13T19:57:00.000",
    "date_modified": "2025-03-13T19:57:02.000",
    "request_status": "Pending",
    "responsible_agency": "Safety and Permits",
    "final_address": "1108 Touro St",
    "address_councildis": "C",
    "status": "Pending",
    "rowid": "1175431",
    "final_x": "3684196.15644",
    "final_y": "536334.191879",
    "longitude": "-90.05938783343147",
    "latitude": "29.96865091782905",
    "geocoded_column": {
      "latitude": "29.96865091782905",
      "longitude": "-90.05938783343147"
    }
  },
  {
    "service_request": "2025-1175430",
    "request_type": "Safety & Permits",
    "request_reason": "Zoning Enforcement",
    "date_created": "2025-03-13T19:48:36.000",
    "date_modified": "2025-03-13T19:48:38.000",
    "request_status": "Pending",
    "responsible_agency": "Safety and Permits",
    "final_address": "1314 St Anthony St",
    "address_councildis": "C",
    "status": "Pending",
    "rowid": "1175430",
    "final_x": "3683435.43593",
    "final_y": "536692.776711",
    "longitude": "-90.06177766171658",
    "latitude": "29.969660135855445",
    "geocoded_column": {
      "latitude": "29.969660135855445",
      "longitude": "-90.06177766171658"
    }
  },
  {
    "service_request": "2025-1175429",
    "request_type": "Trash/Recycling",
    "request_reason": "Request a Large Item Pick Up",
    "date_created": "2025-03-13T19:46:47.000",
    "date_modified": "2025-03-13T19:46:49.000",
    "request_status": "Pending",
    "responsible_agency": "Department of Sanitation",
    "final_address": "6635 Coventry St",
    "address_councildis": "E",
    "status": "Assigned to Contractor",
    "contractor": "Waste Pro",
    "rowid": "1175429",
    "final_x": "3697730.2929",
    "final_y": "559373.122973",
    "longitude": "-90.01580992205524",
    "latitude": "30.03157874409579",
    "geocoded_column": {
      "latitude": "30.03157874409579",
      "longitude": "-90.01580992205524"
    }
  },
  {
    "service_request": "2025-1175428",
    "request_type": "Trash/Recycling",
    "request_reason": "Repair Trash Cart",
    "date_created": "2025-03-13T19:32:46.000",
    "date_modified": "2025-03-13T19:32:48.000",
    "request_status": "Pending",
    "responsible_agency": "Department of Sanitation",
    "final_address": "2424 Jena St",
    "address_councildis": "B",
    "status": "Assigned to Contractor",
    "contractor": "IV Waste",
    "rowid": "1175428",
    "final_x": "3670095.28833",
    "final_y": "523874.683516",
    "longitude": "-90.10434132436562",
    "latitude": "29.93481490027657",
    "geocoded_column": {
      "latitude": "29.93481490027657",
      "longitude": "-90.10434132436562"
    }
  },
  {
    "service_request": "2025-1175427",
    "request_type": "Trash/Recycling",
    "request_reason": "Repair Recycling Cart",
    "date_created": "2025-03-13T19:31:12.000",
    "date_modified": "2025-03-13T19:31:13.000",
    "request_status": "Pending",
    "responsible_agency": "Department of Sanitation",
    "final_address": "4468 Arts St",
    "address_councildis": "D",
    "status": "Pending",
    "rowid": "1175427",
    "final_x": "3685963.15753",
    "final_y": "549395.479763",
    "longitude": "-90.05334678366779",
    "latitude": "30.004510683501724",
    "geocoded_column": {
      "latitude": "30.004510683501724",
      "longitude": "-90.05334678366779"
    }
  },
  {
    "service_request": "2025-1175426",
    "request_type": "Trash/Recycling",
    "request_reason": "Replace Trash Cart",
    "date_created": "2025-03-13T19:30:53.000",
    "date_modified": "2025-03-13T19:30:55.000",
    "request_status": "Pending",
    "responsible_agency": "Department of Sanitation",
    "final_address": "2424 Jena St",
    "address_councildis": "B",
    "status": "Assigned to Contractor",
    "contractor": "IV Waste",
    "rowid": "1175426",
    "final_x": "3670095.28833",
    "final_y": "523874.683516",
    "longitude": "-90.10434132436562",
    "latitude": "29.93481490027657",
    "geocoded_column": {
      "latitude": "29.93481490027657",
      "longitude": "-90.10434132436562"
    }
  },
  {
    "service_request": "2025-1175425",
    "request_type": "Trash/Recycling",
    "request_reason": "Order Recycling Cart",
    "date_created": "2025-03-13T19:29:30.000",
    "date_modified": "2025-03-13T19:29:32.000",
    "request_status": "Pending",
    "responsible_agency": "Department of Sanitation",
    "final_address": "2424 Jena St",
    "address_councildis": "B",
    "status": "Pending",
    "rowid": "1175425",
    "final_x": "3670095.28833",
    "final_y": "523874.683516",
    "longitude": "-90.10434132436562",
    "latitude": "29.93481490027657",
    "geocoded_column": {
      "latitude": "29.93481490027657",
      "longitude": "-90.10434132436562"
    }
  },
  {
    "service_request": "2025-1175424",
    "request_type": "Roads and Streets",
    "request_reason": "Pothole",
    "date_created": "2025-03-13T19:24:52.000",
    "date_modified": "2025-03-13T19:24:54.000",
    "request_status": "Pending",
    "responsible_agency": "Department of Public Works",
    "final_address": "2312 N Roman St",
    "address_councildis": "D",
    "status": "Pending",
    "rowid": "1175424",
    "final_x": "3685690.87388",
    "final_y": "538923.623306",
    "longitude": "-90.05457617956648",
    "latitude": "29.975725171061246",
    "geocoded_column": {
      "latitude": "29.975725171061246",
      "longitude": "-90.05457617956648"
    }
  },
  {
    "service_request": "2025-1175423",
    "request_type": "Drainage",
    "request_reason": "Drainage Manhole Cover Missing or Damaged",
    "date_created": "2025-03-13T19:22:37.000",
    "date_modified": "2025-03-13T19:22:38.000",
    "request_status": "Pending",
    "responsible_agency": "Sewerage & Water Board ",
    "final_address": "1800 Spain St",
    "address_councildis": "D",
    "status": "Pending",
    "rowid": "1175423",
    "final_x": "3685885.2774",
    "final_y": "538999.146442",
    "longitude": "-90.05395953684763",
    "latitude": "29.97592686627674",
    "geocoded_column": {
      "latitude": "29.97592686627674",
      "longitude": "-90.05395953684763"
    }
  },
  {
    "service_request": "2025-1175422",
    "request_type": "Abandoned Vehicles",
    "request_reason": "Abandoned/Junk Vehicles",
    "date_created": "2025-03-13T19:22:31.000",
    "date_modified": "2025-03-13T19:22:33.000",
    "request_status": "Pending",
    "responsible_agency": "Department of Public Works",
    "final_address": "1501 Kentucky St",
    "address_councildis": "D",
    "status": "Pending",
    "rowid": "1175422",
    "final_x": "3693784.55113",
    "final_y": "536442.240775",
    "longitude": "-90.02910339589869",
    "latitude": "29.968651406718458",
    "geocoded_column": {
      "latitude": "29.968651406718458",
      "longitude": "-90.02910339589869"
    }
  },
  {
    "service_request": "2025-1175421",
    "request_type": "Roads and Streets",
    "request_reason": "Debris in Driving Lanes",
    "date_created": "2025-03-13T18:20:40.000",
    "date_modified": "2025-03-13T18:20:42.000",
    "request_status": "Pending",
    "responsible_agency": "Department of Public Works",
    "final_address": "2848 Annunciation St",
    "address_councildis": "B",
    "status": "Pending",
    "rowid": "1175421",
    "final_x": "3677341.64315",
    "final_y": "519644.9278",
    "longitude": "-90.08161054468029",
    "latitude": "29.922968750350993",
    "geocoded_column": {
      "latitude": "29.922968750350993",
      "longitude": "-90.08161054468029"
    }
  },
  {
    "service_request": "2025-1175420",
    "request_type": "Trash/Recycling",
    "request_reason": "Order Second Trash Cart",
    "date_created": "2025-03-13T18:17:54.000",
    "date_modified": "2025-03-13T18:17:56.000",
    "request_status": "Pending",
    "responsible_agency": "Department of Sanitation",
    "final_address": "1815 Gordon St",
    "address_councildis": "E",
    "status": "Assigned to Contractor",
    "contractor": "Waste Pro",
    "rowid": "1175420",
    "final_x": "3700249.46154",
    "final_y": "536043.603143",
    "longitude": "-90.00870153223174",
    "latitude": "29.96735137835067",
    "geocoded_column": {
      "latitude": "29.96735137835067",
      "longitude": "-90.00870153223174"
    }
  },
  {
    "service_request": "2025-1175419",
    "request_type": "Trash/Recycling",
    "request_reason": "Request a Large Item Pick Up",
    "date_created": "2025-03-13T18:04:12.000",
    "date_modified": "2025-03-13T18:04:14.000",
    "request_status": "Pending",
    "responsible_agency": "Department of Sanitation",
    "final_address": "14742 Emory Rd",
    "address_councildis": "E",
    "status": "Assigned to Contractor",
    "contractor": "Waste Pro",
    "rowid": "1175419",
    "final_x": "3720523.8341",
    "final_y": "573656.914154",
    "longitude": "-89.94323456870518",
    "latitude": "30.07011292176907",
    "geocoded_column": {
      "latitude": "30.07011292176907",
      "longitude": "-89.94323456870518"
    }
  },
  {
    "service_request": "2025-1175418",
    "request_type": "Alley Ways",
    "request_reason": "Alley Way Regrading",
    "date_created": "2025-03-13T17:53:36.000",
    "date_modified": "2025-03-13T17:53:38.000",
    "request_status": "Pending",
    "responsible_agency": "Department of Public Works",
    "final_address": "6236 General Diaz St",
    "address_councildis": "A",
    "status": "Pending",
    "rowid": "1175418",
    "final_x": "3669585.7273",
    "final_y": "548806.580819",
    "longitude": "-90.10510631587955",
    "latitude": "30.003384290939714",
    "geocoded_column": {
      "latitude": "30.003384290939714",
      "longitude": "-90.10510631587955"
    }
  },
  {
    "service_request": "2025-1175417",
    "request_type": "General Services",
    "request_reason": "General Service Request",
    "date_created": "2025-03-13T17:48:36.000",
    "date_modified": "2025-03-13T17:48:38.000",
    "request_status": "Pending",
    "responsible_agency": "Orleans Parish Communication District",
    "final_address": "6236 General Diaz St",
    "address_councildis": "A",
    "status": "Pending",
    "rowid": "1175417",
    "final_x": "3669585.7273",
    "final_y": "548806.580819",
    "longitude": "-90.10510631587955",
    "latitude": "30.003384290939714",
    "geocoded_column": {
      "latitude": "30.003384290939714",
      "longitude": "-90.10510631587955"
    }
  },
  {
    "service_request": "2025-1175416",
    "request_type": "Property Maintenance",
    "request_reason": "Property Maintenance",
    "date_created": "2025-03-13T17:37:52.000",
    "date_modified": "2025-03-13T17:37:54.000",
    "request_status": "Pending",
    "responsible_agency": "Department of Code Enforcement",
    "final_address": "4518 Annunciation St",
    "address_councildis": "B",
    "status": "Pending",
    "rowid": "1175416",
    "final_x": "3670574.12923",
    "final_y": "517658.972278",
    "longitude": "-90.10304031865101",
    "latitude": "29.91770954791214",
    "geocoded_column": {
      "latitude": "29.91770954791214",
      "longitude": "-90.10304031865101"
    }
  },
  {
    "service_request": "2025-1175415",
    "request_type": "Trash/Recycling",
    "request_reason": "Request a Large Item Pick Up",
    "date_created": "2025-03-13T17:21:27.000",
    "date_modified": "2025-03-13T19:09:34.000",
    "case_close_date": "2025-03-13T14:09:34.000",
    "request_status": "Closed",
    "responsible_agency": "Department of Sanitation",
    "final_address": "7310 Fieldston Rd",
    "address_councildis": "E",
    "status": "Duplicate Request",
    "contractor": "Waste Pro",
    "contractor_action": "Duplicate",
    "rowid": "1175415",
    "final_x": "3700728.13431",
    "final_y": "559689.504861",
    "longitude": "-90.0063250809042",
    "latitude": "30.032353551062187",
    "geocoded_column": {
      "latitude": "30.032353551062187",
      "longitude": "-90.0063250809042"
    }
  },
  {
    "service_request": "2025-1175414",
    "request_type": "Trash/Recycling",
    "request_reason": "Request a Large Item Pick Up",
    "date_created": "2025-03-13T17:17:12.000",
    "date_modified": "2025-03-13T17:17:15.000",
    "request_status": "Pending",
    "responsible_agency": "Department of Sanitation",
    "final_address": "7310 Fieldston Rd",
    "address_councildis": "E",
    "status": "Assigned to Contractor",
    "contractor": "Waste Pro",
    "rowid": "1175414",
    "final_x": "3700728.13431",
    "final_y": "559689.504861",
    "longitude": "-90.0063250809042",
    "latitude": "30.032353551062187",
    "geocoded_column": {
      "latitude": "30.032353551062187",
      "longitude": "-90.0063250809042"
    }
  },
  {
    "service_request": "2025-1175413",
    "request_type": "Trash/Recycling",
    "request_reason": "Missed Trash Pick-Up",
    "date_created": "2025-03-13T17:11:50.000",
    "date_modified": "2025-03-13T17:11:52.000",
    "request_status": "Pending",
    "responsible_agency": "Department of Sanitation",
    "final_address": "318 N Dorgenois St",
    "address_councildis": "B",
    "status": "Assigned to Contractor",
    "contractor": "IV Waste",
    "rowid": "1175413",
    "final_x": "3676414.77742",
    "final_y": "535529.835334",
    "longitude": "-90.08398958323508",
    "latitude": "29.966674798315353",
    "geocoded_column": {
      "latitude": "29.966674798315353",
      "longitude": "-90.08398958323508"
    }
  },
  {
    "service_request": "2025-1175412",
    "request_type": "Trash/Recycling",
    "request_reason": "Illegal Dumping",
    "date_created": "2025-03-13T16:51:56.000",
    "date_modified": "2025-03-13T16:51:58.000",
    "request_status": "Pending",
    "responsible_agency": "Department of Sanitation",
    "final_address": "DONNER RD & BEHRMAN AVE",
    "address_councildis": "C",
    "status": "Pending",
    "rowid": "1175412",
    "final_x": "3691095.0",
    "final_y": "520925.18",
    "longitude": "-90.03815102435593",
    "latitude": "29.926068732298194",
    "geocoded_column": {
      "latitude": "29.926068732298194",
      "longitude": "-90.03815102435593"
    }
  },
  {
    "service_request": "2025-1175411",
    "request_type": "Trash/Recycling",
    "request_reason": "Request a Large Item Pick Up",
    "date_created": "2025-03-13T16:50:02.000",
    "date_modified": "2025-03-13T16:50:04.000",
    "request_status": "Pending",
    "responsible_agency": "Department of Sanitation",
    "final_address": "520 Flood St",
    "address_councildis": "E",
    "status": "Assigned to Contractor",
    "contractor": "Waste Pro",
    "rowid": "1175411",
    "final_x": "3697129.67895",
    "final_y": "531881.516675",
    "longitude": "-90.0187045989249",
    "latitude": "29.95600591696049",
    "geocoded_column": {
      "latitude": "29.95600591696049",
      "longitude": "-90.0187045989249"
    }
  },
  {
    "service_request": "2025-1175410",
    "request_type": "Trash/Recycling",
    "request_reason": "Request a Large Item Pick Up",
    "date_created": "2025-03-13T16:47:19.000",
    "date_modified": "2025-03-13T16:47:22.000",
    "request_status": "Pending",
    "responsible_agency": "Department of Sanitation",
    "final_address": "3879 Mimosa Dr",
    "address_councildis": "C",
    "status": "Assigned to Contractor",
    "contractor": "Richards Disposal",
    "rowid": "1175410",
    "final_x": "3704330.01764",
    "final_y": "512935.929137",
    "longitude": "-89.99666644648696",
    "latitude": "29.90368305442151",
    "geocoded_column": {
      "latitude": "29.90368305442151",
      "longitude": "-89.99666644648696"
    }
  },
  {
    "service_request": "2025-1175409",
    "request_type": "Roads and Streets",
    "request_reason": "Pothole",
    "date_created": "2025-03-13T16:46:03.000",
    "date_modified": "2025-03-13T16:46:05.000",
    "request_status": "Pending",
    "responsible_agency": "Department of Public Works",
    "final_address": "5718 Cucullu St",
    "address_councildis": "A",
    "status": "Pending",
    "rowid": "1175409",
    "final_x": "3667499.57665",
    "final_y": "525734.836029",
    "longitude": "-90.11247340790463",
    "latitude": "29.94000602078062",
    "geocoded_column": {
      "latitude": "29.94000602078062",
      "longitude": "-90.11247340790463"
    }
  },
  {
    "service_request": "2025-1175408",
    "request_type": "Roads and Streets",
    "request_reason": "Pothole",
    "date_created": "2025-03-13T16:44:22.000",
    "date_modified": "2025-03-13T16:44:23.000",
    "request_status": "Pending",
    "responsible_agency": "Department of Public Works",
    "final_address": "1477 Annunciation St",
    "address_councildis": "B",
    "status": "Pending",
    "rowid": "1175408",
    "final_x": "3680965.33954",
    "final_y": "523720.893179",
    "longitude": "-90.07003009902628",
    "latitude": "29.934066971328836",
    "geocoded_column": {
      "latitude": "29.934066971328836",
      "longitude": "-90.07003009902628"
    }
  },
  {
    "service_request": "2025-1175407",
    "request_type": "Roads and Streets",
    "request_reason": "Pothole",
    "date_created": "2025-03-13T16:44:20.000",
    "date_modified": "2025-03-13T16:44:22.000",
    "request_status": "Pending",
    "responsible_agency": "Department of Public Works",
    "final_address": "4700 BLK Odin St",
    "address_councildis": "D",
    "status": "Pending",
    "rowid": "1175407",
    "final_x": "3691327.47426",
    "final_y": "553886.025218",
    "longitude": "-90.03623935168038",
    "latitude": "30.01669216472291",
    "geocoded_column": {
      "latitude": "30.01669216472291",
      "longitude": "-90.03623935168038"
    }
  },
  {
    "service_request": "2025-1175406",
    "request_type": "Roads and Streets",
    "request_reason": "Pothole",
    "date_created": "2025-03-13T16:43:20.000",
    "date_modified": "2025-03-13T16:43:21.000",
    "request_status": "Pending",
    "responsible_agency": "Department of Public Works",
    "final_address": "ST CHARLES AVE & TURNAROUND & AUDUBON PARK ENTRANCE",
    "address_councildis": "A",
    "status": "Pending",
    "rowid": "1175406",
    "final_x": "3663993.2",
    "final_y": "523832.88",
    "longitude": "-90.12360701015305",
    "latitude": "29.93487850696717",
    "geocoded_column": {
      "latitude": "29.93487850696717",
      "longitude": "-90.12360701015305"
    }
  },
  {
    "service_request": "2025-1175405",
    "request_type": "Trash/Recycling",
    "request_reason": "Illegal Dumping",
    "date_created": "2025-03-13T16:39:34.000",
    "date_modified": "2025-03-13T16:39:36.000",
    "request_status": "Pending",
    "responsible_agency": "Department of Sanitation",
    "final_address": "2700 BLK Donner Dr",
    "address_councildis": "C",
    "status": "Pending",
    "rowid": "1175405",
    "final_x": "3690966.33949",
    "final_y": "521058.551503",
    "longitude": "-90.03855240929464",
    "latitude": "29.926439457286193",
    "geocoded_column": {
      "latitude": "29.926439457286193",
      "longitude": "-90.03855240929464"
    }
  },
  {
    "service_request": "2025-1175404",
    "request_type": "Safety & Permits",
    "request_reason": "Construction permit",
    "date_created": "2025-03-13T16:39:08.000",
    "date_modified": "2025-03-13T16:39:10.000",
    "request_status": "Pending",
    "responsible_agency": "Safety and Permits",
    "final_address": "5510 Press Dr",
    "address_councildis": "D",
    "status": "Pending",
    "rowid": "1175404",
    "final_x": "3689189.60009",
    "final_y": "553545.489879",
    "longitude": "-90.04300622616472",
    "latitude": "30.01582218873976",
    "geocoded_column": {
      "latitude": "30.01582218873976",
      "longitude": "-90.04300622616472"
    }
  },
  {
    "service_request": "2025-1175403",
    "request_type": "Streetlights",
    "request_reason": "Streetlight Outage/Malfunction",
    "date_created": "2025-03-13T16:38:43.000",
    "date_modified": "2025-03-13T16:38:44.000",
    "request_status": "Pending",
    "responsible_agency": "Department of Public Works",
    "final_address": "4825 Odin St",
    "address_councildis": "D",
    "status": "Pending",
    "contractor": "Legacy Professional Services",
    "rowid": "1175403",
    "final_x": "3691435.20259",
    "final_y": "554029.483352",
    "longitude": "-90.03589384460766",
    "latitude": "30.01708326755202",
    "geocoded_column": {
      "latitude": "30.01708326755202",
      "longitude": "-90.03589384460766"
    }
  },
  {
    "service_request": "2025-1175402",
    "request_type": "Trash/Recycling",
    "request_reason": "Request a Large Item Pick Up",
    "date_created": "2025-03-13T16:37:40.000",
    "date_modified": "2025-03-13T16:37:42.000",
    "request_status": "Pending",
    "responsible_agency": "Department of Sanitation",
    "final_address": "7231 Ridgefield Dr",
    "address_councildis": "E",
    "status": "Assigned to Contractor",
    "contractor": "Waste Pro",
    "rowid": "1175402",
    "final_x": "3718839.14834",
    "final_y": "570456.635559",
    "longitude": "-89.94868250354513",
    "latitude": "30.061369586278303",
    "geocoded_column": {
      "latitude": "30.061369586278303",
      "longitude": "-89.94868250354513"
    }
  },
  {
    "service_request": "2025-1175401",
    "request_type": "Property Maintenance",
    "request_reason": "Property Maintenance",
    "date_created": "2025-03-13T16:35:33.000",
    "date_modified": "2025-03-13T16:35:35.000",
    "request_status": "Pending",
    "responsible_agency": "Department of Code Enforcement",
    "final_address": "5614 Providence Pl",
    "address_councildis": "D",
    "status": "Pending",
    "rowid": "1175401",
    "final_x": "3688213.80771",
    "final_y": "554062.155928",
    "longitude": "-90.04607094324422",
    "latitude": "30.017273007254218",
    "geocoded_column": {
      "latitude": "30.017273007254218",
      "longitude": "-90.04607094324422"
    }
  },
  {
    "service_request": "2025-1175400",
    "request_type": "Road Striping",
    "request_reason": "Lane Striping or other Pavement Markings",
    "date_created": "2025-03-13T16:23:51.000",
    "date_modified": "2025-03-13T16:23:53.000",
    "request_status": "Pending",
    "responsible_agency": "Department of Public Works",
    "final_address": "3907 St Claude Ave",
    "address_councildis": "C",
    "status": "Pending",
    "rowid": "1175400",
    "final_x": "3691615.82064",
    "final_y": "535462.256582",
    "longitude": "-90.03598738308743",
    "latitude": "29.96602449277593",
    "geocoded_column": {
      "latitude": "29.96602449277593",
      "longitude": "-90.03598738308743"
    }
  },
  {
    "service_request": "2025-1175399",
    "request_type": "Trash/Recycling",
    "request_reason": "Order Trash Cart",
    "date_created": "2025-03-13T16:22:03.000",
    "date_modified": "2025-03-13T16:22:05.000",
    "request_status": "Pending",
    "responsible_agency": "Department of Sanitation",
    "final_address": "2118 Clara St",
    "address_councildis": "B",
    "status": "Assigned to Contractor",
    "contractor": "IV Waste",
    "rowid": "1175399",
    "final_x": "3675280.62203",
    "final_y": "527149.031423",
    "longitude": "-90.08785892183623",
    "latitude": "29.943664338856795",
    "geocoded_column": {
      "latitude": "29.943664338856795",
      "longitude": "-90.08785892183623"
    }
  },
  {
    "service_request": "2025-1175398",
    "request_type": "Trash/Recycling",
    "request_reason": "Order Trash Cart",
    "date_created": "2025-03-13T16:21:22.000",
    "date_modified": "2025-03-13T16:21:24.000",
    "request_status": "Pending",
    "responsible_agency": "Department of Sanitation",
    "final_address": "2116 Clara St",
    "address_councildis": "B",
    "status": "Assigned to Contractor",
    "contractor": "IV Waste",
    "rowid": "1175398",
    "final_x": "3675252.32769",
    "final_y": "527189.578047",
    "longitude": "-90.08794686330786",
    "latitude": "29.9437766743345",
    "geocoded_column": {
      "latitude": "29.9437766743345",
      "longitude": "-90.08794686330786"
    }
  },
  {
    "service_request": "2025-1175397",
    "request_type": "Trash/Recycling",
    "request_reason": "Request a Large Item Pick Up",
    "date_created": "2025-03-13T16:20:19.000",
    "date_modified": "2025-03-13T16:20:21.000",
    "request_status": "Pending",
    "responsible_agency": "Department of Sanitation",
    "final_address": "2720 Josephine St",
    "address_councildis": "B",
    "status": "Assigned to Contractor",
    "contractor": "IV Waste",
    "rowid": "1175397",
    "final_x": "3675375.11413",
    "final_y": "527186.137663",
    "longitude": "-90.08755931111834",
    "latitude": "29.943763544308986",
    "geocoded_column": {
      "latitude": "29.943763544308986",
      "longitude": "-90.08755931111834"
    }
  },
  {
    "service_request": "2025-1175396",
    "request_type": "Trash/Recycling",
    "request_reason": "Request a Large Item Pick Up",
    "date_created": "2025-03-13T16:19:30.000",
    "date_modified": "2025-03-13T16:19:32.000",
    "request_status": "Pending",
    "responsible_agency": "Department of Sanitation",
    "final_address": "2727 Josephine St",
    "address_councildis": "B",
    "status": "Assigned to Contractor",
    "contractor": "IV Waste",
    "rowid": "1175396",
    "final_x": "3675402.37205",
    "final_y": "527263.215935",
    "longitude": "-90.0874706044422",
    "latitude": "29.943974669252682",
    "geocoded_column": {
      "latitude": "29.943974669252682",
      "longitude": "-90.0874706044422"
    }
  },
  {
    "service_request": "2025-1175395",
    "request_type": "Property Maintenance",
    "request_reason": "Property Maintenance",
    "date_created": "2025-03-13T16:17:49.000",
    "date_modified": "2025-03-13T16:17:50.000",
    "request_status": "Pending",
    "responsible_agency": "Department of Code Enforcement",
    "final_address": "5322 St Anthony Ave",
    "address_councildis": "D",
    "status": "Pending",
    "rowid": "1175395",
    "final_x": "3682071.97077",
    "final_y": "552751.023766",
    "longitude": "-90.06552248501137",
    "latitude": "30.01385616264369",
    "geocoded_column": {
      "latitude": "30.01385616264369",
      "longitude": "-90.06552248501137"
    }
  },
  {
    "service_request": "2025-1175394",
    "request_type": "General Services",
    "request_reason": "General Service Request",
    "date_created": "2025-03-13T16:16:10.000",
    "date_modified": "2025-03-13T16:16:46.000",
    "case_close_date": "2025-03-13T11:16:45.000",
    "request_status": "Closed",
    "responsible_agency": "Orleans Parish Communication District",
    "final_address": "5320 St Anthony Ave",
    "address_councildis": "D",
    "status": "Referred to Risk Management",
    "rowid": "1175394",
    "final_x": "3682084.25058",
    "final_y": "552690.84143",
    "longitude": "-90.06548579105446",
    "latitude": "30.01369030948834",
    "geocoded_column": {
      "latitude": "30.01369030948834",
      "longitude": "-90.06548579105446"
    }
  },
  {
    "service_request": "2025-1175393",
    "request_type": "Trash/Recycling",
    "request_reason": "Request a Large Item Pick Up",
    "date_created": "2025-03-13T16:08:12.000",
    "date_modified": "2025-03-13T16:08:15.000",
    "request_status": "Pending",
    "responsible_agency": "Department of Sanitation",
    "final_address": "2319 N Prieur St",
    "address_councildis": "D",
    "status": "Assigned to Contractor",
    "contractor": "IV Waste",
    "rowid": "1175393",
    "final_x": "3685742.11113",
    "final_y": "539369.80225",
    "longitude": "-90.05439862993413",
    "latitude": "29.976950434256786",
    "geocoded_column": {
      "latitude": "29.976950434256786",
      "longitude": "-90.05439862993413"
    }
  },
  {
    "service_request": "2025-1175392",
    "request_type": "Roads and Streets",
    "request_reason": "Pothole",
    "date_created": "2025-03-13T16:07:00.000",
    "date_modified": "2025-03-13T16:07:02.000",
    "request_status": "Pending",
    "responsible_agency": "Department of Public Works",
    "final_address": "1505 Mazant St",
    "address_councildis": "D",
    "status": "Pending",
    "rowid": "1175392",
    "final_x": "3692535.69475",
    "final_y": "536771.242632",
    "longitude": "-90.03303554776276",
    "latitude": "29.96959507227871",
    "geocoded_column": {
      "latitude": "29.96959507227871",
      "longitude": "-90.03303554776276"
    }
  },
  {
    "service_request": "2025-1175391",
    "request_type": "Trash/Recycling",
    "request_reason": "Replace Trash Cart",
    "date_created": "2025-03-13T16:06:39.000",
    "date_modified": "2025-03-13T16:06:40.000",
    "request_status": "Pending",
    "responsible_agency": "Department of Sanitation",
    "final_address": "6046 Annunciation St",
    "address_councildis": "A",
    "status": "Assigned to Contractor",
    "contractor": "IV Waste",
    "rowid": "1175391",
    "final_x": "3663868.11712",
    "final_y": "517940.766134",
    "longitude": "-90.12419818579686",
    "latitude": "29.918680674569828",
    "geocoded_column": {
      "latitude": "29.918680674569828",
      "longitude": "-90.12419818579686"
    }
  },
  {
    "service_request": "2025-1175390",
    "request_type": "Roads and Streets",
    "request_reason": "Street Subsidence (Sinking)",
    "date_created": "2025-03-13T16:06:28.000",
    "date_modified": "2025-03-13T16:06:30.000",
    "request_status": "Pending",
    "responsible_agency": "Department of Public Works",
    "final_address": "1735 Congress St",
    "address_councildis": "D",
    "status": "Pending",
    "rowid": "1175390",
    "final_x": "3691379.20656",
    "final_y": "538078.781961",
    "longitude": "-90.03664109386467",
    "latitude": "29.973226378250327",
    "geocoded_column": {
      "latitude": "29.973226378250327",
      "longitude": "-90.03664109386467"
    }
  },
  {
    "service_request": "2025-1175389",
    "request_type": "Property Maintenance",
    "request_reason": "Property Maintenance",
    "date_created": "2025-03-13T16:04:52.000",
    "date_modified": "2025-03-13T16:04:55.000",
    "request_status": "Pending",
    "responsible_agency": "Department of Code Enforcement",
    "final_address": "633 N Pierce St",
    "address_councildis": "A",
    "status": "Pending",
    "rowid": "1175389",
    "final_x": "3672735.00673",
    "final_y": "539681.139274",
    "longitude": "-90.09546867150017",
    "latitude": "29.978199286835952",
    "geocoded_column": {
      "latitude": "29.978199286835952",
      "longitude": "-90.09546867150017"
    }
  },
  {
    "service_request": "2025-1175388",
    "request_type": "Property Maintenance",
    "request_reason": "Property Maintenance",
    "date_created": "2025-03-13T16:01:40.000",
    "date_modified": "2025-03-13T16:01:42.000",
    "request_status": "Pending",
    "responsible_agency": "Department of Code Enforcement",
    "final_address": "247 S Robertson St",
    "address_councildis": "B",
    "status": "Pending",
    "rowid": "1175388",
    "final_x": "3678185.55963",
    "final_y": "531963.387395",
    "longitude": "-90.07852080186383",
    "latitude": "29.956815067045834",
    "geocoded_column": {
      "latitude": "29.956815067045834",
      "longitude": "-90.07852080186383"
    }
  },
  {
    "service_request": "2025-1175387",
    "request_type": "Abandoned Vehicles",
    "request_reason": "Abandoned/Junk Vehicles",
    "date_created": "2025-03-13T16:00:32.000",
    "date_modified": "2025-03-13T16:00:33.000",
    "request_status": "Pending",
    "responsible_agency": "Department of Public Works",
    "final_address": "500 BLK N Murat St",
    "address_councildis": "A",
    "status": "Pending",
    "rowid": "1175387",
    "final_x": "3670692.56573",
    "final_y": "540701.943646",
    "longitude": "-90.10188479922817",
    "latitude": "29.98106666445059",
    "geocoded_column": {
      "latitude": "29.98106666445059",
      "longitude": "-90.10188479922817"
    }
  },
  {
    "service_request": "2025-1175386",
    "request_type": "Abandoned Vehicles",
    "request_reason": "Abandoned/Junk Vehicles",
    "date_created": "2025-03-13T15:59:55.000",
    "date_modified": "2025-03-13T15:59:56.000",
    "request_status": "Pending",
    "responsible_agency": "Department of Public Works",
    "final_address": "500 BLK N Murat St",
    "address_councildis": "A",
    "status": "Pending",
    "rowid": "1175386",
    "final_x": "3670692.56573",
    "final_y": "540701.943646",
    "longitude": "-90.10188479922817",
    "latitude": "29.98106666445059",
    "geocoded_column": {
      "latitude": "29.98106666445059",
      "longitude": "-90.10188479922817"
    }
  },
  {
    "service_request": "2025-1175385",
    "request_type": "Abandoned Vehicles",
    "request_reason": "Abandoned/Junk Vehicles",
    "date_created": "2025-03-13T15:59:36.000",
    "date_modified": "2025-03-13T15:59:37.000",
    "request_status": "Pending",
    "responsible_agency": "Department of Public Works",
    "final_address": "500 BLK N Murat St",
    "address_councildis": "A",
    "status": "Pending",
    "rowid": "1175385",
    "final_x": "3670692.56573",
    "final_y": "540701.943646",
    "longitude": "-90.10188479922817",
    "latitude": "29.98106666445059",
    "geocoded_column": {
      "latitude": "29.98106666445059",
      "longitude": "-90.10188479922817"
    }
  },
  {
    "service_request": "2025-1175384",
    "request_type": "Property Maintenance",
    "request_reason": "Property Maintenance",
    "date_created": "2025-03-13T15:58:57.000",
    "date_modified": "2025-03-13T15:58:59.000",
    "request_status": "Pending",
    "responsible_agency": "Department of Code Enforcement",
    "final_address": "HAYNE BLVD & LAMB RD",
    "address_councildis": "E",
    "status": "Pending",
    "rowid": "1175384",
    "final_x": "3696530.3",
    "final_y": "560647.58",
    "longitude": "-90.0195557622221",
    "latitude": "30.035120895592602",
    "geocoded_column": {
      "latitude": "30.035120895592602",
      "longitude": "-90.0195557622221"
    }
  },
  {
    "service_request": "2025-1175383",
    "request_type": "Streetlights",
    "request_reason": "Streetlight Outage/Malfunction",
    "date_created": "2025-03-13T15:54:13.000",
    "date_modified": "2025-03-13T15:54:14.000",
    "request_status": "Pending",
    "responsible_agency": "Department of Public Works",
    "final_address": "14703 Sai Gon Dr",
    "address_councildis": "E",
    "status": "Pending",
    "contractor": "Legacy Professional Services",
    "rowid": "1175383",
    "final_x": "3731355.09088",
    "final_y": "563692.509857",
    "longitude": "-89.90938606249566",
    "latitude": "30.04234930653559",
    "geocoded_column": {
      "latitude": "30.04234930653559",
      "longitude": "-89.90938606249566"
    }
  },
  {
    "service_request": "2025-1175382",
    "request_type": "Streetlights",
    "request_reason": "New Streetlight Request",
    "date_created": "2025-03-13T15:46:07.000",
    "date_modified": "2025-03-13T15:46:08.000",
    "request_status": "Pending",
    "responsible_agency": "Department of Public Works",
    "final_address": "14703 Sai Gon Dr",
    "address_councildis": "E",
    "status": "Pending",
    "contractor": "Legacy Professional Services",
    "rowid": "1175382",
    "final_x": "3731355.09088",
    "final_y": "563692.509857",
    "longitude": "-89.90938606249566",
    "latitude": "30.04234930653559",
    "geocoded_column": {
      "latitude": "30.04234930653559",
      "longitude": "-89.90938606249566"
    }
  },
  {
    "service_request": "2025-1175381",
    "request_type": "General Services",
    "request_reason": "General Service Request",
    "date_created": "2025-03-13T15:45:45.000",
    "date_modified": "2025-03-13T15:45:47.000",
    "request_status": "Pending",
    "responsible_agency": "Orleans Parish Communication District",
    "final_address": "2600 Ap Tureaud Ave",
    "address_councildis": "D",
    "status": "Pending",
    "rowid": "1175381",
    "final_x": "3681319.58428",
    "final_y": "541755.182924",
    "longitude": "-90.06828319519389",
    "latitude": "29.9836443870898",
    "geocoded_column": {
      "latitude": "29.9836443870898",
      "longitude": "-90.06828319519389"
    }
  },
  {
    "service_request": "2025-1175380",
    "request_type": "Trash/Recycling",
    "request_reason": "Replace Trash Cart",
    "date_created": "2025-03-13T15:43:03.000",
    "date_modified": "2025-03-13T15:43:05.000",
    "request_status": "Pending",
    "responsible_agency": "Department of Sanitation",
    "final_address": "1935 Mirabeau Ave",
    "address_councildis": "D",
    "status": "Assigned to Contractor",
    "contractor": "IV Waste",
    "rowid": "1175380",
    "final_x": "3681929.54172",
    "final_y": "550682.226516",
    "longitude": "-90.06604477872393",
    "latitude": "30.008172051535357",
    "geocoded_column": {
      "latitude": "30.008172051535357",
      "longitude": "-90.06604477872393"
    }
  },
  {
    "service_request": "2025-1175379",
    "request_type": "Trash/Recycling",
    "request_reason": "Dead Animal Pick Up",
    "date_created": "2025-03-13T15:38:37.000",
    "date_modified": "2025-03-13T15:38:39.000",
    "request_status": "Pending",
    "responsible_agency": "Department of Sanitation",
    "final_address": "4916 Moore Dr",
    "address_councildis": "D",
    "status": "Assigned to Contractor",
    "contractor": "IV Waste",
    "rowid": "1175379",
    "final_x": "3679899.73519",
    "final_y": "549677.16514",
    "longitude": "-90.07249250026004",
    "latitude": "30.005470064894986",
    "geocoded_column": {
      "latitude": "30.005470064894986",
      "longitude": "-90.07249250026004"
    }
  },
  {
    "service_request": "2025-1175378",
    "request_type": "Trash/Recycling",
    "request_reason": "Order Recycling Cart",
    "date_created": "2025-03-13T15:34:49.000",
    "date_modified": "2025-03-13T15:34:51.000",
    "request_status": "Pending",
    "responsible_agency": "Department of Sanitation",
    "final_address": "7540 Ligustrum Dr",
    "address_councildis": "E",
    "status": "Pending",
    "rowid": "1175378",
    "final_x": "3701508.27255",
    "final_y": "560958.916638",
    "longitude": "-90.00381325912241",
    "latitude": "30.03581907414187",
    "geocoded_column": {
      "latitude": "30.03581907414187",
      "longitude": "-90.00381325912241"
    }
  },
  {
    "service_request": "2025-1175377",
    "request_type": "Trash/Recycling",
    "request_reason": "Order Trash Cart",
    "date_created": "2025-03-13T15:32:43.000",
    "date_modified": "2025-03-13T15:33:54.000",
    "request_status": "Pending",
    "responsible_agency": "Department of Sanitation",
    "final_address": "1244 Leboeuf St",
    "address_councildis": "C",
    "status": "Assigned to Contractor",
    "contractor": "Richards Disposal",
    "rowid": "1175377",
    "final_x": "3689748.34159",
    "final_y": "526753.306366",
    "longitude": "-90.04219471341978",
    "latitude": "29.942135895610384",
    "geocoded_column": {
      "latitude": "29.942135895610384",
      "longitude": "-90.04219471341978"
    }
  },
  {
    "service_request": "2025-1175376",
    "request_type": "Roads and Streets",
    "request_reason": "Road Shoulder Damage",
    "date_created": "2025-03-13T15:32:33.000",
    "date_modified": "2025-03-13T15:32:36.000",
    "request_status": "Pending",
    "responsible_agency": "Department of Public Works",
    "final_address": "1032 Aline St",
    "address_councildis": "B",
    "status": "Pending",
    "rowid": "1175376",
    "final_x": "3674457.43387",
    "final_y": "519292.620023",
    "longitude": "-90.09072694473281",
    "latitude": "29.92208633679054",
    "geocoded_column": {
      "latitude": "29.92208633679054",
      "longitude": "-90.09072694473281"
    }
  },
  {
    "service_request": "2025-1175375",
    "request_type": "Safety & Permits",
    "request_reason": "Zoning Enforcement",
    "date_created": "2025-03-13T15:26:19.000",
    "date_modified": "2025-03-13T15:53:18.000",
    "case_close_date": "2025-03-13T10:41:58.000",
    "request_status": "Closed",
    "responsible_agency": "Safety and Permits",
    "final_address": "N ROMAN ST & ST FERDINAND ST",
    "address_councildis": "D",
    "status": "Resolved",
    "rowid": "1175375",
    "final_x": "3688388.4",
    "final_y": "538934.58",
    "longitude": "-90.04605627165067",
    "latitude": "29.975672245790125",
    "geocoded_column": {
      "latitude": "29.975672245790125",
      "longitude": "-90.04605627165067"
    }
  },
  {
    "service_request": "2025-1175374",
    "request_type": "Roads and Streets",
    "request_reason": "Push-up/Pavement Expansion",
    "date_created": "2025-03-13T15:26:09.000",
    "date_modified": "2025-03-13T15:26:10.000",
    "request_status": "Pending",
    "responsible_agency": "Department of Public Works",
    "final_address": "4315 General Pershing St",
    "address_councildis": "B",
    "status": "Pending",
    "rowid": "1175374",
    "final_x": "3669554.91143",
    "final_y": "529736.318977",
    "longitude": "-90.1058490548924",
    "latitude": "29.950948421596177",
    "geocoded_column": {
      "latitude": "29.950948421596177",
      "longitude": "-90.1058490548924"
    }
  },
  {
    "service_request": "2025-1175373",
    "request_type": "Streetlights",
    "request_reason": "Streetlight Outage/Malfunction",
    "date_created": "2025-03-13T15:25:18.000",
    "date_modified": "2025-03-13T15:25:18.000",
    "request_status": "Pending",
    "responsible_agency": "Department of Public Works",
    "final_address": "1438 Harmony St",
    "address_councildis": "B",
    "status": "Pending",
    "contractor": "Legacy Professional Services",
    "rowid": "1175373",
    "final_x": "3675143.42344",
    "final_y": "521187.932217",
    "longitude": "-90.08849656301699",
    "latitude": "29.9272773610361",
    "geocoded_column": {
      "latitude": "29.9272773610361",
      "longitude": "-90.08849656301699"
    }
  },
  {
    "service_request": "2025-1175372",
    "request_type": "Trash/Recycling",
    "request_reason": "Missed Trash Pick-Up",
    "date_created": "2025-03-13T15:24:25.000",
    "date_modified": "2025-03-13T19:27:04.000",
    "case_close_date": "2025-03-13T14:27:04.000",
    "request_status": "Closed",
    "responsible_agency": "Department of Sanitation",
    "final_address": "5326 N Rampart St",
    "address_councildis": "E",
    "status": "Invalid Request",
    "contractor": "Waste Pro",
    "contractor_action": "Invalid Request",
    "rowid": "1175372",
    "final_x": "3696912.8856",
    "final_y": "533532.022725",
    "longitude": "-90.01932938807664",
    "latitude": "29.960551062867196",
    "geocoded_column": {
      "latitude": "29.960551062867196",
      "longitude": "-90.01932938807664"
    }
  },
  {
    "service_request": "2025-1175371",
    "request_type": "Trash/Recycling",
    "request_reason": "Repair Trash Cart",
    "date_created": "2025-03-13T15:23:03.000",
    "date_modified": "2025-03-13T15:23:05.000",
    "request_status": "Pending",
    "responsible_agency": "Department of Sanitation",
    "final_address": "309 Pelican Ave",
    "address_councildis": "C",
    "status": "Assigned to Contractor",
    "contractor": "Richards Disposal",
    "rowid": "1175371",
    "final_x": "3686280.51759",
    "final_y": "530271.635521",
    "longitude": "-90.05301924588903",
    "latitude": "29.951917094154997",
    "geocoded_column": {
      "latitude": "29.951917094154997",
      "longitude": "-90.05301924588903"
    }
  },
  {
    "service_request": "2025-1175370",
    "request_type": "Abandoned Vehicles",
    "request_reason": "Abandoned/Junk Vehicles",
    "date_created": "2025-03-13T15:18:27.000",
    "date_modified": "2025-03-13T15:22:18.000",
    "request_status": "Pending",
    "responsible_agency": "Department of Public Works",
    "final_address": "830 Verret St",
    "address_councildis": "C",
    "status": "Inspected",
    "rowid": "1175370",
    "final_x": "3687197.31324",
    "final_y": "528470.506432",
    "longitude": "-90.0501881321014",
    "latitude": "29.9469364052874",
    "geocoded_column": {
      "latitude": "29.9469364052874",
      "longitude": "-90.0501881321014"
    }
  },
  {
    "service_request": "2025-1175369",
    "request_type": "Trash/Recycling",
    "request_reason": "Request a Large Item Pick Up",
    "date_created": "2025-03-13T15:17:23.000",
    "date_modified": "2025-03-13T15:17:25.000",
    "request_status": "Pending",
    "responsible_agency": "Department of Sanitation",
    "final_address": "1432 Harmony St",
    "address_councildis": "B",
    "status": "Assigned to Contractor",
    "contractor": "IV Waste",
    "rowid": "1175369",
    "final_x": "3675157.62933",
    "final_y": "521140.560441",
    "longitude": "-90.08845334321936",
    "latitude": "29.927146679597104",
    "geocoded_column": {
      "latitude": "29.927146679597104",
      "longitude": "-90.08845334321936"
    }
  },
  {
    "service_request": "2025-1175368",
    "request_type": "Trash/Recycling",
    "request_reason": "Repair Trash Cart",
    "date_created": "2025-03-13T15:14:48.000",
    "date_modified": "2025-03-13T15:14:50.000",
    "request_status": "Pending",
    "responsible_agency": "Department of Sanitation",
    "final_address": "5301 Magnolia St",
    "address_councildis": "B",
    "status": "Assigned to Contractor",
    "contractor": "IV Waste",
    "rowid": "1175368",
    "final_x": "3668261.54362",
    "final_y": "524701.516348",
    "longitude": "-90.11010258300655",
    "latitude": "29.93714237889493",
    "geocoded_column": {
      "latitude": "29.93714237889493",
      "longitude": "-90.11010258300655"
    }
  },
  {
    "service_request": "2025-1175367",
    "request_type": "Parks & Parkways",
    "request_reason": "Request Tree Service (Right of Way/Public Property)",
    "date_created": "2025-03-13T15:10:19.000",
    "date_modified": "2025-03-13T15:10:21.000",
    "request_status": "Pending",
    "responsible_agency": "Department of Parks & Parkway",
    "final_address": "7802 Sycamore St",
    "address_councildis": "A",
    "status": "Pending",
    "rowid": "1175367",
    "final_x": "3665106.94279",
    "final_y": "530216.040961",
    "longitude": "-90.11987751600891",
    "latitude": "29.95239777081363",
    "geocoded_column": {
      "latitude": "29.95239777081363",
      "longitude": "-90.11987751600891"
    }
  },
  {
    "service_request": "2025-1175366",
    "request_type": "Trash/Recycling",
    "request_reason": "Request a Large Item Pick Up",
    "date_created": "2025-03-13T15:09:20.000",
    "date_modified": "2025-03-13T15:09:21.000",
    "request_status": "Pending",
    "responsible_agency": "Department of Sanitation",
    "final_address": "4654 Laine Ave",
    "address_councildis": "E",
    "status": "Assigned to Contractor",
    "contractor": "Waste Pro",
    "rowid": "1175366",
    "final_x": "3705714.58014",
    "final_y": "554875.490648",
    "longitude": "-89.9907459220816",
    "latitude": "30.018957154849225",
    "geocoded_column": {
      "latitude": "30.018957154849225",
      "longitude": "-89.9907459220816"
    }
  },
  {
    "service_request": "2025-1175365",
    "request_type": "Abandoned Vehicles",
    "request_reason": "Abandoned/Junk Vehicles",
    "date_created": "2025-03-13T15:08:08.000",
    "date_modified": "2025-03-13T15:10:31.000",
    "request_status": "Pending",
    "responsible_agency": "Department of Public Works",
    "final_address": "1200 BLK Esplanade Ave",
    "address_councildis": "C",
    "status": "Pending",
    "rowid": "1175365",
    "final_x": "3682419.76111",
    "final_y": "535643.489196",
    "longitude": "-90.06502192844502",
    "latitude": "29.96680590952584",
    "geocoded_column": {
      "latitude": "29.96680590952584",
      "longitude": "-90.06502192844502"
    }
  },
  {
    "service_request": "2025-1175364",
    "request_type": "Abandoned Vehicles",
    "request_reason": "Abandoned/Junk Vehicles",
    "date_created": "2025-03-13T15:07:36.000",
    "date_modified": "2025-03-13T15:07:38.000",
    "request_status": "Pending",
    "responsible_agency": "Department of Public Works",
    "final_address": "29 Christopher Ct",
    "address_councildis": "E",
    "status": "Pending",
    "rowid": "1175364",
    "final_x": "3716375.96056",
    "final_y": "570075.287463",
    "longitude": "-89.95648301674474",
    "latitude": "30.060402650545566",
    "geocoded_column": {
      "latitude": "30.060402650545566",
      "longitude": "-89.95648301674474"
    }
  },
  {
    "service_request": "2025-1175363",
    "request_type": "Abandoned Vehicles",
    "request_reason": "Abandoned/Junk Vehicles",
    "date_created": "2025-03-13T15:05:37.000",
    "date_modified": "2025-03-13T15:05:37.000",
    "request_status": "Pending",
    "responsible_agency": "Department of Public Works",
    "final_address": "7700 BLK Edinburgh St",
    "address_councildis": "B",
    "status": "Pending",
    "rowid": "1175363",
    "final_x": "3668410.91544",
    "final_y": "533587.214109",
    "longitude": "-90.10933134310265",
    "latitude": "29.961570765585535",
    "geocoded_column": {
      "latitude": "29.961570765585535",
      "longitude": "-90.10933134310265"
    }
  },
  {
    "service_request": "2025-1175362",
    "request_type": "Trash/Recycling",
    "request_reason": "Request a Large Item Pick Up",
    "date_created": "2025-03-13T14:58:32.000",
    "date_modified": "2025-03-13T14:58:33.000",
    "request_status": "Pending",
    "responsible_agency": "Department of Sanitation",
    "final_address": "141 26Th St",
    "address_councildis": "A",
    "status": "Assigned to Contractor",
    "contractor": "IV Waste",
    "rowid": "1175362",
    "final_x": "3665889.99533",
    "final_y": "549944.994836",
    "longitude": "-90.11674357062894",
    "latitude": "30.00662294361968",
    "geocoded_column": {
      "latitude": "30.00662294361968",
      "longitude": "-90.11674357062894"
    }
  },
  {
    "service_request": "2025-1175361",
    "request_type": "Trash/Recycling",
    "request_reason": "Missed Trash Pick-Up",
    "date_created": "2025-03-13T14:58:09.000",
    "date_modified": "2025-03-13T15:36:48.000",
    "case_close_date": "2025-03-13T10:36:47.000",
    "request_status": "Closed",
    "responsible_agency": "Department of Sanitation",
    "final_address": "3401 Tulane Ave",
    "address_councildis": "B",
    "status": "Invalid Request",
    "contractor": "IV Waste",
    "contractor_action": "Invalid",
    "rowid": "1175361",
    "final_x": "3671783.71297",
    "final_y": "535099.861574",
    "longitude": "-90.09862911962793",
    "latitude": "29.9656305429213",
    "geocoded_column": {
      "latitude": "29.9656305429213",
      "longitude": "-90.09862911962793"
    }
  },
  {
    "service_request": "2025-1175360",
    "request_type": "Trash/Recycling",
    "request_reason": "Order Second Trash Cart",
    "date_created": "2025-03-13T14:58:04.000",
    "date_modified": "2025-03-13T14:58:07.000",
    "request_status": "Pending",
    "responsible_agency": "Department of Sanitation",
    "final_address": "2710 Somerset Dr",
    "address_councildis": "C",
    "status": "Assigned to Contractor",
    "contractor": "Richards Disposal",
    "rowid": "1175360",
    "final_x": "3702906.88036",
    "final_y": "521021.337401",
    "longitude": "-90.00086109915131",
    "latitude": "29.925960729027533",
    "geocoded_column": {
      "latitude": "29.925960729027533",
      "longitude": "-90.00086109915131"
    }
  },
  {
    "service_request": "2025-1175359",
    "request_type": "Trash/Recycling",
    "request_reason": "Order Recycling Cart",
    "date_created": "2025-03-13T14:57:31.000",
    "date_modified": "2025-03-13T14:57:33.000",
    "request_status": "Pending",
    "responsible_agency": "Department of Sanitation",
    "final_address": "2112 Amelia St",
    "address_councildis": "B",
    "status": "Pending",
    "rowid": "1175359",
    "final_x": "3672622.03048",
    "final_y": "523051.577531",
    "longitude": "-90.09639247114286",
    "latitude": "29.9324768643309",
    "geocoded_column": {
      "latitude": "29.9324768643309",
      "longitude": "-90.09639247114286"
    }
  },
  {
    "service_request": "2025-1175358",
    "request_type": "Trash/Recycling",
    "request_reason": "Request a Large Item Pick Up",
    "date_created": "2025-03-13T14:54:43.000",
    "date_modified": "2025-03-13T14:54:45.000",
    "request_status": "Pending",
    "responsible_agency": "Department of Sanitation",
    "final_address": "5741 Louis Prima Ct",
    "address_councildis": "E",
    "status": "Assigned to Contractor",
    "contractor": "Waste Pro",
    "rowid": "1175358",
    "final_x": "3716007.04562",
    "final_y": "562014.860255",
    "longitude": "-89.95795495516393",
    "latitude": "30.03825195556653",
    "geocoded_column": {
      "latitude": "30.03825195556653",
      "longitude": "-89.95795495516393"
    }
  },
  {
    "service_request": "2025-1175357",
    "request_type": "Abandoned Vehicles",
    "request_reason": "Abandoned/Junk Vehicles",
    "date_created": "2025-03-13T14:54:13.000",
    "date_modified": "2025-03-13T14:54:50.000",
    "request_status": "Pending",
    "responsible_agency": "Department of Public Works",
    "final_address": "3400 BLK Fern St",
    "address_councildis": "B",
    "status": "Inspected",
    "rowid": "1175357",
    "final_x": "3667936.41967",
    "final_y": "533781.363983",
    "longitude": "-90.11082318496696",
    "latitude": "29.962118542084184",
    "geocoded_column": {
      "latitude": "29.962118542084184",
      "longitude": "-90.11082318496696"
    }
  },
  {
    "service_request": "2025-1175356",
    "request_type": "Trash/Recycling",
    "request_reason": "Repair Trash Cart",
    "date_created": "2025-03-13T14:46:53.000",
    "date_modified": "2025-03-13T14:46:55.000",
    "request_status": "Pending",
    "responsible_agency": "Department of Sanitation",
    "final_address": "2716 Ideal Pl",
    "address_councildis": "D",
    "status": "Assigned to Contractor",
    "contractor": "IV Waste",
    "rowid": "1175356",
    "final_x": "3687243.17545",
    "final_y": "542221.509389",
    "longitude": "-90.04955689377196",
    "latitude": "29.98474546606856",
    "geocoded_column": {
      "latitude": "29.98474546606856",
      "longitude": "-90.04955689377196"
    }
  },
  {
    "service_request": "2025-1175355",
    "request_type": "Trash/Recycling",
    "request_reason": "Request a Large Item Pick Up",
    "date_created": "2025-03-13T14:46:25.000",
    "date_modified": "2025-03-13T14:46:27.000",
    "request_status": "Pending",
    "responsible_agency": "Department of Sanitation",
    "final_address": "8030 Oneida St",
    "address_councildis": "E",
    "status": "Assigned to Contractor",
    "contractor": "Waste Pro",
    "rowid": "1175355",
    "final_x": "3713044.29605",
    "final_y": "569184.520678",
    "longitude": "-89.96704774540727",
    "latitude": "30.058063063413822",
    "geocoded_column": {
      "latitude": "30.058063063413822",
      "longitude": "-89.96704774540727"
    }
  },
  {
    "service_request": "2025-1175354",
    "request_type": "Trash/Recycling",
    "request_reason": "Request a Large Item Pick Up",
    "date_created": "2025-03-13T14:46:09.000",
    "date_modified": "2025-03-13T14:46:10.000",
    "request_status": "Pending",
    "responsible_agency": "Department of Sanitation",
    "final_address": "6147 S Laverne St",
    "address_councildis": "D",
    "status": "Assigned to Contractor",
    "contractor": "Waste Pro",
    "rowid": "1175354",
    "final_x": "3696810.03351",
    "final_y": "555473.315737",
    "longitude": "-90.01885934331179",
    "latitude": "30.020884824382318",
    "geocoded_column": {
      "latitude": "30.020884824382318",
      "longitude": "-90.01885934331179"
    }
  },
  {
    "service_request": "2025-1175353",
    "request_type": "Abandoned Vehicles",
    "request_reason": "Abandoned/Junk Vehicles",
    "date_created": "2025-03-13T14:45:53.000",
    "date_modified": "2025-03-13T14:45:55.000",
    "request_status": "Pending",
    "responsible_agency": "Department of Public Works",
    "final_address": "2300 BLK Music St",
    "address_councildis": "D",
    "status": "Pending",
    "rowid": "1175353",
    "final_x": "3686475.1234",
    "final_y": "541146.6734",
    "longitude": "-90.05202079442277",
    "latitude": "29.981813686508758",
    "geocoded_column": {
      "latitude": "29.981813686508758",
      "longitude": "-90.05202079442277"
    }
  },
  {
    "service_request": "2025-1175352",
    "request_type": "Abandoned Vehicles",
    "request_reason": "Abandoned/Junk Vehicles",
    "date_created": "2025-03-13T14:45:49.000",
    "date_modified": "2025-03-13T14:45:50.000",
    "request_status": "Pending",
    "responsible_agency": "Department of Public Works",
    "final_address": "2300 BLK Music St",
    "address_councildis": "D",
    "status": "Pending",
    "rowid": "1175352",
    "final_x": "3686475.1234",
    "final_y": "541146.6734",
    "longitude": "-90.05202079442277",
    "latitude": "29.981813686508758",
    "geocoded_column": {
      "latitude": "29.981813686508758",
      "longitude": "-90.05202079442277"
    }
  },
  {
    "service_request": "2025-1175351",
    "request_type": "Abandoned Vehicles",
    "request_reason": "Abandoned/Junk Vehicles",
    "date_created": "2025-03-13T14:45:43.000",
    "date_modified": "2025-03-13T14:45:47.000",
    "request_status": "Pending",
    "responsible_agency": "Department of Public Works",
    "final_address": "2300 BLK Music St",
    "address_councildis": "D",
    "status": "Pending",
    "rowid": "1175351",
    "final_x": "3686475.1234",
    "final_y": "541146.6734",
    "longitude": "-90.05202079442277",
    "latitude": "29.981813686508758",
    "geocoded_column": {
      "latitude": "29.981813686508758",
      "longitude": "-90.05202079442277"
    }
  },
  {
    "service_request": "2025-1175350",
    "request_type": "Trash/Recycling",
    "request_reason": "Order Recycling Cart",
    "date_created": "2025-03-13T14:45:13.000",
    "date_modified": "2025-03-13T14:45:15.000",
    "request_status": "Pending",
    "responsible_agency": "Department of Sanitation",
    "final_address": "6245 Wainwright Dr",
    "address_councildis": "D",
    "status": "Pending",
    "rowid": "1175350",
    "final_x": "3681377.37474",
    "final_y": "556172.831834",
    "longitude": "-90.06759762721055",
    "latitude": "30.02328600003312",
    "geocoded_column": {
      "latitude": "30.02328600003312",
      "longitude": "-90.06759762721055"
    }
  },
  {
    "service_request": "2025-1175349",
    "request_type": "Trash/Recycling",
    "request_reason": "Order Trash Cart",
    "date_created": "2025-03-13T14:44:44.000",
    "date_modified": "2025-03-13T14:44:47.000",
    "request_status": "Pending",
    "responsible_agency": "Department of Sanitation",
    "final_address": "6245 Wainwright Dr",
    "address_councildis": "D",
    "status": "Assigned to Contractor",
    "contractor": "IV Waste",
    "rowid": "1175349",
    "final_x": "3681377.37474",
    "final_y": "556172.831834",
    "longitude": "-90.06759762721055",
    "latitude": "30.02328600003312",
    "geocoded_column": {
      "latitude": "30.02328600003312",
      "longitude": "-90.06759762721055"
    }
  },
  {
    "service_request": "2025-1175348",
    "request_type": "Trash/Recycling",
    "request_reason": "Request a Large Item Pick Up",
    "date_created": "2025-03-13T14:43:09.000",
    "date_modified": "2025-03-13T14:43:10.000",
    "request_status": "Pending",
    "responsible_agency": "Department of Sanitation",
    "final_address": "7145 Downman Rd",
    "address_councildis": "D",
    "status": "Assigned to Contractor",
    "contractor": "Waste Pro",
    "rowid": "1175348",
    "final_x": "3695294.48867",
    "final_y": "556839.897242",
    "longitude": "-90.02359864589498",
    "latitude": "30.024690123887616",
    "geocoded_column": {
      "latitude": "30.024690123887616",
      "longitude": "-90.02359864589498"
    }
  },
  {
    "service_request": "2025-1175347",
    "request_type": "Abandoned Vehicles",
    "request_reason": "Abandoned/Junk Vehicles",
    "date_created": "2025-03-13T14:42:49.000",
    "date_modified": "2025-03-13T14:44:19.000",
    "request_status": "Pending",
    "responsible_agency": "Department of Public Works",
    "final_address": "941 Verret St",
    "address_councildis": "C",
    "status": "Inspected",
    "rowid": "1175347",
    "final_x": "3687155.38665",
    "final_y": "528014.678079",
    "longitude": "-90.05033662440367",
    "latitude": "29.94568432338038",
    "geocoded_column": {
      "latitude": "29.94568432338038",
      "longitude": "-90.05033662440367"
    }
  },
  {
    "service_request": "2025-1175346",
    "request_type": "Trash/Recycling",
    "request_reason": "Repair Trash Cart",
    "date_created": "2025-03-13T14:38:56.000",
    "date_modified": "2025-03-13T14:38:58.000",
    "request_status": "Pending",
    "responsible_agency": "Department of Sanitation",
    "final_address": "4307 S Derbigny St",
    "address_councildis": "B",
    "status": "Assigned to Contractor",
    "contractor": "IV Waste",
    "rowid": "1175346",
    "final_x": "3670646.87348",
    "final_y": "526311.37523",
    "longitude": "-90.1025173425936",
    "latitude": "29.941498735024076",
    "geocoded_column": {
      "latitude": "29.941498735024076",
      "longitude": "-90.1025173425936"
    }
  },
  {
    "service_request": "2025-1175345",
    "request_type": "Trash/Recycling",
    "request_reason": "Return Recycling Cart",
    "date_created": "2025-03-13T14:38:33.000",
    "date_modified": "2025-03-13T14:38:35.000",
    "request_status": "Pending",
    "responsible_agency": "Department of Sanitation",
    "final_address": "3929 Chartres St",
    "address_councildis": "C",
    "status": "Pending",
    "rowid": "1175345",
    "final_x": "3691240.44764",
    "final_y": "533542.249093",
    "longitude": "-90.03724138048807",
    "latitude": "29.960756825778475",
    "geocoded_column": {
      "latitude": "29.960756825778475",
      "longitude": "-90.03724138048807"
    }
  },
  {
    "service_request": "2025-1175344",
    "request_type": "Trash/Recycling",
    "request_reason": "Request a Large Item Pick Up",
    "date_created": "2025-03-13T14:32:39.000",
    "date_modified": "2025-03-13T14:32:41.000",
    "request_status": "Pending",
    "responsible_agency": "Department of Sanitation",
    "final_address": "7608 Ebbtide Dr",
    "address_councildis": "E",
    "status": "Assigned to Contractor",
    "contractor": "Waste Pro",
    "rowid": "1175344",
    "final_x": "3702155.38167",
    "final_y": "561375.488158",
    "longitude": "-90.00175299187259",
    "latitude": "30.03694382192617",
    "geocoded_column": {
      "latitude": "30.03694382192617",
      "longitude": "-90.00175299187259"
    }
  },
  {
    "service_request": "2025-1175343",
    "request_type": "Trash/Recycling",
    "request_reason": "Request a Large Item Pick Up",
    "date_created": "2025-03-13T14:30:54.000",
    "date_modified": "2025-03-13T14:30:55.000",
    "request_status": "Pending",
    "responsible_agency": "Department of Sanitation",
    "final_address": "1937 Arts St",
    "address_councildis": "D",
    "status": "Assigned to Contractor",
    "contractor": "IV Waste",
    "rowid": "1175343",
    "final_x": "3686996.20342",
    "final_y": "539733.153546",
    "longitude": "-90.05042496744643",
    "latitude": "29.977910974160565",
    "geocoded_column": {
      "latitude": "29.977910974160565",
      "longitude": "-90.05042496744643"
    }
  },
  {
    "service_request": "2025-1175342",
    "request_type": "Trash/Recycling",
    "request_reason": "Request a Large Item Pick Up",
    "date_created": "2025-03-13T14:30:34.000",
    "date_modified": "2025-03-13T14:30:36.000",
    "request_status": "Pending",
    "responsible_agency": "Department of Sanitation",
    "final_address": "1924 Wilton Dr",
    "address_councildis": "D",
    "status": "Assigned to Contractor",
    "contractor": "IV Waste",
    "rowid": "1175342",
    "final_x": "3681684.43375",
    "final_y": "550852.219157",
    "longitude": "-90.06681321337632",
    "latitude": "30.008646921625978",
    "geocoded_column": {
      "latitude": "30.008646921625978",
      "longitude": "-90.06681321337632"
    }
  },
  {
    "service_request": "2025-1175341",
    "request_type": "Trash/Recycling",
    "request_reason": "Repair Trash Cart",
    "date_created": "2025-03-13T14:29:55.000",
    "date_modified": "2025-03-13T14:48:52.000",
    "request_status": "Pending",
    "responsible_agency": "Department of Sanitation",
    "final_address": "4301 S Derbigny St",
    "address_councildis": "B",
    "status": "Assigned to Contractor",
    "contractor": "IV Waste",
    "rowid": "1175341",
    "final_x": "3670670.58695",
    "final_y": "526313.509822",
    "longitude": "-90.10244240190839",
    "latitude": "29.941503904039614",
    "geocoded_column": {
      "latitude": "29.941503904039614",
      "longitude": "-90.10244240190839"
    }
  },
  {
    "service_request": "2025-1175340",
    "request_type": "Trash/Recycling",
    "request_reason": "Request a Large Item Pick Up",
    "date_created": "2025-03-13T14:24:39.000",
    "date_modified": "2025-03-13T14:24:41.000",
    "request_status": "Pending",
    "responsible_agency": "Department of Sanitation",
    "final_address": "20212 San Rocco St",
    "address_councildis": "E",
    "status": "Assigned to Contractor",
    "contractor": "Waste Pro",
    "rowid": "1175340",
    "final_x": "3759828.80809",
    "final_y": "573026.626985",
    "longitude": "-89.81901055829053",
    "latitude": "30.067010220467306",
    "geocoded_column": {
      "latitude": "30.067010220467306",
      "longitude": "-89.81901055829053"
    }
  },
  {
    "service_request": "2025-1175339",
    "request_type": "Streetlights",
    "request_reason": "Streetlight Outage/Malfunction",
    "date_created": "2025-03-13T14:24:23.000",
    "date_modified": "2025-03-13T14:24:24.000",
    "request_status": "Pending",
    "responsible_agency": "Department of Public Works",
    "final_address": "I 610 W & WISNER BLVD",
    "address_councildis": "A",
    "status": "Pending",
    "contractor": "Legacy Professional Services",
    "rowid": "1175339",
    "final_x": "3675404.18",
    "final_y": "545160.54",
    "longitude": "-90.08685019658155",
    "latitude": "29.99318618579403",
    "geocoded_column": {
      "latitude": "29.99318618579403",
      "longitude": "-90.08685019658155"
    }
  },
  {
    "service_request": "2025-1175338",
    "request_type": "General Services",
    "request_reason": "General Service Request",
    "date_created": "2025-03-13T14:24:20.000",
    "date_modified": "2025-03-13T14:34:50.000",
    "case_close_date": "2025-03-13T09:34:49.000",
    "request_status": "Closed",
    "responsible_agency": "Orleans Parish Communication District",
    "final_address": "4619 Perelli Dr",
    "address_councildis": "E",
    "status": "Referred to Risk Management",
    "rowid": "1175338",
    "final_x": "3711869.00152",
    "final_y": "555300.453977",
    "longitude": "-89.97128434896997",
    "latitude": "30.019925921299098",
    "geocoded_column": {
      "latitude": "30.019925921299098",
      "longitude": "-89.97128434896997"
    }
  },
  {
    "service_request": "2025-1175337",
    "request_type": "Trash/Recycling",
    "request_reason": "Request a Large Item Pick Up",
    "date_created": "2025-03-13T14:23:53.000",
    "date_modified": "2025-03-13T14:23:55.000",
    "request_status": "Pending",
    "responsible_agency": "Department of Sanitation",
    "final_address": "4918 S Miro St",
    "address_councildis": "B",
    "status": "Assigned to Contractor",
    "contractor": "IV Waste",
    "rowid": "1175337",
    "final_x": "3669129.87022",
    "final_y": "527654.697855",
    "longitude": "-90.10726145423952",
    "latitude": "29.945237155404133",
    "geocoded_column": {
      "latitude": "29.945237155404133",
      "longitude": "-90.10726145423952"
    }
  },
  {
    "service_request": "2025-1175336",
    "request_type": "Trash/Recycling",
    "request_reason": "Repair Recycling Cart",
    "date_created": "2025-03-13T14:22:47.000",
    "date_modified": "2025-03-13T14:22:49.000",
    "request_status": "Pending",
    "responsible_agency": "Department of Sanitation",
    "final_address": "2019 Chartres St",
    "address_councildis": "C",
    "status": "Pending",
    "rowid": "1175336",
    "final_x": "3684693.77045",
    "final_y": "534503.923653",
    "longitude": "-90.057880682074",
    "latitude": "29.963603091488086",
    "geocoded_column": {
      "latitude": "29.963603091488086",
      "longitude": "-90.057880682074"
    }
  },
  {
    "service_request": "2025-1175335",
    "request_type": "Streetlights",
    "request_reason": "Streetlight Outage/Malfunction",
    "date_created": "2025-03-13T14:21:27.000",
    "date_modified": "2025-03-13T14:21:51.000",
    "request_status": "Pending",
    "responsible_agency": "Department of Public Works",
    "final_address": "BEAUREGARD AVE & ROBERT E LEE BLVD & WISNER BLVD",
    "address_councildis": "D",
    "status": "Pending",
    "contractor": "Legacy Professional Services",
    "rowid": "1175335",
    "final_x": "3676304.9",
    "final_y": "555235.88",
    "longitude": "-90.08365786621745",
    "latitude": "30.020862814840186",
    "geocoded_column": {
      "latitude": "30.020862814840186",
      "longitude": "-90.08365786621745"
    }
  },
  {
    "service_request": "2025-1175334",
    "request_type": "Trash/Recycling",
    "request_reason": "Illegal Dumping",
    "date_created": "2025-03-13T14:20:31.000",
    "date_modified": "2025-03-13T14:29:43.000",
    "request_status": "Pending",
    "responsible_agency": "Department of Sanitation",
    "final_address": "4542 Lynhuber Dr",
    "address_councildis": "D",
    "status": "Pending",
    "rowid": "1175334",
    "final_x": "3698056.43235",
    "final_y": "553275.944855",
    "longitude": "-90.01500098940889",
    "latitude": "30.014803512752245",
    "geocoded_column": {
      "latitude": "30.014803512752245",
      "longitude": "-90.01500098940889"
    }
  },
  {
    "service_request": "2025-1175333",
    "request_type": "Roads and Streets",
    "request_reason": "Curb Damage",
    "date_created": "2025-03-13T14:19:56.000",
    "date_modified": "2025-03-13T14:19:58.000",
    "request_status": "Pending",
    "responsible_agency": "Department of Public Works",
    "final_address": "4619 Perelli Dr",
    "address_councildis": "E",
    "status": "Pending",
    "rowid": "1175333",
    "final_x": "3711869.00152",
    "final_y": "555300.453977",
    "longitude": "-89.97128434896997",
    "latitude": "30.019925921299098",
    "geocoded_column": {
      "latitude": "30.019925921299098",
      "longitude": "-89.97128434896997"
    }
  },
  {
    "service_request": "2025-1175332",
    "request_type": "Trash/Recycling",
    "request_reason": "Request a Large Item Pick Up",
    "date_created": "2025-03-13T14:19:48.000",
    "date_modified": "2025-03-13T14:19:59.000",
    "request_status": "Pending",
    "responsible_agency": "Department of Sanitation",
    "final_address": "4734 Bonita Dr",
    "address_councildis": "E",
    "status": "Assigned to Contractor",
    "contractor": "Waste Pro",
    "rowid": "1175332",
    "final_x": "3704431.2961",
    "final_y": "555224.748441",
    "longitude": "-89.99478772628613",
    "latitude": "30.019958761129878",
    "geocoded_column": {
      "latitude": "30.019958761129878",
      "longitude": "-89.99478772628613"
    }
  },
  {
    "service_request": "2025-1175331",
    "request_type": "Abandoned Vehicles",
    "request_reason": "Abandoned/Junk Vehicles",
    "date_created": "2025-03-13T14:14:53.000",
    "date_modified": "2025-03-13T14:15:53.000",
    "request_status": "Pending",
    "responsible_agency": "Department of Public Works",
    "final_address": "3400 BLK Short St",
    "address_councildis": "B",
    "status": "Inspected",
    "rowid": "1175331",
    "final_x": "3667696.69541",
    "final_y": "533999.144388",
    "longitude": "-90.11157286784497",
    "latitude": "29.96272439672841",
    "geocoded_column": {
      "latitude": "29.96272439672841",
      "longitude": "-90.11157286784497"
    }
  },
  {
    "service_request": "2025-1175330",
    "request_type": "Trash/Recycling",
    "request_reason": "Request a Large Item Pick Up",
    "date_created": "2025-03-13T14:11:15.000",
    "date_modified": "2025-03-13T14:11:17.000",
    "request_status": "Pending",
    "responsible_agency": "Department of Sanitation",
    "final_address": "2845 Grand-Route St John St",
    "address_councildis": "A",
    "status": "Assigned to Contractor",
    "contractor": "IV Waste",
    "rowid": "1175330",
    "final_x": "3677936.44078",
    "final_y": "540319.103307",
    "longitude": "-90.07901861540415",
    "latitude": "29.979797934601176",
    "geocoded_column": {
      "latitude": "29.979797934601176",
      "longitude": "-90.07901861540415"
    }
  },
  {
    "service_request": "2025-1175329",
    "request_type": "Trash/Recycling",
    "request_reason": "Request a Large Item Pick Up",
    "date_created": "2025-03-13T14:06:04.000",
    "date_modified": "2025-03-13T14:06:06.000",
    "request_status": "Pending",
    "responsible_agency": "Department of Sanitation",
    "final_address": "427 Bermuda St",
    "address_councildis": "C",
    "status": "Assigned to Contractor",
    "contractor": "Richards Disposal",
    "rowid": "1175329",
    "final_x": "3686606.74441",
    "final_y": "530273.971457",
    "longitude": "-90.05198909585083",
    "latitude": "29.951913490295",
    "geocoded_column": {
      "latitude": "29.951913490295",
      "longitude": "-90.05198909585083"
    }
  },
  {
    "service_request": "2025-1175328",
    "request_type": "Roads and Streets",
    "request_reason": "Sidewalk Damaged or Missing",
    "date_created": "2025-03-13T14:03:49.000",
    "date_modified": "2025-03-13T14:03:53.000",
    "request_status": "Pending",
    "responsible_agency": "Department of Public Works",
    "final_address": "4748 E Adams Ct",
    "address_councildis": "E",
    "status": "Pending",
    "rowid": "1175328",
    "final_x": "3718683.53183",
    "final_y": "557204.399899",
    "longitude": "-89.94968024116751",
    "latitude": "30.024936522404445",
    "geocoded_column": {
      "latitude": "30.024936522404445",
      "longitude": "-89.94968024116751"
    }
  },
  {
    "service_request": "2025-1175327",
    "request_type": "Abandoned Vehicles",
    "request_reason": "Abandoned/Junk Vehicles",
    "date_created": "2025-03-13T14:02:53.000",
    "date_modified": "2025-03-13T14:02:56.000",
    "request_status": "Pending",
    "responsible_agency": "Department of Public Works",
    "final_address": "174 Pinewood Ct",
    "address_councildis": "C",
    "status": "Pending",
    "rowid": "1175327",
    "final_x": "3695982.77757",
    "final_y": "523528.212347",
    "longitude": "-90.02262781981783",
    "latitude": "29.93307336253004",
    "geocoded_column": {
      "latitude": "29.93307336253004",
      "longitude": "-90.02262781981783"
    }
  },
  {
    "service_request": "2025-1175326",
    "request_type": "Trash/Recycling",
    "request_reason": "Replace Trash Cart",
    "date_created": "2025-03-13T13:58:49.000",
    "date_modified": "2025-03-13T13:58:50.000",
    "request_status": "Pending",
    "responsible_agency": "Department of Sanitation",
    "final_address": "4856 Magazine St",
    "address_councildis": "B",
    "status": "Assigned to Contractor",
    "contractor": "IV Waste",
    "rowid": "1175326",
    "final_x": "3669094.37383",
    "final_y": "518553.772855",
    "longitude": "-90.1076808877113",
    "latitude": "29.920213571732997",
    "geocoded_column": {
      "latitude": "29.920213571732997",
      "longitude": "-90.1076808877113"
    }
  },
  {
    "service_request": "2025-1175325",
    "request_type": "Abandoned Vehicles",
    "request_reason": "Abandoned/Junk Vehicles",
    "date_created": "2025-03-13T13:58:03.000",
    "date_modified": "2025-03-13T13:58:27.000",
    "request_status": "Pending",
    "responsible_agency": "Department of Public Works",
    "final_address": "3410 Lowerline St",
    "address_councildis": "B",
    "status": "Inspected",
    "rowid": "1175325",
    "final_x": "3668122.24397",
    "final_y": "533504.343108",
    "longitude": "-90.11024571551326",
    "latitude": "29.96135137349039",
    "geocoded_column": {
      "latitude": "29.96135137349039",
      "longitude": "-90.11024571551326"
    }
  },
  {
    "service_request": "2025-1175324",
    "request_type": "Trash/Recycling",
    "request_reason": "Order Second Trash Cart",
    "date_created": "2025-03-13T13:57:22.000",
    "date_modified": "2025-03-13T13:57:23.000",
    "request_status": "Pending",
    "responsible_agency": "Department of Sanitation",
    "final_address": "4643 Cerise Ave",
    "address_councildis": "E",
    "status": "Assigned to Contractor",
    "contractor": "Waste Pro",
    "rowid": "1175324",
    "final_x": "3708740.96804",
    "final_y": "555071.810265",
    "longitude": "-89.98117636688386",
    "latitude": "30.01939910745166",
    "geocoded_column": {
      "latitude": "30.01939910745166",
      "longitude": "-89.98117636688386"
    }
  },
  {
    "service_request": "2025-1175323",
    "request_type": "Trash/Recycling",
    "request_reason": "Replace Trash Cart",
    "date_created": "2025-03-13T13:57:10.000",
    "date_modified": "2025-03-13T13:57:11.000",
    "request_status": "Pending",
    "responsible_agency": "Department of Sanitation",
    "final_address": "4854 Magazine St",
    "address_councildis": "B",
    "status": "Assigned to Contractor",
    "contractor": "IV Waste",
    "rowid": "1175323",
    "final_x": "3669111.44628",
    "final_y": "518552.919287",
    "longitude": "-90.10762702677295",
    "latitude": "29.92021072254405",
    "geocoded_column": {
      "latitude": "29.92021072254405",
      "longitude": "-90.10762702677295"
    }
  },
  {
    "service_request": "2025-1175322",
    "request_type": "Trash/Recycling",
    "request_reason": "Request a Large Item Pick Up",
    "date_created": "2025-03-13T13:56:12.000",
    "date_modified": "2025-03-13T13:56:14.000",
    "request_status": "Pending",
    "responsible_agency": "Department of Sanitation",
    "final_address": "2830 Eagle St",
    "address_councildis": "A",
    "status": "Assigned to Contractor",
    "contractor": "IV Waste",
    "rowid": "1175322",
    "final_x": "3664149.69447",
    "final_y": "534506.755845",
    "longitude": "-90.12275694560623",
    "latitude": "29.9642236777344",
    "geocoded_column": {
      "latitude": "29.9642236777344",
      "longitude": "-90.12275694560623"
    }
  },
  {
    "service_request": "2025-1175321",
    "request_type": "General Services",
    "request_reason": "General Service Request",
    "date_created": "2025-03-13T13:53:52.000",
    "date_modified": "2025-03-13T13:53:54.000",
    "request_status": "Pending",
    "responsible_agency": "Orleans Parish Communication District",
    "final_address": "1910 First St",
    "address_councildis": "B",
    "status": "Pending",
    "rowid": "1175321",
    "final_x": "3676271.81269",
    "final_y": "524178.616316",
    "longitude": "-90.08483165333699",
    "latitude": "29.93546701227049",
    "geocoded_column": {
      "latitude": "29.93546701227049",
      "longitude": "-90.08483165333699"
    }
  },
  {
    "service_request": "2025-1175320",
    "request_type": "City-Owned Cemeteries",
    "request_reason": "Property Maintenance",
    "date_created": "2025-03-13T13:53:23.000",
    "date_modified": "2025-03-13T13:53:24.000",
    "request_status": "Pending",
    "responsible_agency": "Department of Property Management",
    "final_address": "100 BLK City Park Ave",
    "address_councildis": "A",
    "status": "Pending",
    "rowid": "1175320",
    "final_x": "3667667.35164",
    "final_y": "540976.849592",
    "longitude": "-90.11143055800902",
    "latitude": "29.98191161380258",
    "geocoded_column": {
      "latitude": "29.98191161380258",
      "longitude": "-90.11143055800902"
    }
  },
  {
    "service_request": "2025-1175319",
    "request_type": "Trash/Recycling",
    "request_reason": "Order Trash Cart",
    "date_created": "2025-03-13T13:52:19.000",
    "date_modified": "2025-03-13T13:52:21.000",
    "request_status": "Pending",
    "responsible_agency": "Department of Sanitation",
    "final_address": "918 Foucher St Apt 1",
    "address_councildis": "B",
    "status": "Assigned to Contractor",
    "contractor": "IV Waste",
    "rowid": "1175319",
    "final_x": "3674303.09294",
    "final_y": "518765.083511",
    "longitude": "-90.09123218649236",
    "latitude": "29.92064038184057",
    "geocoded_column": {
      "latitude": "29.92064038184057",
      "longitude": "-90.09123218649236"
    }
  },
  {
    "service_request": "2025-1175318",
    "request_type": "Trash/Recycling",
    "request_reason": "Order Trash Cart",
    "date_created": "2025-03-13T13:50:39.000",
    "date_modified": "2025-03-13T13:50:41.000",
    "request_status": "Pending",
    "responsible_agency": "Department of Sanitation",
    "final_address": "914 Foucher St",
    "address_councildis": "B",
    "status": "Assigned to Contractor",
    "contractor": "IV Waste",
    "rowid": "1175318",
    "final_x": "3674318.76014",
    "final_y": "518726.994615",
    "longitude": "-90.09118403566089",
    "latitude": "29.92053518257764",
    "geocoded_column": {
      "latitude": "29.92053518257764",
      "longitude": "-90.09118403566089"
    }
  },
  {
    "service_request": "2025-1175317",
    "request_type": "Trash/Recycling",
    "request_reason": "Illegal Dumping",
    "date_created": "2025-03-13T13:49:40.000",
    "date_modified": "2025-03-13T13:55:00.000",
    "request_status": "Pending",
    "responsible_agency": "Department of Sanitation",
    "final_address": "5736 Peoples Ave",
    "address_councildis": "D",
    "status": "Pending",
    "rowid": "1175317",
    "final_x": "3687803.47343",
    "final_y": "554518.123288",
    "longitude": "-90.0473512615846",
    "latitude": "30.018539417648256",
    "geocoded_column": {
      "latitude": "30.018539417648256",
      "longitude": "-90.0473512615846"
    }
  },
  {
    "service_request": "2025-1175316",
    "request_type": "Abandoned Vehicles",
    "request_reason": "Abandoned/Junk Vehicles",
    "date_created": "2025-03-13T13:46:55.000",
    "date_modified": "2025-03-13T13:47:56.000",
    "request_status": "Pending",
    "responsible_agency": "Department of Public Works",
    "final_address": "2227 Columbus St",
    "address_councildis": "D",
    "status": "Pending",
    "rowid": "1175316",
    "final_x": "3679886.75003",
    "final_y": "538676.384521",
    "longitude": "-90.0729158141094",
    "latitude": "29.975222179298765",
    "geocoded_column": {
      "latitude": "29.975222179298765",
      "longitude": "-90.0729158141094"
    }
  },
  {
    "service_request": "2025-1175315",
    "request_type": "Streetlights",
    "request_reason": "Streetlight Knocked Down/Leaning",
    "date_created": "2025-03-13T13:43:58.000",
    "date_modified": "2025-03-13T13:43:59.000",
    "request_status": "Pending",
    "responsible_agency": "Department of Public Works",
    "final_address": "103 Maumus Ave",
    "address_councildis": "C",
    "status": "Pending",
    "contractor": "Legacy Professional Services",
    "rowid": "1175315",
    "final_x": "3705627.97233",
    "final_y": "516710.162101",
    "longitude": "-89.99243074162817",
    "latitude": "29.914019203911696",
    "geocoded_column": {
      "latitude": "29.914019203911696",
      "longitude": "-89.99243074162817"
    }
  },
  {
    "service_request": "2025-1175314",
    "request_type": "Trash/Recycling",
    "request_reason": "Repair Trash Cart",
    "date_created": "2025-03-13T13:43:32.000",
    "date_modified": "2025-03-13T13:44:27.000",
    "request_status": "Pending",
    "responsible_agency": "Department of Sanitation",
    "final_address": "1727 Flood St",
    "address_councildis": "E",
    "status": "Assigned to Contractor",
    "contractor": "Waste Pro",
    "rowid": "1175314",
    "final_x": "3698432.02538",
    "final_y": "536355.760071",
    "longitude": "-90.01442964196363",
    "latitude": "29.968267343634746",
    "geocoded_column": {
      "latitude": "29.968267343634746",
      "longitude": "-90.01442964196363"
    }
  },
  {
    "service_request": "2025-1175313",
    "request_type": "Trash/Recycling",
    "request_reason": "Request a Large Item Pick Up",
    "date_created": "2025-03-13T13:41:29.000",
    "date_modified": "2025-03-13T13:41:31.000",
    "request_status": "Pending",
    "responsible_agency": "Department of Sanitation",
    "final_address": "2228 Governor Nicholls St",
    "address_councildis": "D",
    "status": "Assigned to Contractor",
    "contractor": "IV Waste",
    "rowid": "1175313",
    "final_x": "3679225.66581",
    "final_y": "537251.087176",
    "longitude": "-90.0750531246099",
    "latitude": "29.971323080709496",
    "geocoded_column": {
      "latitude": "29.971323080709496",
      "longitude": "-90.0750531246099"
    }
  },
  {
    "service_request": "2025-1175312",
    "request_type": "Drainage",
    "request_reason": "Street Flooding",
    "date_created": "2025-03-13T13:40:52.000",
    "date_modified": "2025-03-13T13:40:54.000",
    "request_status": "Pending",
    "responsible_agency": "Sewerage & Water Board ",
    "final_address": "2436 Palmer Ave",
    "address_councildis": "A",
    "status": "Pending",
    "rowid": "1175312",
    "final_x": "3666370.861",
    "final_y": "525847.966141",
    "longitude": "-90.11603315154191",
    "latitude": "29.940350111962758",
    "geocoded_column": {
      "latitude": "29.940350111962758",
      "longitude": "-90.11603315154191"
    }
  },
  {
    "service_request": "2025-1175311",
    "request_type": "Trash/Recycling",
    "request_reason": "Request a Large Item Pick Up",
    "date_created": "2025-03-13T13:39:20.000",
    "date_modified": "2025-03-13T13:39:22.000",
    "request_status": "Pending",
    "responsible_agency": "Department of Sanitation",
    "final_address": "5226 Wickfield Dr",
    "address_councildis": "D",
    "status": "Assigned to Contractor",
    "contractor": "IV Waste",
    "rowid": "1175311",
    "final_x": "3681280.71413",
    "final_y": "551760.013077",
    "longitude": "-90.06805702348929",
    "latitude": "30.01115529099409",
    "geocoded_column": {
      "latitude": "30.01115529099409",
      "longitude": "-90.06805702348929"
    }
  },
  {
    "service_request": "2025-1175310",
    "request_type": "Trash/Recycling",
    "request_reason": "Order Trash Cart",
    "date_created": "2025-03-13T13:35:56.000",
    "date_modified": "2025-03-13T13:35:58.000",
    "request_status": "Pending",
    "responsible_agency": "Department of Sanitation",
    "final_address": "3226 Hamilton St",
    "address_councildis": "A",
    "status": "Assigned to Contractor",
    "contractor": "IV Waste",
    "rowid": "1175310",
    "final_x": "3664288.9154",
    "final_y": "536217.322887",
    "longitude": "-90.12226020203141",
    "latitude": "29.968923128723585",
    "geocoded_column": {
      "latitude": "29.968923128723585",
      "longitude": "-90.12226020203141"
    }
  },