[
  {
    "service_request": "2022-858485",
    "request_type": "Abandoned Vehicles",
    "request_reason": "Abandoned/Junk Vehicles",
    "date_created": "2022-02-03T01:23:15.000",
    "date_modified": "2022-02-03T01:23:15.000",
    "request_status": "Pending",
    "responsible_agency": "Department of Public Works",
    "final_address": "2133 Louisiana Ave",
    "address_councildis": "B",
    "status": "Pending",
    "rowid": "858485",
    "final_x": "3673434.78408",
    "final_y": "523475.724027",
    "longitude": "-90.0938121906665",
    "latitude": "29.93361897989003",
    "geocoded_column": {
      "latitude": "29.93361897989003",
      "longitude": "-90.0938121906665"
    }
  },
  {
    "service_request": "2022-858484",
    "request_type": "Abandoned Vehicles",
    "request_reason": "Abandoned/Junk Vehicles",
    "date_created": "2022-02-02T23:37:17.000",
    "date_modified": "2022-02-02T23:37:17.000",
    "request_status": "Pending",
    "responsible_agency": "Department of Public Works",
    "final_address": "3417 General Taylor St",
    "address_councildis": "B",
    "status": "Pending",
    "rowid": "858484",
    "final_x": "3671171.69857",
    "final_y": "527473.641599",
    "longitude": "-90.10082089166647",
    "latitude": "29.944679077208956",
    "geocoded_column": {
      "latitude": "29.944679077208956",
      "longitude": "-90.10082089166647"
    }
  },
  {
    "service_request": "2022-858483",
    "request_type": "Traffic Signals/Signs/Striping/Streetlights",
    "request_reason": "Street Light Outage/Malfunction",
    "date_created": "2022-02-02T22:53:12.000",
    "date_modified": "2022-02-02T22:53:12.000",
    "request_status": "Pending",
    "responsible_agency": "Department of Public Works",
    "final_address": "5958 Louis Xiv St",
    "address_councildis": "A",
    "status": "Pending",
    "contractor": "Royal Engineering",
    "rowid": "858483",
    "final_x": "3667963.60993",
    "final_y": "547118.412881",
    "longitude": "-90.1102877800883",
    "latitude": "29.998790123410615",
    "geocoded_column": {
      "latitude": "29.998790123410615",
      "longitude": "-90.1102877800883"
    }
  },
  {
    "service_request": "2022-858482",
    "request_type": "Trash/Recycling",
    "request_reason": "Request a Large Item Pick Up",
    "date_created": "2022-02-02T22:37:46.000",
    "date_modified": "2022-02-02T22:37:47.000",
    "request_status": "Pending",
    "responsible_agency": "Department of Sanitation",
    "final_address": "9208 Colapissa St",
    "address_councildis": "A",
    "status": "Assigned to Contractor",
    "contractor": "Richards Disposal",
    "rowid": "858482",
    "final_x": "3663547.19271",
    "final_y": "536026.024455",
    "longitude": "-90.12460899413492",
    "latitude": "29.968418656169927",
    "geocoded_column": {
      "latitude": "29.968418656169927",
      "longitude": "-90.12460899413492"
    }
  },
  {
    "service_request": "2022-858481",
    "request_type": "Trash/Recycling",
    "request_reason": "Order Recycling Cart",
    "date_created": "2022-02-02T22:32:30.000",
    "date_modified": "2022-02-02T22:32:30.000",
    "request_status": "Pending",
    "responsible_agency": "Department of Sanitation",
    "final_address": "3402 Octavia St",
    "address_councildis": "A",
    "status": "Pending",
    "rowid": "858481",
    "final_x": "3668423.18196",
    "final_y": "528081.496767",
    "longitude": "-90.10947830622754",
    "latitude": "29.946431487114538",
    "geocoded_column": {
      "latitude": "29.946431487114538",
      "longitude": "-90.10947830622754"
    }
  },
  {
    "service_request": "2022-858479",
    "request_type": "Health Related Questions",
    "request_reason": "Noise Ordinance Complaint",
    "date_created": "2022-02-02T22:09:49.000",
    "date_modified": "2022-02-02T22:09:49.000",
    "request_status": "Pending",
    "responsible_agency": "Health Department",
    "final_address": "711 Bourbon St, New Orleans, Louisiana, 70116",
    "address_councildis": "C",
    "status": "Pending",
    "rowid": "858479",
    "final_x": "3682299.38447",
    "final_y": "532765.705988",
    "longitude": "-90.06550263299877",
    "latitude": "29.95889665479323",
    "geocoded_column": {
      "latitude": "29.95889665479323",
      "longitude": "-90.06550263299877"
    }
  },
  {
    "service_request": "2022-858478",
    "request_type": "Traffic Signals/Signs/Striping/Streetlights",
    "request_reason": "Street Name Sign Damaged or Missing",
    "date_created": "2022-02-02T22:04:31.000",
    "date_modified": "2022-02-02T22:04:31.000",
    "request_status": "Pending",
    "responsible_agency": "Department of Public Works",
    "final_address": "3730 Macarthur Blvd",
    "address_councildis": "C",
    "status": "Pending",
    "rowid": "858478",
    "final_x": "3697530.26461",
    "final_y": "520567.049016",
    "longitude": "-90.01784986004637",
    "latitude": "29.924882415011524",
    "geocoded_column": {
      "latitude": "29.924882415011524",
      "longitude": "-90.01784986004637"
    }
  },
  {
    "service_request": "2022-858477",
    "request_type": "Roads/Drainage",
    "request_reason": "Street Subsidence (Sinking)",
    "date_created": "2022-02-02T21:57:04.000",
    "date_modified": "2022-02-02T21:57:04.000",
    "request_status": "Pending",
    "responsible_agency": "Department of Public Works",
    "final_address": "3600 Macarthur Blvd",
    "address_councildis": "C",
    "status": "Pending",
    "rowid": "858477",
    "final_x": "3696646.56311",
    "final_y": "520712.840249",
    "longitude": "-90.02063412809346",
    "latitude": "29.925311157990585",
    "geocoded_column": {
      "latitude": "29.925311157990585",
      "longitude": "-90.02063412809346"
    }
  },
  {
    "service_request": "2022-858476",
    "request_type": "Roads/Drainage",
    "request_reason": "Street Subsidence (Sinking)",
    "date_created": "2022-02-02T21:55:13.000",
    "date_modified": "2022-02-02T21:55:13.000",
    "request_status": "Pending",
    "responsible_agency": "Department of Public Works",
    "final_address": "8720 Hickory St",
    "address_councildis": "A",
    "status": "Pending",
    "rowid": "858476",
    "final_x": "3661646.9481",
    "final_y": "531455.816195",
    "longitude": "-90.13076156623289",
    "latitude": "29.955907051901747",
    "geocoded_column": {
      "latitude": "29.955907051901747",
      "longitude": "-90.13076156623289"
    }
  },
  {
    "service_request": "2022-858475",
    "request_type": "Roads/Drainage",
    "request_reason": "Pothole",
    "date_created": "2022-02-02T21:37:43.000",
    "date_modified": "2022-02-02T21:37:43.000",
    "request_status": "Pending",
    "responsible_agency": "Department of Public Works",
    "final_address": "8722 Hickory St",
    "address_councildis": "A",
    "status": "Pending",
    "rowid": "858475",
    "final_x": "3661634.41203",
    "final_y": "531466.736899",
    "longitude": "-90.13080078909681",
    "latitude": "29.95593744207061",
    "geocoded_column": {
      "latitude": "29.95593744207061",
      "longitude": "-90.13080078909681"
    }
  },
  {
    "service_request": "2022-858474",
    "request_type": "Trash/Recycling",
    "request_reason": "Order Recycling Cart",
    "date_created": "2022-02-02T21:34:55.000",
    "date_modified": "2022-02-02T21:34:55.000",
    "request_status": "Pending",
    "responsible_agency": "Department of Sanitation",
    "final_address": "412 Octavia St",
    "address_councildis": "A",
    "status": "Pending",
    "rowid": "858474",
    "final_x": "3666141.48545",
    "final_y": "517669.44863",
    "longitude": "-90.11703141726298",
    "latitude": "29.917868477217628",
    "geocoded_column": {
      "latitude": "29.917868477217628",
      "longitude": "-90.11703141726298"
    }
  },
  {
    "service_request": "2022-858473",
    "request_type": "Roads/Drainage",
    "request_reason": "Pothole",
    "date_created": "2022-02-02T21:13:22.000",
    "date_modified": "2022-02-02T21:13:22.000",
    "request_status": "Pending",
    "responsible_agency": "Department of Public Works",
    "final_address": "1504 Reynes St",
    "address_councildis": "E",
    "status": "Pending",
    "rowid": "858473",
    "final_x": "3696326.59696",
    "final_y": "535843.190151",
    "longitude": "-90.02109718031419",
    "latitude": "29.966924426830293",
    "geocoded_column": {
      "latitude": "29.966924426830293",
      "longitude": "-90.02109718031419"
    }
  },
  {
    "service_request": "2022-858472",
    "request_type": "Traffic Signals/Signs/Striping/Streetlights",
    "request_reason": "Street Light Outage/Malfunction",
    "date_created": "2022-02-02T21:09:26.000",
    "date_modified": "2022-02-02T21:09:26.000",
    "request_status": "Pending",
    "responsible_agency": "Department of Public Works",
    "final_address": "6205 Pasteur Blvd",
    "address_councildis": "D",
    "status": "Pending",
    "contractor": "Royal Engineering",
    "rowid": "858472",
    "final_x": "3682813.84181",
    "final_y": "555810.080921",
    "longitude": "-90.06307140994726",
    "latitude": "30.022244859805564",
    "geocoded_column": {
      "latitude": "30.022244859805564",
      "longitude": "-90.06307140994726"
    }
  },
  {
    "service_request": "2022-858471",
    "request_type": "Trash/Recycling",
    "request_reason": "Illegal Dumping",
    "date_created": "2022-02-02T20:20:55.000",
    "date_modified": "2022-02-02T20:20:55.000",
    "request_status": "Pending",
    "responsible_agency": "Department of Sanitation",
    "final_address": "2340 St Thomas St",
    "address_councildis": "B",
    "status": "Pending",
    "rowid": "858471",
    "final_x": "3679418.44674",
    "final_y": "520161.495416",
    "longitude": "-90.07503697760096",
    "latitude": "29.92432659755044",
    "geocoded_column": {
      "latitude": "29.92432659755044",
      "longitude": "-90.07503697760096"
    }
  },
  {
    "service_request": "2022-858470",
    "request_type": "Trash/Recycling",
    "request_reason": "Request a Large Item Pick Up",
    "date_created": "2022-02-02T19:43:07.000",
    "date_modified": "2022-02-02T19:43:07.000",
    "request_status": "Pending",
    "responsible_agency": "Department of Sanitation",
    "final_address": "2116 Benefit St",
    "address_councildis": "D",
    "status": "Assigned to Contractor",
    "contractor": "Metro Disposal",
    "rowid": "858470",
    "final_x": "3683750.49218",
    "final_y": "544324.380559",
    "longitude": "-90.0605149668934",
    "latitude": "29.99063475295298",
    "geocoded_column": {
      "latitude": "29.99063475295298",
      "longitude": "-90.0605149668934"
    }
  },
  {
    "service_request": "2022-858469",
    "request_type": "Traffic Signals/Signs/Striping/Streetlights",
    "request_reason": "Street Light Outage/Malfunction",
    "date_created": "2022-02-02T19:24:58.000",
    "date_modified": "2022-02-02T19:24:59.000",
    "request_status": "Pending",
    "responsible_agency": "Department of Public Works",
    "final_address": "8712 Pritchard Pl",
    "address_councildis": "A",
    "status": "Pending",
    "contractor": "Royal Engineering",
    "rowid": "858469",
    "final_x": "3664349.92416",
    "final_y": "534389.459461",
    "longitude": "-90.12212854968506",
    "latitude": "29.963895332981178",
    "geocoded_column": {
      "latitude": "29.963895332981178",
      "longitude": "-90.12212854968506"
    }
  },
  {
    "service_request": "2022-858468",
    "request_type": "Trash/Recycling",
    "request_reason": "Replace Trash Cart",
    "date_created": "2022-02-02T19:15:57.000",
    "date_modified": "2022-02-02T19:15:58.000",
    "request_status": "Pending",
    "responsible_agency": "Department of Sanitation",
    "final_address": "4312 Fields St",
    "address_councildis": "C",
    "status": "Assigned to Contractor",
    "contractor": "Richards Disposal",
    "rowid": "858468",
    "final_x": "3707954.60971",
    "final_y": "514876.930867",
    "longitude": "-89.98515525704497",
    "latitude": "29.908903381442176",
    "geocoded_column": {
      "latitude": "29.908903381442176",
      "longitude": "-89.98515525704497"
    }
  },
  {
    "service_request": "2022-858467",
    "request_type": "Roads/Drainage",
    "request_reason": "Catch Basin - Clogged",
    "date_created": "2022-02-02T18:59:44.000",
    "date_modified": "2022-02-02T18:59:44.000",
    "request_status": "Pending",
    "responsible_agency": "Department of Public Works",
    "final_address": "4324 Banks St",
    "address_councildis": "A",
    "status": "Pending",
    "rowid": "858467",
    "final_x": "3669344.78292",
    "final_y": "538070.390409",
    "longitude": "-90.10623072626316",
    "latitude": "29.973870541032035",
    "geocoded_column": {
      "latitude": "29.973870541032035",
      "longitude": "-90.10623072626316"
    }
  },
  {
    "service_request": "2022-858466",
    "request_type": "COVID-19",
    "request_reason": "COVID-19 Business Non-Compliance",
    "date_created": "2022-02-02T18:53:22.000",
    "date_modified": "2022-02-02T18:53:23.000",
    "request_status": "Pending",
    "responsible_agency": "Safety and Permits",
    "final_address": "1320 Magazine St",
    "address_councildis": "B",
    "status": "Pending",
    "rowid": "858466",
    "final_x": "3680543.78203",
    "final_y": "525068.503165",
    "longitude": "-90.07131408243661",
    "latitude": "29.937785225779564",
    "geocoded_column": {
      "latitude": "29.937785225779564",
      "longitude": "-90.07131408243661"
    }
  },
  {
    "service_request": "2022-858465",
    "request_type": "Traffic Signals/Signs/Striping/Streetlights",
    "request_reason": "Traffic Sign Missing/Damaged",
    "date_created": "2022-02-02T18:49:21.000",
    "date_modified": "2022-02-02T18:49:21.000",
    "request_status": "Pending",
    "responsible_agency": "Department of Public Works",
    "final_address": "3635 St Bernard Ave",
    "address_councildis": "D",
    "status": "Pending",
    "rowid": "858465",
    "final_x": "3678292.34747",
    "final_y": "545587.644112",
    "longitude": "-90.07771217146738",
    "latitude": "29.994273866088363",
    "geocoded_column": {
      "latitude": "29.994273866088363",
      "longitude": "-90.07771217146738"
    }
  },
  {
    "service_request": "2022-858464",
    "request_type": "Property Maintenance",
    "request_reason": "Property Maintenance",
    "date_created": "2022-02-02T18:47:28.000",
    "date_modified": "2022-02-02T18:47:28.000",
    "request_status": "Pending",
    "responsible_agency": "Department of Code Enforcement",
    "final_address": "3039 N Galvez St",
    "address_councildis": "D",
    "status": "Pending",
    "rowid": "858464",
    "final_x": "3689726.63766",
    "final_y": "539872.926218",
    "longitude": "-90.04179635436185",
    "latitude": "29.978210958537975",
    "geocoded_column": {
      "latitude": "29.978210958537975",
      "longitude": "-90.04179635436185"
    }
  },
  {
    "service_request": "2022-858463",
    "request_type": "Abandoned Vehicles",
    "request_reason": "Abandoned/Junk Vehicles",
    "date_created": "2022-02-02T18:43:34.000",
    "date_modified": "2022-02-02T18:43:34.000",
    "request_status": "Pending",
    "responsible_agency": "Department of Public Works",
    "final_address": "8004 Danube Rd",
    "address_councildis": "E",
    "status": "Pending",
    "rowid": "858463",
    "final_x": "3698886.70544",
    "final_y": "561265.905886",
    "longitude": "-90.01208665506564",
    "latitude": "30.03674655322283",
    "geocoded_column": {
      "latitude": "30.03674655322283",
      "longitude": "-90.01208665506564"
    }
  },
  {
    "service_request": "2022-858462",
    "request_type": "Traffic Signals/Signs/Striping/Streetlights",
    "request_reason": "Street Light Outage/Malfunction",
    "date_created": "2022-02-02T18:42:38.000",
    "date_modified": "2022-02-02T18:42:39.000",
    "request_status": "Pending",
    "responsible_agency": "Department of Public Works",
    "final_address": "7001 Argonne Blvd",
    "address_councildis": "A",
    "status": "Pending",
    "contractor": "Royal Engineering",
    "rowid": "858462",
    "final_x": "3670831.58932",
    "final_y": "553889.032535",
    "longitude": "-90.10099775075899",
    "latitude": "30.0173224626137",
    "geocoded_column": {
      "latitude": "30.0173224626137",
      "longitude": "-90.10099775075899"
    }
  },
  {
    "service_request": "2022-858460",
    "request_type": "Property Maintenance",
    "request_reason": "Property Maintenance",
    "date_created": "2022-02-02T18:24:05.000",
    "date_modified": "2022-02-02T18:24:05.000",
    "request_status": "Pending",
    "responsible_agency": "Department of Code Enforcement",
    "final_address": "517 Huntlee Dr",
    "address_councildis": "C",
    "status": "Pending",
    "rowid": "858460",
    "final_x": "3701786.64919",
    "final_y": "521358.755961",
    "longitude": "-90.00438496100584",
    "latitude": "29.926924285576884",
    "geocoded_column": {
      "latitude": "29.926924285576884",
      "longitude": "-90.00438496100584"
    }
  },
  {
    "service_request": "2022-858459",
    "request_type": "Traffic Signals/Signs/Striping/Streetlights",
    "request_reason": "Traffic Signal Malfunctioning/Damaged",
    "date_created": "2022-02-02T18:19:33.000",
    "date_modified": "2022-02-02T18:19:34.000",
    "case_close_date": "2020-04-23T19:00:00.000",
    "request_status": "Pending",
    "responsible_agency": "Department of Public Works",
    "final_address": "2200 General De Gaulle Dr",
    "address_councildis": "C",
    "status": "Pending",
    "rowid": "858459",
    "final_x": "3691656.79664",
    "final_y": "522755.564154",
    "longitude": "-90.03631219937587",
    "latitude": "29.93108419780775",
    "geocoded_column": {
      "latitude": "29.93108419780775",
      "longitude": "-90.03631219937587"
    }
  },
  {
    "service_request": "2022-858458",
    "request_type": "Abandoned Vehicles",
    "request_reason": "Abandoned/Junk Vehicles",
    "date_created": "2022-02-02T18:03:22.000",
    "date_modified": "2022-02-02T18:03:22.000",
    "request_status": "Pending",
    "responsible_agency": "Department of Public Works",
    "final_address": "1818 St Philip St",
    "address_councildis": "D",
    "status": "Pending",
    "rowid": "858458",
    "final_x": "3679994.65781",
    "final_y": "535786.977607",
    "longitude": "-90.07267541210642",
    "latitude": "29.967274039920863",
    "geocoded_column": {
      "latitude": "29.967274039920863",
      "longitude": "-90.07267541210642"
    }
  },
  {
    "service_request": "2022-858456",
    "request_type": "Abandoned Vehicles",
    "request_reason": "Abandoned/Junk Vehicles",
    "date_created": "2022-02-02T17:55:27.000",
    "date_modified": "2022-02-02T17:55:27.000",
    "request_status": "Pending",
    "responsible_agency": "Department of Public Works",
    "final_address": "3019 Dryades St",
    "address_councildis": "B",
    "status": "Pending",
    "rowid": "858456",
    "final_x": "3674482.99604",
    "final_y": "522938.900411",
    "longitude": "-90.09052141694757",
    "latitude": "29.93211166885501",
    "geocoded_column": {
      "latitude": "29.93211166885501",
      "longitude": "-90.09052141694757"
    }
  },
  {
    "service_request": "2022-858455",
    "request_type": "Trash/Recycling",
    "request_reason": "Request a Large Item Pick Up",
    "date_created": "2022-02-02T17:39:29.000",
    "date_modified": "2022-02-02T17:39:30.000",
    "request_status": "Pending",
    "responsible_agency": "Department of Sanitation",
    "final_address": "2709 Dante St",
    "address_councildis": "A",
    "status": "Assigned to Contractor",
    "contractor": "Richards Disposal",
    "rowid": "858455",
    "final_x": "3665146.54861",
    "final_y": "532893.549188",
    "longitude": "-90.11966291019277",
    "latitude": "29.959758892483418",
    "geocoded_column": {
      "latitude": "29.959758892483418",
      "longitude": "-90.11966291019277"
    }
  },
  {
    "service_request": "2022-858453",
    "request_type": "Traffic Signals/Signs/Striping/Streetlights",
    "request_reason": "Street Light Outage/Malfunction",
    "date_created": "2022-02-02T17:34:23.000",
    "date_modified": "2022-02-02T17:34:24.000",
    "request_status": "Pending",
    "responsible_agency": "Department of Public Works",
    "final_address": "2650 Athis St",
    "address_councildis": "D",
    "status": "Pending",
    "contractor": "Royal Engineering",
    "rowid": "858453",
    "final_x": "3686995.04258",
    "final_y": "554453.007512",
    "longitude": "-90.04990790713249",
    "latitude": "30.018385296142696",
    "geocoded_column": {
      "latitude": "30.018385296142696",
      "longitude": "-90.04990790713249"
    }
  },
  {
    "service_request": "2022-858452",
    "request_type": "Traffic Signals/Signs/Striping/Streetlights",
    "request_reason": "Street Light Outage/Malfunction",
    "date_created": "2022-02-02T17:25:29.000",
    "date_modified": "2022-02-02T17:25:30.000",
    "request_status": "Pending",
    "responsible_agency": "Department of Public Works",
    "final_address": "GENERAL DE GAULLE DR & HOV",
    "address_councildis": "C",
    "status": "Pending",
    "contractor": "Royal Engineering",
    "rowid": "858452",
    "final_x": "3691123.06",
    "final_y": "522510.33",
    "longitude": "-90.03800588086021",
    "latitude": "29.93042648830266",
    "geocoded_column": {
      "latitude": "29.93042648830266",
      "longitude": "-90.03800588086021"
    }
  },
  {
    "service_request": "2022-858451",
    "request_type": "Trash/Recycling",
    "request_reason": "Missed Trash Pick-Up",
    "date_created": "2022-02-02T17:19:40.000",
    "date_modified": "2022-02-02T17:27:58.000",
    "request_status": "Pending",
    "responsible_agency": "Department of Sanitation",
    "final_address": "93 Versailles Blvd",
    "address_councildis": "B",
    "status": "Assigned to Contractor",
    "contractor": "Richards Disposal",
    "rowid": "858451",
    "final_x": "3668108.01537",
    "final_y": "530946.239234",
    "longitude": "-90.11037686422841",
    "latitude": "29.95431784696351",
    "geocoded_column": {
      "latitude": "29.95431784696351",
      "longitude": "-90.11037686422841"
    }
  },
  {
    "service_request": "2022-858450",
    "request_type": "Roads/Drainage",
    "request_reason": "Catch Basin - Clogged",
    "date_created": "2022-02-02T17:17:23.000",
    "date_modified": "2022-02-02T17:17:23.000",
    "request_status": "Pending",
    "responsible_agency": "Department of Public Works",
    "final_address": "2117 Decatur St",
    "address_councildis": "C",
    "status": "Pending",
    "rowid": "858450",
    "final_x": "3684912.56501",
    "final_y": "534161.688709",
    "longitude": "-90.05720178901834",
    "latitude": "29.962655364998326",
    "geocoded_column": {
      "latitude": "29.962655364998326",
      "longitude": "-90.05720178901834"
    }
  },
  {
    "service_request": "2022-858449",
    "request_type": "Trash/Recycling",
    "request_reason": "Order Trash Cart",
    "date_created": "2022-02-02T17:17:05.000",
    "date_modified": "2022-02-02T17:17:06.000",
    "request_status": "Pending",
    "responsible_agency": "Department of Sanitation",
    "final_address": "1006 Broadway St",
    "address_councildis": "A",
    "status": "Assigned to Contractor",
    "contractor": "Richards Disposal",
    "rowid": "858449",
    "final_x": "3663780.66266",
    "final_y": "526004.855165",
    "longitude": "-90.12420563467364",
    "latitude": "29.94085691626868",
    "geocoded_column": {
      "latitude": "29.94085691626868",
      "longitude": "-90.12420563467364"
    }
  },
  {
    "service_request": "2022-858448",
    "request_type": "Mayor's Request",
    "request_reason": "Requests to the Mayor",
    "date_created": "2022-02-02T17:17:03.000",
    "date_modified": "2022-02-02T17:17:03.000",
    "request_status": "Pending",
    "responsible_agency": "Executive Office of the Mayor",
    "status": "Pending",
    "rowid": "858448",
    "longitude": "0.0",
    "latitude": "0.0",
    "geocoded_column": {
      "latitude": "0.0",
      "longitude": "0.0"
    }
  },
  {
    "service_request": "2022-858447",
    "request_type": "Roads/Drainage",
    "request_reason": "Catch Basin - Clogged",
    "date_created": "2022-02-02T17:16:40.000",
    "date_modified": "2022-02-02T17:16:40.000",
    "request_status": "Pending",
    "responsible_agency": "Department of Public Works",
    "final_address": "2117 Decatur St",
    "address_councildis": "C",
    "status": "Pending",
    "rowid": "858447",
    "final_x": "3684912.56501",
    "final_y": "534161.688709",
    "longitude": "-90.05720178901834",
    "latitude": "29.962655364998326",
    "geocoded_column": {
      "latitude": "29.962655364998326",
      "longitude": "-90.05720178901834"
    }
  },
  {
    "service_request": "2022-858446",
    "request_type": "Roads/Drainage",
    "request_reason": "Catch Basin - Clogged",
    "date_created": "2022-02-02T17:16:13.000",
    "date_modified": "2022-02-02T17:16:13.000",
    "request_status": "Pending",
    "responsible_agency": "Department of Public Works",
    "final_address": "2117 Decatur St",
    "address_councildis": "C",
    "status": "Pending",
    "rowid": "858446",
    "final_x": "3684912.56501",
    "final_y": "534161.688709",
    "longitude": "-90.05720178901834",
    "latitude": "29.962655364998326",
    "geocoded_column": {
      "latitude": "29.962655364998326",
      "longitude": "-90.05720178901834"
    }
  },
  {
    "service_request": "2022-858445",
    "request_type": "Roads/Drainage",
    "request_reason": "Catch Basin - Clogged",
    "date_created": "2022-02-02T17:15:39.000",
    "date_modified": "2022-02-02T17:15:39.000",
    "request_status": "Pending",
    "responsible_agency": "Department of Public Works",
    "final_address": "2117 Decatur St",
    "address_councildis": "C",
    "status": "Pending",
    "rowid": "858445",
    "final_x": "3684912.56501",
    "final_y": "534161.688709",
    "longitude": "-90.05720178901834",
    "latitude": "29.962655364998326",
    "geocoded_column": {
      "latitude": "29.962655364998326",
      "longitude": "-90.05720178901834"
    }
  },
  {
    "service_request": "2022-858444",
    "request_type": "Trash/Recycling",
    "request_reason": "Request a Large Item Pick Up",
    "date_created": "2022-02-02T17:08:59.000",
    "date_modified": "2022-02-02T17:09:00.000",
    "request_status": "Pending",
    "responsible_agency": "Department of Sanitation",
    "final_address": "5600 Macarthur Blvd",
    "address_councildis": "C",
    "status": "Assigned to Contractor",
    "contractor": "Richards Disposal",
    "rowid": "858444",
    "final_x": "3704201.42455",
    "final_y": "519610.672184",
    "longitude": "-89.99682657624919",
    "latitude": "29.922040432242518",
    "geocoded_column": {
      "latitude": "29.922040432242518",
      "longitude": "-89.99682657624919"
    }
  },
  {
    "service_request": "2022-858443",
    "request_type": "Abandoned Vehicles",
    "request_reason": "Abandoned/Junk Vehicles",
    "date_created": "2022-02-02T17:07:37.000",
    "date_modified": "2022-02-02T17:07:37.000",
    "request_status": "Pending",
    "responsible_agency": "Department of Public Works",
    "final_address": "11413 Maxine Dr",
    "address_councildis": "E",
    "status": "Pending",
    "rowid": "858443",
    "final_x": "3718473.85541",
    "final_y": "560651.536606",
    "longitude": "-89.95021129706048",
    "latitude": "30.03442172195074",
    "geocoded_column": {
      "latitude": "30.03442172195074",
      "longitude": "-89.95021129706048"
    }
  },
  {
    "service_request": "2022-858442",
    "request_type": "Trash/Recycling",
    "request_reason": "Request a Large Item Pick Up",
    "date_created": "2022-02-02T17:04:58.000",
    "date_modified": "2022-02-02T17:04:59.000",
    "request_status": "Pending",
    "responsible_agency": "Department of Sanitation",
    "final_address": "606 River Oaks Dr",
    "address_councildis": "C",
    "status": "Assigned to Contractor",
    "contractor": "Richards Disposal",
    "rowid": "858442",
    "final_x": "3701548.90692",
    "final_y": "520643.895993",
    "longitude": "-90.00516160243147",
    "latitude": "29.924966247140727",
    "geocoded_column": {
      "latitude": "29.924966247140727",
      "longitude": "-90.00516160243147"
    }
  },
  {
    "service_request": "2022-858441",
    "request_type": "Trash/Recycling",
    "request_reason": "Missed Trash Pick-Up",
    "date_created": "2022-02-02T16:59:31.000",
    "date_modified": "2022-02-02T16:59:32.000",
    "request_status": "Pending",
    "responsible_agency": "Department of Sanitation",
    "final_address": "312 Millaudon St",
    "address_councildis": "A",
    "status": "Assigned to Contractor",
    "contractor": "Richards Disposal",
    "rowid": "858441",
    "final_x": "3661489.73344",
    "final_y": "524246.306812",
    "longitude": "-90.13149677497022",
    "latitude": "29.936087738136585",
    "geocoded_column": {
      "latitude": "29.936087738136585",
      "longitude": "-90.13149677497022"
    }
  },
  {
    "service_request": "2022-858440",
    "request_type": "Traffic Signals/Signs/Striping/Streetlights",
    "request_reason": "Traffic Sign Missing/Damaged",
    "date_created": "2022-02-02T16:56:08.000",
    "date_modified": "2022-02-02T16:56:08.000",
    "request_status": "Pending",
    "responsible_agency": "Department of Public Works",
    "final_address": "830 Elysian Fields Ave",
    "address_councildis": "C",
    "status": "Pending",
    "rowid": "858440",
    "final_x": "3684981.09186",
    "final_y": "535465.982918",
    "longitude": "-90.05693951010414",
    "latitude": "29.966239624789313",
    "geocoded_column": {
      "latitude": "29.966239624789313",
      "longitude": "-90.05693951010414"
    }
  },
  {
    "service_request": "2022-858439",
    "request_type": "Trash/Recycling",
    "request_reason": "Order Recycling Cart",
    "date_created": "2022-02-02T16:53:15.000",
    "date_modified": "2022-02-02T16:53:15.000",
    "request_status": "Pending",
    "responsible_agency": "Department of Sanitation",
    "final_address": "331 Elmira Ave",
    "address_councildis": "C",
    "status": "Pending",
    "rowid": "858439",
    "final_x": "3688192.22223",
    "final_y": "530496.902466",
    "longitude": "-90.04697501896509",
    "latitude": "29.9524776280376",
    "geocoded_column": {
      "latitude": "29.9524776280376",
      "longitude": "-90.04697501896509"
    }
  },
  {
    "service_request": "2022-858438",
    "request_type": "Trash/Recycling",
    "request_reason": "Missed Trash Pick-Up",
    "date_created": "2022-02-02T16:52:01.000",
    "date_modified": "2022-02-02T16:52:01.000",
    "request_status": "Pending",
    "responsible_agency": "Department of Sanitation",
    "final_address": "6652 Manchester St",
    "address_councildis": "E",
    "status": "Assigned to Contractor",
    "contractor": "Metro Disposal",
    "rowid": "858438",
    "final_x": "3697787.16656",
    "final_y": "559586.014621",
    "longitude": "-90.01562246297765",
    "latitude": "30.03216231597736",
    "geocoded_column": {
      "latitude": "30.03216231597736",
      "longitude": "-90.01562246297765"
    }
  },
  {
    "service_request": "2022-858437",
    "request_type": "Traffic Signals/Signs/Striping/Streetlights",
    "request_reason": "Traffic Sign Missing/Damaged",
    "date_created": "2022-02-02T16:42:15.000",
    "date_modified": "2022-02-02T16:42:15.000",
    "request_status": "Pending",
    "responsible_agency": "Department of Public Works",
    "final_address": "11400 N Easterlyn Cir",
    "address_councildis": "E",
    "status": "Pending",
    "rowid": "858437",
    "final_x": "3718217.46405",
    "final_y": "560665.27555",
    "longitude": "-89.95102099563032",
    "latitude": "30.034468005661754",
    "geocoded_column": {
      "latitude": "30.034468005661754",
      "longitude": "-89.95102099563032"
    }
  },
  {
    "service_request": "2022-858436",
    "request_type": "Roads/Drainage",
    "request_reason": "Catch Basin - Clogged",
    "date_created": "2022-02-02T16:41:27.000",
    "date_modified": "2022-02-02T17:14:52.000",
    "request_status": "Pending",
    "responsible_agency": "Department of Public Works",
    "final_address": "New Orleans,LA",
    "address_councildis": "C",
    "rowid": "858436",
    "final_x": "3684912.56501",
    "final_y": "534161.688709",
    "longitude": "-90.05720178901834",
    "latitude": "29.962655364998326",
    "geocoded_column": {
      "latitude": "29.962655364998326",
      "longitude": "-90.05720178901834"
    }
  },
  {
    "service_request": "2022-858435",
    "request_type": "Trash/Recycling",
    "request_reason": "Replace Trash Cart",
    "date_created": "2022-02-02T16:39:33.000",
    "date_modified": "2022-02-02T16:39:34.000",
    "request_status": "Pending",
    "responsible_agency": "Department of Sanitation",
    "final_address": "832 Hidalgo St",
    "address_councildis": "A",
    "status": "Assigned to Contractor",
    "contractor": "Metro Disposal",
    "rowid": "858435",
    "final_x": "3669062.37658",
    "final_y": "544001.760206",
    "longitude": "-90.10692213273462",
    "latitude": "29.990188108314793",
    "geocoded_column": {
      "latitude": "29.990188108314793",
      "longitude": "-90.10692213273462"
    }
  },
  {
    "service_request": "2022-858434",
    "request_type": "Trash/Recycling",
    "request_reason": "Replace Trash Cart",
    "date_created": "2022-02-02T16:19:48.000",
    "date_modified": "2022-02-02T16:19:48.000",
    "request_status": "Pending",
    "responsible_agency": "Department of Sanitation",
    "final_address": "2401 Comet St",
    "address_councildis": "C",
    "status": "Assigned to Contractor",
    "contractor": "Richards Disposal",
    "rowid": "858434",
    "final_x": "3700006.54372",
    "final_y": "522014.008058",
    "longitude": "-90.00998035901436",
    "latitude": "29.928782651802027",
    "geocoded_column": {
      "latitude": "29.928782651802027",
      "longitude": "-90.00998035901436"
    }
  },
  {
    "service_request": "2022-858433",
    "request_type": "Traffic Signals/Signs/Striping/Streetlights",
    "request_reason": "Street Light Outage/Malfunction",
    "date_created": "2022-02-02T16:12:24.000",
    "date_modified": "2022-02-02T16:12:24.000",
    "request_status": "Pending",
    "responsible_agency": "Department of Public Works",
    "final_address": "1324 S Carrollton Ave",
    "address_councildis": "A",
    "status": "Pending",
    "contractor": "Royal Engineering",
    "rowid": "858433",
    "final_x": "3662289.11911",
    "final_y": "528738.178944",
    "longitude": "-90.12882401038713",
    "latitude": "29.948415877432865",
    "geocoded_column": {
      "latitude": "29.948415877432865",
      "longitude": "-90.12882401038713"
    }
  },
  {
    "service_request": "2022-858432",
    "request_type": "Trash/Recycling",
    "request_reason": "Missed Trash Pick-Up",
    "date_created": "2022-02-02T16:09:08.000",
    "date_modified": "2022-02-02T16:09:09.000",
    "request_status": "Pending",
    "responsible_agency": "Department of Sanitation",
    "final_address": "2012 Marengo St",
    "address_councildis": "B",
    "status": "Assigned to Contractor",
    "contractor": "Richards Disposal",
    "rowid": "858432",
    "final_x": "3671740.07591",
    "final_y": "522588.78425",
    "longitude": "-90.0991924659572",
    "latitude": "29.93123048139746",
    "geocoded_column": {
      "latitude": "29.93123048139746",
      "longitude": "-90.0991924659572"
    }
  },
  {
    "service_request": "2022-858431",
    "request_type": "Traffic Signals/Signs/Striping/Streetlights",
    "request_reason": "Street Light Outage/Malfunction",
    "date_created": "2022-02-02T16:03:56.000",
    "date_modified": "2022-02-02T16:03:57.000",
    "request_status": "Pending",
    "responsible_agency": "Department of Public Works",
    "final_address": "5762 Pasteur Blvd",
    "address_councildis": "D",
    "status": "Pending",
    "contractor": "Royal Engineering",
    "rowid": "858431",
    "final_x": "3682664.0054",
    "final_y": "554565.561688",
    "longitude": "-90.06358843151075",
    "latitude": "30.018827454831058",
    "geocoded_column": {
      "latitude": "30.018827454831058",
      "longitude": "-90.06358843151075"
    }
  },
  {
    "service_request": "2022-858430",
    "request_type": "Trash/Recycling",
    "request_reason": "Order Recycling Cart",
    "date_created": "2022-02-02T16:01:09.000",
    "date_modified": "2022-02-02T16:01:09.000",
    "request_status": "Pending",
    "responsible_agency": "Department of Sanitation",
    "final_address": "1304 Clouet St",
    "address_councildis": "C",
    "status": "Pending",
    "rowid": "858430",
    "final_x": "3689168.31286",
    "final_y": "536809.8322",
    "longitude": "-90.04366862553789",
    "latitude": "29.96980582288322",
    "geocoded_column": {
      "latitude": "29.96980582288322",
      "longitude": "-90.04366862553789"
    }
  },
  {
    "service_request": "2022-858429",
    "request_type": "Trash/Recycling",
    "request_reason": "Missed Trash Pick-Up",
    "date_created": "2022-02-02T15:59:17.000",
    "date_modified": "2022-02-02T15:59:18.000",
    "request_status": "Pending",
    "responsible_agency": "Department of Sanitation",
    "final_address": "1304 Clouet St",
    "address_councildis": "C",
    "status": "Assigned to Contractor",
    "contractor": "Metro Disposal",
    "rowid": "858429",
    "final_x": "3689168.31286",
    "final_y": "536809.8322",
    "longitude": "-90.04366862553789",
    "latitude": "29.96980582288322",
    "geocoded_column": {
      "latitude": "29.96980582288322",
      "longitude": "-90.04366862553789"
    }
  },
  {
    "service_request": "2022-858428",
    "request_type": "COVID-19",
    "request_reason": "COVID-19 Business Non-Compliance",
    "date_created": "2022-02-02T15:57:15.000",
    "date_modified": "2022-02-02T15:57:40.000",
    "request_status": "Pending",
    "responsible_agency": "Safety and Permits",
    "final_address": "1100 S Claiborne Ave",
    "address_councildis": "B",
    "status": "Pending",
    "rowid": "858428",
    "final_x": "3675695.8084",
    "final_y": "528824.223488",
    "longitude": "-90.08649051442099",
    "latitude": "29.948258147692556",
    "geocoded_column": {
      "latitude": "29.948258147692556",
      "longitude": "-90.08649051442099"
    }
  },
  {
    "service_request": "2022-858427",
    "request_type": "Trash/Recycling",
    "request_reason": "MIssed Recycling Pick-Up",
    "date_created": "2022-02-02T15:54:16.000",
    "date_modified": "2022-02-02T15:54:17.000",
    "request_status": "Pending",
    "responsible_agency": "Department of Sanitation",
    "final_address": "1618 S Liberty St",
    "address_councildis": "B",
    "status": "Assigned to Contractor",
    "contractor": "Richards Disposal",
    "rowid": "858427",
    "final_x": "3676745.19873",
    "final_y": "526531.537982",
    "longitude": "-90.08325613022687",
    "latitude": "29.941922581934552",
    "geocoded_column": {
      "latitude": "29.941922581934552",
      "longitude": "-90.08325613022687"
    }
  },
  {
    "service_request": "2022-858426",
    "request_type": "Trash/Recycling",
    "request_reason": "Start Trash Service",
    "date_created": "2022-02-02T15:50:53.000",
    "date_modified": "2022-02-02T15:50:54.000",
    "request_status": "Pending",
    "responsible_agency": "Department of Sanitation",
    "final_address": "6359 Catina St",
    "address_councildis": "A",
    "status": "Assigned to Contractor",
    "contractor": "Metro Disposal",
    "rowid": "858426",
    "final_x": "3667006.43783",
    "final_y": "549998.077396",
    "longitude": "-90.1132146416542",
    "latitude": "30.00673626128782",
    "geocoded_column": {
      "latitude": "30.00673626128782",
      "longitude": "-90.1132146416542"
    }
  },
  {
    "service_request": "2022-858425",
    "request_type": "Trash/Recycling",
    "request_reason": "Order Trash Cart",
    "date_created": "2022-02-02T15:50:43.000",
    "date_modified": "2022-02-02T15:50:44.000",
    "request_status": "Pending",
    "responsible_agency": "Department of Sanitation",
    "final_address": "6359 Catina St",
    "address_councildis": "A",
    "status": "Assigned to Contractor",
    "contractor": "Metro Disposal",
    "rowid": "858425",
    "final_x": "3667006.43783",
    "final_y": "549998.077396",
    "longitude": "-90.1132146416542",
    "latitude": "30.00673626128782",
    "geocoded_column": {
      "latitude": "30.00673626128782",
      "longitude": "-90.1132146416542"
    }
  },
  {
    "service_request": "2022-858424",
    "request_type": "Trash/Recycling",
    "request_reason": "Order Trash Cart",
    "date_created": "2022-02-02T15:50:42.000",
    "date_modified": "2022-02-02T15:50:43.000",
    "request_status": "Pending",
    "responsible_agency": "Department of Sanitation",
    "final_address": "3118 Hollygrove St",
    "address_councildis": "A",
    "status": "Assigned to Contractor",
    "contractor": "Richards Disposal",
    "rowid": "858424",
    "final_x": "3664259.89108",
    "final_y": "535673.215495",
    "longitude": "-90.12237002300922",
    "latitude": "29.967427856363646",
    "geocoded_column": {
      "latitude": "29.967427856363646",
      "longitude": "-90.12237002300922"
    }
  },
  {
    "service_request": "2022-858423",
    "request_type": "Traffic Signals/Signs/Striping/Streetlights",
    "request_reason": "Traffic Sign Missing/Damaged",
    "date_created": "2022-02-02T15:49:16.000",
    "date_modified": "2022-02-02T15:49:16.000",
    "request_status": "Pending",
    "responsible_agency": "Department of Public Works",
    "final_address": "4000 Macarthur Blvd",
    "address_councildis": "C",
    "status": "Pending",
    "rowid": "858423",
    "final_x": "3698398.51748",
    "final_y": "520532.278776",
    "longitude": "-90.01511034989466",
    "latitude": "29.924759371532485",
    "geocoded_column": {
      "latitude": "29.924759371532485",
      "longitude": "-90.01511034989466"
    }
  },
  {
    "service_request": "2022-858421",
    "request_type": "Trash/Recycling",
    "request_reason": "Request a Large Item Pick Up",
    "date_created": "2022-02-02T15:39:33.000",
    "date_modified": "2022-02-02T15:39:34.000",
    "request_status": "Pending",
    "responsible_agency": "Department of Sanitation",
    "final_address": "4217 Fontainebleau Dr",
    "address_councildis": "B",
    "status": "Assigned to Contractor",
    "contractor": "Richards Disposal",
    "rowid": "858421",
    "final_x": "3669694.10593",
    "final_y": "529340.321793",
    "longitude": "-90.10542294672956",
    "latitude": "29.949855458162762",
    "geocoded_column": {
      "latitude": "29.949855458162762",
      "longitude": "-90.10542294672956"
    }
  },
  {
    "service_request": "2022-858420",
    "request_type": "Roads/Drainage",
    "request_reason": "Catch Basin - Clogged",
    "date_created": "2022-02-02T15:39:18.000",
    "date_modified": "2022-02-02T15:39:18.000",
    "request_status": "Pending",
    "responsible_agency": "Department of Public Works",
    "final_address": "2601 Napoleon Ave",
    "address_councildis": "B",
    "status": "Pending",
    "rowid": "858420",
    "final_x": "3670589.00411",
    "final_y": "524431.994172",
    "longitude": "-90.10276377146891",
    "latitude": "29.936332754830605",
    "geocoded_column": {
      "latitude": "29.936332754830605",
      "longitude": "-90.10276377146891"
    }
  },
  {
    "service_request": "2022-858419",
    "request_type": "Trash/Recycling",
    "request_reason": "Missed Trash Pick-Up",
    "date_created": "2022-02-02T15:38:53.000",
    "date_modified": "2022-02-02T15:38:54.000",
    "request_status": "Pending",
    "responsible_agency": "Department of Sanitation",
    "final_address": "11511 Morrison Rd",
    "address_councildis": "E",
    "status": "Assigned to Contractor",
    "contractor": "Metro Disposal",
    "rowid": "858419",
    "final_x": "3712545.59979",
    "final_y": "566033.916643",
    "longitude": "-89.96874265081156",
    "latitude": "30.04941652807791",
    "geocoded_column": {
      "latitude": "30.04941652807791",
      "longitude": "-89.96874265081156"
    }
  },
  {
    "service_request": "2022-858418",
    "request_type": "Trash/Recycling",
    "request_reason": "Request a Large Item Pick Up",
    "date_created": "2022-02-02T15:37:37.000",
    "date_modified": "2022-02-02T15:37:39.000",
    "request_status": "Pending",
    "responsible_agency": "Department of Sanitation",
    "final_address": "729 Eighth St",
    "address_councildis": "B",
    "status": "Assigned to Contractor",
    "contractor": "Richards Disposal",
    "rowid": "858418",
    "final_x": "3676852.72392",
    "final_y": "519179.752759",
    "longitude": "-90.0831698942741",
    "latitude": "29.921704346141336",
    "geocoded_column": {
      "latitude": "29.921704346141336",
      "longitude": "-90.0831698942741"
    }
  },
  {
    "service_request": "2022-858417",
    "request_type": "Property Maintenance",
    "request_reason": "Property Maintenance",
    "date_created": "2022-02-02T15:35:46.000",
    "date_modified": "2022-02-02T15:35:46.000",
    "request_status": "Pending",
    "responsible_agency": "Department of Code Enforcement",
    "final_address": "3818 Iroquois St",
    "address_councildis": "D",
    "status": "Pending",
    "rowid": "858417",
    "final_x": "3689079.84924",
    "final_y": "547437.780625",
    "longitude": "-90.04357020297597",
    "latitude": "29.99903162482031",
    "geocoded_column": {
      "latitude": "29.99903162482031",
      "longitude": "-90.04357020297597"
    }
  },
  {
    "service_request": "2022-858415",
    "request_type": "Roads/Drainage",
    "request_reason": "Street Subsidence (Sinking)",
    "date_created": "2022-02-02T15:19:54.000",
    "date_modified": "2022-02-02T15:20:35.000",
    "request_status": "Pending",
    "responsible_agency": "Department of Public Works",
    "final_address": "2277 Leon C Simon Dr",
    "address_councildis": "D",
    "status": "Pending",
    "rowid": "858415",
    "final_x": "3684033.78364",
    "final_y": "557058.801818",
    "longitude": "-90.05917282523626",
    "latitude": "30.025641138244737",
    "geocoded_column": {
      "latitude": "30.025641138244737",
      "longitude": "-90.05917282523626"
    }
  },
  {
    "service_request": "2022-858414",
    "request_type": "Trash/Recycling",
    "request_reason": "Replace Trash Cart",
    "date_created": "2022-02-02T15:19:39.000",
    "date_modified": "2022-02-02T15:19:40.000",
    "request_status": "Pending",
    "responsible_agency": "Department of Sanitation",
    "final_address": "2835 General Taylor St",
    "address_councildis": "B",
    "status": "Assigned to Contractor",
    "contractor": "Richards Disposal",
    "rowid": "858414",
    "final_x": "3671638.4418",
    "final_y": "525504.964029",
    "longitude": "-90.09941417595317",
    "latitude": "29.93925204242322",
    "geocoded_column": {
      "latitude": "29.93925204242322",
      "longitude": "-90.09941417595317"
    }
  },
  {
    "service_request": "2022-858413",
    "request_type": "Traffic Signals/Signs/Striping/Streetlights",
    "request_reason": "Street Light Outage/Malfunction",
    "date_created": "2022-02-02T15:12:02.000",
    "date_modified": "2022-02-02T15:12:03.000",
    "request_status": "Pending",
    "responsible_agency": "Department of Public Works",
    "final_address": "1700 BLK N DuprÃ© St",
    "address_councildis": "D",
    "status": "Pending",
    "contractor": "Royal Engineering",
    "rowid": "858413",
    "final_x": "3679074.25763",
    "final_y": "541341.041777",
    "longitude": "-90.07538948942778",
    "latitude": "29.98257361374168",
    "geocoded_column": {
      "latitude": "29.98257361374168",
      "longitude": "-90.07538948942778"
    }
  },
  {
    "service_request": "2022-858411",
    "request_type": "Roads/Drainage",
    "request_reason": "Pothole",
    "date_created": "2022-02-02T15:01:54.000",
    "date_modified": "2022-02-02T15:01:55.000",
    "request_status": "Pending",
    "responsible_agency": "Department of Public Works",
    "final_address": "DOMINICAN ST & AUDUBON ST",
    "address_councildis": "A",
    "status": "Pending",
    "rowid": "858411",
    "final_x": "3662864.6",
    "final_y": "524010.08",
    "longitude": "-90.12716411497595",
    "latitude": "29.935398465733982",
    "geocoded_column": {
      "latitude": "29.935398465733982",
      "longitude": "-90.12716411497595"
    }
  },
  {
    "service_request": "2022-858410",
    "request_type": "Trash/Recycling",
    "request_reason": "Request a Large Item Pick Up",
    "date_created": "2022-02-02T14:57:40.000",
    "date_modified": "2022-02-02T14:57:41.000",
    "request_status": "Pending",
    "responsible_agency": "Department of Sanitation",
    "final_address": "3111 Sullen Pl",
    "address_councildis": "C",
    "status": "Assigned to Contractor",
    "contractor": "Richards Disposal",
    "rowid": "858410",
    "final_x": "3707735.68836",
    "final_y": "519289.151735",
    "longitude": "-89.98568241996712",
    "latitude": "29.92104253899222",
    "geocoded_column": {
      "latitude": "29.92104253899222",
      "longitude": "-89.98568241996712"
    }
  },
  {
    "service_request": "2022-858409",
    "request_type": "Abandoned Vehicles",
    "request_reason": "Abandoned/Junk Vehicles",
    "date_created": "2022-02-02T14:54:44.000",
    "date_modified": "2022-02-02T14:54:44.000",
    "request_status": "Pending",
    "responsible_agency": "Department of Public Works",
    "final_address": "530 Webster St",
    "address_councildis": "A",
    "status": "Pending",
    "rowid": "858409",
    "final_x": "3663817.43168",
    "final_y": "518708.360695",
    "longitude": "-90.12433260937108",
    "latitude": "29.9207927911165",
    "geocoded_column": {
      "latitude": "29.9207927911165",
      "longitude": "-90.12433260937108"
    }
  },
  {
    "service_request": "2022-858408",
    "request_type": "Roads/Drainage",
    "request_reason": "Damaged Sidewalk",
    "date_created": "2022-02-02T14:54:23.000",
    "date_modified": "2022-02-02T14:54:23.000",
    "request_status": "Pending",
    "responsible_agency": "Department of Public Works",
    "final_address": "3643 Franklin Ave",
    "address_councildis": "D",
    "status": "Pending",
    "rowid": "858408",
    "final_x": "3687200.34562",
    "final_y": "546460.220113",
    "longitude": "-90.04954217347279",
    "latitude": "29.996401723085338",
    "geocoded_column": {
      "latitude": "29.996401723085338",
      "longitude": "-90.04954217347279"
    }
  },
  {
    "service_request": "2022-858406",
    "request_type": "Trash/Recycling",
    "request_reason": "Request a Large Item Pick Up",
    "date_created": "2022-02-02T14:51:36.000",
    "date_modified": "2022-02-02T14:51:36.000",
    "request_status": "Pending",
    "responsible_agency": "Department of Sanitation",
    "final_address": "2730 St Charles Ave",
    "address_councildis": "B",
    "status": "Assigned to Contractor",
    "contractor": "Richards Disposal",
    "rowid": "858406",
    "final_x": "3676081.96635",
    "final_y": "522509.256442",
    "longitude": "-90.08548839340357",
    "latitude": "29.930882503707025",
    "geocoded_column": {
      "latitude": "29.930882503707025",
      "longitude": "-90.08548839340357"
    }
  },
  {
    "service_request": "2022-858405",
    "request_type": "Traffic Signals/Signs/Striping/Streetlights",
    "request_reason": "Street Light Knocked Down/Leaning",
    "date_created": "2022-02-02T14:50:22.000",
    "date_modified": "2022-02-02T14:50:22.000",
    "request_status": "Pending",
    "responsible_agency": "Department of Public Works",
    "final_address": "640 Magazine St",
    "address_councildis": "B",
    "status": "Pending",
    "contractor": "Royal Engineering",
    "rowid": "858405",
    "final_x": "3681357.19439",
    "final_y": "528403.4544",
    "longitude": "-90.06862986763258",
    "latitude": "29.946930568855823",
    "geocoded_column": {
      "latitude": "29.946930568855823",
      "longitude": "-90.06862986763258"
    }
  },
  {
    "service_request": "2022-858404",
    "request_type": "Traffic Signals/Signs/Striping/Streetlights",
    "request_reason": "Traffic Signal Malfunctioning/Damaged",
    "date_created": "2022-02-02T14:48:34.000",
    "date_modified": "2022-02-02T14:48:34.000",
    "request_status": "Pending",
    "responsible_agency": "Department of Public Works",
    "final_address": "CHEF MENTEUR HWY & I 510 N",
    "address_councildis": "E",
    "status": "Pending",
    "rowid": "858404",
    "final_x": "3721964.4",
    "final_y": "557972.78",
    "longitude": "-89.93928382991413",
    "latitude": "30.026939914988635",
    "geocoded_column": {
      "latitude": "30.026939914988635",
      "longitude": "-89.93928382991413"
    }
  },
  {
    "service_request": "2022-858403",
    "request_type": "Trash/Recycling",
    "request_reason": "Order Recycling Cart",
    "date_created": "2022-02-02T14:43:15.000",
    "date_modified": "2022-02-02T14:43:15.000",
    "request_status": "Pending",
    "responsible_agency": "Department of Sanitation",
    "final_address": "7617 Dominican St, New Orleans, Louisiana, 70118",
    "address_councildis": "A",
    "status": "Pending",
    "rowid": "858403",
    "final_x": "3661293.55437",
    "final_y": "525238.644861",
    "longitude": "-90.13208327728184",
    "latitude": "29.93882201080379",
    "geocoded_column": {
      "latitude": "29.93882201080379",
      "longitude": "-90.13208327728184"
    }
  },
  {
    "service_request": "2022-858402",
    "request_type": "Trash/Recycling",
    "request_reason": "Order Trash Cart",
    "date_created": "2022-02-02T14:42:22.000",
    "date_modified": "2022-02-02T14:42:23.000",
    "request_status": "Pending",
    "responsible_agency": "Department of Sanitation",
    "final_address": "7617 Dominican St, New Orleans, Louisiana, 70118",
    "address_councildis": "A",
    "status": "Assigned to Contractor",
    "contractor": "Richards Disposal",
    "rowid": "858402",
    "final_x": "3661293.55437",
    "final_y": "525238.644861",
    "longitude": "-90.13208327728184",
    "latitude": "29.93882201080379",
    "geocoded_column": {
      "latitude": "29.93882201080379",
      "longitude": "-90.13208327728184"
    }
  },
  {
    "service_request": "2022-858401",
    "request_type": "Trash/Recycling",
    "request_reason": "Order Recycling Cart",
    "date_created": "2022-02-02T14:39:21.000",
    "date_modified": "2022-02-02T14:39:21.000",
    "request_status": "Pending",
    "responsible_agency": "Department of Sanitation",
    "final_address": "2101 Magazine St",
    "address_councildis": "B",
    "status": "Pending",
    "rowid": "858401",
    "final_x": "3679107.35567",
    "final_y": "522324.703802",
    "longitude": "-90.0759440518678",
    "latitude": "29.93028410390256",
    "geocoded_column": {
      "latitude": "29.93028410390256",
      "longitude": "-90.0759440518678"
    }
  },
  {
    "service_request": "2022-858400",
    "request_type": "Traffic Signals/Signs/Striping/Streetlights",
    "request_reason": "Street Light Outage/Malfunction",
    "date_created": "2022-02-02T14:37:43.000",
    "date_modified": "2022-02-02T14:37:43.000",
    "request_status": "Pending",
    "responsible_agency": "Department of Public Works",
    "final_address": "1412 Nunez St",
    "address_councildis": "C",
    "status": "Pending",
    "contractor": "Royal Engineering",
    "rowid": "858400",
    "final_x": "3687188.54153",
    "final_y": "526281.45363",
    "longitude": "-90.05029321978179",
    "latitude": "29.94091752335253",
    "geocoded_column": {
      "latitude": "29.94091752335253",
      "longitude": "-90.05029321978179"
    }
  },
  {
    "service_request": "2022-858399",
    "request_type": "Abandoned Vehicles",
    "request_reason": "Abandoned/Junk Vehicles",
    "date_created": "2022-02-02T14:37:10.000",
    "date_modified": "2022-02-02T14:37:10.000",
    "request_status": "Pending",
    "responsible_agency": "Department of Public Works",
    "final_address": "3302 Banks St",
    "address_councildis": "B",
    "status": "Pending",
    "rowid": "858399",
    "final_x": "3672770.84852",
    "final_y": "535454.342918",
    "longitude": "-90.0954996852998",
    "latitude": "29.966575962702656",
    "geocoded_column": {
      "latitude": "29.966575962702656",
      "longitude": "-90.0954996852998"
    }
  },
  {
    "service_request": "2022-858398",
    "request_type": "Traffic Signals/Signs/Striping/Streetlights",
    "request_reason": "Street Light Outage/Malfunction",
    "date_created": "2022-02-02T14:35:45.000",
    "date_modified": "2022-02-02T14:35:46.000",
    "request_status": "Pending",
    "responsible_agency": "Department of Public Works",
    "final_address": "6643 Congress Dr",
    "address_councildis": "D",
    "status": "Pending",
    "contractor": "Royal Engineering",
    "rowid": "858398",
    "final_x": "3690638.61667",
    "final_y": "558243.881884",
    "longitude": "-90.03826022067707",
    "latitude": "30.028696061925082",
    "geocoded_column": {
      "latitude": "30.028696061925082",
      "longitude": "-90.03826022067707"
    }
  },
  {
    "service_request": "2022-858397",
    "request_type": "Abandoned Vehicles",
    "request_reason": "Abandoned/Junk Vehicles",
    "date_created": "2022-02-02T14:34:28.000",
    "date_modified": "2022-02-02T14:34:28.000",
    "request_status": "Pending",
    "responsible_agency": "Department of Public Works",
    "final_address": "4735 Sherwood Dr",
    "address_councildis": "E",
    "status": "Pending",
    "rowid": "858397",
    "final_x": "3718084.70431",
    "final_y": "556817.537562",
    "longitude": "-89.95158715701086",
    "latitude": "30.023892674773005",
    "geocoded_column": {
      "latitude": "30.023892674773005",
      "longitude": "-89.95158715701086"
    }
  },
  {
    "service_request": "2022-858396",
    "request_type": "Trash/Recycling",
    "request_reason": "Request a Large Item Pick Up",
    "date_created": "2022-02-02T14:26:29.000",
    "date_modified": "2022-02-02T14:26:30.000",
    "request_status": "Pending",
    "responsible_agency": "Department of Sanitation",
    "final_address": "3717 Willow St",
    "address_councildis": "B",
    "status": "Assigned to Contractor",
    "contractor": "Richards Disposal",
    "rowid": "858396",
    "final_x": "3671834.70983",
    "final_y": "525659.911229",
    "longitude": "-90.09878926110075",
    "latitude": "29.93967228383594",
    "geocoded_column": {
      "latitude": "29.93967228383594",
      "longitude": "-90.09878926110075"
    }
  },
  {
    "service_request": "2022-858395",
    "request_type": "Property Maintenance",
    "request_reason": "Property Maintenance",
    "date_created": "2022-02-02T14:26:26.000",
    "date_modified": "2022-02-02T14:26:26.000",
    "request_status": "Pending",
    "responsible_agency": "Department of Code Enforcement",
    "final_address": "6568 Catina St",
    "address_councildis": "A",
    "status": "Pending",
    "rowid": "858395",
    "final_x": "3666910.84506",
    "final_y": "551436.760085",
    "longitude": "-90.11346825723848",
    "latitude": "30.010694935557922",
    "geocoded_column": {
      "latitude": "30.010694935557922",
      "longitude": "-90.11346825723848"
    }
  },
  {
    "service_request": "2022-858394",
    "request_type": "COVID-19",
    "request_reason": "COVID-19 Business Non-Compliance",
    "date_created": "2022-02-02T14:25:47.000",
    "date_modified": "2022-02-02T14:25:48.000",
    "request_status": "Pending",
    "responsible_agency": "Safety and Permits",
    "final_address": "329 S Dorgenois St",
    "address_councildis": "B",
    "status": "Pending",
    "rowid": "858394",
    "final_x": "3675136.63733",
    "final_y": "533961.708037",
    "longitude": "-90.08807976435857",
    "latitude": "29.962401234374283",
    "geocoded_column": {
      "latitude": "29.962401234374283",
      "longitude": "-90.08807976435857"
    }
  },
  {
    "service_request": "2022-858391",
    "request_type": "Trash/Recycling",
    "request_reason": "Replace Trash Cart",
    "date_created": "2022-02-02T14:10:26.000",
    "date_modified": "2022-02-02T14:10:27.000",
    "request_status": "Pending",
    "responsible_agency": "Department of Sanitation",
    "status": "Assigned to Contractor",
    "rowid": "858391",
    "longitude": "0.0",
    "latitude": "0.0",
    "geocoded_column": {
      "latitude": "0.0",
      "longitude": "0.0"
    }
  },
  {
    "service_request": "2022-858390",
    "request_type": "Trash/Recycling",
    "request_reason": "Order Recycling Cart",
    "date_created": "2022-02-02T14:09:59.000",
    "date_modified": "2022-02-02T14:09:59.000",
    "request_status": "Pending",
    "responsible_agency": "Department of Sanitation",
    "final_address": "4361 Murano Rd",
    "address_councildis": "E",
    "status": "Pending",
    "rowid": "858390",
    "final_x": "3761357.35561",
    "final_y": "573228.035817",
    "longitude": "-89.81417024779702",
    "latitude": "30.067508368810792",
    "geocoded_column": {
      "latitude": "30.067508368810792",
      "longitude": "-89.81417024779702"
    }
  },
  {
    "service_request": "2022-858389",
    "request_type": "Trash/Recycling",
    "request_reason": "Replace Trash Cart",
    "date_created": "2022-02-02T14:08:57.000",
    "date_modified": "2022-02-02T14:08:57.000",
    "request_status": "Pending",
    "responsible_agency": "Department of Sanitation",
    "final_address": "814 Louisiana Ave",
    "address_councildis": "B",
    "status": "Assigned to Contractor",
    "contractor": "Richards Disposal",
    "rowid": "858389",
    "final_x": "3675358.50536",
    "final_y": "518706.674935",
    "longitude": "-90.08790273776151",
    "latitude": "29.920448276422082",
    "geocoded_column": {
      "latitude": "29.920448276422082",
      "longitude": "-90.08790273776151"
    }
  },
  {
    "service_request": "2022-858388",
    "request_type": "Abandoned Vehicles",
    "request_reason": "Abandoned/Junk Vehicles",
    "date_created": "2022-02-02T14:03:11.000",
    "date_modified": "2022-02-02T14:03:11.000",
    "request_status": "Pending",
    "responsible_agency": "Department of Public Works",
    "final_address": "7600 Gannon Rd",
    "address_councildis": "E",
    "status": "Pending",
    "rowid": "858388",
    "final_x": "3716469.08671",
    "final_y": "569659.73431",
    "longitude": "-89.95620443875303",
    "latitude": "30.059256974348585",
    "geocoded_column": {
      "latitude": "30.059256974348585",
      "longitude": "-89.95620443875303"
    }
  },
  {
    "service_request": "2022-858387",
    "request_type": "Traffic Signals/Signs/Striping/Streetlights",
    "request_reason": "Street Light Outage/Malfunction",
    "date_created": "2022-02-02T14:00:56.000",
    "date_modified": "2022-02-02T14:01:00.000",
    "request_status": "Pending",
    "responsible_agency": "Department of Public Works",
    "final_address": "6101 Tullis Dr",
    "address_councildis": "C",
    "status": "Pending",
    "contractor": "Royal Engineering",
    "rowid": "858387",
    "final_x": "3706937.54097",
    "final_y": "513981.535602",
    "longitude": "-89.98839843773801",
    "latitude": "29.906474217428418",
    "geocoded_column": {
      "latitude": "29.906474217428418",
      "longitude": "-89.98839843773801"
    }
  },
  {
    "service_request": "2022-858386",
    "request_type": "Parks & Parkways",
    "request_reason": "Request Tree Service (Right of Way/Public Property)",
    "date_created": "2022-02-02T13:58:08.000",
    "date_modified": "2022-02-02T13:58:08.000",
    "request_status": "Pending",
    "responsible_agency": "Department of Parks & Parkway",
    "final_address": "1305 Pine St",
    "address_councildis": "A",
    "status": "Pending",
    "rowid": "858386",
    "final_x": "3664236.10957",
    "final_y": "526978.287038",
    "longitude": "-90.12273523198078",
    "latitude": "29.943520319651693",
    "geocoded_column": {
      "latitude": "29.943520319651693",
      "longitude": "-90.12273523198078"
    }
  },
  {
    "service_request": "2022-858385",
    "request_type": "Tax and Revenue",
    "request_reason": "Personal Property Tax Question",
    "date_created": "2022-02-02T13:56:01.000",
    "date_modified": "2022-02-02T13:56:01.000",
    "request_status": "Pending",
    "responsible_agency": "Bureau of Treasury",
    "final_address": "1001 Esplanade Ave",
    "address_councildis": "C",
    "status": "Pending",
    "rowid": "858385",
    "final_x": "3683194.88892",
    "final_y": "535145.523846",
    "longitude": "-90.06259151938241",
    "latitude": "29.965413062256253",
    "geocoded_column": {
      "latitude": "29.965413062256253",
      "longitude": "-90.06259151938241"
    }
  },
  {
    "service_request": "2022-858384",
    "request_type": "Trash/Recycling",
    "request_reason": "Replace Trash Cart",
    "date_created": "2022-02-02T13:53:12.000",
    "date_modified": "2022-02-02T13:53:13.000",
    "request_status": "Pending",
    "responsible_agency": "Department of Sanitation",
    "final_address": "2101 Magazine St",
    "address_councildis": "B",
    "status": "Assigned to Contractor",
    "contractor": "Richards Disposal",
    "rowid": "858384",
    "final_x": "3679107.35567",
    "final_y": "522324.703802",
    "longitude": "-90.0759440518678",
    "latitude": "29.93028410390256",
    "geocoded_column": {
      "latitude": "29.93028410390256",
      "longitude": "-90.0759440518678"
    }
  },
  {
    "service_request": "2022-858383",
    "request_type": "Abandoned Vehicles",
    "request_reason": "Abandoned/Junk Vehicles",
    "date_created": "2022-02-02T13:50:47.000",
    "date_modified": "2022-02-02T13:50:47.000",
    "request_status": "Pending",
    "responsible_agency": "Department of Public Works",
    "final_address": "1001 Carondelet St",
    "address_councildis": "B",
    "status": "Pending",
    "rowid": "858383",
    "final_x": "3679631.12911",
    "final_y": "527191.203903",
    "longitude": "-90.07412175403779",
    "latitude": "29.94364955596976",
    "geocoded_column": {
      "latitude": "29.94364955596976",
      "longitude": "-90.07412175403779"
    }
  },
  {
    "service_request": "2022-858382",
    "request_type": "Abandoned Vehicles",
    "request_reason": "Abandoned/Junk Vehicles",
    "date_created": "2022-02-02T13:47:41.000",
    "date_modified": "2022-02-02T13:47:41.000",
    "request_status": "Pending",
    "responsible_agency": "Department of Public Works",
    "final_address": "7220 Hayne Blvd, New Orleans, Louisiana, 70126",
    "address_councildis": "E",
    "status": "Pending",
    "rowid": "858382",
    "final_x": "3699081.53405",
    "final_y": "561544.937055",
    "longitude": "-90.01146078634645",
    "latitude": "30.037507602055264",
    "geocoded_column": {
      "latitude": "30.037507602055264",
      "longitude": "-90.01146078634645"
    }
  },
  {
    "service_request": "2022-858381",
    "request_type": "Trash/Recycling",
    "request_reason": "Request a Large Item Pick Up",
    "date_created": "2022-02-02T13:46:28.000",
    "date_modified": "2022-02-02T13:46:29.000",
    "request_status": "Pending",
    "responsible_agency": "Department of Sanitation",
    "final_address": "3555 River Oaks Dr",
    "address_councildis": "C",
    "status": "Assigned to Contractor",
    "contractor": "Richards Disposal",
    "rowid": "858381",
    "final_x": "3701292.21905",
    "final_y": "517822.050422",
    "longitude": "-90.0060750563269",
    "latitude": "29.917215319398668",
    "geocoded_column": {
      "latitude": "29.917215319398668",
      "longitude": "-90.0060750563269"
    }
  },
  {
    "service_request": "2022-858380",
    "request_type": "Trash/Recycling",
    "request_reason": "Return Trash Cart",
    "date_created": "2022-02-02T13:44:56.000",
    "date_modified": "2022-02-02T13:44:57.000",
    "case_close_date": "2022-01-06T18:00:00.000",
    "request_status": "Pending",
    "responsible_agency": "Department of Sanitation",
    "final_address": "5271 Tchoupitoulas St",
    "address_councildis": "B",
    "status": "Assigned to Contractor",
    "contractor": "Richards Disposal",
    "rowid": "858380",
    "final_x": "3667390.18381",
    "final_y": "517221.543925",
    "longitude": "-90.11310500544865",
    "latitude": "29.91660037402378",
    "geocoded_column": {
      "latitude": "29.91660037402378",
      "longitude": "-90.11310500544865"
    }
  },
  {
    "service_request": "2022-858379",
    "request_type": "Trash/Recycling",
    "request_reason": "Request a Large Item Pick Up",
    "date_created": "2022-02-02T13:44:32.000",
    "date_modified": "2022-02-02T13:44:33.000",
    "request_status": "Pending",
    "responsible_agency": "Department of Sanitation",
    "final_address": "523 6th St, New Orleans, Louisiana, 70115",
    "status": "Assigned to Contractor",
    "rowid": "858379",
    "longitude": "0.0",
    "latitude": "0.0",
    "geocoded_column": {
      "latitude": "0.0",
      "longitude": "0.0"
    }
  },
  {
    "service_request": "2022-858378",
    "request_type": "Trash/Recycling",
    "request_reason": "Replace Trash Cart",
    "date_created": "2022-02-02T13:44:25.000",
    "date_modified": "2022-02-02T13:44:25.000",
    "case_close_date": "2022-01-06T18:00:00.000",
    "request_status": "Pending",
    "responsible_agency": "Department of Sanitation",
    "final_address": "5271 Tchoupitoulas St",
    "address_councildis": "B",
    "status": "Assigned to Contractor",
    "contractor": "Richards Disposal",
    "rowid": "858378",
    "final_x": "3667390.18381",
    "final_y": "517221.543925",
    "longitude": "-90.11310500544865",
    "latitude": "29.91660037402378",
    "geocoded_column": {
      "latitude": "29.91660037402378",
      "longitude": "-90.11310500544865"
    }
  },
  {
    "service_request": "2022-858377",
    "request_type": "Roads/Drainage",
    "request_reason": "Catch Basin - Clogged",
    "date_created": "2022-02-02T13:42:51.000",
    "date_modified": "2022-02-02T13:42:51.000",
    "request_status": "Pending",
    "responsible_agency": "Department of Public Works",
    "final_address": "2524 Alvar St",
    "address_councildis": "D",
    "status": "Pending",
    "rowid": "858377",
    "final_x": "3692824.85616",
    "final_y": "540983.065803",
    "longitude": "-90.03197128872304",
    "latitude": "29.981167058666642",
    "geocoded_column": {
      "latitude": "29.981167058666642",
      "longitude": "-90.03197128872304"
    }
  },
  {
    "service_request": "2022-858376",
    "request_type": "Property Maintenance",
    "request_reason": "Property Maintenance",
    "date_created": "2022-02-02T13:42:17.000",
    "date_modified": "2022-02-02T13:42:17.000",
    "request_status": "Pending",
    "responsible_agency": "Department of Code Enforcement",
    "final_address": "12500 Morrison Rd",
    "address_councildis": "E",
    "status": "Pending",
    "rowid": "858376",
    "final_x": "3715819.41887",
    "final_y": "568570.992165",
    "longitude": "-89.95829926500231",
    "latitude": "30.056284835798667",
    "geocoded_column": {
      "latitude": "30.056284835798667",
      "longitude": "-89.95829926500231"
    }
  },
  {
    "service_request": "2022-858375",
    "request_type": "Traffic Signals/Signs/Striping/Streetlights",
    "request_reason": "Additional signage",
    "date_created": "2022-02-02T13:37:57.000",
    "date_modified": "2022-02-02T13:37:57.000",
    "request_status": "Pending",
    "responsible_agency": "Department of Public Works",
    "final_address": "5420 Mckenna St",
    "address_councildis": "A",
    "status": "Pending",
    "rowid": "858375",
    "final_x": "3668840.69889",
    "final_y": "528942.0048",
    "longitude": "-90.10813100269364",
    "latitude": "29.948785335396703",
    "geocoded_column": {
      "latitude": "29.948785335396703",
      "longitude": "-90.10813100269364"
    }
  },
  {
    "service_request": "2022-858374",
    "request_type": "Abandoned Vehicles",
    "request_reason": "Abandoned/Junk Vehicles",
    "date_created": "2022-02-02T13:36:53.000",
    "date_modified": "2022-02-02T13:36:54.000",
    "request_status": "Pending",
    "responsible_agency": "Department of Public Works",
    "final_address": "3031 College Ct",
    "address_councildis": "B",
    "status": "Pending",
    "rowid": "858374",
    "final_x": "3668388.19463",
    "final_y": "531609.227587",
    "longitude": "-90.1094698065596",
    "latitude": "29.956132621898124",
    "geocoded_column": {
      "latitude": "29.956132621898124",
      "longitude": "-90.1094698065596"
    }
  },
  {
    "service_request": "2022-858373",
    "request_type": "Trash/Recycling",
    "request_reason": "Missed Trash Pick-Up",
    "date_created": "2022-02-02T13:36:39.000",
    "date_modified": "2022-02-02T13:36:40.000",
    "request_status": "Pending",
    "responsible_agency": "Department of Sanitation",
    "final_address": "1914 Adams St",
    "address_councildis": "A",
    "status": "Assigned to Contractor",
    "contractor": "Richards Disposal",
    "rowid": "858373",
    "final_x": "3664770.9088",
    "final_y": "529319.459777",
    "longitude": "-90.12096851552486",
    "latitude": "29.94994224358321",
    "geocoded_column": {
      "latitude": "29.94994224358321",
      "longitude": "-90.12096851552486"
    }
  },
  {
    "service_request": "2022-858372",
    "request_type": "Trash/Recycling",
    "request_reason": "Missed Trash Pick-Up",
    "date_created": "2022-02-02T13:33:51.000",
    "date_modified": "2022-02-02T13:33:52.000",
    "request_status": "Pending",
    "responsible_agency": "Department of Sanitation",
    "final_address": "7425 Panola St, New Orleans, Louisiana, 70118",
    "address_councildis": "A",
    "status": "Assigned to Contractor",
    "contractor": "Richards Disposal",
    "rowid": "858372",
    "final_x": "3665324.136",
    "final_y": "529646.448513",
    "longitude": "-90.11921077342282",
    "latitude": "29.950825250032867",
    "geocoded_column": {
      "latitude": "29.950825250032867",
      "longitude": "-90.11921077342282"
    }
  },
  {
    "service_request": "2022-858371",
    "request_type": "Traffic Signals/Signs/Striping/Streetlights",
    "request_reason": "Street Light Outage/Malfunction",
    "date_created": "2022-02-02T13:28:29.000",
    "date_modified": "2022-02-02T13:28:30.000",
    "request_status": "Pending",
    "responsible_agency": "Department of Public Works",
    "final_address": "129 Burgundy St",
    "address_councildis": "C",
    "status": "Pending",
    "contractor": "Royal Engineering",
    "rowid": "858371",
    "final_x": "3680471.87599",
    "final_y": "531572.241091",
    "longitude": "-90.0713149488568",
    "latitude": "29.955670504386838",
    "geocoded_column": {
      "latitude": "29.955670504386838",
      "longitude": "-90.0713149488568"
    }
  },
  {
    "service_request": "2022-858370",
    "request_type": "Trash/Recycling",
    "request_reason": "Request a Large Item Pick Up",
    "date_created": "2022-02-02T13:28:28.000",
    "date_modified": "2022-02-02T13:28:29.000",
    "request_status": "Pending",
    "responsible_agency": "Department of Sanitation",
    "final_address": "5929 Chestnut St",
    "address_councildis": "A",
    "status": "Assigned to Contractor",
    "contractor": "Richards Disposal",
    "rowid": "858370",
    "final_x": "3665179.07604",
    "final_y": "519869.398712",
    "longitude": "-90.11999569598656",
    "latitude": "29.92394570684376",
    "geocoded_column": {
      "latitude": "29.92394570684376",
      "longitude": "-90.11999569598656"
    }
  },
  {
    "service_request": "2022-858368",
    "request_type": "Traffic Signals/Signs/Striping/Streetlights",
    "request_reason": "Street Light Outage/Malfunction",
    "date_created": "2022-02-02T13:27:19.000",
    "date_modified": "2022-02-02T13:27:20.000",
    "request_status": "Pending",
    "responsible_agency": "Department of Public Works",
    "final_address": "129 Burgundy St",
    "address_councildis": "C",
    "status": "Pending",
    "contractor": "Royal Engineering",
    "rowid": "858368",
    "final_x": "3680471.87599",
    "final_y": "531572.241091",
    "longitude": "-90.0713149488568",
    "latitude": "29.955670504386838",
    "geocoded_column": {
      "latitude": "29.955670504386838",
      "longitude": "-90.0713149488568"
    }
  },
  {
    "service_request": "2022-858367",
    "request_type": "Traffic Signals/Signs/Striping/Streetlights",
    "request_reason": "Traffic Signal Malfunctioning/Damaged",
    "date_created": "2022-02-02T13:25:40.000",
    "date_modified": "2022-02-02T13:25:40.000",
    "request_status": "Pending",
    "responsible_agency": "Department of Public Works",
    "final_address": "CHEF MENTEUR HWY & I 510 N",
    "address_councildis": "E",
    "status": "Pending",
    "rowid": "858367",
    "final_x": "3721964.4",
    "final_y": "557972.78",
    "longitude": "-89.93928382991413",
    "latitude": "30.026939914988635",
    "geocoded_column": {
      "latitude": "30.026939914988635",
      "longitude": "-89.93928382991413"
    }
  },
  {
    "service_request": "2022-858366",
    "request_type": "Traffic Signals/Signs/Striping/Streetlights",
    "request_reason": "Street Light Outage/Malfunction",
    "date_created": "2022-02-02T13:25:26.000",
    "date_modified": "2022-02-02T13:25:27.000",
    "request_status": "Pending",
    "responsible_agency": "Department of Public Works",
    "final_address": "231 Burgundy St",
    "address_councildis": "C",
    "status": "Pending",
    "contractor": "Royal Engineering",
    "rowid": "858366",
    "final_x": "3680736.97346",
    "final_y": "531903.959171",
    "longitude": "-90.07046632117634",
    "latitude": "29.956574585743887",
    "geocoded_column": {
      "latitude": "29.956574585743887",
      "longitude": "-90.07046632117634"
    }
  },
  {
    "service_request": "2022-858365",
    "request_type": "Parks & Parkways",
    "request_reason": "Request Tree Service (Right of Way/Public Property)",
    "date_created": "2022-02-02T13:23:14.000",
    "date_modified": "2022-02-02T13:36:54.000",
    "case_close_date": "2022-02-02T07:36:54.000",
    "request_status": "Closed",
    "responsible_agency": "Department of Parks & Parkway",
    "final_address": "607 St Charles Ave",
    "address_councildis": "B",
    "status": "Referred to External Agency",
    "rowid": "858365",
    "final_x": "3680549.09",
    "final_y": "528834.254016",
    "longitude": "-90.07116636746257",
    "latitude": "29.94813962379016",
    "geocoded_column": {
      "latitude": "29.94813962379016",
      "longitude": "-90.07116636746257"
    }
  },
  {
    "service_request": "2022-858364",
    "request_type": "Roads/Drainage",
    "request_reason": "Catch Basin - Broken/Damage",
    "date_created": "2022-02-02T13:23:10.000",
    "date_modified": "2022-02-02T13:23:10.000",
    "request_status": "Pending",
    "responsible_agency": "Department of Public Works",
    "final_address": "7637 Tricia Ct",
    "address_councildis": "E",
    "status": "Pending",
    "rowid": "858364",
    "final_x": "3717727.86815",
    "final_y": "571159.18788",
    "longitude": "-89.95216844155685",
    "latitude": "30.06333818976537",
    "geocoded_column": {
      "latitude": "30.06333818976537",
      "longitude": "-89.95216844155685"
    }
  },
  {
    "service_request": "2022-858363",
    "request_type": "Traffic Signals/Signs/Striping/Streetlights",
    "request_reason": "Street Light Outage/Malfunction",
    "date_created": "2022-02-02T13:23:04.000",
    "date_modified": "2022-02-02T13:23:07.000",
    "request_status": "Pending",
    "responsible_agency": "Department of Public Works",
    "final_address": "410 Burgundy St",
    "address_councildis": "C",
    "status": "Pending",
    "contractor": "Royal Engineering",
    "rowid": "858363",
    "final_x": "3681116.35509",
    "final_y": "532304.625219",
    "longitude": "-90.0692544011004",
    "latitude": "29.957664778824046",
    "geocoded_column": {
      "latitude": "29.957664778824046",
      "longitude": "-90.0692544011004"
    }
  },
  {
    "service_request": "2022-858362",
    "request_type": "Traffic Signals/Signs/Striping/Streetlights",
    "request_reason": "Street Light Outage/Malfunction",
    "date_created": "2022-02-02T13:21:13.000",
    "date_modified": "2022-02-02T13:21:14.000",
    "request_status": "Pending",
    "responsible_agency": "Department of Public Works",
    "final_address": "501 Burgundy St",
    "address_councildis": "C",
    "status": "Pending",
    "contractor": "Royal Engineering",
    "rowid": "858362",
    "final_x": "3681232.29442",
    "final_y": "532556.58298",
    "longitude": "-90.06887951903755",
    "latitude": "29.958354059636303",
    "geocoded_column": {
      "latitude": "29.958354059636303",
      "longitude": "-90.06887951903755"
    }
  },
  {
    "service_request": "2022-858361",
    "request_type": "Traffic Signals/Signs/Striping/Streetlights",
    "request_reason": "Street Light Outage/Malfunction",
    "date_created": "2022-02-02T13:19:08.000",
    "date_modified": "2022-02-02T13:19:08.000",
    "request_status": "Pending",
    "responsible_agency": "Department of Public Works",
    "final_address": "830 Burgundy St",
    "address_councildis": "C",
    "status": "Pending",
    "contractor": "Royal Engineering",
    "rowid": "858361",
    "final_x": "3682092.28565",
    "final_y": "533605.697093",
    "longitude": "-90.06612726395372",
    "latitude": "29.961212642761936",
    "geocoded_column": {
      "latitude": "29.961212642761936",
      "longitude": "-90.06612726395372"
    }
  },
  {
    "service_request": "2022-858360",
    "request_type": "Traffic Signals/Signs/Striping/Streetlights",
    "request_reason": "Street Light Outage/Malfunction",
    "date_created": "2022-02-02T13:17:22.000",
    "date_modified": "2022-02-02T13:17:23.000",
    "request_status": "Pending",
    "responsible_agency": "Department of Public Works",
    "final_address": "946 Burgundy St",
    "address_councildis": "C",
    "status": "Pending",
    "contractor": "Royal Engineering",
    "rowid": "858360",
    "final_x": "3682366.88981",
    "final_y": "533953.334597",
    "longitude": "-90.0652479651211",
    "latitude": "29.9621601736449",
    "geocoded_column": {
      "latitude": "29.9621601736449",
      "longitude": "-90.0652479651211"
    }
  },
  {
    "service_request": "2022-858359",
    "request_type": "Traffic Signals/Signs/Striping/Streetlights",
    "request_reason": "Street Light Outage/Malfunction",
    "date_created": "2022-02-02T13:15:40.000",
    "date_modified": "2022-02-02T13:15:41.000",
    "request_status": "Pending",
    "responsible_agency": "Department of Public Works",
    "final_address": "1132 Burgundy St",
    "address_councildis": "C",
    "status": "Pending",
    "contractor": "Royal Engineering",
    "rowid": "858359",
    "final_x": "3682765.99253",
    "final_y": "534486.108549",
    "longitude": "-90.06396902176671",
    "latitude": "29.963612968507235",
    "geocoded_column": {
      "latitude": "29.963612968507235",
      "longitude": "-90.06396902176671"
    }
  },
  {
    "service_request": "2022-858358",
    "request_type": "Traffic Signals/Signs/Striping/Streetlights",
    "request_reason": "Street Light Outage/Malfunction",
    "date_created": "2022-02-02T13:13:39.000",
    "date_modified": "2022-02-02T13:13:40.000",
    "request_status": "Pending",
    "responsible_agency": "Department of Public Works",
    "final_address": "1201 Burgundy St",
    "address_councildis": "C",
    "status": "Pending",
    "contractor": "Royal Engineering",
    "rowid": "858358",
    "final_x": "3682793.34037",
    "final_y": "534624.105222",
    "longitude": "-90.06387783228948",
    "latitude": "29.963991578908328",
    "geocoded_column": {
      "latitude": "29.963991578908328",
      "longitude": "-90.06387783228948"
    }
  },
  {
    "service_request": "2022-858357",
    "request_type": "Traffic Signals/Signs/Striping/Streetlights",
    "request_reason": "Street Light Outage/Malfunction",
    "date_created": "2022-02-02T13:11:38.000",
    "date_modified": "2022-02-02T13:11:39.000",
    "request_status": "Pending",
    "responsible_agency": "Department of Public Works",
    "final_address": "1200 Burgundy St",
    "address_councildis": "C",
    "status": "Pending",
    "contractor": "Royal Engineering",
    "rowid": "858357",
    "final_x": "3682832.98274",
    "final_y": "534579.727685",
    "longitude": "-90.06375419817886",
    "latitude": "29.96386834824006",
    "geocoded_column": {
      "latitude": "29.96386834824006",
      "longitude": "-90.06375419817886"
    }
  },
  {
    "service_request": "2022-858356",
    "request_type": "Abandoned Vehicles",
    "request_reason": "Abandoned/Junk Vehicles",
    "date_created": "2022-02-02T13:09:42.000",
    "date_modified": "2022-02-02T13:09:42.000",
    "request_status": "Pending",
    "responsible_agency": "Department of Public Works",
    "final_address": "8700 BLK Green St",
    "address_councildis": "A",
    "status": "Pending",
    "rowid": "858356",
    "final_x": "3661438.64067",
    "final_y": "531224.488848",
    "longitude": "-90.13142699419195",
    "latitude": "29.95527698606181",
    "geocoded_column": {
      "latitude": "29.95527698606181",
      "longitude": "-90.13142699419195"
    }
  },
  {
    "service_request": "2022-858355",
    "request_type": "Trash/Recycling",
    "request_reason": "Order Trash Cart",
    "date_created": "2022-02-02T13:09:05.000",
    "date_modified": "2022-02-02T13:09:05.000",
    "request_status": "Pending",
    "responsible_agency": "Department of Sanitation",
    "final_address": "423 S Olympia St",
    "address_councildis": "A",
    "status": "Assigned to Contractor",
    "contractor": "Richards Disposal",
    "rowid": "858355",
    "final_x": "3668512.12423",
    "final_y": "538501.669065",
    "longitude": "-90.10884589952327",
    "latitude": "29.975080905218867",
    "geocoded_column": {
      "latitude": "29.975080905218867",
      "longitude": "-90.10884589952327"
    }
  },
  {
    "service_request": "2022-858354",
    "request_type": "Trash/Recycling",
    "request_reason": "Request a Large Item Pick Up",
    "date_created": "2022-02-02T12:58:23.000",
    "date_modified": "2022-02-02T12:58:24.000",
    "request_status": "Pending",
    "responsible_agency": "Department of Sanitation",
    "final_address": "2301 General Taylor St",
    "address_councildis": "B",
    "status": "Assigned to Contractor",
    "contractor": "Richards Disposal",
    "rowid": "858354",
    "final_x": "3672083.44091",
    "final_y": "523535.243131",
    "longitude": "-90.09807629407268",
    "latitude": "29.93382276442831",
    "geocoded_column": {
      "latitude": "29.93382276442831",
      "longitude": "-90.09807629407268"
    }
  },
  {
    "service_request": "2022-858353",
    "request_type": "Trash/Recycling",
    "request_reason": "Missed Trash Pick-Up",
    "date_created": "2022-02-02T12:52:51.000",
    "date_modified": "2022-02-02T12:52:58.000",
    "request_status": "Pending",
    "responsible_agency": "Department of Sanitation",
    "final_address": "419 Bellecastle St",
    "address_councildis": "B",
    "status": "Assigned to Contractor",
    "contractor": "Richards Disposal",
    "rowid": "858353",
    "final_x": "3667675.05076",
    "final_y": "517083.268661",
    "longitude": "-90.11221049684828",
    "latitude": "29.916211815864223",
    "geocoded_column": {
      "latitude": "29.916211815864223",
      "longitude": "-90.11221049684828"
    }
  },
  {
    "service_request": "2022-858352",
    "request_type": "Abandoned Vehicles",
    "request_reason": "Abandoned/Junk Vehicles",
    "date_created": "2022-02-02T12:49:15.000",
    "date_modified": "2022-02-02T12:49:15.000",
    "request_status": "Pending",
    "responsible_agency": "Department of Public Works",
    "final_address": "800 Roosevelt Pl",
    "address_councildis": "A",
    "status": "Pending",
    "rowid": "858352",
    "final_x": "3673570.59502",
    "final_y": "539605.86337",
    "longitude": "-90.09283215360122",
    "latitude": "29.9779674563164",
    "geocoded_column": {
      "latitude": "29.9779674563164",
      "longitude": "-90.09283215360122"
    }
  },
  {
    "service_request": "2022-858351",
    "request_type": "Traffic Signals/Signs/Striping/Streetlights",
    "request_reason": "Street Light Outage/Malfunction",
    "date_created": "2022-02-02T12:45:27.000",
    "date_modified": "2022-02-02T12:45:28.000",
    "request_status": "Pending",
    "responsible_agency": "Department of Public Works",
    "final_address": "7826 Willow St",
    "address_councildis": "A",
    "status": "Pending",
    "contractor": "Royal Engineering",
    "rowid": "858351",
    "final_x": "3663079.54611",
    "final_y": "528246.742528",
    "longitude": "-90.12634463644493",
    "latitude": "29.94704171444825",
    "geocoded_column": {
      "latitude": "29.94704171444825",
      "longitude": "-90.12634463644493"
    }
  },
  {
    "service_request": "2022-858350",
    "request_type": "Trash/Recycling",
    "request_reason": "Repair Trash Cart",
    "date_created": "2022-02-02T12:45:15.000",
    "date_modified": "2022-02-02T12:45:36.000",
    "request_status": "Pending",
    "responsible_agency": "Department of Sanitation",
    "final_address": "3711 Chestnut St",
    "address_councildis": "B",
    "status": "Assigned to Contractor",
    "contractor": "Richards Disposal",
    "rowid": "858350",
    "final_x": "3673343.33179",
    "final_y": "519905.821304",
    "longitude": "-90.0942227749722",
    "latitude": "29.923805618143746",
    "geocoded_column": {
      "latitude": "29.923805618143746",
      "longitude": "-90.0942227749722"
    }
  },
  {
    "service_request": "2022-858348",
    "request_type": "Parks & Parkways",
    "request_reason": "Request Tree Service (Right of Way/Public Property)",
    "date_created": "2022-02-02T12:41:52.000",
    "date_modified": "2022-02-02T12:41:52.000",
    "request_status": "Pending",
    "responsible_agency": "Department of Parks & Parkway",
    "final_address": "1807 Rev. John Raphael, Jr. Way",
    "address_councildis": "B",
    "status": "Pending",
    "rowid": "858348",
    "final_x": "3676300.65704",
    "final_y": "526650.657086",
    "longitude": "-90.08465554477145",
    "latitude": "29.94226344809508",
    "geocoded_column": {
      "latitude": "29.94226344809508",
      "longitude": "-90.08465554477145"
    }
  },
  {
    "service_request": "2022-858347",
    "request_type": "Traffic Signals/Signs/Striping/Streetlights",
    "request_reason": "Street Light Outage/Malfunction",
    "date_created": "2022-02-02T12:41:20.000",
    "date_modified": "2022-02-02T12:42:33.000",
    "request_status": "Pending",
    "responsible_agency": "Department of Public Works",
    "final_address": "JOSEPHINE ST & CLARA ST",
    "address_councildis": "B",
    "status": "Pending",
    "contractor": "Royal Engineering",
    "rowid": "858347",
    "final_x": "3675338.1",
    "final_y": "527289.48",
    "longitude": "-90.08767262777344",
    "latitude": "29.944048808153585",
    "geocoded_column": {
      "latitude": "29.944048808153585",
      "longitude": "-90.08767262777344"
    }
  },
  {
    "service_request": "2022-858346",
    "request_type": "Trash/Recycling",
    "request_reason": "Repair Recycling Cart",
    "date_created": "2022-02-02T12:40:41.000",
    "date_modified": "2022-02-02T12:40:41.000",
    "request_status": "Pending",
    "responsible_agency": "Department of Sanitation",
    "final_address": "2861 Hyman Pl",
    "address_councildis": "C",
    "status": "Pending",
    "rowid": "858346",
    "final_x": "3700951.5242",
    "final_y": "520381.385848",
    "longitude": "-90.0070569237828",
    "latitude": "29.924263460936462",
    "geocoded_column": {
      "latitude": "29.924263460936462",
      "longitude": "-90.0070569237828"
    }
  },
  {
    "service_request": "2022-858345",
    "request_type": "Abandoned Vehicles",
    "request_reason": "Vehicle Blocking Your Driveway",
    "date_created": "2022-02-02T12:39:05.000",
    "date_modified": "2022-02-02T12:39:05.000",
    "request_status": "Pending",
    "responsible_agency": "Department of Public Works",
    "final_address": "1540 St Roch Ave",
    "address_councildis": "C",
    "status": "Pending",
    "rowid": "858345",
    "final_x": "3686247.89218",
    "final_y": "538209.580169",
    "longitude": "-90.05284216507283",
    "latitude": "29.973744698300056",
    "geocoded_column": {
      "latitude": "29.973744698300056",
      "longitude": "-90.05284216507283"
    }
  },
  {
    "service_request": "2022-858344",
    "request_type": "Trash/Recycling",
    "request_reason": "Illegal Dumping",
    "date_created": "2022-02-02T12:38:56.000",
    "date_modified": "2022-02-02T12:38:56.000",
    "request_status": "Pending",
    "responsible_agency": "Department of Sanitation",
    "final_address": "6744 Cindy Pl",
    "address_councildis": "E",
    "status": "Pending",
    "rowid": "858344",
    "final_x": "3707101.4602",
    "final_y": "558820.1119",
    "longitude": "-89.98621737697741",
    "latitude": "30.02975857167119",
    "geocoded_column": {
      "latitude": "30.02975857167119",
      "longitude": "-89.98621737697741"
    }
  },
  {
    "service_request": "2022-858343",
    "request_type": "Trash/Recycling",
    "request_reason": "MIssed Recycling Pick-Up",
    "date_created": "2022-02-02T12:38:43.000",
    "date_modified": "2022-02-02T12:38:44.000",
    "request_status": "Pending",
    "responsible_agency": "Department of Sanitation",
    "final_address": "5640 Bentley Dr",
    "address_councildis": "E",
    "status": "Assigned to Contractor",
    "contractor": "Metro Disposal",
    "rowid": "858343",
    "final_x": "3703745.10698",
    "final_y": "556864.187738",
    "longitude": "-89.99689543091137",
    "latitude": "30.02448860981308",
    "geocoded_column": {
      "latitude": "30.02448860981308",
      "longitude": "-89.99689543091137"
    }
  },
  {
    "service_request": "2022-858342",
    "request_type": "Trash/Recycling",
    "request_reason": "Replace Recycling Cart",
    "date_created": "2022-02-02T12:37:49.000",
    "date_modified": "2022-02-02T12:37:49.000",
    "request_status": "Pending",
    "responsible_agency": "Department of Sanitation",
    "final_address": "1028 Joseph St",
    "address_councildis": "A",
    "status": "Pending",
    "rowid": "858342",
    "final_x": "3666271.46612",
    "final_y": "519780.839608",
    "longitude": "-90.11655036694887",
    "latitude": "29.92367034540412",
    "geocoded_column": {
      "latitude": "29.92367034540412",
      "longitude": "-90.11655036694887"
    }
  },
  {
    "service_request": "2022-858341",
    "request_type": "Roads/Drainage",
    "request_reason": "Street Flooding / Drainage",
    "date_created": "2022-02-02T12:33:37.000",
    "date_modified": "2022-02-02T12:33:37.000",
    "request_status": "Pending",
    "responsible_agency": "Department of Public Works",
    "final_address": "3240 Nashville Ave",
    "address_councildis": "A",
    "status": "Pending",
    "rowid": "858341",
    "final_x": "3667882.07303",
    "final_y": "527779.398399",
    "longitude": "-90.11119695740331",
    "latitude": "29.94561669520137",
    "geocoded_column": {
      "latitude": "29.94561669520137",
      "longitude": "-90.11119695740331"
    }
  },
  {
    "service_request": "2022-858339",
    "request_type": "Traffic Signals/Signs/Striping/Streetlights",
    "request_reason": "Traffic Signal Malfunctioning/Damaged",
    "date_created": "2022-02-02T12:30:51.000",
    "date_modified": "2022-02-02T12:30:51.000",
    "request_status": "Pending",
    "responsible_agency": "Department of Public Works",
    "final_address": "S CLAIBORNE AVE & TOLEDANO ST",
    "address_councildis": "B",
    "status": "Pending",
    "rowid": "858339",
    "final_x": "3672686.1",
    "final_y": "526316.28",
    "longitude": "-90.09607892276615",
    "latitude": "29.941451833708907",
    "geocoded_column": {
      "latitude": "29.941451833708907",
      "longitude": "-90.09607892276615"
    }
  },
  {
    "service_request": "2022-858338",
    "request_type": "Roads/Drainage",
    "request_reason": "Pothole",
    "date_created": "2022-02-02T12:28:20.000",
    "date_modified": "2022-02-02T12:29:15.000",
    "request_status": "Pending",
    "responsible_agency": "Department of Public Works",
    "final_address": "ST CHARLES AVE & STATE ST",
    "address_councildis": "A",
    "status": "Pending",
    "rowid": "858338",
    "final_x": "3665749.4",
    "final_y": "522436.58",
    "longitude": "-90.11810943646248",
    "latitude": "29.930988026619243",
    "geocoded_column": {
      "latitude": "29.930988026619243",
      "longitude": "-90.11810943646248"
    }
  },
  {
    "service_request": "2022-858337",
    "request_type": "Trash/Recycling",
    "request_reason": "Request a Large Item Pick Up",
    "date_created": "2022-02-02T12:25:42.000",
    "date_modified": "2022-02-02T12:25:57.000",
    "request_status": "Pending",
    "responsible_agency": "Department of Sanitation",
    "final_address": "49 Hawk St",
    "address_councildis": "D",
    "status": "Assigned to Contractor",
    "contractor": "Metro Disposal",
    "rowid": "858337",
    "final_x": "3672763.65032",
    "final_y": "555375.271769",
    "longitude": "-90.09484244783512",
    "latitude": "30.021351812005445",
    "geocoded_column": {
      "latitude": "30.021351812005445",
      "longitude": "-90.09484244783512"
    }
  },
  {
    "service_request": "2022-858336",
    "request_type": "Traffic Signals/Signs/Striping/Streetlights",
    "request_reason": "Traffic Signal Malfunctioning/Damaged",
    "date_created": "2022-02-02T12:19:12.000",
    "date_modified": "2022-02-02T12:19:12.000",
    "request_status": "Pending",
    "responsible_agency": "Department of Public Works",
    "final_address": "S CARROLLTON AVE & S CLAIBORNE AVE",
    "address_councildis": "A",
    "status": "Pending",
    "rowid": "858336",
    "final_x": "3664907.5",
    "final_y": "531545.98",
    "longitude": "-90.120462817646",
    "latitude": "29.956060477053942",
    "geocoded_column": {
      "latitude": "29.956060477053942",
      "longitude": "-90.120462817646"
    }
  },
  {
    "service_request": "2022-858335",
    "request_type": "Roads/Drainage",
    "request_reason": "Pothole",
    "date_created": "2022-02-02T12:12:20.000",
    "date_modified": "2022-02-02T12:12:20.000",
    "request_status": "Pending",
    "responsible_agency": "Department of Public Works",
    "final_address": "7919 Alabama St",
    "address_councildis": "D",
    "status": "Pending",
    "rowid": "858335",
    "final_x": "3694679.92746",
    "final_y": "559505.366429",
    "longitude": "-90.02544441060382",
    "latitude": "30.032038450860746",
    "geocoded_column": {
      "latitude": "30.032038450860746",
      "longitude": "-90.02544441060382"
    }
  },