[
  {
    "service_request": "2024-1116998",
    "request_type": "Trash/Recycling",
    "request_reason": "Order Recycling Cart",
    "date_created": "2024-07-29T23:20:08.000",
    "date_modified": "2024-07-29T23:20:08.000",
    "request_status": "Pending",
    "responsible_agency": "Department of Sanitation",
    "final_address": "980 Germain St",
    "address_councildis": "A",
    "status": "Pending",
    "rowid": "1116998",
    "final_x": "3670716.48046",
    "final_y": "547675.959314",
    "longitude": "-90.10157247771906",
    "latitude": "30.000242100495814",
    "geocoded_column": {
      "latitude": "30.000242100495814",
      "longitude": "-90.10157247771906"
    }
  },
  {
    "service_request": "2024-1116997",
    "request_type": "Trash/Recycling",
    "request_reason": "Order Recycling Cart",
    "date_created": "2024-07-29T23:16:52.000",
    "date_modified": "2024-07-29T23:16:52.000",
    "request_status": "Pending",
    "responsible_agency": "Department of Sanitation",
    "final_address": "220 S Hennessey St",
    "address_councildis": "A",
    "status": "Pending",
    "rowid": "1116997",
    "final_x": "3669932.48282",
    "final_y": "538423.702409",
    "longitude": "-90.10436266678785",
    "latitude": "29.97482471113424",
    "geocoded_column": {
      "latitude": "29.97482471113424",
      "longitude": "-90.10436266678785"
    }
  },
  {
    "service_request": "2024-1116996",
    "request_type": "Roads/Drainage",
    "request_reason": "Pothole",
    "date_created": "2024-07-29T23:06:44.000",
    "date_modified": "2024-07-29T23:06:44.000",
    "request_status": "Pending",
    "responsible_agency": "Department of Public Works",
    "final_address": "1112 Constantinople St",
    "address_councildis": "B",
    "status": "Pending",
    "rowid": "1116996",
    "final_x": "3672348.95259",
    "final_y": "519796.384952",
    "longitude": "-90.09736540233975",
    "latitude": "29.923534233550217",
    "geocoded_column": {
      "latitude": "29.923534233550217",
      "longitude": "-90.09736540233975"
    }
  },
  {
    "service_request": "2024-1116995",
    "request_type": "Roads/Drainage",
    "request_reason": "Pothole",
    "date_created": "2024-07-29T23:05:42.000",
    "date_modified": "2024-07-29T23:05:42.000",
    "request_status": "Pending",
    "responsible_agency": "Department of Public Works",
    "final_address": "1312 Milan St",
    "address_councildis": "B",
    "status": "Pending",
    "rowid": "1116995",
    "final_x": "3671625.82823",
    "final_y": "520286.919608",
    "longitude": "-90.09963137110304",
    "latitude": "29.92490447494246",
    "geocoded_column": {
      "latitude": "29.92490447494246",
      "longitude": "-90.09963137110304"
    }
  },
  {
    "service_request": "2024-1116994",
    "request_type": "Roads/Drainage",
    "request_reason": "Pothole",
    "date_created": "2024-07-29T23:04:54.000",
    "date_modified": "2024-07-29T23:04:54.000",
    "request_status": "Pending",
    "responsible_agency": "Department of Public Works",
    "final_address": "1215 Constantinople St",
    "address_councildis": "B",
    "status": "Pending",
    "rowid": "1116994",
    "final_x": "3672469.46951",
    "final_y": "520132.538744",
    "longitude": "-90.09697352498019",
    "latitude": "29.92445497389438",
    "geocoded_column": {
      "latitude": "29.92445497389438",
      "longitude": "-90.09697352498019"
    }
  },
  {
    "service_request": "2024-1116993",
    "request_type": "Roads/Drainage",
    "request_reason": "Pothole",
    "date_created": "2024-07-29T23:03:33.000",
    "date_modified": "2024-07-29T23:03:33.000",
    "request_status": "Pending",
    "responsible_agency": "Department of Public Works",
    "final_address": "1500 BLK Constantinople St",
    "address_councildis": "B",
    "status": "Pending",
    "rowid": "1116993",
    "final_x": "3672328.00373",
    "final_y": "520842.210728",
    "longitude": "-90.09739592160561",
    "latitude": "29.9264105408849",
    "geocoded_column": {
      "latitude": "29.9264105408849",
      "longitude": "-90.09739592160561"
    }
  },
  {
    "service_request": "2024-1116992",
    "request_type": "Traffic Signals/Signs/Striping/Streetlights",
    "request_reason": "Street Light Outage/Malfunction",
    "date_created": "2024-07-29T22:52:42.000",
    "date_modified": "2024-07-29T22:52:43.000",
    "request_status": "Pending",
    "responsible_agency": "Department of Public Works",
    "final_address": "7181 Wayside Dr",
    "address_councildis": "E",
    "status": "Assigned to Contractor",
    "contractor": "Legacy Professional Services",
    "rowid": "1116992",
    "final_x": "3717360.85362",
    "final_y": "568324.475685",
    "longitude": "-89.95343649099097",
    "latitude": "30.05555606617168",
    "geocoded_column": {
      "latitude": "30.05555606617168",
      "longitude": "-89.95343649099097"
    }
  },
  {
    "service_request": "2024-1116991",
    "request_type": "Traffic Signals/Signs/Striping/Streetlights",
    "request_reason": "Street Light Outage/Malfunction",
    "date_created": "2024-07-29T22:34:29.000",
    "date_modified": "2024-07-29T22:34:30.000",
    "request_status": "Pending",
    "responsible_agency": "Department of Public Works",
    "final_address": "800 BLK N dOrgenois St",
    "address_councildis": "D",
    "status": "Assigned to Contractor",
    "contractor": "Legacy Professional Services",
    "rowid": "1116991",
    "final_x": "3677480.8763",
    "final_y": "537031.73642",
    "longitude": "-90.08057099221003",
    "latitude": "29.970772509266542",
    "geocoded_column": {
      "latitude": "29.970772509266542",
      "longitude": "-90.08057099221003"
    }
  },
  {
    "service_request": "2024-1116990",
    "request_type": "Trash/Recycling",
    "request_reason": "Request a Large Item Pick Up",
    "date_created": "2024-07-29T22:27:53.000",
    "date_modified": "2024-07-29T22:27:54.000",
    "request_status": "Pending",
    "responsible_agency": "Department of Sanitation",
    "final_address": "6928 Lamb Rd",
    "address_councildis": "D",
    "status": "Assigned to Contractor",
    "contractor": "Waste Pro",
    "rowid": "1116990",
    "final_x": "3697684.56426",
    "final_y": "556884.112666",
    "longitude": "-90.01604484846655",
    "latitude": "30.024736364694895",
    "geocoded_column": {
      "latitude": "30.024736364694895",
      "longitude": "-90.01604484846655"
    }
  },
  {
    "service_request": "2024-1116989",
    "request_type": "Trash/Recycling",
    "request_reason": "Replace Trash Cart",
    "date_created": "2024-07-29T22:23:43.000",
    "date_modified": "2024-07-29T22:23:44.000",
    "request_status": "Pending",
    "responsible_agency": "Department of Sanitation",
    "final_address": "2020 Palmer Ave",
    "address_councildis": "A",
    "status": "Assigned to Contractor",
    "contractor": "IV Waste",
    "rowid": "1116989",
    "final_x": "3665829.49319",
    "final_y": "524473.99462",
    "longitude": "-90.11778836092859",
    "latitude": "29.936587932801064",
    "geocoded_column": {
      "latitude": "29.936587932801064",
      "longitude": "-90.11778836092859"
    }
  },
  {
    "service_request": "2024-1116988",
    "request_type": "Roads/Drainage",
    "request_reason": "Street Flooding / Drainage",
    "date_created": "2024-07-29T22:09:42.000",
    "date_modified": "2024-07-29T22:09:42.000",
    "request_status": "Pending",
    "responsible_agency": "Department of Public Works",
    "final_address": "4565 Skyview Dr",
    "address_councildis": "D",
    "status": "Pending",
    "rowid": "1116988",
    "final_x": "3696794.77725",
    "final_y": "553274.151383",
    "longitude": "-90.01898725418026",
    "latitude": "30.014838434206933",
    "geocoded_column": {
      "latitude": "30.014838434206933",
      "longitude": "-90.01898725418026"
    }
  },
  {
    "service_request": "2024-1116987",
    "request_type": "Property Maintenance",
    "request_reason": "Property Maintenance",
    "date_created": "2024-07-29T22:07:54.000",
    "date_modified": "2024-07-29T22:07:54.000",
    "request_status": "Pending",
    "responsible_agency": "Department of Code Enforcement",
    "final_address": "6060 Airway St",
    "address_councildis": "D",
    "status": "Pending",
    "rowid": "1116987",
    "final_x": "3696764.88803",
    "final_y": "552827.867094",
    "longitude": "-90.01909786185159",
    "latitude": "30.013612262916876",
    "geocoded_column": {
      "latitude": "30.013612262916876",
      "longitude": "-90.01909786185159"
    }
  },
  {
    "service_request": "2024-1116986",
    "request_type": "Property Maintenance",
    "request_reason": "Property Maintenance",
    "date_created": "2024-07-29T22:07:06.000",
    "date_modified": "2024-07-29T22:07:06.000",
    "request_status": "Pending",
    "responsible_agency": "Department of Code Enforcement",
    "final_address": "6061 Boeing St",
    "address_councildis": "D",
    "status": "Pending",
    "rowid": "1116986",
    "final_x": "3696751.71709",
    "final_y": "552979.083479",
    "longitude": "-90.01913399532106",
    "latitude": "30.014028466504335",
    "geocoded_column": {
      "latitude": "30.014028466504335",
      "longitude": "-90.01913399532106"
    }
  },
  {
    "service_request": "2024-1116985",
    "request_type": "Property Maintenance",
    "request_reason": "Property Maintenance",
    "date_created": "2024-07-29T22:05:47.000",
    "date_modified": "2024-07-29T22:05:47.000",
    "request_status": "Pending",
    "responsible_agency": "Department of Code Enforcement",
    "final_address": "4533 Skyview Dr",
    "address_councildis": "D",
    "status": "Pending",
    "rowid": "1116985",
    "final_x": "3696852.56336",
    "final_y": "553095.967767",
    "longitude": "-90.01881113738328",
    "latitude": "30.01434667361951",
    "geocoded_column": {
      "latitude": "30.01434667361951",
      "longitude": "-90.01881113738328"
    }
  },
  {
    "service_request": "2024-1116984",
    "request_type": "Property Maintenance",
    "request_reason": "Property Maintenance",
    "date_created": "2024-07-29T22:04:39.000",
    "date_modified": "2024-07-29T22:04:39.000",
    "request_status": "Pending",
    "responsible_agency": "Department of Code Enforcement",
    "final_address": "4565 Skyview Dr",
    "address_councildis": "D",
    "status": "Pending",
    "rowid": "1116984",
    "final_x": "3696794.77725",
    "final_y": "553274.151383",
    "longitude": "-90.01898725418026",
    "latitude": "30.014838434206933",
    "geocoded_column": {
      "latitude": "30.014838434206933",
      "longitude": "-90.01898725418026"
    }
  },
  {
    "service_request": "2024-1116983",
    "request_type": "Property Maintenance",
    "request_reason": "Property Maintenance",
    "date_created": "2024-07-29T22:03:54.000",
    "date_modified": "2024-07-29T22:03:54.000",
    "request_status": "Pending",
    "responsible_agency": "Department of Code Enforcement",
    "final_address": "6061 Beechcraft St",
    "address_councildis": "D",
    "status": "Pending",
    "rowid": "1116983",
    "final_x": "3696729.8952",
    "final_y": "553223.586839",
    "longitude": "-90.01919408136293",
    "latitude": "30.014701446951612",
    "geocoded_column": {
      "latitude": "30.014701446951612",
      "longitude": "-90.01919408136293"
    }
  },
  {
    "service_request": "2024-1116982",
    "request_type": "Property Maintenance",
    "request_reason": "Property Maintenance",
    "date_created": "2024-07-29T22:02:33.000",
    "date_modified": "2024-07-29T22:02:33.000",
    "request_status": "Pending",
    "responsible_agency": "Department of Code Enforcement",
    "final_address": "6061 Boeing St",
    "address_councildis": "D",
    "status": "Pending",
    "rowid": "1116982",
    "final_x": "3696751.71709",
    "final_y": "552979.083479",
    "longitude": "-90.01913399532106",
    "latitude": "30.014028466504335",
    "geocoded_column": {
      "latitude": "30.014028466504335",
      "longitude": "-90.01913399532106"
    }
  },
  {
    "service_request": "2024-1116981",
    "request_type": "Traffic Signals/Signs/Striping/Streetlights",
    "request_reason": "Street Light Outage/Malfunction",
    "date_created": "2024-07-29T22:01:21.000",
    "date_modified": "2024-07-29T22:01:22.000",
    "request_status": "Pending",
    "responsible_agency": "Department of Public Works",
    "final_address": "4710 Gabriel Dr",
    "address_councildis": "E",
    "status": "Assigned to Contractor",
    "contractor": "Legacy Professional Services",
    "rowid": "1116981",
    "final_x": "3708835.52331",
    "final_y": "555519.196569",
    "longitude": "-89.98086092185333",
    "latitude": "30.020626177255263",
    "geocoded_column": {
      "latitude": "30.020626177255263",
      "longitude": "-89.98086092185333"
    }
  },
  {
    "service_request": "2024-1116980",
    "request_type": "Property Maintenance",
    "request_reason": "Property Maintenance",
    "date_created": "2024-07-29T22:00:32.000",
    "date_modified": "2024-07-29T22:00:32.000",
    "request_status": "Pending",
    "responsible_agency": "Department of Code Enforcement",
    "final_address": "6000 Boeing St",
    "address_councildis": "D",
    "status": "Pending",
    "rowid": "1116980",
    "final_x": "3696542.27747",
    "final_y": "553026.576279",
    "longitude": "-90.01979399465314",
    "latitude": "30.014165657162362",
    "geocoded_column": {
      "latitude": "30.014165657162362",
      "longitude": "-90.01979399465314"
    }
  },
  {
    "service_request": "2024-1116979",
    "request_type": "Roads/Drainage",
    "request_reason": "Street Flooding / Drainage",
    "date_created": "2024-07-29T21:58:43.000",
    "date_modified": "2024-07-29T21:58:43.000",
    "request_status": "Pending",
    "responsible_agency": "Department of Public Works",
    "final_address": "5925 Boeing St",
    "address_councildis": "D",
    "status": "Pending",
    "rowid": "1116979",
    "final_x": "3696419.94691",
    "final_y": "552944.666071",
    "longitude": "-90.02018346150278",
    "latitude": "30.013944290223694",
    "geocoded_column": {
      "latitude": "30.013944290223694",
      "longitude": "-90.02018346150278"
    }
  },
  {
    "service_request": "2024-1116978",
    "request_type": "Property Maintenance",
    "request_reason": "Property Maintenance",
    "date_created": "2024-07-29T21:56:11.000",
    "date_modified": "2024-07-29T21:56:11.000",
    "request_status": "Pending",
    "responsible_agency": "Department of Code Enforcement",
    "final_address": "5931 Boeing St",
    "address_councildis": "D",
    "status": "Pending",
    "rowid": "1116978",
    "final_x": "3696440.30986",
    "final_y": "552947.854615",
    "longitude": "-90.02011900984452",
    "latitude": "30.013952415844948",
    "geocoded_column": {
      "latitude": "30.013952415844948",
      "longitude": "-90.02011900984452"
    }
  },
  {
    "service_request": "2024-1116977",
    "request_type": "Property Maintenance",
    "request_reason": "Property Maintenance",
    "date_created": "2024-07-29T21:54:35.000",
    "date_modified": "2024-07-29T21:54:35.000",
    "request_status": "Pending",
    "responsible_agency": "Department of Code Enforcement",
    "final_address": "5932 Boeing St",
    "address_councildis": "D",
    "status": "Pending",
    "rowid": "1116977",
    "final_x": "3696450.40144",
    "final_y": "553018.992599",
    "longitude": "-90.0200845497927",
    "latitude": "30.0141477005554",
    "geocoded_column": {
      "latitude": "30.0141477005554",
      "longitude": "-90.0200845497927"
    }
  },
  {
    "service_request": "2024-1116976",
    "request_type": "Traffic Signals/Signs/Striping/Streetlights",
    "request_reason": "Street Light Outage/Malfunction",
    "date_created": "2024-07-29T21:52:35.000",
    "date_modified": "2024-07-29T21:52:36.000",
    "request_status": "Pending",
    "responsible_agency": "Department of Public Works",
    "final_address": "MONROE ST & PONTCHARTRAIN BLVD",
    "address_councildis": "A",
    "status": "Assigned to Contractor",
    "contractor": "Legacy Professional Services",
    "rowid": "1116976",
    "final_x": "3667758.1",
    "final_y": "537907.58",
    "longitude": "-90.11124732341791",
    "latitude": "29.973469493984307",
    "geocoded_column": {
      "latitude": "29.973469493984307",
      "longitude": "-90.11124732341791"
    }
  },
  {
    "service_request": "2024-1116975",
    "request_type": "Property Maintenance",
    "request_reason": "Property Maintenance",
    "date_created": "2024-07-29T21:52:19.000",
    "date_modified": "2024-07-29T21:52:19.000",
    "request_status": "Pending",
    "responsible_agency": "Department of Code Enforcement",
    "final_address": "5955 Boeing St",
    "address_councildis": "D",
    "status": "Pending",
    "rowid": "1116975",
    "final_x": "3696525.82026",
    "final_y": "552952.870231",
    "longitude": "-90.01984866033285",
    "latitude": "30.01396351195885",
    "geocoded_column": {
      "latitude": "30.01396351195885",
      "longitude": "-90.01984866033285"
    }
  },
  {
    "service_request": "2024-1116974",
    "request_type": "Traffic Signals/Signs/Striping/Streetlights",
    "request_reason": "Street Light Outage/Malfunction",
    "date_created": "2024-07-29T21:50:50.000",
    "date_modified": "2024-07-29T21:50:51.000",
    "request_status": "Pending",
    "responsible_agency": "Department of Public Works",
    "final_address": "MONROE ST & PONTCHARTRAIN BLVD",
    "address_councildis": "A",
    "status": "Assigned to Contractor",
    "contractor": "Legacy Professional Services",
    "rowid": "1116974",
    "final_x": "3667758.1",
    "final_y": "537907.58",
    "longitude": "-90.11124732341791",
    "latitude": "29.973469493984307",
    "geocoded_column": {
      "latitude": "29.973469493984307",
      "longitude": "-90.11124732341791"
    }
  },
  {
    "service_request": "2024-1116973",
    "request_type": "Property Maintenance",
    "request_reason": "Property Maintenance",
    "date_created": "2024-07-29T21:50:33.000",
    "date_modified": "2024-07-29T21:50:33.000",
    "request_status": "Pending",
    "responsible_agency": "Department of Code Enforcement",
    "final_address": "6018 Airway St",
    "address_councildis": "D",
    "status": "Pending",
    "rowid": "1116973",
    "final_x": "3696619.59306",
    "final_y": "552814.614166",
    "longitude": "-90.01955739599889",
    "latitude": "30.013580403748733",
    "geocoded_column": {
      "latitude": "30.013580403748733",
      "longitude": "-90.01955739599889"
    }
  },
  {
    "service_request": "2024-1116972",
    "request_type": "Property Maintenance",
    "request_reason": "Property Maintenance",
    "date_created": "2024-07-29T21:49:26.000",
    "date_modified": "2024-07-29T21:49:26.000",
    "request_status": "Pending",
    "responsible_agency": "Department of Code Enforcement",
    "final_address": "6012 Airway St",
    "address_councildis": "D",
    "status": "Pending",
    "rowid": "1116972",
    "final_x": "3696596.28106",
    "final_y": "552811.096278",
    "longitude": "-90.01963117680255",
    "latitude": "30.01357146579716",
    "geocoded_column": {
      "latitude": "30.01357146579716",
      "longitude": "-90.01963117680255"
    }
  },
  {
    "service_request": "2024-1116971",
    "request_type": "Property Maintenance",
    "request_reason": "Property Maintenance",
    "date_created": "2024-07-29T21:48:03.000",
    "date_modified": "2024-07-29T21:48:03.000",
    "request_status": "Pending",
    "responsible_agency": "Department of Code Enforcement",
    "final_address": "6006 Airway St",
    "address_councildis": "D",
    "status": "Pending",
    "rowid": "1116971",
    "final_x": "3696578.70896",
    "final_y": "552810.219478",
    "longitude": "-90.01968672693643",
    "latitude": "30.013569608865815",
    "geocoded_column": {
      "latitude": "30.013569608865815",
      "longitude": "-90.01968672693643"
    }
  },
  {
    "service_request": "2024-1116970",
    "request_type": "Roads/Drainage",
    "request_reason": "Pothole",
    "date_created": "2024-07-29T21:35:33.000",
    "date_modified": "2024-07-29T21:35:33.000",
    "request_status": "Pending",
    "responsible_agency": "Department of Public Works",
    "final_address": "5216 Conti St",
    "address_councildis": "A",
    "status": "Pending",
    "rowid": "1116970",
    "final_x": "3668478.34606",
    "final_y": "541732.673996",
    "longitude": "-90.10884353228813",
    "latitude": "29.983966069798658",
    "geocoded_column": {
      "latitude": "29.983966069798658",
      "longitude": "-90.10884353228813"
    }
  },
  {
    "service_request": "2024-1116969",
    "request_type": "Traffic Signals/Signs/Striping/Streetlights",
    "request_reason": "Street Light Outage/Malfunction",
    "date_created": "2024-07-29T21:15:56.000",
    "date_modified": "2024-07-29T21:15:57.000",
    "request_status": "Pending",
    "responsible_agency": "Department of Public Works",
    "final_address": "6854 General Haig St",
    "address_councildis": "A",
    "status": "Assigned to Contractor",
    "contractor": "Legacy Professional Services",
    "rowid": "1116969",
    "final_x": "3670957.52987",
    "final_y": "552940.598935",
    "longitude": "-90.1006320666859",
    "latitude": "30.01471088208776",
    "geocoded_column": {
      "latitude": "30.01471088208776",
      "longitude": "-90.1006320666859"
    }
  },
  {
    "service_request": "2024-1116968",
    "request_type": "Trash/Recycling",
    "request_reason": "Request a Large Item Pick Up",
    "date_created": "2024-07-29T21:04:09.000",
    "date_modified": "2024-07-29T21:04:10.000",
    "request_status": "Pending",
    "responsible_agency": "Department of Sanitation",
    "final_address": "6318 Barrett St",
    "address_councildis": "A",
    "status": "Assigned to Contractor",
    "contractor": "IV Waste",
    "rowid": "1116968",
    "final_x": "3666421.29927",
    "final_y": "526964.480958",
    "longitude": "-90.11583645458713",
    "latitude": "29.943418695200247",
    "geocoded_column": {
      "latitude": "29.943418695200247",
      "longitude": "-90.11583645458713"
    }
  },
  {
    "service_request": "2024-1116967",
    "request_type": "Trash/Recycling",
    "request_reason": "Repair Trash Cart",
    "date_created": "2024-07-29T20:48:48.000",
    "date_modified": "2024-07-29T20:48:49.000",
    "request_status": "Pending",
    "responsible_agency": "Department of Sanitation",
    "final_address": "2721 Marais St",
    "address_councildis": "C",
    "status": "Assigned to Contractor",
    "contractor": "IV Waste",
    "rowid": "1116967",
    "final_x": "3687692.51439",
    "final_y": "536727.522247",
    "longitude": "-90.04833223701542",
    "latitude": "29.969625089605092",
    "geocoded_column": {
      "latitude": "29.969625089605092",
      "longitude": "-90.04833223701542"
    }
  },
  {
    "service_request": "2024-1116966",
    "request_type": "Traffic Signals/Signs/Striping/Streetlights",
    "request_reason": "Street Light Outage/Malfunction",
    "date_created": "2024-07-29T20:38:04.000",
    "date_modified": "2024-07-29T20:38:05.000",
    "request_status": "Pending",
    "responsible_agency": "Department of Public Works",
    "final_address": "2237 Josephine St, New Orleans, Louisiana, 70113",
    "address_councildis": "B",
    "status": "Assigned to Contractor",
    "contractor": "Legacy Professional Services",
    "rowid": "1116966",
    "final_x": "3676360.71093",
    "final_y": "526016.498878",
    "longitude": "-90.08448776282695",
    "latitude": "29.94051792235077",
    "geocoded_column": {
      "latitude": "29.94051792235077",
      "longitude": "-90.08448776282695"
    }
  },
  {
    "service_request": "2024-1116965",
    "request_type": "Trash/Recycling",
    "request_reason": "Start Trash Service",
    "date_created": "2024-07-29T20:21:27.000",
    "date_modified": "2024-07-29T20:21:28.000",
    "request_status": "Pending",
    "responsible_agency": "Department of Sanitation",
    "final_address": "1127 Flanders St",
    "address_councildis": "C",
    "status": "Assigned to Contractor",
    "contractor": "Richards Disposal",
    "rowid": "1116965",
    "final_x": "3696703.14359",
    "final_y": "527143.593471",
    "longitude": "-90.02022289032891",
    "latitude": "29.94299173432746",
    "geocoded_column": {
      "latitude": "29.94299173432746",
      "longitude": "-90.02022289032891"
    }
  },
  {
    "service_request": "2024-1116964",
    "request_type": "Roads/Drainage",
    "request_reason": "Alley Way",
    "date_created": "2024-07-29T20:19:38.000",
    "date_modified": "2024-07-29T20:19:38.000",
    "request_status": "Pending",
    "responsible_agency": "Department of Public Works",
    "final_address": "7021 Wuerpel St",
    "address_councildis": "A",
    "status": "Pending",
    "rowid": "1116964",
    "final_x": "3667407.47757",
    "final_y": "554272.153048",
    "longitude": "-90.11180369871941",
    "latitude": "30.01847672212295",
    "geocoded_column": {
      "latitude": "30.01847672212295",
      "longitude": "-90.11180369871941"
    }
  },
  {
    "service_request": "2024-1116963",
    "request_type": "Trash/Recycling",
    "request_reason": "Illegal Dumping",
    "date_created": "2024-07-29T20:00:49.000",
    "date_modified": "2024-07-29T20:00:49.000",
    "request_status": "Pending",
    "responsible_agency": "Department of Sanitation",
    "final_address": "2525 DAbadie St",
    "address_councildis": "D",
    "status": "Pending",
    "rowid": "1116963",
    "final_x": "3679834.098",
    "final_y": "540564.428683",
    "longitude": "-90.07301651634074",
    "latitude": "29.980415239030865",
    "geocoded_column": {
      "latitude": "29.980415239030865",
      "longitude": "-90.07301651634074"
    }
  },
  {
    "service_request": "2024-1116962",
    "request_type": "Property Maintenance",
    "request_reason": "Property Maintenance",
    "date_created": "2024-07-29T19:59:33.000",
    "date_modified": "2024-07-29T19:59:33.000",
    "request_status": "Pending",
    "responsible_agency": "Department of Code Enforcement",
    "final_address": "812 Bourbon St",
    "address_councildis": "C",
    "status": "Pending",
    "rowid": "1116962",
    "final_x": "3682594.6669",
    "final_y": "533056.043716",
    "longitude": "-90.06456005485782",
    "latitude": "29.959685997433304",
    "geocoded_column": {
      "latitude": "29.959685997433304",
      "longitude": "-90.06456005485782"
    }
  },
  {
    "service_request": "2024-1116961",
    "request_type": "Trash/Recycling",
    "request_reason": "Order Trash Cart",
    "date_created": "2024-07-29T19:50:48.000",
    "date_modified": "2024-07-29T19:50:49.000",
    "request_status": "Pending",
    "responsible_agency": "Department of Sanitation",
    "final_address": "8318 Hickory St",
    "address_councildis": "A",
    "status": "Assigned to Contractor",
    "contractor": "IV Waste",
    "rowid": "1116961",
    "final_x": "3662675.96915",
    "final_y": "530491.319682",
    "longitude": "-90.12754430787379",
    "latitude": "29.95322526269009",
    "geocoded_column": {
      "latitude": "29.95322526269009",
      "longitude": "-90.12754430787379"
    }
  },
  {
    "service_request": "2024-1116959",
    "request_type": "Roads/Drainage",
    "request_reason": "Accessibility Ramps, Curbs and Sidewalk Repair",
    "date_created": "2024-07-29T19:30:02.000",
    "date_modified": "2024-07-29T19:30:02.000",
    "request_status": "Pending",
    "responsible_agency": "Department of Public Works",
    "final_address": "7350 Bullard Ave",
    "address_councildis": "E",
    "status": "Pending",
    "rowid": "1116959",
    "final_x": "3713862.04223",
    "final_y": "566252.264099",
    "longitude": "-89.96457368570867",
    "latitude": "30.049973721572616",
    "geocoded_column": {
      "latitude": "30.049973721572616",
      "longitude": "-89.96457368570867"
    }
  },
  {
    "service_request": "2024-1116958",
    "request_type": "Roads/Drainage",
    "request_reason": "Street Flooding / Drainage",
    "date_created": "2024-07-29T19:26:40.000",
    "date_modified": "2024-07-29T19:26:40.000",
    "request_status": "Pending",
    "responsible_agency": "Department of Public Works",
    "final_address": "3014 St Peter St",
    "address_councildis": "A",
    "status": "Pending",
    "rowid": "1116958",
    "final_x": "3675523.20686",
    "final_y": "537664.0978",
    "longitude": "-90.08673183371553",
    "latitude": "29.972569994735473",
    "geocoded_column": {
      "latitude": "29.972569994735473",
      "longitude": "-90.08673183371553"
    }
  },
  {
    "service_request": "2024-1116957",
    "request_type": "Traffic Signals/Signs/Striping/Streetlights",
    "request_reason": "Street Light Knocked Down/Leaning",
    "date_created": "2024-07-29T19:06:03.000",
    "date_modified": "2024-07-29T19:06:04.000",
    "request_status": "Pending",
    "responsible_agency": "Department of Public Works",
    "final_address": "6301 Canal Blvd",
    "address_councildis": "A",
    "status": "Pending",
    "contractor": "Legacy Professional Services",
    "rowid": "1116957",
    "final_x": "3668805.38932",
    "final_y": "549369.744083",
    "longitude": "-90.10755250041724",
    "latitude": "30.004955769971186",
    "geocoded_column": {
      "latitude": "30.004955769971186",
      "longitude": "-90.10755250041724"
    }
  },
  {
    "service_request": "2024-1116956",
    "request_type": "Roads/Drainage",
    "request_reason": "Pothole",
    "date_created": "2024-07-29T19:05:03.000",
    "date_modified": "2024-07-29T19:05:03.000",
    "request_status": "Pending",
    "responsible_agency": "Department of Public Works",
    "final_address": "5011 Dreux Ave",
    "address_councildis": "D",
    "status": "Pending",
    "rowid": "1116956",
    "final_x": "3691940.28771",
    "final_y": "553448.476887",
    "longitude": "-90.03431880044442",
    "latitude": "30.01546998126646",
    "geocoded_column": {
      "latitude": "30.01546998126646",
      "longitude": "-90.03431880044442"
    }
  },
  {
    "service_request": "2024-1116955",
    "request_type": "Roads/Drainage",
    "request_reason": "Street Flooding / Drainage",
    "date_created": "2024-07-29T19:03:13.000",
    "date_modified": "2024-07-29T19:03:13.000",
    "request_status": "Pending",
    "responsible_agency": "Department of Public Works",
    "final_address": "5011 Dreux Ave",
    "address_councildis": "D",
    "status": "Pending",
    "rowid": "1116955",
    "final_x": "3691940.28771",
    "final_y": "553448.476887",
    "longitude": "-90.03431880044442",
    "latitude": "30.01546998126646",
    "geocoded_column": {
      "latitude": "30.01546998126646",
      "longitude": "-90.03431880044442"
    }
  },
  {
    "service_request": "2024-1116954",
    "request_type": "Trash/Recycling",
    "request_reason": "Request a Large Item Pick Up",
    "date_created": "2024-07-29T19:01:06.000",
    "date_modified": "2024-07-29T19:01:07.000",
    "request_status": "Pending",
    "responsible_agency": "Department of Sanitation",
    "final_address": "6122 Clara St",
    "address_councildis": "A",
    "status": "Assigned to Contractor",
    "contractor": "IV Waste",
    "rowid": "1116954",
    "final_x": "3666504.55681",
    "final_y": "525452.633213",
    "longitude": "-90.11562431493674",
    "latitude": "29.939259167120607",
    "geocoded_column": {
      "latitude": "29.939259167120607",
      "longitude": "-90.11562431493674"
    }
  },
  {
    "service_request": "2024-1116953",
    "request_type": "Trash/Recycling",
    "request_reason": "Replace Trash Cart",
    "date_created": "2024-07-29T18:42:53.000",
    "date_modified": "2024-07-29T18:42:54.000",
    "request_status": "Pending",
    "responsible_agency": "Department of Sanitation",
    "final_address": "1520 Cambronne St",
    "address_councildis": "A",
    "status": "Assigned to Contractor",
    "contractor": "IV Waste",
    "rowid": "1116953",
    "final_x": "3661975.79053",
    "final_y": "530049.989377",
    "longitude": "-90.1297698181394",
    "latitude": "29.95203198776302",
    "geocoded_column": {
      "latitude": "29.95203198776302",
      "longitude": "-90.1297698181394"
    }
  },
  {
    "service_request": "2024-1116952",
    "request_type": "Trash/Recycling",
    "request_reason": "Replace Trash Cart",
    "date_created": "2024-07-29T18:37:23.000",
    "date_modified": "2024-07-29T18:37:24.000",
    "request_status": "Pending",
    "responsible_agency": "Department of Sanitation",
    "final_address": "6331 Caldwell Dr",
    "address_councildis": "D",
    "status": "Assigned to Contractor",
    "contractor": "IV Waste",
    "rowid": "1116952",
    "final_x": "3679082.49352",
    "final_y": "556963.875866",
    "longitude": "-90.07482150866606",
    "latitude": "30.02553058576362",
    "geocoded_column": {
      "latitude": "30.02553058576362",
      "longitude": "-90.07482150866606"
    }
  },
  {
    "service_request": "2024-1116951",
    "request_type": "Roads/Drainage",
    "request_reason": "Street Subsidence (Sinking)",
    "date_created": "2024-07-29T18:30:31.000",
    "date_modified": "2024-07-29T18:30:31.000",
    "request_status": "Pending",
    "responsible_agency": "Department of Public Works",
    "final_address": "1861 Abundance St",
    "address_councildis": "D",
    "status": "Pending",
    "rowid": "1116951",
    "final_x": "3682078.23362",
    "final_y": "543522.363086",
    "longitude": "-90.06582523631855",
    "latitude": "29.988480458819186",
    "geocoded_column": {
      "latitude": "29.988480458819186",
      "longitude": "-90.06582523631855"
    }
  },
  {
    "service_request": "2024-1116950",
    "request_type": "Property Maintenance",
    "request_reason": "Property Maintenance",
    "date_created": "2024-07-29T18:25:46.000",
    "date_modified": "2024-07-29T18:25:46.000",
    "request_status": "Pending",
    "responsible_agency": "Department of Code Enforcement",
    "final_address": "3500 BLK Bacchus Dr",
    "address_councildis": "C",
    "status": "Pending",
    "rowid": "1116950",
    "final_x": "3710109.11715",
    "final_y": "517603.559725",
    "longitude": "-89.97825356792443",
    "latitude": "29.916330782585874",
    "geocoded_column": {
      "latitude": "29.916330782585874",
      "longitude": "-89.97825356792443"
    }
  },
  {
    "service_request": "2024-1116949",
    "request_type": "Property Maintenance",
    "request_reason": "Property Maintenance",
    "date_created": "2024-07-29T18:23:56.000",
    "date_modified": "2024-07-29T18:23:56.000",
    "request_status": "Pending",
    "responsible_agency": "Department of Code Enforcement",
    "final_address": "3500 BLK Bacchus Dr",
    "address_councildis": "C",
    "status": "Pending",
    "rowid": "1116949",
    "final_x": "3710109.11715",
    "final_y": "517603.559725",
    "longitude": "-89.97825356792443",
    "latitude": "29.916330782585874",
    "geocoded_column": {
      "latitude": "29.916330782585874",
      "longitude": "-89.97825356792443"
    }
  },
  {
    "service_request": "2024-1116948",
    "request_type": "Property Maintenance",
    "request_reason": "Property Maintenance",
    "date_created": "2024-07-29T18:21:15.000",
    "date_modified": "2024-07-29T18:21:15.000",
    "request_status": "Pending",
    "responsible_agency": "Department of Code Enforcement",
    "final_address": "3500 BLK Bacchus Dr",
    "address_councildis": "C",
    "status": "Pending",
    "rowid": "1116948",
    "final_x": "3710109.11715",
    "final_y": "517603.559725",
    "longitude": "-89.97825356792443",
    "latitude": "29.916330782585874",
    "geocoded_column": {
      "latitude": "29.916330782585874",
      "longitude": "-89.97825356792443"
    }
  },
  {
    "service_request": "2024-1116947",
    "request_type": "Property Maintenance",
    "request_reason": "Property Maintenance",
    "date_created": "2024-07-29T18:17:07.000",
    "date_modified": "2024-07-29T18:17:07.000",
    "request_status": "Pending",
    "responsible_agency": "Department of Code Enforcement",
    "final_address": "3500 BLK Bacchus Dr",
    "address_councildis": "C",
    "status": "Pending",
    "rowid": "1116947",
    "final_x": "3710109.11715",
    "final_y": "517603.559725",
    "longitude": "-89.97825356792443",
    "latitude": "29.916330782585874",
    "geocoded_column": {
      "latitude": "29.916330782585874",
      "longitude": "-89.97825356792443"
    }
  },
  {
    "service_request": "2024-1116946",
    "request_type": "Property Maintenance",
    "request_reason": "Property Maintenance",
    "date_created": "2024-07-29T18:14:46.000",
    "date_modified": "2024-07-29T18:14:46.000",
    "request_status": "Pending",
    "responsible_agency": "Department of Code Enforcement",
    "final_address": "3500 BLK Bacchus Dr",
    "address_councildis": "C",
    "status": "Pending",
    "rowid": "1116946",
    "final_x": "3710109.11715",
    "final_y": "517603.559725",
    "longitude": "-89.97825356792443",
    "latitude": "29.916330782585874",
    "geocoded_column": {
      "latitude": "29.916330782585874",
      "longitude": "-89.97825356792443"
    }
  },
  {
    "service_request": "2024-1116945",
    "request_type": "Trash/Recycling",
    "request_reason": "Replace Recycling Cart",
    "date_created": "2024-07-29T18:10:30.000",
    "date_modified": "2024-07-29T18:10:30.000",
    "request_status": "Pending",
    "responsible_agency": "Department of Sanitation",
    "final_address": "47 S Lark St",
    "address_councildis": "D",
    "status": "Pending",
    "rowid": "1116945",
    "final_x": "3675338.82357",
    "final_y": "555997.446489",
    "longitude": "-90.08668421035736",
    "latitude": "30.022985782926906",
    "geocoded_column": {
      "latitude": "30.022985782926906",
      "longitude": "-90.08668421035736"
    }
  },
  {
    "service_request": "2024-1116944",
    "request_type": "Trash/Recycling",
    "request_reason": "Order Recycling Cart",
    "date_created": "2024-07-29T18:06:50.000",
    "date_modified": "2024-07-29T18:06:50.000",
    "request_status": "Pending",
    "responsible_agency": "Department of Sanitation",
    "final_address": "6368 Pandora St",
    "address_councildis": "D",
    "status": "Pending",
    "rowid": "1116944",
    "final_x": "3697236.47991",
    "final_y": "557413.826587",
    "longitude": "-90.01744148985628",
    "latitude": "30.02620703248278",
    "geocoded_column": {
      "latitude": "30.02620703248278",
      "longitude": "-90.01744148985628"
    }
  },
  {
    "service_request": "2024-1116943",
    "request_type": "Trash/Recycling",
    "request_reason": "Order Recycling Cart",
    "date_created": "2024-07-29T18:04:18.000",
    "date_modified": "2024-07-29T18:04:18.000",
    "request_status": "Pending",
    "responsible_agency": "Department of Sanitation",
    "final_address": "6368 Pandora St",
    "address_councildis": "D",
    "status": "Pending",
    "rowid": "1116943",
    "final_x": "3697236.47991",
    "final_y": "557413.826587",
    "longitude": "-90.01744148985628",
    "latitude": "30.02620703248278",
    "geocoded_column": {
      "latitude": "30.02620703248278",
      "longitude": "-90.01744148985628"
    }
  },
  {
    "service_request": "2024-1116942",
    "request_type": "Roads/Drainage",
    "request_reason": "Street Subsidence (Sinking)",
    "date_created": "2024-07-29T18:03:13.000",
    "date_modified": "2024-07-29T18:03:13.000",
    "request_status": "Pending",
    "responsible_agency": "Department of Public Works",
    "final_address": "1861 Abundance St",
    "address_councildis": "D",
    "status": "Pending",
    "rowid": "1116942",
    "final_x": "3682078.23362",
    "final_y": "543522.363086",
    "longitude": "-90.06582523631855",
    "latitude": "29.988480458819186",
    "geocoded_column": {
      "latitude": "29.988480458819186",
      "longitude": "-90.06582523631855"
    }
  },
  {
    "service_request": "2024-1116941",
    "request_type": "Roads/Drainage",
    "request_reason": "Catch Basin - Clogged",
    "date_created": "2024-07-29T17:59:43.000",
    "date_modified": "2024-07-29T17:59:43.000",
    "request_status": "Pending",
    "responsible_agency": "Department of Public Works",
    "final_address": "47 S Lark St",
    "address_councildis": "D",
    "status": "Pending",
    "rowid": "1116941",
    "final_x": "3675338.82357",
    "final_y": "555997.446489",
    "longitude": "-90.08668421035736",
    "latitude": "30.022985782926906",
    "geocoded_column": {
      "latitude": "30.022985782926906",
      "longitude": "-90.08668421035736"
    }
  },
  {
    "service_request": "2024-1116940",
    "request_type": "Trash/Recycling",
    "request_reason": "Request a Large Item Pick Up",
    "date_created": "2024-07-29T17:57:12.000",
    "date_modified": "2024-07-29T17:57:13.000",
    "request_status": "Pending",
    "responsible_agency": "Department of Sanitation",
    "final_address": "2301 New York St",
    "address_councildis": "D",
    "status": "Assigned to Contractor",
    "contractor": "IV Waste",
    "rowid": "1116940",
    "final_x": "3684190.08418",
    "final_y": "556724.079322",
    "longitude": "-90.05869070369093",
    "latitude": "30.024715995353056",
    "geocoded_column": {
      "latitude": "30.024715995353056",
      "longitude": "-90.05869070369093"
    }
  },
  {
    "service_request": "2024-1116939",
    "request_type": "Trash/Recycling",
    "request_reason": "Request a Large Item Pick Up",
    "date_created": "2024-07-29T17:50:44.000",
    "date_modified": "2024-07-29T17:50:45.000",
    "request_status": "Pending",
    "responsible_agency": "Department of Sanitation",
    "final_address": "7906 Michigan St",
    "address_councildis": "E",
    "status": "Assigned to Contractor",
    "contractor": "Waste Pro",
    "rowid": "1116939",
    "final_x": "3711133.94168",
    "final_y": "567417.776996",
    "longitude": "-89.97315239291255",
    "latitude": "30.05326773266014",
    "geocoded_column": {
      "latitude": "30.05326773266014",
      "longitude": "-89.97315239291255"
    }
  },
  {
    "service_request": "2024-1116938",
    "request_type": "Trash/Recycling",
    "request_reason": "Replace Trash Cart",
    "date_created": "2024-07-29T17:33:53.000",
    "date_modified": "2024-07-29T17:33:54.000",
    "request_status": "Pending",
    "responsible_agency": "Department of Sanitation",
    "final_address": "4857 Lafon Dr",
    "address_councildis": "E",
    "status": "Assigned to Contractor",
    "contractor": "Waste Pro",
    "rowid": "1116938",
    "final_x": "3701165.61533",
    "final_y": "554922.594648",
    "longitude": "-90.00511723157962",
    "latitude": "30.019232444928576",
    "geocoded_column": {
      "latitude": "30.019232444928576",
      "longitude": "-90.00511723157962"
    }
  },
  {
    "service_request": "2024-1116937",
    "request_type": "Trash/Recycling",
    "request_reason": "Replace Trash Cart",
    "date_created": "2024-07-29T17:33:40.000",
    "date_modified": "2024-07-29T17:33:41.000",
    "request_status": "Pending",
    "responsible_agency": "Department of Sanitation",
    "final_address": "4857 Lafon Dr",
    "address_councildis": "E",
    "status": "Assigned to Contractor",
    "contractor": "Waste Pro",
    "rowid": "1116937",
    "final_x": "3701165.61533",
    "final_y": "554922.594648",
    "longitude": "-90.00511723157962",
    "latitude": "30.019232444928576",
    "geocoded_column": {
      "latitude": "30.019232444928576",
      "longitude": "-90.00511723157962"
    }
  },
  {
    "service_request": "2024-1116936",
    "request_type": "Property Maintenance",
    "request_reason": "Property Maintenance",
    "date_created": "2024-07-29T17:22:00.000",
    "date_modified": "2024-07-29T17:22:00.000",
    "request_status": "Pending",
    "responsible_agency": "Department of Code Enforcement",
    "final_address": "2223 Odin St, New Orleans, Louisiana, 70122",
    "address_councildis": "D",
    "status": "Pending",
    "rowid": "1116936",
    "final_x": "3683870.49794",
    "final_y": "553096.169495",
    "longitude": "-90.05982794903262",
    "latitude": "30.014750347706592",
    "geocoded_column": {
      "latitude": "30.014750347706592",
      "longitude": "-90.05982794903262"
    }
  },
  {
    "service_request": "2024-1116935",
    "request_type": "Trash/Recycling",
    "request_reason": "Replace Trash Cart",
    "date_created": "2024-07-29T17:21:24.000",
    "date_modified": "2024-07-29T17:21:25.000",
    "request_status": "Pending",
    "responsible_agency": "Department of Sanitation",
    "final_address": "2561 Chelsea Dr",
    "address_councildis": "C",
    "status": "Assigned to Contractor",
    "contractor": "Richards Disposal",
    "rowid": "1116935",
    "final_x": "3704196.24042",
    "final_y": "521648.606521",
    "longitude": "-89.99676790382438",
    "latitude": "29.92764421026575",
    "geocoded_column": {
      "latitude": "29.92764421026575",
      "longitude": "-89.99676790382438"
    }
  },
  {
    "service_request": "2024-1116934",
    "request_type": "Trash/Recycling",
    "request_reason": "Request a Large Item Pick Up",
    "date_created": "2024-07-29T17:01:50.000",
    "date_modified": "2024-07-29T17:01:51.000",
    "request_status": "Pending",
    "responsible_agency": "Department of Sanitation",
    "final_address": "5346 Coliseum St",
    "address_councildis": "B",
    "status": "Assigned to Contractor",
    "contractor": "IV Waste",
    "rowid": "1116934",
    "final_x": "3667229.47463",
    "final_y": "519724.148472",
    "longitude": "-90.11352817970793",
    "latitude": "29.923486454836343",
    "geocoded_column": {
      "latitude": "29.923486454836343",
      "longitude": "-90.11352817970793"
    }
  },
  {
    "service_request": "2024-1116933",
    "request_type": "Roads/Drainage",
    "request_reason": "Street Subsidence (Sinking)",
    "date_created": "2024-07-29T17:01:47.000",
    "date_modified": "2024-07-29T17:01:48.000",
    "request_status": "Pending",
    "responsible_agency": "Department of Public Works",
    "final_address": "5724 E Louis Prima Dr",
    "address_councildis": "E",
    "status": "Pending",
    "rowid": "1116933",
    "final_x": "3716173.5918",
    "final_y": "562106.673119",
    "longitude": "-89.95742514791012",
    "latitude": "30.038498906055583",
    "geocoded_column": {
      "latitude": "30.038498906055583",
      "longitude": "-89.95742514791012"
    }
  },
  {
    "service_request": "2024-1116932",
    "request_type": "Trash/Recycling",
    "request_reason": "Request a Large Item Pick Up",
    "date_created": "2024-07-29T17:00:37.000",
    "date_modified": "2024-07-29T17:00:37.000",
    "request_status": "Pending",
    "responsible_agency": "Department of Sanitation",
    "final_address": "5724 E Louis Prima Dr",
    "address_councildis": "E",
    "status": "Assigned to Contractor",
    "contractor": "Waste Pro",
    "rowid": "1116932",
    "final_x": "3716173.5918",
    "final_y": "562106.673119",
    "longitude": "-89.95742514791012",
    "latitude": "30.038498906055583",
    "geocoded_column": {
      "latitude": "30.038498906055583",
      "longitude": "-89.95742514791012"
    }
  },
  {
    "service_request": "2024-1116931",
    "request_type": "Trash/Recycling",
    "request_reason": "Illegal Dumping",
    "date_created": "2024-07-29T16:56:14.000",
    "date_modified": "2024-07-29T16:56:15.000",
    "request_status": "Pending",
    "responsible_agency": "Department of Sanitation",
    "final_address": "4917 N Robertson St",
    "address_councildis": "E",
    "status": "Pending",
    "rowid": "1116931",
    "final_x": "3695959.31139",
    "final_y": "535892.207431",
    "longitude": "-90.02225529152234",
    "latitude": "29.96707076743591",
    "geocoded_column": {
      "latitude": "29.96707076743591",
      "longitude": "-90.02225529152234"
    }
  },
  {
    "service_request": "2024-1116929",
    "request_type": "Roads/Drainage",
    "request_reason": "Debris in Roadway",
    "date_created": "2024-07-29T16:53:39.000",
    "date_modified": "2024-07-29T16:53:39.000",
    "request_status": "Pending",
    "responsible_agency": "Department of Public Works",
    "final_address": "6319 Marshal Foch St",
    "address_councildis": "A",
    "status": "Pending",
    "rowid": "1116929",
    "final_x": "3670082.77767",
    "final_y": "549386.493523",
    "longitude": "-90.10351638896472",
    "latitude": "30.004964189144523",
    "geocoded_column": {
      "latitude": "30.004964189144523",
      "longitude": "-90.10351638896472"
    }
  },
  {
    "service_request": "2024-1116927",
    "request_type": "Healthy Homes",
    "request_reason": "Healthy Homes",
    "date_created": "2024-07-29T16:53:07.000",
    "date_modified": "2024-07-29T16:53:07.000",
    "request_status": "Pending",
    "responsible_agency": "Department of Code Enforcement",
    "final_address": "2908 Palmer Ave",
    "address_councildis": "A",
    "status": "Pending",
    "rowid": "1116927",
    "final_x": "3666981.18074",
    "final_y": "527245.999743",
    "longitude": "-90.11405930009502",
    "latitude": "29.94417641149624",
    "geocoded_column": {
      "latitude": "29.94417641149624",
      "longitude": "-90.11405930009502"
    }
  },
  {
    "service_request": "2024-1116926",
    "request_type": "Healthy Homes",
    "request_reason": "Healthy Homes",
    "date_created": "2024-07-29T16:52:47.000",
    "date_modified": "2024-07-29T16:52:47.000",
    "request_status": "Pending",
    "responsible_agency": "Department of Code Enforcement",
    "final_address": "2908 Palmer Ave",
    "address_councildis": "A",
    "status": "Pending",
    "rowid": "1116926",
    "final_x": "3666981.18074",
    "final_y": "527245.999743",
    "longitude": "-90.11405930009502",
    "latitude": "29.94417641149624",
    "geocoded_column": {
      "latitude": "29.94417641149624",
      "longitude": "-90.11405930009502"
    }
  },
  {
    "service_request": "2024-1116925",
    "request_type": "Trash/Recycling",
    "request_reason": "Request a Large Item Pick Up",
    "date_created": "2024-07-29T16:52:20.000",
    "date_modified": "2024-07-29T16:52:21.000",
    "request_status": "Pending",
    "responsible_agency": "Department of Sanitation",
    "final_address": "4219 Cadiz St",
    "address_councildis": "A",
    "status": "Assigned to Contractor",
    "contractor": "IV Waste",
    "rowid": "1116925",
    "final_x": "3669269.56634",
    "final_y": "528692.814784",
    "longitude": "-90.10678530293944",
    "latitude": "29.948087528014646",
    "geocoded_column": {
      "latitude": "29.948087528014646",
      "longitude": "-90.10678530293944"
    }
  },
  {
    "service_request": "2024-1116924",
    "request_type": "Trash/Recycling",
    "request_reason": "Order Trash Cart",
    "date_created": "2024-07-29T16:52:10.000",
    "date_modified": "2024-07-29T16:52:11.000",
    "request_status": "Pending",
    "responsible_agency": "Department of Sanitation",
    "final_address": "5017 N Miro St",
    "address_councildis": "E",
    "status": "Assigned to Contractor",
    "contractor": "Waste Pro",
    "rowid": "1116924",
    "final_x": "3697274.7153",
    "final_y": "538379.158729",
    "longitude": "-90.01801110658842",
    "latitude": "29.973867541832774",
    "geocoded_column": {
      "latitude": "29.973867541832774",
      "longitude": "-90.01801110658842"
    }
  },
  {
    "service_request": "2024-1116923",
    "request_type": "Trash/Recycling",
    "request_reason": "Request a Large Item Pick Up",
    "date_created": "2024-07-29T16:48:47.000",
    "date_modified": "2024-07-29T16:48:48.000",
    "request_status": "Pending",
    "responsible_agency": "Department of Sanitation",
    "final_address": "10723 Curran Rd",
    "address_councildis": "E",
    "status": "Assigned to Contractor",
    "contractor": "Waste Pro",
    "rowid": "1116923",
    "final_x": "3709675.76337",
    "final_y": "565677.711394",
    "longitude": "-89.97782632867107",
    "latitude": "30.048530768768973",
    "geocoded_column": {
      "latitude": "30.048530768768973",
      "longitude": "-89.97782632867107"
    }
  },
  {
    "service_request": "2024-1116922",
    "request_type": "Abandoned Vehicles",
    "request_reason": "Abandoned/Junk Vehicles",
    "date_created": "2024-07-29T16:48:14.000",
    "date_modified": "2024-07-29T16:48:14.000",
    "request_status": "Pending",
    "responsible_agency": "Department of Public Works",
    "final_address": "4132 Constance St",
    "address_councildis": "B",
    "status": "Pending",
    "rowid": "1116922",
    "final_x": "3671920.31515",
    "final_y": "518468.049462",
    "longitude": "-90.09876363223411",
    "latitude": "29.91989444053458",
    "geocoded_column": {
      "latitude": "29.91989444053458",
      "longitude": "-90.09876363223411"
    }
  },
  {
    "service_request": "2024-1116921",
    "request_type": "Roads/Drainage",
    "request_reason": "Debris in Roadway",
    "date_created": "2024-07-29T16:47:13.000",
    "date_modified": "2024-07-29T16:47:13.000",
    "request_status": "Pending",
    "responsible_agency": "Department of Public Works",
    "final_address": "GENERAL HAIG ST & FILMORE AVE",
    "address_councildis": "A",
    "status": "Pending",
    "rowid": "1116921",
    "final_x": "3670963.8",
    "final_y": "551833.28",
    "longitude": "-90.10064989357925",
    "latitude": "30.011665961399974",
    "geocoded_column": {
      "latitude": "30.011665961399974",
      "longitude": "-90.10064989357925"
    }
  },
  {
    "service_request": "2024-1116920",
    "request_type": "Abandoned Vehicles",
    "request_reason": "Abandoned/Junk Vehicles",
    "date_created": "2024-07-29T16:46:10.000",
    "date_modified": "2024-07-29T16:46:10.000",
    "request_status": "Pending",
    "responsible_agency": "Department of Public Works",
    "final_address": "4132 Constance St",
    "address_councildis": "B",
    "status": "Pending",
    "rowid": "1116920",
    "final_x": "3671920.31515",
    "final_y": "518468.049462",
    "longitude": "-90.09876363223411",
    "latitude": "29.91989444053458",
    "geocoded_column": {
      "latitude": "29.91989444053458",
      "longitude": "-90.09876363223411"
    }
  },
  {
    "service_request": "2024-1116919",
    "request_type": "Roads/Drainage",
    "request_reason": "Catch Basin - Clogged",
    "date_created": "2024-07-29T16:44:01.000",
    "date_modified": "2024-07-29T16:44:02.000",
    "request_status": "Pending",
    "responsible_agency": "Department of Public Works",
    "final_address": "441 Jewel St",
    "address_councildis": "D",
    "status": "Pending",
    "rowid": "1116919",
    "final_x": "3668079.75917",
    "final_y": "555997.786073",
    "longitude": "-90.10962129870178",
    "latitude": "30.0232018770627",
    "geocoded_column": {
      "latitude": "30.0232018770627",
      "longitude": "-90.10962129870178"
    }
  },
  {
    "service_request": "2024-1116918",
    "request_type": "Trash/Recycling",
    "request_reason": "Request a Large Item Pick Up",
    "date_created": "2024-07-29T16:43:44.000",
    "date_modified": "2024-07-29T16:43:45.000",
    "request_status": "Pending",
    "responsible_agency": "Department of Sanitation",
    "final_address": "1426 Esplanade Ave",
    "address_councildis": "C",
    "status": "Assigned to Contractor",
    "contractor": "IV Waste",
    "rowid": "1116918",
    "final_x": "3681582.55221",
    "final_y": "536227.812295",
    "longitude": "-90.06764544744539",
    "latitude": "29.968438051428883",
    "geocoded_column": {
      "latitude": "29.968438051428883",
      "longitude": "-90.06764544744539"
    }
  },
  {
    "service_request": "2024-1116917",
    "request_type": "Roads/Drainage",
    "request_reason": "Street Flooding / Drainage",
    "date_created": "2024-07-29T16:38:52.000",
    "date_modified": "2024-07-29T16:38:52.000",
    "request_status": "Pending",
    "responsible_agency": "Department of Public Works",
    "final_address": "4601 Lafaye St",
    "address_councildis": "D",
    "status": "Pending",
    "rowid": "1116917",
    "final_x": "3687540.63062",
    "final_y": "549770.351892",
    "longitude": "-90.04834997567558",
    "latitude": "30.0054928981776",
    "geocoded_column": {
      "latitude": "30.0054928981776",
      "longitude": "-90.04834997567558"
    }
  },
  {
    "service_request": "2024-1116916",
    "request_type": "Trash/Recycling",
    "request_reason": "Request a Large Item Pick Up",
    "date_created": "2024-07-29T16:33:42.000",
    "date_modified": "2024-07-29T16:33:42.000",
    "request_status": "Pending",
    "responsible_agency": "Department of Sanitation",
    "final_address": "5822 General Diaz St",
    "address_councildis": "A",
    "status": "Assigned to Contractor",
    "contractor": "IV Waste",
    "rowid": "1116916",
    "final_x": "3669308.38452",
    "final_y": "546087.002896",
    "longitude": "-90.10607450814625",
    "latitude": "29.9959145660635",
    "geocoded_column": {
      "latitude": "29.9959145660635",
      "longitude": "-90.10607450814625"
    }
  },
  {
    "service_request": "2024-1116915",
    "request_type": "Roads/Drainage",
    "request_reason": "Damaged Sidewalk",
    "date_created": "2024-07-29T16:32:32.000",
    "date_modified": "2024-07-29T16:39:28.000",
    "request_status": "Pending",
    "responsible_agency": "Department of Public Works",
    "final_address": "4601 Lafaye St",
    "address_councildis": "D",
    "status": "Pending",
    "rowid": "1116915",
    "final_x": "3687540.63062",
    "final_y": "549770.351892",
    "longitude": "-90.04834997567558",
    "latitude": "30.0054928981776",
    "geocoded_column": {
      "latitude": "30.0054928981776",
      "longitude": "-90.04834997567558"
    }
  },
  {
    "service_request": "2024-1116914",
    "request_type": "Abandoned Vehicles",
    "request_reason": "Abandoned/Junk Vehicles",
    "date_created": "2024-07-29T16:31:23.000",
    "date_modified": "2024-07-29T16:31:23.000",
    "request_status": "Pending",
    "responsible_agency": "Department of Public Works",
    "final_address": "2130 Arts St",
    "address_councildis": "D",
    "status": "Pending",
    "rowid": "1116914",
    "final_x": "3686851.65974",
    "final_y": "540415.020747",
    "longitude": "-90.0508573820551",
    "latitude": "29.9797903175076",
    "geocoded_column": {
      "latitude": "29.9797903175076",
      "longitude": "-90.0508573820551"
    }
  },
  {
    "service_request": "2024-1116913",
    "request_type": "Trash/Recycling",
    "request_reason": "Missed Trash Pick-Up",
    "date_created": "2024-07-29T16:28:38.000",
    "date_modified": "2024-07-29T16:28:39.000",
    "request_status": "Pending",
    "responsible_agency": "Department of Sanitation",
    "final_address": "5800 Peoples Ave",
    "address_councildis": "D",
    "status": "Assigned to Contractor",
    "contractor": "IV Waste",
    "rowid": "1116913",
    "final_x": "3687821.23241",
    "final_y": "554606.36284",
    "longitude": "-90.04729202063969",
    "latitude": "30.018781495699415",
    "geocoded_column": {
      "latitude": "30.018781495699415",
      "longitude": "-90.04729202063969"
    }
  },
  {
    "service_request": "2024-1116912",
    "request_type": "Trash/Recycling",
    "request_reason": "Replace Recycling Cart",
    "date_created": "2024-07-29T16:27:18.000",
    "date_modified": "2024-07-29T16:27:18.000",
    "request_status": "Pending",
    "responsible_agency": "Department of Sanitation",
    "final_address": "6965 Louisville St",
    "address_councildis": "A",
    "status": "Pending",
    "rowid": "1116912",
    "final_x": "3668436.47233",
    "final_y": "553897.151319",
    "longitude": "-90.10856510632061",
    "latitude": "30.017415397326047",
    "geocoded_column": {
      "latitude": "30.017415397326047",
      "longitude": "-90.10856510632061"
    }
  },
  {
    "service_request": "2024-1116911",
    "request_type": "Healthy Homes",
    "request_reason": "Healthy Homes",
    "date_created": "2024-07-29T16:22:21.000",
    "date_modified": "2024-07-29T16:22:21.000",
    "request_status": "Pending",
    "responsible_agency": "Department of Code Enforcement",
    "final_address": "0 BLK Audubon Blvd",
    "address_councildis": "A",
    "status": "Pending",
    "rowid": "1116911",
    "final_x": "3665721.60225",
    "final_y": "527591.816651",
    "longitude": "-90.11802457989006",
    "latitude": "29.945164090388623",
    "geocoded_column": {
      "latitude": "29.945164090388623",
      "longitude": "-90.11802457989006"
    }
  },
  {
    "service_request": "2024-1116909",
    "request_type": "Trash/Recycling",
    "request_reason": "Replace Trash Cart",
    "date_created": "2024-07-29T16:21:59.000",
    "date_modified": "2024-07-29T16:22:00.000",
    "request_status": "Pending",
    "responsible_agency": "Department of Sanitation",
    "final_address": "876 Lane St",
    "address_councildis": "A",
    "status": "Assigned to Contractor",
    "contractor": "IV Waste",
    "rowid": "1116909",
    "final_x": "3670039.39073",
    "final_y": "550535.798164",
    "longitude": "-90.10361449077892",
    "latitude": "30.00812565467583",
    "geocoded_column": {
      "latitude": "30.00812565467583",
      "longitude": "-90.10361449077892"
    }
  },
  {
    "service_request": "2024-1116908",
    "request_type": "Trash/Recycling",
    "request_reason": "Request a Large Item Pick Up",
    "date_created": "2024-07-29T16:21:14.000",
    "date_modified": "2024-07-29T16:21:14.000",
    "request_status": "Pending",
    "responsible_agency": "Department of Sanitation",
    "final_address": "6535 Avenue A",
    "address_councildis": "A",
    "status": "Assigned to Contractor",
    "contractor": "IV Waste",
    "rowid": "1116908",
    "final_x": "3666063.11258",
    "final_y": "551619.871189",
    "longitude": "-90.11614043762779",
    "latitude": "30.011223215448414",
    "geocoded_column": {
      "latitude": "30.011223215448414",
      "longitude": "-90.11614043762779"
    }
  },
  {
    "service_request": "2024-1116907",
    "request_type": "Roads/Drainage",
    "request_reason": "Street Subsidence (Sinking)",
    "date_created": "2024-07-29T16:19:22.000",
    "date_modified": "2024-07-29T16:19:22.000",
    "request_status": "Pending",
    "responsible_agency": "Department of Public Works",
    "final_address": "9110 Quince St",
    "address_councildis": "A",
    "status": "Pending",
    "rowid": "1116907",
    "final_x": "3666853.65645",
    "final_y": "539152.676618",
    "longitude": "-90.11406191263113",
    "latitude": "29.976919585807142",
    "geocoded_column": {
      "latitude": "29.976919585807142",
      "longitude": "-90.11406191263113"
    }
  },
  {
    "service_request": "2024-1116906",
    "request_type": "Trash/Recycling",
    "request_reason": "Order Recycling Cart",
    "date_created": "2024-07-29T16:19:03.000",
    "date_modified": "2024-07-29T16:19:04.000",
    "request_status": "Pending",
    "responsible_agency": "Department of Sanitation",
    "final_address": "2686 Hyman Pl",
    "address_councildis": "C",
    "status": "Pending",
    "rowid": "1116906",
    "final_x": "3701091.98609",
    "final_y": "520948.993017",
    "longitude": "-90.00659279144399",
    "latitude": "29.925819713891848",
    "geocoded_column": {
      "latitude": "29.925819713891848",
      "longitude": "-90.00659279144399"
    }
  },
  {
    "service_request": "2024-1116905",
    "request_type": "Trash/Recycling",
    "request_reason": "Request a Large Item Pick Up",
    "date_created": "2024-07-29T16:18:35.000",
    "date_modified": "2024-07-29T16:18:56.000",
    "request_status": "Pending",
    "responsible_agency": "Department of Sanitation",
    "final_address": "818 Opelousas Ave",
    "address_councildis": "C",
    "status": "Assigned to Contractor",
    "contractor": "Richards Disposal",
    "rowid": "1116905",
    "final_x": "3688001.69814",
    "final_y": "529190.373312",
    "longitude": "-90.04762289562579",
    "latitude": "29.94889100049254",
    "geocoded_column": {
      "latitude": "29.94889100049254",
      "longitude": "-90.04762289562579"
    }
  },
  {
    "service_request": "2024-1116904",
    "request_type": "Roads/Drainage",
    "request_reason": "Pothole",
    "date_created": "2024-07-29T16:16:27.000",
    "date_modified": "2024-07-29T16:16:27.000",
    "request_status": "Pending",
    "responsible_agency": "Department of Public Works",
    "final_address": "1400 BLK Valence St",
    "address_councildis": "B",
    "status": "Pending",
    "rowid": "1116904",
    "final_x": "3669784.65285",
    "final_y": "520336.257015",
    "longitude": "-90.1054417057675",
    "latitude": "29.925094517046503",
    "geocoded_column": {
      "latitude": "29.925094517046503",
      "longitude": "-90.1054417057675"
    }
  },
  {
    "service_request": "2024-1116903",
    "request_type": "Parks & Parkways",
    "request_reason": "Request Tree Service (Right of Way/Public Property)",
    "date_created": "2024-07-29T16:15:33.000",
    "date_modified": "2024-07-29T16:15:34.000",
    "request_status": "Pending",
    "responsible_agency": "Department of Parks & Parkway",
    "final_address": "3600 BLK Saint Bernard Ave",
    "address_councildis": "D",
    "status": "Pending",
    "rowid": "1116903",
    "final_x": "3678226.33806",
    "final_y": "545575.653715",
    "longitude": "-90.07792110148031",
    "latitude": "29.99424288547044",
    "geocoded_column": {
      "latitude": "29.99424288547044",
      "longitude": "-90.07792110148031"
    }
  },
  {
    "service_request": "2024-1116902",
    "request_type": "Property Maintenance",
    "request_reason": "Property Maintenance",
    "date_created": "2024-07-29T16:11:45.000",
    "date_modified": "2024-07-29T16:11:46.000",
    "request_status": "Pending",
    "responsible_agency": "Department of Code Enforcement",
    "final_address": "5152 Pauline Dr",
    "address_councildis": "D",
    "status": "Pending",
    "rowid": "1116902",
    "final_x": "3692355.68873",
    "final_y": "553156.910871",
    "longitude": "-90.03301678421654",
    "latitude": "30.014655327937046",
    "geocoded_column": {
      "latitude": "30.014655327937046",
      "longitude": "-90.03301678421654"
    }
  },
  {
    "service_request": "2024-1116901",
    "request_type": "Trash/Recycling",
    "request_reason": "Request a Large Item Pick Up",
    "date_created": "2024-07-29T16:09:48.000",
    "date_modified": "2024-07-29T16:09:49.000",
    "request_status": "Pending",
    "responsible_agency": "Department of Sanitation",
    "final_address": "2735 Napoleon Ave",
    "address_councildis": "B",
    "status": "Assigned to Contractor",
    "contractor": "IV Waste",
    "rowid": "1116901",
    "final_x": "3670532.66401",
    "final_y": "525031.526269",
    "longitude": "-90.10292131509082",
    "latitude": "29.93798293796136",
    "geocoded_column": {
      "latitude": "29.93798293796136",
      "longitude": "-90.10292131509082"
    }
  },
  {
    "service_request": "2024-1116900",
    "request_type": "Trash/Recycling",
    "request_reason": "Repair Trash Cart",
    "date_created": "2024-07-29T16:09:46.000",
    "date_modified": "2024-07-29T16:09:47.000",
    "request_status": "Pending",
    "responsible_agency": "Department of Sanitation",
    "final_address": "2630 Cleveland Ave",
    "address_councildis": "B",
    "status": "Assigned to Contractor",
    "contractor": "IV Waste",
    "rowid": "1116900",
    "final_x": "3675309.97358",
    "final_y": "534545.531589",
    "longitude": "-90.08751234738808",
    "latitude": "29.96400137163148",
    "geocoded_column": {
      "latitude": "29.96400137163148",
      "longitude": "-90.08751234738808"
    }
  },
  {
    "service_request": "2024-1116899",
    "request_type": "Property Maintenance",
    "request_reason": "Property Maintenance",
    "date_created": "2024-07-29T16:08:28.000",
    "date_modified": "2024-07-29T16:08:29.000",
    "request_status": "Pending",
    "responsible_agency": "Department of Code Enforcement",
    "final_address": "7300 Hickman St",
    "address_councildis": "E",
    "status": "Pending",
    "rowid": "1116899",
    "final_x": "3706543.43268",
    "final_y": "562446.634719",
    "longitude": "-89.98784615952005",
    "latitude": "30.039748108554694",
    "geocoded_column": {
      "latitude": "30.039748108554694",
      "longitude": "-89.98784615952005"
    }
  },
  {
    "service_request": "2024-1116898",
    "request_type": "Traffic Signals/Signs/Striping/Streetlights",
    "request_reason": "Traffic Signal Malfunctioning/Damaged",
    "date_created": "2024-07-29T16:07:10.000",
    "date_modified": "2024-07-29T16:07:11.000",
    "request_status": "Pending",
    "responsible_agency": "Department of Public Works",
    "final_address": "ST BERNARD AVE & I 610 E",
    "address_councildis": "D",
    "status": "Pending",
    "rowid": "1116898",
    "final_x": "3678420.3",
    "final_y": "545069.28",
    "longitude": "-90.07732593505737",
    "latitude": "29.992844691153376",
    "geocoded_column": {
      "latitude": "29.992844691153376",
      "longitude": "-90.07732593505737"
    }
  },
  {
    "service_request": "2024-1116897",
    "request_type": "Trash/Recycling",
    "request_reason": "Request a Large Item Pick Up",
    "date_created": "2024-07-29T16:04:00.000",
    "date_modified": "2024-07-29T16:04:00.000",
    "request_status": "Pending",
    "responsible_agency": "Department of Sanitation",
    "final_address": "1429 N Tonti St",
    "address_councildis": "D",
    "status": "Assigned to Contractor",
    "contractor": "IV Waste",
    "rowid": "1116897",
    "final_x": "3679571.61019",
    "final_y": "538437.304649",
    "longitude": "-90.0739194080642",
    "latitude": "29.974574320117295",
    "geocoded_column": {
      "latitude": "29.974574320117295",
      "longitude": "-90.0739194080642"
    }
  },
  {
    "service_request": "2024-1116895",
    "request_type": "Roads/Drainage",
    "request_reason": "Catch Basin - Clogged",
    "date_created": "2024-07-29T16:03:04.000",
    "date_modified": "2024-07-29T16:03:05.000",
    "request_status": "Pending",
    "responsible_agency": "Department of Public Works",
    "final_address": "2001 Pauline St",
    "address_councildis": "D",
    "status": "Pending",
    "rowid": "1116895",
    "final_x": "3692116.8367",
    "final_y": "538865.047113",
    "longitude": "-90.03428336681817",
    "latitude": "29.97536535487577",
    "geocoded_column": {
      "latitude": "29.97536535487577",
      "longitude": "-90.03428336681817"
    }
  },
  {
    "service_request": "2024-1116894",
    "request_type": "Roads/Drainage",
    "request_reason": "Damaged Sidewalk",
    "date_created": "2024-07-29T15:59:32.000",
    "date_modified": "2024-07-29T15:59:32.000",
    "request_status": "Pending",
    "responsible_agency": "Department of Public Works",
    "final_address": "5200 BLK Danneel St",
    "address_councildis": "B",
    "status": "Pending",
    "rowid": "1116894",
    "final_x": "3668060.05328",
    "final_y": "522163.577836",
    "longitude": "-90.11082418753892",
    "latitude": "29.93016977275902",
    "geocoded_column": {
      "latitude": "29.93016977275902",
      "longitude": "-90.11082418753892"
    }
  },
  {
    "service_request": "2024-1116893",
    "request_type": "Trash/Recycling",
    "request_reason": "Request a Large Item Pick Up",
    "date_created": "2024-07-29T15:57:49.000",
    "date_modified": "2024-07-29T15:57:50.000",
    "request_status": "Pending",
    "responsible_agency": "Department of Sanitation",
    "final_address": "5067 Charmes Ct",
    "address_councildis": "E",
    "status": "Assigned to Contractor",
    "contractor": "Waste Pro",
    "rowid": "1116893",
    "final_x": "3726568.20525",
    "final_y": "561350.49027",
    "longitude": "-89.92460525831369",
    "latitude": "30.03607241995089",
    "geocoded_column": {
      "latitude": "30.03607241995089",
      "longitude": "-89.92460525831369"
    }
  },
  {
    "service_request": "2024-1116892",
    "request_type": "Trash/Recycling",
    "request_reason": "Request a Large Item Pick Up",
    "date_created": "2024-07-29T15:56:33.000",
    "date_modified": "2024-07-29T15:56:34.000",
    "request_status": "Pending",
    "responsible_agency": "Department of Sanitation",
    "final_address": "11293 Waverly Dr",
    "address_councildis": "E",
    "status": "Assigned to Contractor",
    "contractor": "Waste Pro",
    "rowid": "1116892",
    "final_x": "3717761.04479",
    "final_y": "560520.893022",
    "longitude": "-89.9524688255522",
    "latitude": "30.034086143834074",
    "geocoded_column": {
      "latitude": "30.034086143834074",
      "longitude": "-89.9524688255522"
    }
  },
  {
    "service_request": "2024-1116891",
    "request_type": "Property Maintenance",
    "request_reason": "Property Maintenance",
    "date_created": "2024-07-29T15:46:53.000",
    "date_modified": "2024-07-29T15:46:54.000",
    "request_status": "Pending",
    "responsible_agency": "Department of Code Enforcement",
    "final_address": "43 Honeysuckle Ln",
    "address_councildis": "E",
    "status": "Pending",
    "rowid": "1116891",
    "final_x": "3713247.4556",
    "final_y": "568263.139237",
    "longitude": "-89.96644032982267",
    "latitude": "30.05552297976686",
    "geocoded_column": {
      "latitude": "30.05552297976686",
      "longitude": "-89.96644032982267"
    }
  },
  {
    "service_request": "2024-1116890",
    "request_type": "Trash/Recycling",
    "request_reason": "Request a Large Item Pick Up",
    "date_created": "2024-07-29T15:46:19.000",
    "date_modified": "2024-07-29T15:46:20.000",
    "request_status": "Pending",
    "responsible_agency": "Department of Sanitation",
    "final_address": "47 Honeysuckle Ln",
    "address_councildis": "E",
    "status": "Assigned to Contractor",
    "contractor": "Waste Pro",
    "rowid": "1116890",
    "final_x": "3713198.22757",
    "final_y": "568195.634661",
    "longitude": "-89.96659847351799",
    "latitude": "30.055338984422793",
    "geocoded_column": {
      "latitude": "30.055338984422793",
      "longitude": "-89.96659847351799"
    }
  },
  {
    "service_request": "2024-1116889",
    "request_type": "Trash/Recycling",
    "request_reason": "Repair Recycling Cart",
    "date_created": "2024-07-29T15:44:27.000",
    "date_modified": "2024-07-29T15:44:28.000",
    "request_status": "Pending",
    "responsible_agency": "Department of Sanitation",
    "final_address": "2318 Beck St",
    "address_councildis": "C",
    "status": "Pending",
    "rowid": "1116889",
    "final_x": "3700459.15229",
    "final_y": "522204.64761",
    "longitude": "-90.00854461807582",
    "latitude": "29.929292463721687",
    "geocoded_column": {
      "latitude": "29.929292463721687",
      "longitude": "-90.00854461807582"
    }
  },
  {
    "service_request": "2024-1116888",
    "request_type": "Trash/Recycling",
    "request_reason": "Repair Trash Cart",
    "date_created": "2024-07-29T15:44:04.000",
    "date_modified": "2024-07-29T15:44:05.000",
    "request_status": "Pending",
    "responsible_agency": "Department of Sanitation",
    "final_address": "2318 Beck St",
    "address_councildis": "C",
    "status": "Assigned to Contractor",
    "contractor": "Richards Disposal",
    "rowid": "1116888",
    "final_x": "3700459.15229",
    "final_y": "522204.64761",
    "longitude": "-90.00854461807582",
    "latitude": "29.929292463721687",
    "geocoded_column": {
      "latitude": "29.929292463721687",
      "longitude": "-90.00854461807582"
    }
  },
  {
    "service_request": "2024-1116887",
    "request_type": "Trash/Recycling",
    "request_reason": "Request a Large Item Pick Up",
    "date_created": "2024-07-29T15:41:20.000",
    "date_modified": "2024-07-29T15:41:21.000",
    "request_status": "Pending",
    "responsible_agency": "Department of Sanitation",
    "final_address": "2633 Mistletoe St",
    "address_councildis": "A",
    "status": "Assigned to Contractor",
    "contractor": "IV Waste",
    "rowid": "1116887",
    "final_x": "3662697.35853",
    "final_y": "534899.846406",
    "longitude": "-90.12733025780763",
    "latitude": "29.965346658694184",
    "geocoded_column": {
      "latitude": "29.965346658694184",
      "longitude": "-90.12733025780763"
    }
  },
  {
    "service_request": "2024-1116886",
    "request_type": "Trash/Recycling",
    "request_reason": "Request a Large Item Pick Up",
    "date_created": "2024-07-29T15:40:47.000",
    "date_modified": "2024-07-29T15:40:48.000",
    "request_status": "Pending",
    "responsible_agency": "Department of Sanitation",
    "final_address": "78 English Turn Dr",
    "address_councildis": "C",
    "status": "Assigned to Contractor",
    "contractor": "Richards Disposal",
    "rowid": "1116886",
    "final_x": "3722564.5358",
    "final_y": "512681.797425",
    "longitude": "-89.93912883413155",
    "latitude": "29.902386802143273",
    "geocoded_column": {
      "latitude": "29.902386802143273",
      "longitude": "-89.93912883413155"
    }
  },
  {
    "service_request": "2024-1116885",
    "request_type": "Property Maintenance",
    "request_reason": "Property Maintenance",
    "date_created": "2024-07-29T15:38:58.000",
    "date_modified": "2024-07-29T15:38:58.000",
    "request_status": "Pending",
    "responsible_agency": "Department of Code Enforcement",
    "final_address": "5129 Bayouview Ct",
    "address_councildis": "E",
    "status": "Pending",
    "rowid": "1116885",
    "final_x": "3699179.08759",
    "final_y": "556291.305818",
    "longitude": "-90.01134404594453",
    "latitude": "30.023059045296186",
    "geocoded_column": {
      "latitude": "30.023059045296186",
      "longitude": "-90.01134404594453"
    }
  },
  {
    "service_request": "2024-1116884",
    "request_type": "Trash/Recycling",
    "request_reason": "Request a Large Item Pick Up",
    "date_created": "2024-07-29T15:38:15.000",
    "date_modified": "2024-07-29T15:38:16.000",
    "request_status": "Pending",
    "responsible_agency": "Department of Sanitation",
    "final_address": "3622 General Pershing St",
    "address_councildis": "B",
    "status": "Assigned to Contractor",
    "contractor": "IV Waste",
    "rowid": "1116884",
    "final_x": "3670490.37486",
    "final_y": "528011.603967",
    "longitude": "-90.10295380081486",
    "latitude": "29.946178431869058",
    "geocoded_column": {
      "latitude": "29.946178431869058",
      "longitude": "-90.10295380081486"
    }
  },
  {
    "service_request": "2024-1116883",
    "request_type": "Property Maintenance",
    "request_reason": "Property Maintenance",
    "date_created": "2024-07-29T15:37:27.000",
    "date_modified": "2024-07-29T15:37:27.000",
    "request_status": "Pending",
    "responsible_agency": "Department of Code Enforcement",
    "final_address": "5129 Bayouview Ct",
    "address_councildis": "E",
    "status": "Pending",
    "rowid": "1116883",
    "final_x": "3699179.08759",
    "final_y": "556291.305818",
    "longitude": "-90.01134404594453",
    "latitude": "30.023059045296186",
    "geocoded_column": {
      "latitude": "30.023059045296186",
      "longitude": "-90.01134404594453"
    }
  },
  {
    "service_request": "2024-1116882",
    "request_type": "Property Maintenance",
    "request_reason": "Property Maintenance",
    "date_created": "2024-07-29T15:31:40.000",
    "date_modified": "2024-07-29T15:31:41.000",
    "request_status": "Pending",
    "responsible_agency": "Department of Code Enforcement",
    "final_address": "3517 Second St",
    "address_councildis": "B",
    "status": "Pending",
    "rowid": "1116882",
    "final_x": "3672904.50049",
    "final_y": "528838.783168",
    "longitude": "-90.09530334046002",
    "latitude": "29.94838140394381",
    "geocoded_column": {
      "latitude": "29.94838140394381",
      "longitude": "-90.09530334046002"
    }
  },
  {
    "service_request": "2024-1116881",
    "request_type": "Roads/Drainage",
    "request_reason": "Street Subsidence (Sinking)",
    "date_created": "2024-07-29T15:29:03.000",
    "date_modified": "2024-07-29T15:29:03.000",
    "request_status": "Pending",
    "responsible_agency": "Department of Public Works",
    "final_address": "5227 Beaucaire St",
    "address_councildis": "E",
    "status": "Pending",
    "rowid": "1116881",
    "final_x": "3724535.0743",
    "final_y": "562566.561952",
    "longitude": "-89.93098321515686",
    "latitude": "30.039484689001267",
    "geocoded_column": {
      "latitude": "30.039484689001267",
      "longitude": "-89.93098321515686"
    }
  },
  {
    "service_request": "2024-1116880",
    "request_type": "Trash/Recycling",
    "request_reason": "Request a Large Item Pick Up",
    "date_created": "2024-07-29T15:27:37.000",
    "date_modified": "2024-07-29T15:27:38.000",
    "request_status": "Pending",
    "responsible_agency": "Department of Sanitation",
    "final_address": "4834 Papania Dr",
    "address_councildis": "E",
    "status": "Assigned to Contractor",
    "contractor": "Waste Pro",
    "rowid": "1116880",
    "final_x": "3715490.85234",
    "final_y": "557277.981211",
    "longitude": "-89.95976569006038",
    "latitude": "30.02524446159409",
    "geocoded_column": {
      "latitude": "30.02524446159409",
      "longitude": "-89.95976569006038"
    }
  },
  {
    "service_request": "2024-1116879",
    "request_type": "Trash/Recycling",
    "request_reason": "Illegal Dumping",
    "date_created": "2024-07-29T15:20:42.000",
    "date_modified": "2024-07-29T15:20:43.000",
    "request_status": "Pending",
    "responsible_agency": "Department of Sanitation",
    "final_address": "FRANKLIN AVE & ELDER ST",
    "address_councildis": "D",
    "status": "Pending",
    "rowid": "1116879",
    "final_x": "3687200.6",
    "final_y": "545771.88",
    "longitude": "-90.04956573149597",
    "latitude": "29.994509027654665",
    "geocoded_column": {
      "latitude": "29.994509027654665",
      "longitude": "-90.04956573149597"
    }
  },
  {
    "service_request": "2024-1116878",
    "request_type": "Trash/Recycling",
    "request_reason": "Request a Large Item Pick Up",
    "date_created": "2024-07-29T15:19:08.000",
    "date_modified": "2024-07-29T15:19:09.000",
    "request_status": "Pending",
    "responsible_agency": "Department of Sanitation",
    "final_address": "7641 Weaver Ave",
    "address_councildis": "E",
    "status": "Assigned to Contractor",
    "contractor": "Waste Pro",
    "rowid": "1116878",
    "final_x": "3707382.85643",
    "final_y": "564518.301537",
    "longitude": "-89.98511631117107",
    "latitude": "30.04541723848277",
    "geocoded_column": {
      "latitude": "30.04541723848277",
      "longitude": "-89.98511631117107"
    }
  },
  {
    "service_request": "2024-1116877",
    "request_type": "Trash/Recycling",
    "request_reason": "Request a Large Item Pick Up",
    "date_created": "2024-07-29T15:18:57.000",
    "date_modified": "2024-07-29T15:18:58.000",
    "request_status": "Pending",
    "responsible_agency": "Department of Sanitation",
    "final_address": "7701 Branch Dr",
    "address_councildis": "E",
    "status": "Assigned to Contractor",
    "contractor": "Waste Pro",
    "rowid": "1116877",
    "final_x": "3714552.9237",
    "final_y": "569001.494822",
    "longitude": "-89.96228611708577",
    "latitude": "30.057510269463222",
    "geocoded_column": {
      "latitude": "30.057510269463222",
      "longitude": "-89.96228611708577"
    }
  },
  {
    "service_request": "2024-1116876",
    "request_type": "Trash/Recycling",
    "request_reason": "Request a Large Item Pick Up",
    "date_created": "2024-07-29T15:18:08.000",
    "date_modified": "2024-07-29T15:18:08.000",
    "request_status": "Pending",
    "responsible_agency": "Department of Sanitation",
    "final_address": "4713 E Adams Ct",
    "address_councildis": "E",
    "status": "Assigned to Contractor",
    "contractor": "Waste Pro",
    "rowid": "1116876",
    "final_x": "3718858.20914",
    "final_y": "556918.43305",
    "longitude": "-89.9491392117181",
    "latitude": "30.024144427092885",
    "geocoded_column": {
      "latitude": "30.024144427092885",
      "longitude": "-89.9491392117181"
    }
  },
  {
    "service_request": "2024-1116875",
    "request_type": "Trash/Recycling",
    "request_reason": "Request a Large Item Pick Up",
    "date_created": "2024-07-29T15:18:00.000",
    "date_modified": "2024-07-29T15:18:01.000",
    "request_status": "Pending",
    "responsible_agency": "Department of Sanitation",
    "final_address": "8521 Belfast St",
    "address_councildis": "A",
    "status": "Assigned to Contractor",
    "contractor": "IV Waste",
    "rowid": "1116875",
    "final_x": "3664426.51808",
    "final_y": "533483.329796",
    "longitude": "-90.12191692461873",
    "latitude": "29.96140154704749",
    "geocoded_column": {
      "latitude": "29.96140154704749",
      "longitude": "-90.12191692461873"
    }
  },
  {
    "service_request": "2024-1116874",
    "request_type": "Trash/Recycling",
    "request_reason": "Return Trash Cart",
    "date_created": "2024-07-29T15:15:26.000",
    "date_modified": "2024-07-29T15:15:27.000",
    "request_status": "Pending",
    "responsible_agency": "Department of Sanitation",
    "final_address": "5400 Milne St",
    "address_councildis": "A",
    "status": "Assigned to Contractor",
    "contractor": "IV Waste",
    "rowid": "1116874",
    "final_x": "3666504.10497",
    "final_y": "543490.855694",
    "longitude": "-90.11502023193452",
    "latitude": "29.988858336562384",
    "geocoded_column": {
      "latitude": "29.988858336562384",
      "longitude": "-90.11502023193452"
    }
  },
  {
    "service_request": "2024-1116873",
    "request_type": "Traffic Signals/Signs/Striping/Streetlights",
    "request_reason": "Street Light Outage/Malfunction",
    "date_created": "2024-07-29T15:14:17.000",
    "date_modified": "2024-07-29T15:14:18.000",
    "request_status": "Pending",
    "responsible_agency": "Department of Public Works",
    "final_address": "2014 Mazant St",
    "address_councildis": "D",
    "status": "Assigned to Contractor",
    "contractor": "Legacy Professional Services",
    "rowid": "1116873",
    "final_x": "3692925.60982",
    "final_y": "538733.738569",
    "longitude": "-90.03173376555685",
    "latitude": "29.974979066475015",
    "geocoded_column": {
      "latitude": "29.974979066475015",
      "longitude": "-90.03173376555685"
    }
  },
  {
    "service_request": "2024-1116872",
    "request_type": "Traffic Signals/Signs/Striping/Streetlights",
    "request_reason": "Street Light Outage/Malfunction",
    "date_created": "2024-07-29T15:13:34.000",
    "date_modified": "2024-07-29T15:13:35.000",
    "request_status": "Pending",
    "responsible_agency": "Department of Public Works",
    "final_address": "2024 Mazant St",
    "address_councildis": "D",
    "status": "Assigned to Contractor",
    "contractor": "Legacy Professional Services",
    "rowid": "1116872",
    "final_x": "3692963.80176",
    "final_y": "538818.534537",
    "longitude": "-90.03161010372395",
    "latitude": "29.97521103220697",
    "geocoded_column": {
      "latitude": "29.97521103220697",
      "longitude": "-90.03161010372395"
    }
  },
  {
    "service_request": "2024-1116870",
    "request_type": "Trash/Recycling",
    "request_reason": "Request a Large Item Pick Up",
    "date_created": "2024-07-29T15:08:42.000",
    "date_modified": "2024-07-29T15:08:43.000",
    "request_status": "Pending",
    "responsible_agency": "Department of Sanitation",
    "final_address": "6125 Patton St",
    "address_councildis": "A",
    "status": "Assigned to Contractor",
    "contractor": "IV Waste",
    "rowid": "1116870",
    "final_x": "3663704.36954",
    "final_y": "518927.199991",
    "longitude": "-90.12468221000961",
    "latitude": "29.92139781066274",
    "geocoded_column": {
      "latitude": "29.92139781066274",
      "longitude": "-90.12468221000961"
    }
  },
  {
    "service_request": "2024-1116869",
    "request_type": "Trash/Recycling",
    "request_reason": "Request a Large Item Pick Up",
    "date_created": "2024-07-29T15:08:31.000",
    "date_modified": "2024-07-29T17:28:16.000",
    "case_close_date": "2024-07-29T12:28:16.000",
    "request_status": "Closed",
    "responsible_agency": "Department of Sanitation",
    "final_address": "13624 Explorers Ave",
    "address_councildis": "E",
    "status": "Duplicate Request",
    "contractor": "Waste Pro",
    "contractor_action": "Duplicate",
    "rowid": "1116869",
    "final_x": "3726154.0599",
    "final_y": "568910.395173",
    "longitude": "-89.9256205108338",
    "latitude": "30.056872999677648",
    "geocoded_column": {
      "latitude": "30.056872999677648",
      "longitude": "-89.9256205108338"
    }
  },
  {
    "service_request": "2024-1116868",
    "request_type": "Property Maintenance",
    "request_reason": "Property Maintenance",
    "date_created": "2024-07-29T15:07:52.000",
    "date_modified": "2024-07-29T15:07:53.000",
    "request_status": "Pending",
    "responsible_agency": "Department of Code Enforcement",
    "final_address": "1724 Hendee St",
    "address_councildis": "C",
    "status": "Pending",
    "rowid": "1116868",
    "final_x": "3690674.72342",
    "final_y": "524466.445372",
    "longitude": "-90.03935147069532",
    "latitude": "29.935819071909556",
    "geocoded_column": {
      "latitude": "29.935819071909556",
      "longitude": "-90.03935147069532"
    }
  },
  {
    "service_request": "2024-1116866",
    "request_type": "Parks & Parkways",
    "request_reason": "Request Tree Service (Right of Way/Public Property)",
    "date_created": "2024-07-29T15:04:31.000",
    "date_modified": "2024-07-29T15:04:32.000",
    "request_status": "Pending",
    "responsible_agency": "Department of Parks & Parkway",
    "final_address": "3904 Toledano St",
    "address_councildis": "B",
    "status": "Pending",
    "rowid": "1116866",
    "final_x": "3671326.44359",
    "final_y": "529167.3632",
    "longitude": "-90.10027476811725",
    "latitude": "29.949331679263693",
    "geocoded_column": {
      "latitude": "29.949331679263693",
      "longitude": "-90.10027476811725"
    }
  },
  {
    "service_request": "2024-1116865",
    "request_type": "Roads/Drainage",
    "request_reason": "Catch Basin - Clogged",
    "date_created": "2024-07-29T15:04:06.000",
    "date_modified": "2024-07-29T15:04:07.000",
    "request_status": "Pending",
    "responsible_agency": "Department of Public Works",
    "final_address": "4900 BLK Toulon St",
    "address_councildis": "E",
    "status": "Pending",
    "rowid": "1116865",
    "final_x": "3723753.00029",
    "final_y": "560756.447828",
    "longitude": "-89.93352465200017",
    "latitude": "30.034533912794565",
    "geocoded_column": {
      "latitude": "30.034533912794565",
      "longitude": "-89.93352465200017"
    }
  },
  {
    "service_request": "2024-1116864",
    "request_type": "Abandoned Vehicles",
    "request_reason": "Abandoned/Junk Vehicles",
    "date_created": "2024-07-29T15:03:42.000",
    "date_modified": "2024-07-29T15:03:43.000",
    "request_status": "Pending",
    "responsible_agency": "Department of Public Works",
    "final_address": "1207 France St",
    "address_councildis": "D",
    "status": "Pending",
    "rowid": "1116864",
    "final_x": "3692529.84361",
    "final_y": "535578.38311",
    "longitude": "-90.03309677360788",
    "latitude": "29.9663153125797",
    "geocoded_column": {
      "latitude": "29.9663153125797",
      "longitude": "-90.03309677360788"
    }
  },
  {
    "service_request": "2024-1116863",
    "request_type": "Trash/Recycling",
    "request_reason": "Request a Large Item Pick Up",
    "date_created": "2024-07-29T15:00:22.000",
    "date_modified": "2024-07-29T15:00:23.000",
    "request_status": "Pending",
    "responsible_agency": "Department of Sanitation",
    "final_address": "11404 Maxine Dr",
    "address_councildis": "E",
    "status": "Assigned to Contractor",
    "contractor": "Waste Pro",
    "rowid": "1116863",
    "final_x": "3718438.97977",
    "final_y": "560486.819934",
    "longitude": "-89.95032779019664",
    "latitude": "30.03396997516749",
    "geocoded_column": {
      "latitude": "30.03396997516749",
      "longitude": "-89.95032779019664"
    }
  },
  {
    "service_request": "2024-1116862",
    "request_type": "Property Maintenance",
    "request_reason": "Property Maintenance",
    "date_created": "2024-07-29T14:59:43.000",
    "date_modified": "2024-07-29T14:59:43.000",
    "request_status": "Pending",
    "responsible_agency": "Department of Code Enforcement",
    "final_address": "4915 Francisco Verrett Dr",
    "address_councildis": "E",
    "status": "Pending",
    "rowid": "1116862",
    "final_x": "3704181.91543",
    "final_y": "556035.709657",
    "longitude": "-89.99554576736169",
    "latitude": "30.022196599682143",
    "geocoded_column": {
      "latitude": "30.022196599682143",
      "longitude": "-89.99554576736169"
    }
  },
  {
    "service_request": "2024-1116861",
    "request_type": "Property Maintenance",
    "request_reason": "Property Maintenance",
    "date_created": "2024-07-29T14:57:57.000",
    "date_modified": "2024-07-29T14:57:57.000",
    "request_status": "Pending",
    "responsible_agency": "Department of Code Enforcement",
    "final_address": "1201 France St",
    "address_councildis": "D",
    "status": "Pending",
    "rowid": "1116861",
    "final_x": "3692512.02806",
    "final_y": "535531.658822",
    "longitude": "-90.0331547088587",
    "latitude": "29.966187393123523",
    "geocoded_column": {
      "latitude": "29.966187393123523",
      "longitude": "-90.0331547088587"
    }
  },
  {
    "service_request": "2024-1116860",
    "request_type": "Property Maintenance",
    "request_reason": "Property Maintenance",
    "date_created": "2024-07-29T14:56:46.000",
    "date_modified": "2024-07-29T14:56:46.000",
    "request_status": "Pending",
    "responsible_agency": "Department of Code Enforcement",
    "final_address": "1220 France St",
    "address_councildis": "D",
    "status": "Pending",
    "rowid": "1116860",
    "final_x": "3692475.41065",
    "final_y": "535711.484807",
    "longitude": "-90.03326390214404",
    "latitude": "29.96668299358801",
    "geocoded_column": {
      "latitude": "29.96668299358801",
      "longitude": "-90.03326390214404"
    }
  },
  {
    "service_request": "2024-1116859",
    "request_type": "Traffic Signals/Signs/Striping/Streetlights",
    "request_reason": "Street Light Outage/Malfunction",
    "date_created": "2024-07-29T14:56:28.000",
    "date_modified": "2024-07-29T14:56:29.000",
    "request_status": "Pending",
    "responsible_agency": "Department of Public Works",
    "final_address": "1601 Esplanade Ave",
    "address_councildis": "D",
    "status": "Assigned to Contractor",
    "contractor": "Legacy Professional Services",
    "rowid": "1116859",
    "final_x": "3681227.90997",
    "final_y": "536710.981255",
    "longitude": "-90.06874858450965",
    "latitude": "29.96977736640377",
    "geocoded_column": {
      "latitude": "29.96977736640377",
      "longitude": "-90.06874858450965"
    }
  },
  {
    "service_request": "2024-1116858",
    "request_type": "Trash/Recycling",
    "request_reason": "Request a Large Item Pick Up",
    "date_created": "2024-07-29T14:55:59.000",
    "date_modified": "2024-07-29T14:56:00.000",
    "request_status": "Pending",
    "responsible_agency": "Department of Sanitation",
    "final_address": "13413 N Nemours St",
    "address_councildis": "E",
    "status": "Assigned to Contractor",
    "contractor": "Waste Pro",
    "rowid": "1116858",
    "final_x": "3725226.45171",
    "final_y": "562714.411232",
    "longitude": "-89.92879256022596",
    "latitude": "30.039867929469775",
    "geocoded_column": {
      "latitude": "30.039867929469775",
      "longitude": "-89.92879256022596"
    }
  },
  {
    "service_request": "2024-1116857",
    "request_type": "Roads/Drainage",
    "request_reason": "Pothole",
    "date_created": "2024-07-29T14:55:39.000",
    "date_modified": "2024-07-29T14:55:39.000",
    "request_status": "Pending",
    "responsible_agency": "Department of Public Works",
    "final_address": "1628 Monroe St",
    "address_councildis": "A",
    "status": "Pending",
    "rowid": "1116857",
    "final_x": "3661461.1065",
    "final_y": "531042.249986",
    "longitude": "-90.13136209130862",
    "latitude": "29.954775239992436",
    "geocoded_column": {
      "latitude": "29.954775239992436",
      "longitude": "-90.13136209130862"
    }
  },
  {
    "service_request": "2024-1116856",
    "request_type": "Property Maintenance",
    "request_reason": "Property Maintenance",
    "date_created": "2024-07-29T14:55:23.000",
    "date_modified": "2024-07-29T14:55:24.000",
    "request_status": "Pending",
    "responsible_agency": "Department of Code Enforcement",
    "final_address": "200 N Olympia St",
    "address_councildis": "A",
    "status": "Pending",
    "rowid": "1116856",
    "final_x": "3669745.95425",
    "final_y": "540006.725003",
    "longitude": "-90.10489817291139",
    "latitude": "29.979182988161067",
    "geocoded_column": {
      "latitude": "29.979182988161067",
      "longitude": "-90.10489817291139"
    }
  },
  {
    "service_request": "2024-1116855",
    "request_type": "Trash/Recycling",
    "request_reason": "Request a Large Item Pick Up",
    "date_created": "2024-07-29T14:55:18.000",
    "date_modified": "2024-07-29T14:55:19.000",
    "request_status": "Pending",
    "responsible_agency": "Department of Sanitation",
    "final_address": "7143 Parkside Ct",
    "address_councildis": "E",
    "status": "Assigned to Contractor",
    "contractor": "Waste Pro",
    "rowid": "1116855",
    "final_x": "3704551.06711",
    "final_y": "560257.163613",
    "longitude": "-89.99422346334715",
    "latitude": "30.033792100310418",
    "geocoded_column": {
      "latitude": "30.033792100310418",
      "longitude": "-89.99422346334715"
    }
  },
  {
    "service_request": "2024-1116854",
    "request_type": "Trash/Recycling",
    "request_reason": "Return Recycling Cart",
    "date_created": "2024-07-29T14:54:25.000",
    "date_modified": "2024-07-29T14:54:26.000",
    "request_status": "Pending",
    "responsible_agency": "Department of Sanitation",
    "final_address": "2625 Lepage St",
    "address_councildis": "A",
    "status": "Pending",
    "rowid": "1116854",
    "final_x": "3678276.92136",
    "final_y": "539608.641162",
    "longitude": "-90.07796782231942",
    "latitude": "29.977834156494783",
    "geocoded_column": {
      "latitude": "29.977834156494783",
      "longitude": "-90.07796782231942"
    }
  },
  {
    "service_request": "2024-1116853",
    "request_type": "Trash/Recycling",
    "request_reason": "Order Recycling Cart",
    "date_created": "2024-07-29T14:53:17.000",
    "date_modified": "2024-07-29T14:53:18.000",
    "request_status": "Pending",
    "responsible_agency": "Department of Sanitation",
    "final_address": "5335 St Charles Ave",
    "address_councildis": "B",
    "status": "Pending",
    "rowid": "1116853",
    "final_x": "3667657.76039",
    "final_y": "521550.158521",
    "longitude": "-90.1121148042707",
    "latitude": "29.92849486045484",
    "geocoded_column": {
      "latitude": "29.92849486045484",
      "longitude": "-90.1121148042707"
    }
  },