[
  {
    "service_request": "2024-1076029",
    "request_type": "Roads/Drainage",
    "request_reason": "Pothole",
    "date_created": "2024-03-15T23:22:07.000",
    "date_modified": "2024-03-15T23:22:07.000",
    "request_status": "Pending",
    "responsible_agency": "Department of Public Works",
    "final_address": "4216 Chestnut St",
    "address_councildis": "B",
    "status": "Pending",
    "rowid": "1076029",
    "final_x": "3671574.31393",
    "final_y": "519539.203703",
    "longitude": "-90.09981939416457",
    "latitude": "29.922850019854593",
    "geocoded_column": {
      "latitude": "29.922850019854593",
      "longitude": "-90.09981939416457"
    }
  },
  {
    "service_request": "2024-1076027",
    "request_type": "Trash/Recycling",
    "request_reason": "MIssed Recycling Pick-Up",
    "date_created": "2024-03-15T23:11:31.000",
    "date_modified": "2024-03-15T23:11:31.000",
    "request_status": "Pending",
    "responsible_agency": "Department of Sanitation",
    "final_address": "1930 Josephine St",
    "address_councildis": "B",
    "status": "Assigned to Contractor",
    "contractor": "Richards Disposal",
    "rowid": "1076027",
    "final_x": "3676934.0829",
    "final_y": "525159.730941",
    "longitude": "-90.08270705430522",
    "latitude": "29.938144897016212",
    "geocoded_column": {
      "latitude": "29.938144897016212",
      "longitude": "-90.08270705430522"
    }
  },
  {
    "service_request": "2024-1076026",
    "request_type": "Roads/Drainage",
    "request_reason": "Pothole",
    "date_created": "2024-03-15T22:51:14.000",
    "date_modified": "2024-03-15T22:51:14.000",
    "request_status": "Pending",
    "responsible_agency": "Department of Public Works",
    "final_address": "6216 Camp St",
    "address_councildis": "A",
    "status": "Pending",
    "rowid": "1076026",
    "final_x": "3663748.11187",
    "final_y": "519930.497272",
    "longitude": "-90.12451072353035",
    "latitude": "29.92415529590064",
    "geocoded_column": {
      "latitude": "29.92415529590064",
      "longitude": "-90.12451072353035"
    }
  },
  {
    "service_request": "2024-1076025",
    "request_type": "Trash/Recycling",
    "request_reason": "Replace Trash Cart",
    "date_created": "2024-03-15T22:37:28.000",
    "date_modified": "2024-03-15T22:37:29.000",
    "request_status": "Pending",
    "responsible_agency": "Department of Sanitation",
    "final_address": "2719 Pine St",
    "address_councildis": "B",
    "status": "Assigned to Contractor",
    "contractor": "Richards Disposal",
    "rowid": "1076025",
    "final_x": "3667064.95809",
    "final_y": "531326.021954",
    "longitude": "-90.11365767177112",
    "latitude": "29.95539269486613",
    "geocoded_column": {
      "latitude": "29.95539269486613",
      "longitude": "-90.11365767177112"
    }
  },
  {
    "service_request": "2024-1076024",
    "request_type": "Roads/Drainage",
    "request_reason": "Pothole",
    "date_created": "2024-03-15T22:34:44.000",
    "date_modified": "2024-03-15T22:34:44.000",
    "request_status": "Pending",
    "responsible_agency": "Department of Public Works",
    "final_address": "1445 Nashville Ave",
    "address_councildis": "A",
    "status": "Pending",
    "rowid": "1076024",
    "final_x": "3666126.15405",
    "final_y": "521365.292345",
    "longitude": "-90.11695597131158",
    "latitude": "29.928031332760977",
    "geocoded_column": {
      "latitude": "29.928031332760977",
      "longitude": "-90.11695597131158"
    }
  },
  {
    "service_request": "2024-1076023",
    "request_type": "Roads/Drainage",
    "request_reason": "Street Subsidence (Sinking)",
    "date_created": "2024-03-15T22:34:29.000",
    "date_modified": "2024-03-15T22:34:29.000",
    "request_status": "Pending",
    "responsible_agency": "Department of Public Works",
    "final_address": "0 BLK English Turn Pkwy",
    "address_councildis": "C",
    "status": "Pending",
    "rowid": "1076023",
    "final_x": "3714478.8315",
    "final_y": "516189.451005",
    "longitude": "-89.96451447055301",
    "latitude": "29.912299665809115",
    "geocoded_column": {
      "latitude": "29.912299665809115",
      "longitude": "-89.96451447055301"
    }
  },
  {
    "service_request": "2024-1076022",
    "request_type": "Health Related Request",
    "request_reason": "Noise Ordinance Complaint",
    "date_created": "2024-03-15T22:27:05.000",
    "date_modified": "2024-03-15T22:27:05.000",
    "request_status": "Pending",
    "responsible_agency": "Health Department",
    "final_address": "7910 Earhart Blvd",
    "address_councildis": "B",
    "status": "Pending",
    "rowid": "1076022",
    "final_x": "3667005.87399",
    "final_y": "533034.124676",
    "longitude": "-90.11378683341556",
    "latitude": "29.960091146202156",
    "geocoded_column": {
      "latitude": "29.960091146202156",
      "longitude": "-90.11378683341556"
    }
  },
  {
    "service_request": "2024-1076021",
    "request_type": "Traffic Signals/Signs/Striping/Streetlights",
    "request_reason": "Street Light Outage/Malfunction",
    "date_created": "2024-03-15T21:37:06.000",
    "date_modified": "2024-03-15T21:37:06.000",
    "request_status": "Pending",
    "responsible_agency": "Department of Public Works",
    "final_address": "2601 Dauphine St Apt A",
    "address_councildis": "C",
    "status": "Assigned to Contractor",
    "contractor": "Legacy Professional Services",
    "rowid": "1076021",
    "final_x": "3686876.42959",
    "final_y": "535342.606854",
    "longitude": "-90.0509584461397",
    "latitude": "29.965842194264937",
    "geocoded_column": {
      "latitude": "29.965842194264937",
      "longitude": "-90.0509584461397"
    }
  },
  {
    "service_request": "2024-1076020",
    "request_type": "Health Related Request",
    "request_reason": "Noise Ordinance Complaint",
    "date_created": "2024-03-15T21:27:34.000",
    "date_modified": "2024-03-15T21:27:34.000",
    "request_status": "Pending",
    "responsible_agency": "Health Department",
    "final_address": "1600 BLK N Broad St",
    "address_councildis": "D",
    "status": "Pending",
    "rowid": "1076020",
    "final_x": "3679464.01013",
    "final_y": "540572.589246",
    "longitude": "-90.07418512912264",
    "latitude": "29.980448865344094",
    "geocoded_column": {
      "latitude": "29.980448865344094",
      "longitude": "-90.07418512912264"
    }
  },
  {
    "service_request": "2024-1076019",
    "request_type": "Traffic Signals/Signs/Striping/Streetlights",
    "request_reason": "Street Light Outage/Malfunction",
    "date_created": "2024-03-15T21:24:32.000",
    "date_modified": "2024-03-15T21:24:32.000",
    "request_status": "Pending",
    "responsible_agency": "Department of Public Works",
    "final_address": "1514 Congress St",
    "address_councildis": "D",
    "status": "Assigned to Contractor",
    "contractor": "Legacy Professional Services",
    "rowid": "1076019",
    "final_x": "3691090.49488",
    "final_y": "537236.94228",
    "longitude": "-90.03758296538021",
    "latitude": "29.970920597401097",
    "geocoded_column": {
      "latitude": "29.970920597401097",
      "longitude": "-90.03758296538021"
    }
  },
  {
    "service_request": "2024-1076018",
    "request_type": "Roads/Drainage",
    "request_reason": "Pothole",
    "date_created": "2024-03-15T20:40:12.000",
    "date_modified": "2024-03-15T20:40:12.000",
    "request_status": "Pending",
    "responsible_agency": "Department of Public Works",
    "final_address": "5400 BLK Garfield St",
    "address_councildis": "A",
    "status": "Pending",
    "rowid": "1076018",
    "final_x": "3667090.8295",
    "final_y": "521077.314917",
    "longitude": "-90.11392037520632",
    "latitude": "29.927211292506133",
    "geocoded_column": {
      "latitude": "29.927211292506133",
      "longitude": "-90.11392037520632"
    }
  },
  {
    "service_request": "2024-1076017",
    "request_type": "Roads/Drainage",
    "request_reason": "Pothole",
    "date_created": "2024-03-15T20:36:02.000",
    "date_modified": "2024-03-15T20:36:02.000",
    "request_status": "Pending",
    "responsible_agency": "Department of Public Works",
    "final_address": "5400 BLK Garfield St",
    "address_councildis": "A",
    "status": "Pending",
    "rowid": "1076017",
    "final_x": "3667090.8295",
    "final_y": "521077.314917",
    "longitude": "-90.11392037520632",
    "latitude": "29.927211292506133",
    "geocoded_column": {
      "latitude": "29.927211292506133",
      "longitude": "-90.11392037520632"
    }
  },
  {
    "service_request": "2024-1076016",
    "request_type": "Roads/Drainage",
    "request_reason": "Street Flooding / Drainage",
    "date_created": "2024-03-15T19:48:01.000",
    "date_modified": "2024-03-15T19:48:01.000",
    "request_status": "Pending",
    "responsible_agency": "Department of Public Works",
    "final_address": "1755 St Charles Ave",
    "address_councildis": "B",
    "status": "Pending",
    "rowid": "1076016",
    "final_x": "3678537.36731",
    "final_y": "524594.319356",
    "longitude": "-90.07766490001445",
    "latitude": "29.9365419876982",
    "geocoded_column": {
      "latitude": "29.9365419876982",
      "longitude": "-90.07766490001445"
    }
  },
  {
    "service_request": "2024-1076015",
    "request_type": "Trash/Recycling",
    "request_reason": "Order Recycling Cart",
    "date_created": "2024-03-15T19:43:02.000",
    "date_modified": "2024-03-15T19:43:02.000",
    "request_status": "Pending",
    "responsible_agency": "Department of Sanitation",
    "final_address": "2929 Seine St",
    "address_councildis": "C",
    "status": "Pending",
    "rowid": "1076015",
    "final_x": "3694043.99453",
    "final_y": "520585.804344",
    "longitude": "-90.0288541453706",
    "latitude": "29.925043578697295",
    "geocoded_column": {
      "latitude": "29.925043578697295",
      "longitude": "-90.0288541453706"
    }
  },
  {
    "service_request": "2024-1076014",
    "request_type": "Trash/Recycling",
    "request_reason": "Illegal Dumping",
    "date_created": "2024-03-15T19:39:53.000",
    "date_modified": "2024-03-15T19:39:53.000",
    "request_status": "Pending",
    "responsible_agency": "Department of Sanitation",
    "final_address": "3300 BLK Maine St",
    "address_councildis": "C",
    "status": "Pending",
    "rowid": "1076014",
    "final_x": "3694713.6171",
    "final_y": "520178.335087",
    "longitude": "-90.02675504034158",
    "latitude": "29.923902197757645",
    "geocoded_column": {
      "latitude": "29.923902197757645",
      "longitude": "-90.02675504034158"
    }
  },
  {
    "service_request": "2024-1076013",
    "request_type": "Trash/Recycling",
    "request_reason": "Start Trash Service",
    "date_created": "2024-03-15T19:37:10.000",
    "date_modified": "2024-03-15T19:37:11.000",
    "request_status": "Pending",
    "responsible_agency": "Department of Sanitation",
    "final_address": "805 Mandeville St",
    "address_councildis": "C",
    "status": "Assigned to Contractor",
    "contractor": "IV Waste",
    "rowid": "1076013",
    "final_x": "3685883.47215",
    "final_y": "535353.143174",
    "longitude": "-90.05409379541527",
    "latitude": "29.96590168437675",
    "geocoded_column": {
      "latitude": "29.96590168437675",
      "longitude": "-90.05409379541527"
    }
  },
  {
    "service_request": "2024-1076012",
    "request_type": "Trash/Recycling",
    "request_reason": "Illegal Dumping",
    "date_created": "2024-03-15T19:36:26.000",
    "date_modified": "2024-03-15T19:36:26.000",
    "request_status": "Pending",
    "responsible_agency": "Department of Sanitation",
    "final_address": "6000 Tullis Dr",
    "address_councildis": "C",
    "status": "Pending",
    "rowid": "1076012",
    "final_x": "3706559.83569",
    "final_y": "513999.43685",
    "longitude": "-89.98958983668125",
    "latitude": "29.906535624528246",
    "geocoded_column": {
      "latitude": "29.906535624528246",
      "longitude": "-89.98958983668125"
    }
  },
  {
    "service_request": "2024-1076011",
    "request_type": "Trash/Recycling",
    "request_reason": "Illegal Dumping",
    "date_created": "2024-03-15T19:34:34.000",
    "date_modified": "2024-03-15T19:34:34.000",
    "request_status": "Pending",
    "responsible_agency": "Department of Sanitation",
    "final_address": "APRICOT ST & EAGLE ST",
    "address_councildis": "A",
    "status": "Pending",
    "rowid": "1076011",
    "final_x": "3664000.3",
    "final_y": "534288.68",
    "longitude": "-90.12323599579183",
    "latitude": "29.96362837977159",
    "geocoded_column": {
      "latitude": "29.96362837977159",
      "longitude": "-90.12323599579183"
    }
  },
  {
    "service_request": "2024-1076010",
    "request_type": "Trash/Recycling",
    "request_reason": "Illegal Dumping",
    "date_created": "2024-03-15T19:34:16.000",
    "date_modified": "2024-03-15T19:34:16.000",
    "request_status": "Pending",
    "responsible_agency": "Department of Sanitation",
    "final_address": "6000 Tullis Dr",
    "address_councildis": "C",
    "status": "Pending",
    "rowid": "1076010",
    "final_x": "3706559.83569",
    "final_y": "513999.43685",
    "longitude": "-89.98958983668125",
    "latitude": "29.906535624528246",
    "geocoded_column": {
      "latitude": "29.906535624528246",
      "longitude": "-89.98958983668125"
    }
  },
  {
    "service_request": "2024-1076009",
    "request_type": "Trash/Recycling",
    "request_reason": "Illegal Dumping",
    "date_created": "2024-03-15T19:30:31.000",
    "date_modified": "2024-03-15T19:30:31.000",
    "request_status": "Pending",
    "responsible_agency": "Department of Sanitation",
    "final_address": "1400 BLK L. B. Landry Ave",
    "address_councildis": "C",
    "status": "Pending",
    "rowid": "1076009",
    "final_x": "3690062.40691",
    "final_y": "526158.189597",
    "longitude": "-90.04122433184651",
    "latitude": "29.940489792876935",
    "geocoded_column": {
      "latitude": "29.940489792876935",
      "longitude": "-90.04122433184651"
    }
  },
  {
    "service_request": "2024-1076008",
    "request_type": "Trash/Recycling",
    "request_reason": "Illegal Dumping",
    "date_created": "2024-03-15T19:27:21.000",
    "date_modified": "2024-03-15T19:27:21.000",
    "request_status": "Pending",
    "responsible_agency": "Department of Sanitation",
    "final_address": "1100 BLK L. B. Landry Ave",
    "address_councildis": "C",
    "status": "Pending",
    "rowid": "1076008",
    "final_x": "3690116.33823",
    "final_y": "527278.643393",
    "longitude": "-90.04101416568518",
    "latitude": "29.943568986085136",
    "geocoded_column": {
      "latitude": "29.943568986085136",
      "longitude": "-90.04101416568518"
    }
  },
  {
    "service_request": "2024-1076007",
    "request_type": "Traffic Signals/Signs/Striping/Streetlights",
    "request_reason": "Street Light Outage/Malfunction",
    "date_created": "2024-03-15T19:20:16.000",
    "date_modified": "2024-03-15T19:20:16.000",
    "request_status": "Pending",
    "responsible_agency": "Department of Public Works",
    "final_address": "5936 Law St, New Orleans, Louisiana, 70117",
    "status": "Assigned to Contractor",
    "contractor": "Legacy Professional Services",
    "rowid": "1076007",
    "longitude": "0.0",
    "latitude": "0.0",
    "geocoded_column": {
      "latitude": "0.0",
      "longitude": "0.0"
    }
  },
  {
    "service_request": "2024-1076006",
    "request_type": "Traffic Signals/Signs/Striping/Streetlights",
    "request_reason": "Street Light Outage/Malfunction",
    "date_created": "2024-03-15T19:19:18.000",
    "date_modified": "2024-03-15T19:19:19.000",
    "request_status": "Pending",
    "responsible_agency": "Department of Public Works",
    "final_address": "2606 Gordon St, New Orleans, Louisiana, 70117",
    "address_councildis": "E",
    "status": "Assigned to Contractor",
    "contractor": "Legacy Professional Services",
    "rowid": "1076006",
    "final_x": "3701309.80452",
    "final_y": "538869.135625",
    "longitude": "-90.00524955372448",
    "latitude": "29.975086821609285",
    "geocoded_column": {
      "latitude": "29.975086821609285",
      "longitude": "-90.00524955372448"
    }
  },
  {
    "service_request": "2024-1076004",
    "request_type": "Traffic Signals/Signs/Striping/Streetlights",
    "request_reason": "Traffic Sign Missing/Damaged",
    "date_created": "2024-03-15T18:54:48.000",
    "date_modified": "2024-03-15T18:54:48.000",
    "request_status": "Pending",
    "responsible_agency": "Department of Public Works",
    "final_address": "2037 Annette St",
    "address_councildis": "D",
    "status": "Pending",
    "rowid": "1076004",
    "final_x": "3682889.64796",
    "final_y": "539798.121546",
    "longitude": "-90.06339261537788",
    "latitude": "29.97821539767991",
    "geocoded_column": {
      "latitude": "29.97821539767991",
      "longitude": "-90.06339261537788"
    }
  },
  {
    "service_request": "2024-1076003",
    "request_type": "Trash/Recycling",
    "request_reason": "MIssed Recycling Pick-Up",
    "date_created": "2024-03-15T18:49:53.000",
    "date_modified": "2024-03-15T18:49:53.000",
    "request_status": "Pending",
    "responsible_agency": "Department of Sanitation",
    "final_address": "1618 Dublin St",
    "address_councildis": "A",
    "status": "Assigned to Contractor",
    "contractor": "Richards Disposal",
    "rowid": "1076003",
    "final_x": "3662720.02336",
    "final_y": "529796.128769",
    "longitude": "-90.12742830486165",
    "latitude": "29.95131243708717",
    "geocoded_column": {
      "latitude": "29.95131243708717",
      "longitude": "-90.12742830486165"
    }
  },
  {
    "service_request": "2024-1076002",
    "request_type": "Trash/Recycling",
    "request_reason": "Replace Trash Cart",
    "date_created": "2024-03-15T18:49:21.000",
    "date_modified": "2024-03-15T18:49:22.000",
    "request_status": "Pending",
    "responsible_agency": "Department of Sanitation",
    "final_address": "2037 Annette St",
    "address_councildis": "D",
    "status": "Assigned to Contractor",
    "contractor": "IV Waste",
    "rowid": "1076002",
    "final_x": "3682889.64796",
    "final_y": "539798.121546",
    "longitude": "-90.06339261537788",
    "latitude": "29.97821539767991",
    "geocoded_column": {
      "latitude": "29.97821539767991",
      "longitude": "-90.06339261537788"
    }
  },
  {
    "service_request": "2024-1076001",
    "request_type": "Abandoned Vehicles",
    "request_reason": "Abandoned/Junk Vehicles",
    "date_created": "2024-03-15T18:39:15.000",
    "date_modified": "2024-03-15T18:39:15.000",
    "request_status": "Pending",
    "responsible_agency": "Department of Public Works",
    "final_address": "1803 Marigny St",
    "address_councildis": "D",
    "status": "Pending",
    "rowid": "1076001",
    "final_x": "3685251.24719",
    "final_y": "538963.922954",
    "longitude": "-90.05596322236394",
    "latitude": "29.97584946408993",
    "geocoded_column": {
      "latitude": "29.97584946408993",
      "longitude": "-90.05596322236394"
    }
  },
  {
    "service_request": "2024-1076000",
    "request_type": "Abandoned Vehicles",
    "request_reason": "Abandoned/Junk Vehicles",
    "date_created": "2024-03-15T18:34:39.000",
    "date_modified": "2024-03-15T18:34:39.000",
    "request_status": "Pending",
    "responsible_agency": "Department of Public Works",
    "final_address": "803 Marigny St",
    "address_councildis": "C",
    "status": "Pending",
    "rowid": "1076000",
    "final_x": "3685532.64834",
    "final_y": "535300.240518",
    "longitude": "-90.05520354758923",
    "latitude": "29.965766985233167",
    "geocoded_column": {
      "latitude": "29.965766985233167",
      "longitude": "-90.05520354758923"
    }
  },
  {
    "service_request": "2024-1075999",
    "request_type": "Trash/Recycling",
    "request_reason": "Request a Large Item Pick Up",
    "date_created": "2024-03-15T18:31:12.000",
    "date_modified": "2024-03-15T18:31:13.000",
    "request_status": "Pending",
    "responsible_agency": "Department of Sanitation",
    "final_address": "2915 Maurepas St",
    "address_councildis": "A",
    "status": "Assigned to Contractor",
    "contractor": "IV Waste",
    "rowid": "1075999",
    "final_x": "3677580.06062",
    "final_y": "540745.923851",
    "longitude": "-90.08012946640962",
    "latitude": "29.980982265658177",
    "geocoded_column": {
      "latitude": "29.980982265658177",
      "longitude": "-90.08012946640962"
    }
  },
  {
    "service_request": "2024-1075998",
    "request_type": "Traffic Signals/Signs/Striping/Streetlights",
    "request_reason": "Traffic Signal Malfunctioning/Damaged",
    "date_created": "2024-03-15T18:23:38.000",
    "date_modified": "2024-03-15T18:23:38.000",
    "request_status": "Pending",
    "responsible_agency": "Department of Public Works",
    "final_address": "4600 BLK General De Gaulle Dr",
    "address_councildis": "C",
    "status": "Pending",
    "rowid": "1075998",
    "final_x": "3700949.12923",
    "final_y": "517592.227727",
    "longitude": "-90.00716638351653",
    "latitude": "29.916594308505587",
    "geocoded_column": {
      "latitude": "29.916594308505587",
      "longitude": "-90.00716638351653"
    }
  },
  {
    "service_request": "2024-1075997",
    "request_type": "Roads/Drainage",
    "request_reason": "Catch Basin - Clogged",
    "date_created": "2024-03-15T18:13:55.000",
    "date_modified": "2024-03-15T18:13:55.000",
    "request_status": "Pending",
    "responsible_agency": "Department of Public Works",
    "final_address": "2304 Prentiss Ave",
    "address_councildis": "D",
    "status": "Pending",
    "rowid": "1075997",
    "final_x": "3684423.83343",
    "final_y": "553800.406615",
    "longitude": "-90.05805491557572",
    "latitude": "30.01666982044898",
    "geocoded_column": {
      "latitude": "30.01666982044898",
      "longitude": "-90.05805491557572"
    }
  },
  {
    "service_request": "2024-1075996",
    "request_type": "Roads/Drainage",
    "request_reason": "Pothole",
    "date_created": "2024-03-15T18:07:36.000",
    "date_modified": "2024-03-15T18:07:36.000",
    "request_status": "Pending",
    "responsible_agency": "Department of Public Works",
    "final_address": "1435 Nashville Ave",
    "address_councildis": "A",
    "status": "Pending",
    "rowid": "1075996",
    "final_x": "3666082.45536",
    "final_y": "521253.120889",
    "longitude": "-90.11709767715699",
    "latitude": "29.927724172190487",
    "geocoded_column": {
      "latitude": "29.927724172190487",
      "longitude": "-90.11709767715699"
    }
  },
  {
    "service_request": "2024-1075995",
    "request_type": "Traffic Signals/Signs/Striping/Streetlights",
    "request_reason": "Traffic Sign Missing/Damaged",
    "date_created": "2024-03-15T18:00:37.000",
    "date_modified": "2024-03-15T18:00:37.000",
    "request_status": "Pending",
    "responsible_agency": "Department of Public Works",
    "final_address": "1500 BLK Tulane Ave",
    "address_councildis": "B",
    "status": "Pending",
    "rowid": "1075995",
    "final_x": "3678275.0545",
    "final_y": "531702.255937",
    "longitude": "-90.07824723733013",
    "latitude": "29.956094348336418",
    "geocoded_column": {
      "latitude": "29.956094348336418",
      "longitude": "-90.07824723733013"
    }
  },
  {
    "service_request": "2024-1075994",
    "request_type": "Property Maintenance",
    "request_reason": "Property Maintenance",
    "date_created": "2024-03-15T17:58:49.000",
    "date_modified": "2024-03-15T17:58:49.000",
    "request_status": "Pending",
    "responsible_agency": "Department of Code Enforcement",
    "final_address": "1352 Saint Bernard Ave, New Orleans, Louisiana, 70116",
    "status": "Pending",
    "rowid": "1075994",
    "longitude": "0.0",
    "latitude": "0.0",
    "geocoded_column": {
      "latitude": "0.0",
      "longitude": "0.0"
    }
  },
  {
    "service_request": "2024-1075993",
    "request_type": "Trash/Recycling",
    "request_reason": "Request a Large Item Pick Up",
    "date_created": "2024-03-15T17:55:38.000",
    "date_modified": "2024-03-15T17:55:39.000",
    "request_status": "Pending",
    "responsible_agency": "Department of Sanitation",
    "final_address": "7081 W Tamaron Blvd",
    "address_councildis": "E",
    "status": "Assigned to Contractor",
    "contractor": "Waste Pro",
    "rowid": "1075993",
    "final_x": "3718589.707",
    "final_y": "568575.908069",
    "longitude": "-89.94954277106267",
    "latitude": "30.056206653240945",
    "geocoded_column": {
      "latitude": "30.056206653240945",
      "longitude": "-89.94954277106267"
    }
  },
  {
    "service_request": "2024-1075992",
    "request_type": "Roads/Drainage",
    "request_reason": "Pothole",
    "date_created": "2024-03-15T17:54:12.000",
    "date_modified": "2024-03-15T17:54:12.000",
    "request_status": "Pending",
    "responsible_agency": "Department of Public Works",
    "final_address": "BIRCH ST & EAGLE ST",
    "address_councildis": "A",
    "status": "Pending",
    "rowid": "1075992",
    "final_x": "3661070.0",
    "final_y": "531074.68",
    "longitude": "-90.13259598942751",
    "latitude": "29.954875687225588",
    "geocoded_column": {
      "latitude": "29.954875687225588",
      "longitude": "-90.13259598942751"
    }
  },
  {
    "service_request": "2024-1075991",
    "request_type": "Trash/Recycling",
    "request_reason": "Request a Large Item Pick Up",
    "date_created": "2024-03-15T17:50:19.000",
    "date_modified": "2024-03-15T17:50:20.000",
    "request_status": "Pending",
    "responsible_agency": "Department of Sanitation",
    "final_address": "125 S Murat St",
    "address_councildis": "A",
    "status": "Assigned to Contractor",
    "contractor": "Richards Disposal",
    "rowid": "1075991",
    "final_x": "3669510.47278",
    "final_y": "539212.832778",
    "longitude": "-90.10566878206552",
    "latitude": "29.977006992491603",
    "geocoded_column": {
      "latitude": "29.977006992491603",
      "longitude": "-90.10566878206552"
    }
  },
  {
    "service_request": "2024-1075989",
    "request_type": "Property Maintenance",
    "request_reason": "Property Maintenance",
    "date_created": "2024-03-15T17:47:22.000",
    "date_modified": "2024-03-15T17:47:22.000",
    "request_status": "Pending",
    "responsible_agency": "Department of Code Enforcement",
    "final_address": "1349 Columbus St, New Orleans, Louisiana, 70116",
    "address_councildis": "C",
    "status": "Pending",
    "rowid": "1075989",
    "final_x": "3682433.32616",
    "final_y": "536686.423559",
    "longitude": "-90.06494263169321",
    "latitude": "29.96967320653774",
    "geocoded_column": {
      "latitude": "29.96967320653774",
      "longitude": "-90.06494263169321"
    }
  },
  {
    "service_request": "2024-1075988",
    "request_type": "Trash/Recycling",
    "request_reason": "Illegal Dumping",
    "date_created": "2024-03-15T17:43:53.000",
    "date_modified": "2024-03-15T17:43:53.000",
    "request_status": "Pending",
    "responsible_agency": "Department of Sanitation",
    "final_address": "2714 N Galvez St",
    "address_councildis": "D",
    "status": "Pending",
    "rowid": "1075988",
    "final_x": "3688512.11587",
    "final_y": "540049.597003",
    "longitude": "-90.04562596827297",
    "latitude": "29.978734326136202",
    "geocoded_column": {
      "latitude": "29.978734326136202",
      "longitude": "-90.04562596827297"
    }
  },
  {
    "service_request": "2024-1075987",
    "request_type": "Roads/Drainage",
    "request_reason": "Man hole cover issue",
    "date_created": "2024-03-15T17:41:38.000",
    "date_modified": "2024-03-15T17:41:38.000",
    "request_status": "Pending",
    "responsible_agency": "Department of Public Works",
    "final_address": "600 BLK Jena St",
    "address_councildis": "B",
    "status": "Pending",
    "rowid": "1075987",
    "final_x": "3670746.81136",
    "final_y": "517860.281652",
    "longitude": "-90.1024884300537",
    "latitude": "29.91825798569799",
    "geocoded_column": {
      "latitude": "29.91825798569799",
      "longitude": "-90.1024884300537"
    }
  },
  {
    "service_request": "2024-1075986",
    "request_type": "Parks & Parkways",
    "request_reason": "Request Grass Cutting Service (City Owned Property)",
    "date_created": "2024-03-15T17:39:53.000",
    "date_modified": "2024-03-15T17:39:53.000",
    "request_status": "Pending",
    "responsible_agency": "Department of Parks & Parkway",
    "final_address": "2714 N Galvez St",
    "address_councildis": "D",
    "status": "Pending",
    "rowid": "1075986",
    "final_x": "3688512.11587",
    "final_y": "540049.597003",
    "longitude": "-90.04562596827297",
    "latitude": "29.978734326136202",
    "geocoded_column": {
      "latitude": "29.978734326136202",
      "longitude": "-90.04562596827297"
    }
  },
  {
    "service_request": "2024-1075985",
    "request_type": "Parks & Parkways",
    "request_reason": "Request Tree Service (Right of Way/Public Property)",
    "date_created": "2024-03-15T17:31:57.000",
    "date_modified": "2024-03-15T17:31:57.000",
    "request_status": "Pending",
    "responsible_agency": "Department of Parks & Parkway",
    "final_address": "4147 Polk St",
    "address_councildis": "C",
    "status": "Pending",
    "rowid": "1075985",
    "final_x": "3712121.91275",
    "final_y": "515259.443571",
    "longitude": "-89.97198834837137",
    "latitude": "29.90981967887379",
    "geocoded_column": {
      "latitude": "29.90981967887379",
      "longitude": "-89.97198834837137"
    }
  },
  {
    "service_request": "2024-1075984",
    "request_type": "Roads/Drainage",
    "request_reason": "Catch Basin - Clogged",
    "date_created": "2024-03-15T17:04:38.000",
    "date_modified": "2024-03-15T17:04:38.000",
    "request_status": "Pending",
    "responsible_agency": "Department of Public Works",
    "final_address": "1535 Gentilly Blvd",
    "address_councildis": "A",
    "status": "Pending",
    "rowid": "1075984",
    "final_x": "3678214.16226",
    "final_y": "540106.702731",
    "longitude": "-90.07814880575711",
    "latitude": "29.97920554424044",
    "geocoded_column": {
      "latitude": "29.97920554424044",
      "longitude": "-90.07814880575711"
    }
  },
  {
    "service_request": "2024-1075983",
    "request_type": "Trash/Recycling",
    "request_reason": "Request a Large Item Pick Up",
    "date_created": "2024-03-15T16:58:57.000",
    "date_modified": "2024-03-15T16:58:58.000",
    "request_status": "Pending",
    "responsible_agency": "Department of Sanitation",
    "final_address": "2821 Maurepas St",
    "address_councildis": "A",
    "status": "Assigned to Contractor",
    "contractor": "IV Waste",
    "rowid": "1075983",
    "final_x": "3678218.44987",
    "final_y": "540720.846539",
    "longitude": "-90.07811401515544",
    "latitude": "29.98089409806756",
    "geocoded_column": {
      "latitude": "29.98089409806756",
      "longitude": "-90.07811401515544"
    }
  },
  {
    "service_request": "2024-1075982",
    "request_type": "Abandoned Vehicles",
    "request_reason": "Abandoned/Junk Vehicles",
    "date_created": "2024-03-15T16:58:53.000",
    "date_modified": "2024-03-15T16:58:53.000",
    "request_status": "Pending",
    "responsible_agency": "Department of Public Works",
    "final_address": "3240 Constance St",
    "address_councildis": "B",
    "status": "Pending",
    "rowid": "1075982",
    "final_x": "3675654.14081",
    "final_y": "519473.131447",
    "longitude": "-90.08694323773106",
    "latitude": "29.922546946414577",
    "geocoded_column": {
      "latitude": "29.922546946414577",
      "longitude": "-90.08694323773106"
    }
  },
  {
    "service_request": "2024-1075981",
    "request_type": "Trash/Recycling",
    "request_reason": "Repair Trash Cart",
    "date_created": "2024-03-15T16:57:58.000",
    "date_modified": "2024-03-15T16:57:58.000",
    "request_status": "Pending",
    "responsible_agency": "Department of Sanitation",
    "final_address": "7011 Boston Dr",
    "address_councildis": "E",
    "status": "Assigned to Contractor",
    "contractor": "Waste Pro",
    "rowid": "1075981",
    "final_x": "3706503.13841",
    "final_y": "560609.37059",
    "longitude": "-89.988041670547",
    "latitude": "30.034697658518287",
    "geocoded_column": {
      "latitude": "30.034697658518287",
      "longitude": "-89.988041670547"
    }
  },
  {
    "service_request": "2024-1075980",
    "request_type": "Trash/Recycling",
    "request_reason": "Replace Trash Cart",
    "date_created": "2024-03-15T16:52:10.000",
    "date_modified": "2024-03-15T16:52:10.000",
    "request_status": "Pending",
    "responsible_agency": "Department of Sanitation",
    "final_address": "1607 Dublin St",
    "address_councildis": "A",
    "status": "Assigned to Contractor",
    "contractor": "Richards Disposal",
    "rowid": "1075980",
    "final_x": "3662744.93357",
    "final_y": "529705.708865",
    "longitude": "-90.12735265516957",
    "latitude": "29.951063090600034",
    "geocoded_column": {
      "latitude": "29.951063090600034",
      "longitude": "-90.12735265516957"
    }
  },
  {
    "service_request": "2024-1075978",
    "request_type": "Trash/Recycling",
    "request_reason": "Request a Large Item Pick Up",
    "date_created": "2024-03-15T16:45:30.000",
    "date_modified": "2024-03-15T16:45:31.000",
    "request_status": "Pending",
    "responsible_agency": "Department of Sanitation",
    "final_address": "201 26Th St",
    "address_councildis": "A",
    "status": "Assigned to Contractor",
    "contractor": "IV Waste",
    "rowid": "1075978",
    "final_x": "3665732.94061",
    "final_y": "549942.89698",
    "longitude": "-90.11723981941255",
    "latitude": "30.006621759397227",
    "geocoded_column": {
      "latitude": "30.006621759397227",
      "longitude": "-90.11723981941255"
    }
  },
  {
    "service_request": "2024-1075977",
    "request_type": "Roads/Drainage",
    "request_reason": "Catch Basin - Clogged",
    "date_created": "2024-03-15T16:42:23.000",
    "date_modified": "2024-03-15T16:42:23.000",
    "request_status": "Pending",
    "responsible_agency": "Department of Public Works",
    "final_address": "7100 BLK Martin Dr",
    "address_councildis": "E",
    "status": "Pending",
    "rowid": "1075977",
    "final_x": "3698970.93634",
    "final_y": "558259.052233",
    "longitude": "-90.01193005106437",
    "latitude": "30.028476195783924",
    "geocoded_column": {
      "latitude": "30.028476195783924",
      "longitude": "-90.01193005106437"
    }
  },
  {
    "service_request": "2024-1075976",
    "request_type": "Trash/Recycling",
    "request_reason": "Illegal Dumping",
    "date_created": "2024-03-15T16:33:41.000",
    "date_modified": "2024-03-15T16:33:42.000",
    "request_status": "Pending",
    "responsible_agency": "Department of Sanitation",
    "final_address": "HARMONY ST & BARONNE ST",
    "address_councildis": "B",
    "status": "Pending",
    "rowid": "1075976",
    "final_x": "3674525.7",
    "final_y": "522495.58",
    "longitude": "-90.09040178566927",
    "latitude": "29.930891407852357",
    "geocoded_column": {
      "latitude": "29.930891407852357",
      "longitude": "-90.09040178566927"
    }
  },
  {
    "service_request": "2024-1075975",
    "request_type": "Trash/Recycling",
    "request_reason": "Replace Trash Cart",
    "date_created": "2024-03-15T16:29:40.000",
    "date_modified": "2024-03-15T16:29:41.000",
    "request_status": "Pending",
    "responsible_agency": "Department of Sanitation",
    "final_address": "1124 St Charles Ave",
    "address_councildis": "B",
    "status": "Assigned to Contractor",
    "contractor": "Richards Disposal",
    "rowid": "1075975",
    "final_x": "3679882.49973",
    "final_y": "526445.416574",
    "longitude": "-90.07335400248864",
    "latitude": "29.94159129094358",
    "geocoded_column": {
      "latitude": "29.94159129094358",
      "longitude": "-90.07335400248864"
    }
  },
  {
    "service_request": "2024-1075974",
    "request_type": "Property Maintenance",
    "request_reason": "Property Maintenance",
    "date_created": "2024-03-15T16:25:21.000",
    "date_modified": "2024-03-15T16:25:21.000",
    "request_status": "Pending",
    "responsible_agency": "Department of Code Enforcement",
    "final_address": "439 16Th St",
    "address_councildis": "A",
    "status": "Pending",
    "rowid": "1075974",
    "final_x": "3664513.63559",
    "final_y": "548518.074002",
    "longitude": "-90.12113955648122",
    "latitude": "30.002739513593344",
    "geocoded_column": {
      "latitude": "30.002739513593344",
      "longitude": "-90.12113955648122"
    }
  },
  {
    "service_request": "2024-1075973",
    "request_type": "Trash/Recycling",
    "request_reason": "Repair Trash Cart",
    "date_created": "2024-03-15T16:23:16.000",
    "date_modified": "2024-03-15T16:23:17.000",
    "request_status": "Pending",
    "responsible_agency": "Department of Sanitation",
    "final_address": "200 S Murat St",
    "address_councildis": "A",
    "status": "Assigned to Contractor",
    "contractor": "Richards Disposal",
    "rowid": "1075973",
    "final_x": "3669453.39367",
    "final_y": "539006.379402",
    "longitude": "-90.10585604175023",
    "latitude": "29.976440996812592",
    "geocoded_column": {
      "latitude": "29.976440996812592",
      "longitude": "-90.10585604175023"
    }
  },
  {
    "service_request": "2024-1075972",
    "request_type": "Trash/Recycling",
    "request_reason": "Missed Trash Pick-Up",
    "date_created": "2024-03-15T16:22:04.000",
    "date_modified": "2024-03-15T16:22:05.000",
    "request_status": "Pending",
    "responsible_agency": "Department of Sanitation",
    "final_address": "923 Tchoupitoulas St",
    "address_councildis": "B",
    "status": "Assigned to Contractor",
    "contractor": "Empire Services",
    "rowid": "1075972",
    "final_x": "3681647.45519",
    "final_y": "526914.50931",
    "longitude": "-90.06776533153192",
    "latitude": "29.942827656609296",
    "geocoded_column": {
      "latitude": "29.942827656609296",
      "longitude": "-90.06776533153192"
    }
  },
  {
    "service_request": "2024-1075971",
    "request_type": "Trash/Recycling",
    "request_reason": "Missed Trash Pick-Up",
    "date_created": "2024-03-15T16:20:42.000",
    "date_modified": "2024-03-15T16:20:43.000",
    "request_status": "Pending",
    "responsible_agency": "Department of Sanitation",
    "final_address": "8527 Palm St",
    "address_councildis": "A",
    "status": "Assigned to Contractor",
    "contractor": "Richards Disposal",
    "rowid": "1075971",
    "final_x": "3666510.33652",
    "final_y": "535852.417479",
    "longitude": "-90.11525703406313",
    "latitude": "29.967855013998776",
    "geocoded_column": {
      "latitude": "29.967855013998776",
      "longitude": "-90.11525703406313"
    }
  },
  {
    "service_request": "2024-1075970",
    "request_type": "Roads/Drainage",
    "request_reason": "Street Flooding / Drainage",
    "date_created": "2024-03-15T16:16:11.000",
    "date_modified": "2024-03-15T16:16:11.000",
    "request_status": "Pending",
    "responsible_agency": "Department of Public Works",
    "final_address": "2321 Bienville Ave",
    "address_councildis": "B",
    "status": "Pending",
    "rowid": "1075970",
    "final_x": "3677066.64898",
    "final_y": "534863.758854",
    "longitude": "-90.08195394772578",
    "latitude": "29.96482375459892",
    "geocoded_column": {
      "latitude": "29.96482375459892",
      "longitude": "-90.08195394772578"
    }
  },
  {
    "service_request": "2024-1075969",
    "request_type": "Traffic Signals/Signs/Striping/Streetlights",
    "request_reason": "Traffic Signal Malfunctioning/Damaged",
    "date_created": "2024-03-15T16:09:54.000",
    "date_modified": "2024-03-15T16:09:54.000",
    "request_status": "Pending",
    "responsible_agency": "Department of Public Works",
    "final_address": "1100 Poydras St Ste 1530",
    "address_councildis": "B",
    "status": "Pending",
    "rowid": "1075969",
    "final_x": "3679169.07266",
    "final_y": "529566.637825",
    "longitude": "-90.0754982596223",
    "latitude": "29.950195160110066",
    "geocoded_column": {
      "latitude": "29.950195160110066",
      "longitude": "-90.0754982596223"
    }
  },
  {
    "service_request": "2024-1075968",
    "request_type": "Traffic Signals/Signs/Striping/Streetlights",
    "request_reason": "Street Light Outage/Malfunction",
    "date_created": "2024-03-15T16:03:10.000",
    "date_modified": "2024-03-15T16:03:11.000",
    "request_status": "Pending",
    "responsible_agency": "Department of Public Works",
    "final_address": "8040 Lacombe St",
    "address_councildis": "E",
    "status": "Assigned to Contractor",
    "contractor": "Legacy Professional Services",
    "rowid": "1075968",
    "final_x": "3708907.39051",
    "final_y": "566446.276963",
    "longitude": "-89.98022612976487",
    "latitude": "30.050668985418937",
    "geocoded_column": {
      "latitude": "30.050668985418937",
      "longitude": "-89.98022612976487"
    }
  },
  {
    "service_request": "2024-1075967",
    "request_type": "Trash/Recycling",
    "request_reason": "Request a Large Item Pick Up",
    "date_created": "2024-03-15T16:00:39.000",
    "date_modified": "2024-03-15T16:00:40.000",
    "request_status": "Pending",
    "responsible_agency": "Department of Sanitation",
    "final_address": "821 Wagner St",
    "address_councildis": "C",
    "status": "Assigned to Contractor",
    "contractor": "Richards Disposal",
    "rowid": "1075967",
    "final_x": "3690475.84547",
    "final_y": "528398.060672",
    "longitude": "-90.03983921365288",
    "latitude": "29.946635846119207",
    "geocoded_column": {
      "latitude": "29.946635846119207",
      "longitude": "-90.03983921365288"
    }
  },
  {
    "service_request": "2024-1075966",
    "request_type": "Roads/Drainage",
    "request_reason": "Street Flooding / Drainage",
    "date_created": "2024-03-15T16:00:17.000",
    "date_modified": "2024-03-15T16:00:17.000",
    "request_status": "Pending",
    "responsible_agency": "Department of Public Works",
    "final_address": "4141 Bienville Ave",
    "address_councildis": "A",
    "status": "Pending",
    "rowid": "1075966",
    "final_x": "3671348.04526",
    "final_y": "539264.862474",
    "longitude": "-90.09986335627494",
    "latitude": "29.977095793502194",
    "geocoded_column": {
      "latitude": "29.977095793502194",
      "longitude": "-90.09986335627494"
    }
  },
  {
    "service_request": "2024-1075965",
    "request_type": "Traffic Signals/Signs/Striping/Streetlights",
    "request_reason": "Street Light Outage/Malfunction",
    "date_created": "2024-03-15T15:53:58.000",
    "date_modified": "2024-03-15T15:53:58.000",
    "request_status": "Pending",
    "responsible_agency": "Department of Public Works",
    "final_address": "1700 BLK Holiday Dr",
    "address_councildis": "C",
    "status": "Assigned to Contractor",
    "contractor": "Legacy Professional Services",
    "rowid": "1075965",
    "final_x": "3699012.37622",
    "final_y": "524441.1179",
    "longitude": "-90.01303043814268",
    "latitude": "29.93548789947842",
    "geocoded_column": {
      "latitude": "29.93548789947842",
      "longitude": "-90.01303043814268"
    }
  },
  {
    "service_request": "2024-1075964",
    "request_type": "Trash/Recycling",
    "request_reason": "Order Trash Cart",
    "date_created": "2024-03-15T15:53:34.000",
    "date_modified": "2024-03-15T15:53:34.000",
    "request_status": "Pending",
    "responsible_agency": "Department of Sanitation",
    "final_address": "6017 Canal Blvd",
    "address_councildis": "A",
    "status": "Assigned to Contractor",
    "contractor": "IV Waste",
    "rowid": "1075964",
    "final_x": "3668655.81818",
    "final_y": "547417.331217",
    "longitude": "-90.1080909829243",
    "latitude": "29.99959171150502",
    "geocoded_column": {
      "latitude": "29.99959171150502",
      "longitude": "-90.1080909829243"
    }
  },
  {
    "service_request": "2024-1075963",
    "request_type": "Traffic Signals/Signs/Striping/Streetlights",
    "request_reason": "Traffic Sign Missing/Damaged",
    "date_created": "2024-03-15T15:51:17.000",
    "date_modified": "2024-03-15T15:51:17.000",
    "request_status": "Pending",
    "responsible_agency": "Department of Public Works",
    "final_address": "3000 BLK Rue Parc Fontaine",
    "address_councildis": "C",
    "status": "Pending",
    "rowid": "1075963",
    "final_x": "3700179.05203",
    "final_y": "519428.286719",
    "longitude": "-90.00953009239862",
    "latitude": "29.921667327849818",
    "geocoded_column": {
      "latitude": "29.921667327849818",
      "longitude": "-90.00953009239862"
    }
  },
  {
    "service_request": "2024-1075962",
    "request_type": "Roads/Drainage",
    "request_reason": "Street Subsidence (Sinking)",
    "date_created": "2024-03-15T15:44:32.000",
    "date_modified": "2024-03-15T15:44:32.000",
    "request_status": "Pending",
    "responsible_agency": "Department of Public Works",
    "final_address": "4340 Lincoln St",
    "address_councildis": "C",
    "status": "Pending",
    "rowid": "1075962",
    "final_x": "3710904.51883",
    "final_y": "514090.923826",
    "longitude": "-89.97587433501606",
    "latitude": "29.906646369408403",
    "geocoded_column": {
      "latitude": "29.906646369408403",
      "longitude": "-89.97587433501606"
    }
  },
  {
    "service_request": "2024-1075961",
    "request_type": "Roads/Drainage",
    "request_reason": "Pothole",
    "date_created": "2024-03-15T15:41:41.000",
    "date_modified": "2024-03-15T15:41:42.000",
    "request_status": "Pending",
    "responsible_agency": "Department of Public Works",
    "final_address": "1900 BLK Saint Claude Ave",
    "address_councildis": "C",
    "status": "Pending",
    "rowid": "1075961",
    "final_x": "3684054.22372",
    "final_y": "536221.234104",
    "longitude": "-90.05984002895792",
    "latitude": "29.968344661279527",
    "geocoded_column": {
      "latitude": "29.968344661279527",
      "longitude": "-90.05984002895792"
    }
  },
  {
    "service_request": "2024-1075960",
    "request_type": "Trash/Recycling",
    "request_reason": "Request a Large Item Pick Up",
    "date_created": "2024-03-15T15:41:27.000",
    "date_modified": "2024-03-15T15:41:27.000",
    "request_status": "Pending",
    "responsible_agency": "Department of Sanitation",
    "final_address": "1921 Carnot St",
    "address_councildis": "D",
    "status": "Assigned to Contractor",
    "contractor": "IV Waste",
    "rowid": "1075960",
    "final_x": "3681854.42447",
    "final_y": "549843.834708",
    "longitude": "-90.06631138564023",
    "latitude": "30.005869060246898",
    "geocoded_column": {
      "latitude": "30.005869060246898",
      "longitude": "-90.06631138564023"
    }
  },
  {
    "service_request": "2024-1075959",
    "request_type": "Parks & Parkways",
    "request_reason": "Request Tree Service (Right of Way/Public Property)",
    "date_created": "2024-03-15T15:40:40.000",
    "date_modified": "2024-03-15T15:40:40.000",
    "request_status": "Pending",
    "responsible_agency": "Department of Parks & Parkway",
    "final_address": "1526 Pine St",
    "address_councildis": "A",
    "status": "Pending",
    "rowid": "1075959",
    "final_x": "3664637.4818",
    "final_y": "527830.573311",
    "longitude": "-90.12143952946141",
    "latitude": "29.945852166921238",
    "geocoded_column": {
      "latitude": "29.945852166921238",
      "longitude": "-90.12143952946141"
    }
  },
  {
    "service_request": "2024-1075958",
    "request_type": "Trash/Recycling",
    "request_reason": "Start Trash Service",
    "date_created": "2024-03-15T15:39:22.000",
    "date_modified": "2024-03-15T15:39:23.000",
    "request_status": "Pending",
    "responsible_agency": "Department of Sanitation",
    "final_address": "3740 Rue Andree",
    "address_councildis": "C",
    "status": "Assigned to Contractor",
    "contractor": "Richards Disposal",
    "rowid": "1075958",
    "final_x": "3705056.93182",
    "final_y": "516635.231925",
    "longitude": "-89.99423588220758",
    "latitude": "29.913831534082018",
    "geocoded_column": {
      "latitude": "29.913831534082018",
      "longitude": "-89.99423588220758"
    }
  },
  {
    "service_request": "2024-1075957",
    "request_type": "Parks & Parkways",
    "request_reason": "Request Tree Service (Right of Way/Public Property)",
    "date_created": "2024-03-15T15:39:10.000",
    "date_modified": "2024-03-15T15:39:10.000",
    "request_status": "Pending",
    "responsible_agency": "Department of Parks & Parkway",
    "final_address": "7433 Weaver Ave",
    "address_councildis": "E",
    "status": "Pending",
    "rowid": "1075957",
    "final_x": "3707717.13515",
    "final_y": "563911.870945",
    "longitude": "-89.98408240533216",
    "latitude": "30.04373897748534",
    "geocoded_column": {
      "latitude": "30.04373897748534",
      "longitude": "-89.98408240533216"
    }
  },
  {
    "service_request": "2024-1075956",
    "request_type": "Roads/Drainage",
    "request_reason": "Pothole",
    "date_created": "2024-03-15T15:38:37.000",
    "date_modified": "2024-03-15T15:38:37.000",
    "request_status": "Pending",
    "responsible_agency": "Department of Public Works",
    "final_address": "SYCAMORE ST & FERN ST",
    "address_councildis": "A",
    "status": "Pending",
    "rowid": "1075956",
    "final_x": "3664900.9",
    "final_y": "530445.78",
    "longitude": "-90.12052042940522",
    "latitude": "29.953035476840334",
    "geocoded_column": {
      "latitude": "29.953035476840334",
      "longitude": "-90.12052042940522"
    }
  },
  {
    "service_request": "2024-1075955",
    "request_type": "Abandoned Vehicles",
    "request_reason": "Abandoned/Junk Vehicles",
    "date_created": "2024-03-15T15:35:08.000",
    "date_modified": "2024-03-15T15:35:08.000",
    "request_status": "Pending",
    "responsible_agency": "Department of Public Works",
    "final_address": "3006 Laurel St",
    "address_councildis": "B",
    "status": "Pending",
    "rowid": "1075955",
    "final_x": "3676722.87208",
    "final_y": "519690.958776",
    "longitude": "-90.08356218092703",
    "latitude": "29.92311389256644",
    "geocoded_column": {
      "latitude": "29.92311389256644",
      "longitude": "-90.08356218092703"
    }
  },
  {
    "service_request": "2024-1075954",
    "request_type": "Traffic Signals/Signs/Striping/Streetlights",
    "request_reason": "Street Light Outage/Malfunction",
    "date_created": "2024-03-15T15:28:42.000",
    "date_modified": "2024-03-15T15:28:42.000",
    "request_status": "Pending",
    "responsible_agency": "Department of Public Works",
    "final_address": "4701 W Adams Ct",
    "address_councildis": "E",
    "status": "Assigned to Contractor",
    "contractor": "Legacy Professional Services",
    "rowid": "1075954",
    "final_x": "3718631.79557",
    "final_y": "556719.973786",
    "longitude": "-89.94986219882499",
    "latitude": "30.023606262050237",
    "geocoded_column": {
      "latitude": "30.023606262050237",
      "longitude": "-89.94986219882499"
    }
  },
  {
    "service_request": "2024-1075953",
    "request_type": "Trash/Recycling",
    "request_reason": "Missed Trash Pick-Up",
    "date_created": "2024-03-15T15:22:58.000",
    "date_modified": "2024-03-15T15:50:26.000",
    "case_close_date": "2024-03-15T10:50:26.000",
    "request_status": "Closed",
    "responsible_agency": "Department of Sanitation",
    "final_address": "4424 St Roch Ave",
    "address_councildis": "D",
    "status": "Invalid Request",
    "contractor": "IV Waste",
    "contractor_action": "Invalid Request",
    "rowid": "1075953",
    "final_x": "3685303.77333",
    "final_y": "549167.750547",
    "longitude": "-90.05543792432293",
    "latitude": "30.003904747406327",
    "geocoded_column": {
      "latitude": "30.003904747406327",
      "longitude": "-90.05543792432293"
    }
  },
  {
    "service_request": "2024-1075952",
    "request_type": "Roads/Drainage",
    "request_reason": "Street Flooding / Drainage",
    "date_created": "2024-03-15T15:17:55.000",
    "date_modified": "2024-03-15T15:17:56.000",
    "request_status": "Pending",
    "responsible_agency": "Department of Public Works",
    "final_address": "2100 BLK Mexico St",
    "address_councildis": "D",
    "status": "Pending",
    "rowid": "1075952",
    "final_x": "3683167.70253",
    "final_y": "556123.215297",
    "longitude": "-90.06194232031169",
    "latitude": "30.023095072922537",
    "geocoded_column": {
      "latitude": "30.023095072922537",
      "longitude": "-90.06194232031169"
    }
  },
  {
    "service_request": "2024-1075951",
    "request_type": "Trash/Recycling",
    "request_reason": "Request a Large Item Pick Up",
    "date_created": "2024-03-15T15:16:52.000",
    "date_modified": "2024-03-15T15:16:52.000",
    "request_status": "Pending",
    "responsible_agency": "Department of Sanitation",
    "final_address": "5019 Cardenas Dr",
    "address_councildis": "E",
    "status": "Assigned to Contractor",
    "contractor": "Waste Pro",
    "rowid": "1075951",
    "final_x": "3713607.63442",
    "final_y": "557791.505435",
    "longitude": "-89.96569694101007",
    "latitude": "30.026718387881406",
    "geocoded_column": {
      "latitude": "30.026718387881406",
      "longitude": "-89.96569694101007"
    }
  },
  {
    "service_request": "2024-1075950",
    "request_type": "Trash/Recycling",
    "request_reason": "Missed Trash Pick-Up",
    "date_created": "2024-03-15T15:11:28.000",
    "date_modified": "2024-03-15T15:11:29.000",
    "request_status": "Pending",
    "responsible_agency": "Department of Sanitation",
    "final_address": "419 Hendee St",
    "address_councildis": "C",
    "status": "Assigned to Contractor",
    "contractor": "Richards Disposal",
    "rowid": "1075950",
    "final_x": "3690854.33596",
    "final_y": "530039.868033",
    "longitude": "-90.03858561310606",
    "latitude": "29.95113849706757",
    "geocoded_column": {
      "latitude": "29.95113849706757",
      "longitude": "-90.03858561310606"
    }
  },
  {
    "service_request": "2024-1075949",
    "request_type": "Healthy Homes",
    "request_reason": "Healthy Homes",
    "date_created": "2024-03-15T15:11:01.000",
    "date_modified": "2024-03-15T15:11:01.000",
    "request_status": "Pending",
    "responsible_agency": "Department of Code Enforcement",
    "final_address": "4411 S Miro St",
    "address_councildis": "B",
    "status": "Pending",
    "rowid": "1075949",
    "final_x": "3669982.12673",
    "final_y": "527845.350143",
    "longitude": "-90.10456414911137",
    "latitude": "29.945736284474133",
    "geocoded_column": {
      "latitude": "29.945736284474133",
      "longitude": "-90.10456414911137"
    }
  },
  {
    "service_request": "2024-1075948",
    "request_type": "Abandoned Vehicles",
    "request_reason": "Abandoned/Junk Vehicles",
    "date_created": "2024-03-15T15:06:30.000",
    "date_modified": "2024-03-15T15:06:31.000",
    "request_status": "Pending",
    "responsible_agency": "Department of Public Works",
    "final_address": "3017 Palmyra St",
    "address_councildis": "B",
    "status": "Pending",
    "rowid": "1075948",
    "final_x": "3673782.64808",
    "final_y": "535394.315142",
    "longitude": "-90.09230647980729",
    "latitude": "29.966380813106213",
    "geocoded_column": {
      "latitude": "29.966380813106213",
      "longitude": "-90.09230647980729"
    }
  },
  {
    "service_request": "2024-1075947",
    "request_type": "Traffic Signals/Signs/Striping/Streetlights",
    "request_reason": "Street Light Outage/Malfunction",
    "date_created": "2024-03-15T15:05:20.000",
    "date_modified": "2024-03-15T15:05:21.000",
    "request_status": "Pending",
    "responsible_agency": "Department of Public Works",
    "final_address": "4200 BLK Murano Rd",
    "address_councildis": "E",
    "status": "Assigned to Contractor",
    "contractor": "Legacy Professional Services",
    "rowid": "1075947",
    "final_x": "3761378.35844",
    "final_y": "573665.592942",
    "longitude": "-89.8140855163045",
    "latitude": "30.068710683423813",
    "geocoded_column": {
      "latitude": "30.068710683423813",
      "longitude": "-89.8140855163045"
    }
  },
  {
    "service_request": "2024-1075946",
    "request_type": "Trash/Recycling",
    "request_reason": "Repair Trash Cart",
    "date_created": "2024-03-15T15:03:56.000",
    "date_modified": "2024-03-15T15:03:57.000",
    "request_status": "Pending",
    "responsible_agency": "Department of Sanitation",
    "final_address": "836 Desire St",
    "address_councildis": "C",
    "status": "Assigned to Contractor",
    "contractor": "IV Waste",
    "rowid": "1075946",
    "final_x": "3689942.48617",
    "final_y": "534860.31975",
    "longitude": "-90.04129314527765",
    "latitude": "29.964421365667665",
    "geocoded_column": {
      "latitude": "29.964421365667665",
      "longitude": "-90.04129314527765"
    }
  },
  {
    "service_request": "2024-1075945",
    "request_type": "Roads/Drainage",
    "request_reason": "Catch Basin - Broken/Damage",
    "date_created": "2024-03-15T15:03:05.000",
    "date_modified": "2024-03-15T15:03:05.000",
    "request_status": "Pending",
    "responsible_agency": "Department of Public Works",
    "final_address": "TERPSICHORE ST & COLISEUM ST",
    "address_councildis": "B",
    "status": "Pending",
    "rowid": "1075945",
    "final_x": "3679806.3",
    "final_y": "524823.38",
    "longitude": "-90.07365087909857",
    "latitude": "29.9371335319541",
    "geocoded_column": {
      "latitude": "29.9371335319541",
      "longitude": "-90.07365087909857"
    }
  },
  {
    "service_request": "2024-1075944",
    "request_type": "Trash/Recycling",
    "request_reason": "Request a Large Item Pick Up",
    "date_created": "2024-03-15T14:58:49.000",
    "date_modified": "2024-03-15T14:58:50.000",
    "request_status": "Pending",
    "responsible_agency": "Department of Sanitation",
    "final_address": "2321 Lamanche St",
    "address_councildis": "E",
    "status": "Assigned to Contractor",
    "contractor": "Waste Pro",
    "rowid": "1075944",
    "final_x": "3699696.74525",
    "final_y": "538343.312265",
    "longitude": "-90.01036315574751",
    "latitude": "29.973692306939583",
    "geocoded_column": {
      "latitude": "29.973692306939583",
      "longitude": "-90.01036315574751"
    }
  },
  {
    "service_request": "2024-1075943",
    "request_type": "Property Maintenance",
    "request_reason": "Property Maintenance",
    "date_created": "2024-03-15T14:58:41.000",
    "date_modified": "2024-03-15T14:58:41.000",
    "request_status": "Pending",
    "responsible_agency": "Department of Code Enforcement",
    "final_address": "4719 N Villere St",
    "address_councildis": "E",
    "status": "Pending",
    "rowid": "1075943",
    "final_x": "3695147.61066",
    "final_y": "535767.168711",
    "longitude": "-90.02482314414641",
    "latitude": "29.966752467893663",
    "geocoded_column": {
      "latitude": "29.966752467893663",
      "longitude": "-90.02482314414641"
    }
  },
  {
    "service_request": "2024-1075942",
    "request_type": "Roads/Drainage",
    "request_reason": "Catch Basin - Clogged",
    "date_created": "2024-03-15T14:58:34.000",
    "date_modified": "2024-03-15T14:58:34.000",
    "request_status": "Pending",
    "responsible_agency": "Department of Public Works",
    "final_address": "TERPSICHORE ST & COLISEUM ST",
    "address_councildis": "B",
    "status": "Pending",
    "rowid": "1075942",
    "final_x": "3679806.3",
    "final_y": "524823.38",
    "longitude": "-90.07365087909857",
    "latitude": "29.9371335319541",
    "geocoded_column": {
      "latitude": "29.9371335319541",
      "longitude": "-90.07365087909857"
    }
  },
  {
    "service_request": "2024-1075941",
    "request_type": "Mosquito, Termite & Rodent Control",
    "request_reason": "Non-Rodent Complaint (Mice, Possums, Snakes)",
    "date_created": "2024-03-15T14:56:20.000",
    "date_modified": "2024-03-15T14:56:20.000",
    "request_status": "Pending",
    "responsible_agency": "Mosquito, Termite & Rodent Control Board",
    "final_address": "4521 St Anthony Ave",
    "address_councildis": "D",
    "status": "Pending",
    "rowid": "1075941",
    "final_x": "3682569.65602",
    "final_y": "549326.808211",
    "longitude": "-90.06406989718377",
    "latitude": "30.004425657970643",
    "geocoded_column": {
      "latitude": "30.004425657970643",
      "longitude": "-90.06406989718377"
    }
  },
  {
    "service_request": "2024-1075940",
    "request_type": "Parks & Parkways",
    "request_reason": "Request Tree Service (Right of Way/Public Property)",
    "date_created": "2024-03-15T14:55:18.000",
    "date_modified": "2024-03-15T14:55:19.000",
    "request_status": "Pending",
    "responsible_agency": "Department of Parks & Parkway",
    "final_address": "4521 St Anthony Ave",
    "address_councildis": "D",
    "status": "Pending",
    "rowid": "1075940",
    "final_x": "3682569.65602",
    "final_y": "549326.808211",
    "longitude": "-90.06406989718377",
    "latitude": "30.004425657970643",
    "geocoded_column": {
      "latitude": "30.004425657970643",
      "longitude": "-90.06406989718377"
    }
  },
  {
    "service_request": "2024-1075939",
    "request_type": "Traffic Signals/Signs/Striping/Streetlights",
    "request_reason": "Street Light Outage/Malfunction",
    "date_created": "2024-03-15T14:55:08.000",
    "date_modified": "2024-03-15T14:55:08.000",
    "request_status": "Pending",
    "responsible_agency": "Department of Public Works",
    "final_address": "13912 Intrepid St",
    "address_councildis": "E",
    "status": "Assigned to Contractor",
    "contractor": "Legacy Professional Services",
    "rowid": "1075939",
    "final_x": "3726133.04659",
    "final_y": "570328.609639",
    "longitude": "-89.92563185785683",
    "latitude": "30.060773199815742",
    "geocoded_column": {
      "latitude": "30.060773199815742",
      "longitude": "-89.92563185785683"
    }
  },
  {
    "service_request": "2024-1075938",
    "request_type": "Trash/Recycling",
    "request_reason": "Request a Large Item Pick Up",
    "date_created": "2024-03-15T14:51:31.000",
    "date_modified": "2024-03-15T14:51:32.000",
    "request_status": "Pending",
    "responsible_agency": "Department of Sanitation",
    "final_address": "4311 State Street Dr",
    "address_councildis": "B",
    "status": "Assigned to Contractor",
    "contractor": "Richards Disposal",
    "rowid": "1075938",
    "final_x": "3668558.99514",
    "final_y": "531229.526466",
    "longitude": "-90.1089432864963",
    "latitude": "29.95508355119546",
    "geocoded_column": {
      "latitude": "29.95508355119546",
      "longitude": "-90.1089432864963"
    }
  },
  {
    "service_request": "2024-1075937",
    "request_type": "Abandoned Vehicles",
    "request_reason": "Abandoned/Junk Vehicles",
    "date_created": "2024-03-15T14:51:26.000",
    "date_modified": "2024-03-15T14:54:08.000",
    "request_status": "Pending",
    "responsible_agency": "Department of Public Works",
    "final_address": "HARMONY ST & ST CHARLES AVE",
    "address_councildis": "B",
    "status": "Pending",
    "rowid": "1075937",
    "final_x": "3674880.6",
    "final_y": "521808.88",
    "longitude": "-90.08930494982839",
    "latitude": "29.928992615151138",
    "geocoded_column": {
      "latitude": "29.928992615151138",
      "longitude": "-90.08930494982839"
    }
  },
  {
    "service_request": "2024-1075936",
    "request_type": "Trash/Recycling",
    "request_reason": "Request a Large Item Pick Up",
    "date_created": "2024-03-15T14:50:22.000",
    "date_modified": "2024-03-15T15:06:09.000",
    "case_close_date": "2024-03-15T10:06:09.000",
    "request_status": "Closed",
    "responsible_agency": "Department of Sanitation",
    "final_address": "1124 Piety St",
    "address_councildis": "C",
    "status": "Assigned to Contractor",
    "contractor": "IV Waste",
    "contractor_action": "Completed",
    "rowid": "1075936",
    "final_x": "3689876.98377",
    "final_y": "536078.421255",
    "longitude": "-90.041456626897",
    "latitude": "29.96777274886641",
    "geocoded_column": {
      "latitude": "29.96777274886641",
      "longitude": "-90.041456626897"
    }
  },
  {
    "service_request": "2024-1075935",
    "request_type": "Trash/Recycling",
    "request_reason": "Missed Trash Pick-Up",
    "date_created": "2024-03-15T14:49:17.000",
    "date_modified": "2024-03-15T15:36:18.000",
    "case_close_date": "2024-03-15T10:36:18.000",
    "request_status": "Closed",
    "responsible_agency": "Department of Sanitation",
    "final_address": "1124 Piety St",
    "address_councildis": "C",
    "status": "Invalid Request",
    "contractor": "IV Waste",
    "contractor_action": "Invalid Pick-Up",
    "rowid": "1075935",
    "final_x": "3689876.98377",
    "final_y": "536078.421255",
    "longitude": "-90.041456626897",
    "latitude": "29.96777274886641",
    "geocoded_column": {
      "latitude": "29.96777274886641",
      "longitude": "-90.041456626897"
    }
  },
  {
    "service_request": "2024-1075934",
    "request_type": "Traffic Signals/Signs/Striping/Streetlights",
    "request_reason": "Additional signage",
    "date_created": "2024-03-15T14:37:46.000",
    "date_modified": "2024-03-15T14:37:47.000",
    "request_status": "Pending",
    "responsible_agency": "Department of Public Works",
    "final_address": "3116 Dante St",
    "address_councildis": "A",
    "status": "Pending",
    "rowid": "1075934",
    "final_x": "3666085.74746",
    "final_y": "534030.079045",
    "longitude": "-90.11665901246059",
    "latitude": "29.962856589064785",
    "geocoded_column": {
      "latitude": "29.962856589064785",
      "longitude": "-90.11665901246059"
    }
  },
  {
    "service_request": "2024-1075933",
    "request_type": "Trash/Recycling",
    "request_reason": "Replace Trash Cart",
    "date_created": "2024-03-15T14:37:45.000",
    "date_modified": "2024-03-15T14:37:45.000",
    "request_status": "Pending",
    "responsible_agency": "Department of Sanitation",
    "final_address": "1918 Pace Blvd",
    "address_councildis": "C",
    "status": "Assigned to Contractor",
    "contractor": "Richards Disposal",
    "rowid": "1075933",
    "final_x": "3694512.04477",
    "final_y": "523483.407227",
    "longitude": "-90.02727241153072",
    "latitude": "29.932996340675203",
    "geocoded_column": {
      "latitude": "29.932996340675203",
      "longitude": "-90.02727241153072"
    }
  },
  {
    "service_request": "2024-1075932",
    "request_type": "Trash/Recycling",
    "request_reason": "Replace Trash Cart",
    "date_created": "2024-03-15T14:37:15.000",
    "date_modified": "2024-03-15T14:37:16.000",
    "request_status": "Pending",
    "responsible_agency": "Department of Sanitation",
    "final_address": "1916 Pace Blvd",
    "address_councildis": "C",
    "status": "Assigned to Contractor",
    "contractor": "Richards Disposal",
    "rowid": "1075932",
    "final_x": "3694514.27862",
    "final_y": "523507.980219",
    "longitude": "-90.02726447523264",
    "latitude": "29.93306383799318",
    "geocoded_column": {
      "latitude": "29.93306383799318",
      "longitude": "-90.02726447523264"
    }
  },
  {
    "service_request": "2024-1075931",
    "request_type": "Roads/Drainage",
    "request_reason": "Pothole",
    "date_created": "2024-03-15T14:37:14.000",
    "date_modified": "2024-03-15T14:37:14.000",
    "request_status": "Pending",
    "responsible_agency": "Department of Public Works",
    "final_address": "1100 BLK Soniat St",
    "address_councildis": "B",
    "status": "Pending",
    "rowid": "1075931",
    "final_x": "3668370.49754",
    "final_y": "519494.835798",
    "longitude": "-90.10993411237165",
    "latitude": "29.922822468516387",
    "geocoded_column": {
      "latitude": "29.922822468516387",
      "longitude": "-90.10993411237165"
    }
  },
  {
    "service_request": "2024-1075930",
    "request_type": "Property Maintenance",
    "request_reason": "Property Maintenance",
    "date_created": "2024-03-15T14:36:28.000",
    "date_modified": "2024-03-15T14:36:29.000",
    "request_status": "Pending",
    "responsible_agency": "Department of Code Enforcement",
    "final_address": "EXPLORERS AVE & ADVENTURE AVE",
    "address_councildis": "E",
    "status": "Pending",
    "rowid": "1075930",
    "final_x": "3726121.2",
    "final_y": "570039.68",
    "longitude": "-89.9256805237906",
    "latitude": "30.059979165812603",
    "geocoded_column": {
      "latitude": "30.059979165812603",
      "longitude": "-89.9256805237906"
    }
  },
  {
    "service_request": "2024-1075929",
    "request_type": "Roads/Drainage",
    "request_reason": "Catch Basin - Broken/Damage",
    "date_created": "2024-03-15T14:31:36.000",
    "date_modified": "2024-03-15T14:33:59.000",
    "request_status": "Pending",
    "responsible_agency": "Department of Public Works",
    "final_address": "14001 Explorers Ave",
    "address_councildis": "E",
    "status": "Pending",
    "rowid": "1075929",
    "final_x": "3726465.35149",
    "final_y": "570567.645799",
    "longitude": "-89.92457217690284",
    "latitude": "30.061419218520584",
    "geocoded_column": {
      "latitude": "30.061419218520584",
      "longitude": "-89.92457217690284"
    }
  },
  {
    "service_request": "2024-1075928",
    "request_type": "Trash/Recycling",
    "request_reason": "Order Recycling Cart",
    "date_created": "2024-03-15T14:26:55.000",
    "date_modified": "2024-03-15T14:26:55.000",
    "request_status": "Pending",
    "responsible_agency": "Department of Sanitation",
    "final_address": "1654 N Dorgenois St",
    "address_councildis": "D",
    "status": "Pending",
    "rowid": "1075928",
    "final_x": "3679894.36405",
    "final_y": "540155.570827",
    "longitude": "-90.07284037596771",
    "latitude": "29.979289199133007",
    "geocoded_column": {
      "latitude": "29.979289199133007",
      "longitude": "-90.07284037596771"
    }
  },
  {
    "service_request": "2024-1075927",
    "request_type": "Abandoned Vehicles",
    "request_reason": "Abandoned/Junk Vehicles",
    "date_created": "2024-03-15T14:26:18.000",
    "date_modified": "2024-03-15T14:26:18.000",
    "request_status": "Pending",
    "responsible_agency": "Department of Public Works",
    "final_address": "417 Seguin St",
    "address_councildis": "C",
    "status": "Pending",
    "rowid": "1075927",
    "final_x": "3686250.55618",
    "final_y": "530136.564865",
    "longitude": "-90.05311861467507",
    "latitude": "29.95154661648455",
    "geocoded_column": {
      "latitude": "29.95154661648455",
      "longitude": "-90.05311861467507"
    }
  },
  {
    "service_request": "2024-1075926",
    "request_type": "Trash/Recycling",
    "request_reason": "Dead Animal Pick Up",
    "date_created": "2024-03-15T14:13:02.000",
    "date_modified": "2024-03-15T14:25:47.000",
    "request_status": "Pending",
    "responsible_agency": "Department of Sanitation",
    "final_address": "10122 Pressburg St",
    "address_councildis": "E",
    "status": "Assigned to Contractor",
    "contractor": "Waste Pro",
    "rowid": "1075926",
    "final_x": "3712919.15198",
    "final_y": "557087.803162",
    "longitude": "-89.96789894774632",
    "latitude": "30.024806061955424",
    "geocoded_column": {
      "latitude": "30.024806061955424",
      "longitude": "-89.96789894774632"
    }
  },
  {
    "service_request": "2024-1075925",
    "request_type": "Trash/Recycling",
    "request_reason": "Request a Large Item Pick Up",
    "date_created": "2024-03-15T14:12:52.000",
    "date_modified": "2024-03-15T14:12:52.000",
    "request_status": "Pending",
    "responsible_agency": "Department of Sanitation",
    "final_address": "4401 America St",
    "address_councildis": "E",
    "status": "Assigned to Contractor",
    "contractor": "Waste Pro",
    "rowid": "1075925",
    "final_x": "3699944.0426",
    "final_y": "553148.030743",
    "longitude": "-90.00904176092706",
    "latitude": "30.014391946747747",
    "geocoded_column": {
      "latitude": "30.014391946747747",
      "longitude": "-90.00904176092706"
    }
  },
  {
    "service_request": "2024-1075924",
    "request_type": "Traffic Signals/Signs/Striping/Streetlights",
    "request_reason": "Street Light Outage/Malfunction",
    "date_created": "2024-03-15T14:09:40.000",
    "date_modified": "2024-03-15T14:09:41.000",
    "request_status": "Pending",
    "responsible_agency": "Department of Public Works",
    "final_address": "2600 BLK Dauphine St",
    "address_councildis": "C",
    "status": "Assigned to Contractor",
    "contractor": "Legacy Professional Services",
    "rowid": "1075924",
    "final_x": "3686979.22181",
    "final_y": "535288.159854",
    "longitude": "-90.05063575722144",
    "latitude": "29.96568932032339",
    "geocoded_column": {
      "latitude": "29.96568932032339",
      "longitude": "-90.05063575722144"
    }
  },
  {
    "service_request": "2024-1075923",
    "request_type": "Property Maintenance",
    "request_reason": "Property Maintenance",
    "date_created": "2024-03-15T14:02:46.000",
    "date_modified": "2024-03-15T14:35:21.000",
    "case_close_date": "2024-03-15T09:35:21.000",
    "request_status": "Closed",
    "responsible_agency": "Department of Code Enforcement",
    "final_address": "324 Newton St",
    "address_councildis": "C",
    "status": "Resolved",
    "rowid": "1075923",
    "final_x": "3686415.58742",
    "final_y": "527967.290175",
    "longitude": "-90.05267408142032",
    "latitude": "29.945576778915967",
    "geocoded_column": {
      "latitude": "29.945576778915967",
      "longitude": "-90.05267408142032"
    }
  },
  {
    "service_request": "2024-1075922",
    "request_type": "Roads/Drainage",
    "request_reason": "Pothole",
    "date_created": "2024-03-15T14:01:55.000",
    "date_modified": "2024-03-15T14:02:17.000",
    "case_close_date": "2024-03-15T09:02:17.000",
    "request_status": "Closed",
    "responsible_agency": "Department of Public Works",
    "final_address": "2300 BLK Dublin St",
    "address_councildis": "A",
    "status": "Resolved",
    "rowid": "1075922",
    "final_x": "3664427.50543",
    "final_y": "531599.786982",
    "longitude": "-90.1219766866921",
    "latitude": "29.956222390348525",
    "geocoded_column": {
      "latitude": "29.956222390348525",
      "longitude": "-90.1219766866921"
    }
  },
  {
    "service_request": "2024-1075921",
    "request_type": "Roads/Drainage",
    "request_reason": "Pothole",
    "date_created": "2024-03-15T13:54:52.000",
    "date_modified": "2024-03-15T13:55:12.000",
    "case_close_date": "2024-03-15T08:55:12.000",
    "request_status": "Closed",
    "responsible_agency": "Department of Public Works",
    "final_address": "2100 BLK Dublin St",
    "address_councildis": "A",
    "status": "Resolved",
    "rowid": "1075921",
    "final_x": "3663949.27246",
    "final_y": "531077.260468",
    "longitude": "-90.12350421309866",
    "latitude": "29.954799505132147",
    "geocoded_column": {
      "latitude": "29.954799505132147",
      "longitude": "-90.12350421309866"
    }
  },
  {
    "service_request": "2024-1075920",
    "request_type": "Mosquito, Termite & Rodent Control",
    "request_reason": "Mosquito Complaint",
    "date_created": "2024-03-15T13:51:42.000",
    "date_modified": "2024-03-15T13:51:42.000",
    "request_status": "Pending",
    "responsible_agency": "Mosquito, Termite & Rodent Control Board",
    "final_address": "5410 Peoples Ave",
    "address_councildis": "D",
    "status": "Pending",
    "rowid": "1075920",
    "final_x": "3687951.43017",
    "final_y": "553122.985751",
    "longitude": "-90.04693326205012",
    "latitude": "30.01469873829396",
    "geocoded_column": {
      "latitude": "30.01469873829396",
      "longitude": "-90.04693326205012"
    }
  },
  {
    "service_request": "2024-1075919",
    "request_type": "Trash/Recycling",
    "request_reason": "Request a Large Item Pick Up",
    "date_created": "2024-03-15T13:46:48.000",
    "date_modified": "2024-03-15T13:46:49.000",
    "request_status": "Pending",
    "responsible_agency": "Department of Sanitation",
    "final_address": "2314 Iberville St",
    "address_councildis": "B",
    "status": "Assigned to Contractor",
    "contractor": "Richards Disposal",
    "rowid": "1075919",
    "final_x": "3676824.67816",
    "final_y": "534487.789509",
    "longitude": "-90.08273103479914",
    "latitude": "29.96379723017727",
    "geocoded_column": {
      "latitude": "29.96379723017727",
      "longitude": "-90.08273103479914"
    }
  },
  {
    "service_request": "2024-1075917",
    "request_type": "Trash/Recycling",
    "request_reason": "Request a Large Item Pick Up",
    "date_created": "2024-03-15T13:43:05.000",
    "date_modified": "2024-03-15T13:43:06.000",
    "request_status": "Pending",
    "responsible_agency": "Department of Sanitation",
    "final_address": "7060 Lake Willow Dr",
    "address_councildis": "E",
    "status": "Assigned to Contractor",
    "contractor": "Waste Pro",
    "rowid": "1075917",
    "final_x": "3702191.74276",
    "final_y": "559184.812572",
    "longitude": "-90.00171853788154",
    "latitude": "30.030919155469594",
    "geocoded_column": {
      "latitude": "30.030919155469594",
      "longitude": "-90.00171853788154"
    }
  },
  {
    "service_request": "2024-1075916",
    "request_type": "Trash/Recycling",
    "request_reason": "Order Recycling Cart",
    "date_created": "2024-03-15T13:42:23.000",
    "date_modified": "2024-03-15T13:42:24.000",
    "request_status": "Pending",
    "responsible_agency": "Department of Sanitation",
    "final_address": "700 St Philip St",
    "address_councildis": "C",
    "status": "Pending",
    "rowid": "1075916",
    "final_x": "3683287.55196",
    "final_y": "533319.860612",
    "longitude": "-90.062362843712",
    "latitude": "29.960390289397434",
    "geocoded_column": {
      "latitude": "29.960390289397434",
      "longitude": "-90.062362843712"
    }
  },
  {
    "service_request": "2024-1075915",
    "request_type": "Trash/Recycling",
    "request_reason": "Request a Large Item Pick Up",
    "date_created": "2024-03-15T13:39:22.000",
    "date_modified": "2024-03-15T13:39:23.000",
    "request_status": "Pending",
    "responsible_agency": "Department of Sanitation",
    "final_address": "10721 Willowbrae Dr",
    "address_councildis": "E",
    "status": "Assigned to Contractor",
    "contractor": "Waste Pro",
    "rowid": "1075915",
    "final_x": "3710766.09854",
    "final_y": "564204.634401",
    "longitude": "-89.97443547906997",
    "latitude": "30.04444488962274",
    "geocoded_column": {
      "latitude": "30.04444488962274",
      "longitude": "-89.97443547906997"
    }
  },
  {
    "service_request": "2024-1075914",
    "request_type": "Trash/Recycling",
    "request_reason": "Request a Large Item Pick Up",
    "date_created": "2024-03-15T13:35:14.000",
    "date_modified": "2024-03-15T13:35:15.000",
    "request_status": "Pending",
    "responsible_agency": "Department of Sanitation",
    "final_address": "810 Jefferson Ave",
    "address_councildis": "A",
    "status": "Assigned to Contractor",
    "contractor": "Richards Disposal",
    "rowid": "1075914",
    "final_x": "3666608.13319",
    "final_y": "518524.487927",
    "longitude": "-90.11552977766193",
    "latitude": "29.920205938669767",
    "geocoded_column": {
      "latitude": "29.920205938669767",
      "longitude": "-90.11552977766193"
    }
  },
  {
    "service_request": "2024-1075913",
    "request_type": "Roads/Drainage",
    "request_reason": "Catch Basin - Clogged",
    "date_created": "2024-03-15T13:34:51.000",
    "date_modified": "2024-03-15T13:34:51.000",
    "request_status": "Pending",
    "responsible_agency": "Department of Public Works",
    "final_address": "200 BLK Baronne St",
    "address_councildis": "B",
    "status": "Pending",
    "rowid": "1075913",
    "final_x": "3680180.81545",
    "final_y": "530541.596513",
    "longitude": "-90.07226983122966",
    "latitude": "29.952845391071104",
    "geocoded_column": {
      "latitude": "29.952845391071104",
      "longitude": "-90.07226983122966"
    }
  },
  {
    "service_request": "2024-1075912",
    "request_type": "Trash/Recycling",
    "request_reason": "Order Recycling Cart",
    "date_created": "2024-03-15T13:32:03.000",
    "date_modified": "2024-03-15T13:32:03.000",
    "request_status": "Pending",
    "responsible_agency": "Department of Sanitation",
    "final_address": "6900 Manchester St",
    "address_councildis": "E",
    "status": "Pending",
    "rowid": "1075912",
    "final_x": "3698716.08247",
    "final_y": "559947.926621",
    "longitude": "-90.01267386218304",
    "latitude": "30.03312802876339",
    "geocoded_column": {
      "latitude": "30.03312802876339",
      "longitude": "-90.01267386218304"
    }
  },
  {
    "service_request": "2024-1075911",
    "request_type": "Trash/Recycling",
    "request_reason": "Replace Trash Cart",
    "date_created": "2024-03-15T13:29:54.000",
    "date_modified": "2024-03-15T13:29:55.000",
    "request_status": "Pending",
    "responsible_agency": "Department of Sanitation",
    "final_address": "1409 Calhoun St",
    "address_councildis": "A",
    "status": "Assigned to Contractor",
    "contractor": "Richards Disposal",
    "rowid": "1075911",
    "final_x": "3664323.72167",
    "final_y": "521668.936633",
    "longitude": "-90.1226357350314",
    "latitude": "29.92891874785529",
    "geocoded_column": {
      "latitude": "29.92891874785529",
      "longitude": "-90.1226357350314"
    }
  },
  {
    "service_request": "2024-1075910",
    "request_type": "Trash/Recycling",
    "request_reason": "Missed Trash Pick-Up",
    "date_created": "2024-03-15T13:29:17.000",
    "date_modified": "2024-03-15T13:58:59.000",
    "case_close_date": "2024-03-15T08:58:59.000",
    "request_status": "Closed",
    "responsible_agency": "Department of Sanitation",
    "final_address": "4600 Charlene Dr",
    "address_councildis": "E",
    "status": "Invalid Request",
    "contractor": "Waste Pro",
    "contractor_action": "Invalid Pick-Up",
    "rowid": "1075910",
    "final_x": "3707946.48107",
    "final_y": "554518.318872",
    "longitude": "-89.98370725416333",
    "latitude": "30.017902975729307",
    "geocoded_column": {
      "latitude": "30.017902975729307",
      "longitude": "-89.98370725416333"
    }
  },
  {
    "service_request": "2024-1075909",
    "request_type": "Roads/Drainage",
    "request_reason": "Damaged Sidewalk",
    "date_created": "2024-03-15T13:28:47.000",
    "date_modified": "2024-03-15T13:28:47.000",
    "request_status": "Pending",
    "responsible_agency": "Department of Public Works",
    "final_address": "6830 Coventry St",
    "address_councildis": "E",
    "status": "Pending",
    "rowid": "1075909",
    "final_x": "3698678.37047",
    "final_y": "559650.369821",
    "longitude": "-90.01280387169867",
    "latitude": "30.032311057476928",
    "geocoded_column": {
      "latitude": "30.032311057476928",
      "longitude": "-90.01280387169867"
    }
  },
  {
    "service_request": "2024-1075908",
    "request_type": "Traffic Signals/Signs/Striping/Streetlights",
    "request_reason": "Street Light Outage/Malfunction",
    "date_created": "2024-03-15T13:28:06.000",
    "date_modified": "2024-03-15T13:28:08.000",
    "request_status": "Pending",
    "responsible_agency": "Department of Public Works",
    "final_address": "URQUHART ST & FLOOD ST",
    "address_councildis": "E",
    "status": "Assigned to Contractor",
    "contractor": "Legacy Professional Services",
    "rowid": "1075908",
    "final_x": "3697899.0",
    "final_y": "534566.28",
    "longitude": "-90.01617791151975",
    "latitude": "29.963363771664124",
    "geocoded_column": {
      "latitude": "29.963363771664124",
      "longitude": "-90.01617791151975"
    }
  },
  {
    "service_request": "2024-1075907",
    "request_type": "Trash/Recycling",
    "request_reason": "Order Trash Cart",
    "date_created": "2024-03-15T13:25:07.000",
    "date_modified": "2024-03-15T15:41:54.000",
    "case_close_date": "2024-03-15T10:41:54.000",
    "request_status": "Closed",
    "responsible_agency": "Department of Sanitation",
    "final_address": "1304 Joliet St",
    "address_councildis": "A",
    "status": "Resolved",
    "contractor": "Richards Disposal",
    "rowid": "1075907",
    "final_x": "3661162.27347",
    "final_y": "529673.626113",
    "longitude": "-90.13235099231775",
    "latitude": "29.951020580412766",
    "geocoded_column": {
      "latitude": "29.951020580412766",
      "longitude": "-90.13235099231775"
    }
  },
  {
    "service_request": "2024-1075906",
    "request_type": "Abandoned Vehicles",
    "request_reason": "Abandoned/Junk Vehicles",
    "date_created": "2024-03-15T13:22:21.000",
    "date_modified": "2024-03-15T13:22:21.000",
    "request_status": "Pending",
    "responsible_agency": "Department of Public Works",
    "final_address": "LOUISA ST & POWHATAN ST",
    "address_councildis": "D",
    "status": "Pending",
    "rowid": "1075906",
    "final_x": "3691750.4",
    "final_y": "547889.48",
    "longitude": "-90.03511775074227",
    "latitude": "30.00019070889212",
    "geocoded_column": {
      "latitude": "30.00019070889212",
      "longitude": "-90.03511775074227"
    }
  },
  {
    "service_request": "2024-1075905",
    "request_type": "Trash/Recycling",
    "request_reason": "Request a Large Item Pick Up",
    "date_created": "2024-03-15T13:17:20.000",
    "date_modified": "2024-03-15T13:17:21.000",
    "request_status": "Pending",
    "responsible_agency": "Department of Sanitation",
    "final_address": "4966 Tulip St",
    "address_councildis": "E",
    "status": "Assigned to Contractor",
    "contractor": "Waste Pro",
    "rowid": "1075905",
    "final_x": "3701876.74749",
    "final_y": "555614.461337",
    "longitude": "-90.00284492978955",
    "latitude": "30.021112128371293",
    "geocoded_column": {
      "latitude": "30.021112128371293",
      "longitude": "-90.00284492978955"
    }
  },
  {
    "service_request": "2024-1075904",
    "request_type": "Trash/Recycling",
    "request_reason": "Order Recycling Cart",
    "date_created": "2024-03-15T13:15:56.000",
    "date_modified": "2024-03-15T13:15:56.000",
    "request_status": "Pending",
    "responsible_agency": "Department of Sanitation",
    "final_address": "1739 First St",
    "address_councildis": "B",
    "status": "Pending",
    "rowid": "1075904",
    "final_x": "3676593.87861",
    "final_y": "523816.071675",
    "longitude": "-90.08382736944976",
    "latitude": "29.934460480061254",
    "geocoded_column": {
      "latitude": "29.934460480061254",
      "longitude": "-90.08382736944976"
    }
  },
  {
    "service_request": "2024-1075903",
    "request_type": "Trash/Recycling",
    "request_reason": "Order Trash Cart",
    "date_created": "2024-03-15T13:15:12.000",
    "date_modified": "2024-03-15T13:15:13.000",
    "request_status": "Pending",
    "responsible_agency": "Department of Sanitation",
    "final_address": "1739 First St",
    "address_councildis": "B",
    "status": "Assigned to Contractor",
    "contractor": "Richards Disposal",
    "rowid": "1075903",
    "final_x": "3676593.87861",
    "final_y": "523816.071675",
    "longitude": "-90.08382736944976",
    "latitude": "29.934460480061254",
    "geocoded_column": {
      "latitude": "29.934460480061254",
      "longitude": "-90.08382736944976"
    }
  },
  {
    "service_request": "2024-1075902",
    "request_type": "Trash/Recycling",
    "request_reason": "Order Recycling Cart",
    "date_created": "2024-03-15T13:14:19.000",
    "date_modified": "2024-03-15T13:14:19.000",
    "request_status": "Pending",
    "responsible_agency": "Department of Sanitation",
    "final_address": "1737 First St",
    "address_councildis": "B",
    "status": "Pending",
    "rowid": "1075902",
    "final_x": "3676597.95739",
    "final_y": "523806.150971",
    "longitude": "-90.08381483436796",
    "latitude": "29.934433079070274",
    "geocoded_column": {
      "latitude": "29.934433079070274",
      "longitude": "-90.08381483436796"
    }
  },
  {
    "service_request": "2024-1075901",
    "request_type": "Trash/Recycling",
    "request_reason": "Order Trash Cart",
    "date_created": "2024-03-15T13:13:07.000",
    "date_modified": "2024-03-15T13:13:08.000",
    "request_status": "Pending",
    "responsible_agency": "Department of Sanitation",
    "final_address": "1737 First St",
    "address_councildis": "B",
    "status": "Assigned to Contractor",
    "contractor": "Richards Disposal",
    "rowid": "1075901",
    "final_x": "3676597.95739",
    "final_y": "523806.150971",
    "longitude": "-90.08381483436796",
    "latitude": "29.934433079070274",
    "geocoded_column": {
      "latitude": "29.934433079070274",
      "longitude": "-90.08381483436796"
    }
  },
  {
    "service_request": "2024-1075900",
    "request_type": "Roads/Drainage",
    "request_reason": "Pothole",
    "date_created": "2024-03-15T13:08:40.000",
    "date_modified": "2024-03-15T13:09:14.000",
    "case_close_date": "2024-03-15T08:09:14.000",
    "request_status": "Closed",
    "responsible_agency": "Department of Public Works",
    "final_address": "700 BLK Dublin St",
    "address_councildis": "A",
    "status": "Resolved",
    "rowid": "1075900",
    "final_x": "3660629.56256",
    "final_y": "527466.945182",
    "longitude": "-90.13410595774081",
    "latitude": "29.944968254227952",
    "geocoded_column": {
      "latitude": "29.944968254227952",
      "longitude": "-90.13410595774081"
    }
  },
  {
    "service_request": "2024-1075898",
    "request_type": "Trash/Recycling",
    "request_reason": "Order Recycling Cart",
    "date_created": "2024-03-15T13:08:11.000",
    "date_modified": "2024-03-15T13:08:11.000",
    "request_status": "Pending",
    "responsible_agency": "Department of Sanitation",
    "final_address": "2319 Governor Nicholls St",
    "address_councildis": "D",
    "status": "Pending",
    "rowid": "1075898",
    "final_x": "3679090.05256",
    "final_y": "537495.675784",
    "longitude": "-90.07547293074676",
    "latitude": "29.971999709509166",
    "geocoded_column": {
      "latitude": "29.971999709509166",
      "longitude": "-90.07547293074676"
    }
  },
  {
    "service_request": "2024-1075899",
    "request_type": "Roads/Drainage",
    "request_reason": "Street Flooding / Drainage",
    "date_created": "2024-03-15T13:08:11.000",
    "date_modified": "2024-03-15T13:08:11.000",
    "request_status": "Pending",
    "responsible_agency": "Department of Public Works",
    "final_address": "427 Millaudon St",
    "address_councildis": "A",
    "status": "Pending",
    "rowid": "1075899",
    "final_x": "3662052.33485",
    "final_y": "524731.582652",
    "longitude": "-90.12970452575424",
    "latitude": "29.937405855579375",
    "geocoded_column": {
      "latitude": "29.937405855579375",
      "longitude": "-90.12970452575424"
    }
  },
  {
    "service_request": "2024-1075897",
    "request_type": "Roads/Drainage",
    "request_reason": "Pothole",
    "date_created": "2024-03-15T13:06:34.000",
    "date_modified": "2024-03-15T13:06:59.000",
    "case_close_date": "2024-03-15T08:06:59.000",
    "request_status": "Closed",
    "responsible_agency": "Department of Public Works",
    "final_address": "732 Dublin St",
    "address_councildis": "A",
    "status": "Resolved",
    "rowid": "1075897",
    "final_x": "3660673.07782",
    "final_y": "527585.733311",
    "longitude": "-90.13396464024196",
    "latitude": "29.945293631439256",
    "geocoded_column": {
      "latitude": "29.945293631439256",
      "longitude": "-90.13396464024196"
    }
  },
  {
    "service_request": "2024-1075896",
    "request_type": "Trash/Recycling",
    "request_reason": "Repair Trash Cart",
    "date_created": "2024-03-15T13:03:56.000",
    "date_modified": "2024-03-15T13:03:57.000",
    "request_status": "Pending",
    "responsible_agency": "Department of Sanitation",
    "final_address": "936 Arabella St",
    "address_councildis": "A",
    "status": "Assigned to Contractor",
    "contractor": "Richards Disposal",
    "rowid": "1075896",
    "final_x": "3665920.35764",
    "final_y": "519569.128439",
    "longitude": "-90.11766578223516",
    "latitude": "29.923098453673333",
    "geocoded_column": {
      "latitude": "29.923098453673333",
      "longitude": "-90.11766578223516"
    }
  },
  {
    "service_request": "2024-1075895",
    "request_type": "Trash/Recycling",
    "request_reason": "Missed Trash Pick-Up",
    "date_created": "2024-03-15T13:02:02.000",
    "date_modified": "2024-03-15T14:15:28.000",
    "case_close_date": "2024-03-15T09:15:28.000",
    "request_status": "Closed",
    "responsible_agency": "Department of Sanitation",
    "final_address": "5434 N Tonti St",
    "address_councildis": "E",
    "status": "Assigned to Contractor",
    "contractor": "Waste Pro",
    "contractor_action": "Completed",
    "rowid": "1075895",
    "final_x": "3698722.59306",
    "final_y": "538343.385609",
    "longitude": "-90.01343971726627",
    "latitude": "29.973723399103985",
    "geocoded_column": {
      "latitude": "29.973723399103985",
      "longitude": "-90.01343971726627"
    }
  },
  {
    "service_request": "2024-1075894",
    "request_type": "Abandoned Vehicles",
    "request_reason": "Abandoned/Junk Vehicles",
    "date_created": "2024-03-15T13:00:30.000",
    "date_modified": "2024-03-15T13:00:30.000",
    "request_status": "Pending",
    "responsible_agency": "Department of Public Works",
    "final_address": "7424 General Haig St",
    "address_councildis": "D",
    "status": "Pending",
    "rowid": "1075894",
    "final_x": "3671219.06151",
    "final_y": "555706.288985",
    "longitude": "-90.09971167496414",
    "latitude": "30.02230780513205",
    "geocoded_column": {
      "latitude": "30.02230780513205",
      "longitude": "-90.09971167496414"
    }
  },
  {
    "service_request": "2024-1075893",
    "request_type": "Roads/Drainage",
    "request_reason": "Pothole",
    "date_created": "2024-03-15T12:59:02.000",
    "date_modified": "2024-03-15T13:00:23.000",
    "case_close_date": "2024-03-15T08:00:23.000",
    "request_status": "Closed",
    "responsible_agency": "Department of Public Works",
    "final_address": "8700 BLK Heaton St",
    "address_councildis": "A",
    "status": "Resolved",
    "rowid": "1075893",
    "final_x": "3667634.66502",
    "final_y": "538078.754339",
    "longitude": "-90.11163139423098",
    "latitude": "29.973943785415255",
    "geocoded_column": {
      "latitude": "29.973943785415255",
      "longitude": "-90.11163139423098"
    }
  },
  {
    "service_request": "2024-1075892",
    "request_type": "Trash/Recycling",
    "request_reason": "Missed Trash Pick-Up",
    "date_created": "2024-03-15T12:58:38.000",
    "date_modified": "2024-03-15T13:26:45.000",
    "case_close_date": "2024-03-15T08:26:45.000",
    "request_status": "Closed",
    "responsible_agency": "Department of Sanitation",
    "final_address": "4404 St Roch Ave",
    "address_councildis": "D",
    "status": "Invalid Request",
    "contractor": "IV Waste",
    "contractor_action": "Invalid Request",
    "rowid": "1075892",
    "final_x": "3685327.16239",
    "final_y": "548869.684755",
    "longitude": "-90.0553745365312",
    "latitude": "30.003084457025466",
    "geocoded_column": {
      "latitude": "30.003084457025466",
      "longitude": "-90.0553745365312"
    }
  },
  {
    "service_request": "2024-1075891",
    "request_type": "Tax and Revenue",
    "request_reason": "Sales Tax Question",
    "date_created": "2024-03-15T12:57:59.000",
    "date_modified": "2024-03-15T12:57:59.000",
    "request_status": "Pending",
    "responsible_agency": "Bureau of Revenue",
    "final_address": "4529 Tchoupitoulas St",
    "address_councildis": "B",
    "status": "Pending",
    "rowid": "1075891",
    "final_x": "3670536.573",
    "final_y": "517429.220086",
    "longitude": "-90.10316664883027",
    "latitude": "29.917078910731295",
    "geocoded_column": {
      "latitude": "29.917078910731295",
      "longitude": "-90.10316664883027"
    }
  },
  {
    "service_request": "2024-1075890",
    "request_type": "Trash/Recycling",
    "request_reason": "Order Trash Cart",
    "date_created": "2024-03-15T12:57:16.000",
    "date_modified": "2024-03-15T12:57:16.000",
    "request_status": "Pending",
    "responsible_agency": "Department of Sanitation",
    "final_address": "13940 Tu Do Dr",
    "address_councildis": "E",
    "status": "Assigned to Contractor",
    "contractor": "Waste Pro",
    "rowid": "1075890",
    "final_x": "3727941.58381",
    "final_y": "562927.960032",
    "longitude": "-89.92020370763628",
    "latitude": "30.040363309468646",
    "geocoded_column": {
      "latitude": "30.040363309468646",
      "longitude": "-89.92020370763628"
    }
  },
  {
    "service_request": "2024-1075889",
    "request_type": "Roads/Drainage",
    "request_reason": "Pothole",
    "date_created": "2024-03-15T12:55:44.000",
    "date_modified": "2024-03-15T12:56:03.000",
    "case_close_date": "2024-03-15T07:56:03.000",
    "request_status": "Closed",
    "responsible_agency": "Department of Public Works",
    "final_address": "3900 BLK Eagle St",
    "address_councildis": "A",
    "status": "Resolved",
    "rowid": "1075889",
    "final_x": "3666720.79743",
    "final_y": "537277.866505",
    "longitude": "-90.1145445074418",
    "latitude": "29.971768371381195",
    "geocoded_column": {
      "latitude": "29.971768371381195",
      "longitude": "-90.1145445074418"
    }
  },
  {
    "service_request": "2024-1075888",
    "request_type": "Roads/Drainage",
    "request_reason": "Catch Basin - Broken/Damage",
    "date_created": "2024-03-15T12:50:56.000",
    "date_modified": "2024-03-15T12:50:56.000",
    "request_status": "Pending",
    "responsible_agency": "Department of Public Works",
    "final_address": "3900 BLK General Ogden St",
    "address_councildis": "A",
    "status": "Pending",
    "rowid": "1075888",
    "final_x": "3666451.22743",
    "final_y": "537502.643942",
    "longitude": "-90.11538830894568",
    "latitude": "29.972394315834215",
    "geocoded_column": {
      "latitude": "29.972394315834215",
      "longitude": "-90.11538830894568"
    }
  },
  {
    "service_request": "2024-1075887",
    "request_type": "Traffic Signals/Signs/Striping/Streetlights",
    "request_reason": "Street Light Outage/Malfunction",
    "date_created": "2024-03-15T12:48:48.000",
    "date_modified": "2024-03-15T12:48:49.000",
    "request_status": "Pending",
    "responsible_agency": "Department of Public Works",
    "final_address": "2616 St Anthony St",
    "address_councildis": "D",
    "status": "Assigned to Contractor",
    "contractor": "Legacy Professional Services",
    "rowid": "1075887",
    "final_x": "3683018.37519",
    "final_y": "541873.081996",
    "longitude": "-90.06291338923823",
    "latitude": "29.983916888257774",
    "geocoded_column": {
      "latitude": "29.983916888257774",
      "longitude": "-90.06291338923823"
    }
  },