[
  {
    "service_request": "2023-1050559",
    "request_type": "Roads/Drainage",
    "request_reason": "Road Shoulder Repair",
    "date_created": "2023-11-17T02:00:07.000",
    "date_modified": "2023-11-17T02:00:07.000",
    "request_status": "Pending",
    "responsible_agency": "Department of Public Works",
    "final_address": "1300 General Taylor St",
    "address_councildis": "B",
    "status": "Pending",
    "rowid": "1050559",
    "final_x": "3672762.11304",
    "final_y": "520298.263352",
    "longitude": "-90.09604409876785",
    "latitude": "29.924901977789897",
    "geocoded_column": {
      "latitude": "29.924901977789897",
      "longitude": "-90.09604409876785"
    }
  },
  {
    "service_request": "2023-1050558",
    "request_type": "Trash/Recycling",
    "request_reason": "Order Trash Cart",
    "date_created": "2023-11-17T01:44:26.000",
    "date_modified": "2023-11-17T01:44:27.000",
    "request_status": "Pending",
    "responsible_agency": "Department of Sanitation",
    "final_address": "2240 Reynes St",
    "address_councildis": "E",
    "status": "Assigned to Contractor",
    "contractor": "Waste Pro",
    "rowid": "1050558",
    "final_x": "3697182.08861",
    "final_y": "538733.472649",
    "longitude": "-90.01829079816399",
    "latitude": "29.974844700914826",
    "geocoded_column": {
      "latitude": "29.974844700914826",
      "longitude": "-90.01829079816399"
    }
  },
  {
    "service_request": "2023-1050557",
    "request_type": "Trash/Recycling",
    "request_reason": "Replace Trash Cart",
    "date_created": "2023-11-16T23:22:55.000",
    "date_modified": "2023-11-16T23:22:55.000",
    "request_status": "Pending",
    "responsible_agency": "Department of Sanitation",
    "final_address": "2224 Touro St",
    "address_councildis": "D",
    "status": "Assigned to Contractor",
    "contractor": "IV Waste",
    "rowid": "1050557",
    "final_x": "3683845.98466",
    "final_y": "540515.684107",
    "longitude": "-90.0603469871172",
    "latitude": "29.98015926473797",
    "geocoded_column": {
      "latitude": "29.98015926473797",
      "longitude": "-90.0603469871172"
    }
  },
  {
    "service_request": "2023-1050556",
    "request_type": "Abandoned Vehicles",
    "request_reason": "Vehicle Blocking Your Driveway",
    "date_created": "2023-11-16T22:46:44.000",
    "date_modified": "2023-11-16T22:46:44.000",
    "request_status": "Pending",
    "responsible_agency": "Department of Public Works",
    "final_address": "7471 Pitt St",
    "address_councildis": "A",
    "status": "Pending",
    "rowid": "1050556",
    "final_x": "3660918.94387",
    "final_y": "523832.040379",
    "longitude": "-90.13331247911697",
    "latitude": "29.93496508537649",
    "geocoded_column": {
      "latitude": "29.93496508537649",
      "longitude": "-90.13331247911697"
    }
  },
  {
    "service_request": "2023-1050555",
    "request_type": "Roads/Drainage",
    "request_reason": "Pothole",
    "date_created": "2023-11-16T22:39:07.000",
    "date_modified": "2023-11-16T22:39:07.000",
    "request_status": "Pending",
    "responsible_agency": "Department of Public Works",
    "final_address": "6031 Pitt St",
    "address_councildis": "A",
    "status": "Pending",
    "rowid": "1050555",
    "final_x": "3665074.90548",
    "final_y": "521345.766329",
    "longitude": "-90.12027518893876",
    "latitude": "29.928008285877205",
    "geocoded_column": {
      "latitude": "29.928008285877205",
      "longitude": "-90.12027518893876"
    }
  },
  {
    "service_request": "2023-1050554",
    "request_type": "Roads/Drainage",
    "request_reason": "Pothole",
    "date_created": "2023-11-16T22:35:11.000",
    "date_modified": "2023-11-16T22:35:11.000",
    "request_status": "Pending",
    "responsible_agency": "Department of Public Works",
    "final_address": "6019 Chestnut St",
    "address_councildis": "A",
    "status": "Pending",
    "rowid": "1050554",
    "final_x": "3664762.62535",
    "final_y": "519948.884408",
    "longitude": "-90.12130763332809",
    "latitude": "29.92417638659354",
    "geocoded_column": {
      "latitude": "29.92417638659354",
      "longitude": "-90.12130763332809"
    }
  },
  {
    "service_request": "2023-1050553",
    "request_type": "Roads/Drainage",
    "request_reason": "Catch Basin - Clogged",
    "date_created": "2023-11-16T21:19:32.000",
    "date_modified": "2023-11-16T21:19:32.000",
    "request_status": "Pending",
    "responsible_agency": "Department of Public Works",
    "final_address": "2719 Dreux Ave",
    "address_councildis": "D",
    "status": "Pending",
    "rowid": "1050553",
    "final_x": "3687454.8726",
    "final_y": "552368.181718",
    "longitude": "-90.04852887917073",
    "latitude": "30.012638623893103",
    "geocoded_column": {
      "latitude": "30.012638623893103",
      "longitude": "-90.04852887917073"
    }
  },
  {
    "service_request": "2023-1050552",
    "request_type": "Roads/Drainage",
    "request_reason": "Pothole",
    "date_created": "2023-11-16T21:17:35.000",
    "date_modified": "2023-11-16T21:17:35.000",
    "request_status": "Pending",
    "responsible_agency": "Department of Public Works",
    "final_address": "2326 Painters St",
    "address_councildis": "D",
    "status": "Pending",
    "rowid": "1050552",
    "final_x": "3687155.76329",
    "final_y": "541159.135756",
    "longitude": "-90.04987057613717",
    "latitude": "29.98182700811001",
    "geocoded_column": {
      "latitude": "29.98182700811001",
      "longitude": "-90.04987057613717"
    }
  },
  {
    "service_request": "2023-1050551",
    "request_type": "Traffic Signals/Signs/Striping/Streetlights",
    "request_reason": "Street Light Outage/Malfunction",
    "date_created": "2023-11-16T18:49:22.000",
    "date_modified": "2023-11-16T18:49:23.000",
    "request_status": "Pending",
    "responsible_agency": "Department of Public Works",
    "final_address": "2163 Timoleon St",
    "address_councildis": "D",
    "status": "Assigned to Contractor",
    "contractor": "Legacy Professional Services",
    "rowid": "1050551",
    "final_x": "3683594.40354",
    "final_y": "551145.417109",
    "longitude": "-90.06076872326982",
    "latitude": "30.00939492300142",
    "geocoded_column": {
      "latitude": "30.00939492300142",
      "longitude": "-90.06076872326982"
    }
  },
  {
    "service_request": "2023-1050550",
    "request_type": "Roads/Drainage",
    "request_reason": "Pothole",
    "date_created": "2023-11-16T18:40:40.000",
    "date_modified": "2023-11-16T18:40:40.000",
    "request_status": "Pending",
    "responsible_agency": "Department of Public Works",
    "final_address": "4628 Press Dr",
    "address_councildis": "D",
    "status": "Pending",
    "rowid": "1050550",
    "final_x": "3689599.15311",
    "final_y": "550257.707732",
    "longitude": "-90.04182931159156",
    "latitude": "30.00676931223541",
    "geocoded_column": {
      "latitude": "30.00676931223541",
      "longitude": "-90.04182931159156"
    }
  },
  {
    "service_request": "2023-1050549",
    "request_type": "Trash/Recycling",
    "request_reason": "Missed Trash Pick-Up",
    "date_created": "2023-11-16T18:32:56.000",
    "date_modified": "2023-11-16T18:32:57.000",
    "request_status": "Pending",
    "responsible_agency": "Department of Sanitation",
    "final_address": "1333 Reynes St",
    "address_councildis": "E",
    "status": "Assigned to Contractor",
    "contractor": "Waste Pro",
    "rowid": "1050549",
    "final_x": "3696336.40547",
    "final_y": "535312.610502",
    "longitude": "-90.02108539425744",
    "latitude": "29.96546521274799",
    "geocoded_column": {
      "latitude": "29.96546521274799",
      "longitude": "-90.02108539425744"
    }
  },
  {
    "service_request": "2023-1050548",
    "request_type": "Roads/Drainage",
    "request_reason": "Pothole",
    "date_created": "2023-11-16T18:20:30.000",
    "date_modified": "2023-11-16T18:20:30.000",
    "request_status": "Pending",
    "responsible_agency": "Department of Public Works",
    "final_address": "6125 Hurst St",
    "address_councildis": "A",
    "status": "Pending",
    "rowid": "1050548",
    "final_x": "3664895.78183",
    "final_y": "522126.382394",
    "longitude": "-90.1208145673127",
    "latitude": "29.930159946687763",
    "geocoded_column": {
      "latitude": "29.930159946687763",
      "longitude": "-90.1208145673127"
    }
  },
  {
    "service_request": "2023-1050547",
    "request_type": "Trash/Recycling",
    "request_reason": "Request a Large Item Pick Up",
    "date_created": "2023-11-16T18:02:45.000",
    "date_modified": "2023-11-16T18:02:46.000",
    "request_status": "Pending",
    "responsible_agency": "Department of Sanitation",
    "final_address": "1204 Race St",
    "address_councildis": "B",
    "status": "Assigned to Contractor",
    "contractor": "Richards Disposal",
    "rowid": "1050547",
    "final_x": "3679673.1748",
    "final_y": "523922.88742",
    "longitude": "-90.07410240552706",
    "latitude": "29.93466149822084",
    "geocoded_column": {
      "latitude": "29.93466149822084",
      "longitude": "-90.07410240552706"
    }
  },
  {
    "service_request": "2023-1050546",
    "request_type": "Trash/Recycling",
    "request_reason": "Order Trash Cart",
    "date_created": "2023-11-16T18:00:48.000",
    "date_modified": "2023-11-16T18:00:48.000",
    "request_status": "Pending",
    "responsible_agency": "Department of Sanitation",
    "final_address": "1206 Race St",
    "address_councildis": "B",
    "status": "Assigned to Contractor",
    "contractor": "Richards Disposal",
    "rowid": "1050546",
    "final_x": "3679628.71163",
    "final_y": "523934.019836",
    "longitude": "-90.07424238870007",
    "latitude": "29.934693452195503",
    "geocoded_column": {
      "latitude": "29.934693452195503",
      "longitude": "-90.07424238870007"
    }
  },
  {
    "service_request": "2023-1050545",
    "request_type": "Traffic Signals/Signs/Striping/Streetlights",
    "request_reason": "Street Light Outage/Malfunction",
    "date_created": "2023-11-16T17:59:18.000",
    "date_modified": "2023-11-16T17:59:19.000",
    "request_status": "Pending",
    "responsible_agency": "Department of Public Works",
    "final_address": "7570 Forum Blvd",
    "address_councildis": "E",
    "status": "Assigned to Contractor",
    "contractor": "Legacy Professional Services",
    "rowid": "1050545",
    "final_x": "3720442.44607",
    "final_y": "572908.557289",
    "longitude": "-89.94352054955368",
    "latitude": "30.068057971051882",
    "geocoded_column": {
      "latitude": "30.068057971051882",
      "longitude": "-89.94352054955368"
    }
  },
  {
    "service_request": "2023-1050544",
    "request_type": "Property Maintenance",
    "request_reason": "Property Maintenance",
    "date_created": "2023-11-16T17:00:44.000",
    "date_modified": "2023-11-16T17:00:44.000",
    "request_status": "Pending",
    "responsible_agency": "Department of Code Enforcement",
    "final_address": "3501 Red Oak Ct",
    "address_councildis": "C",
    "status": "Pending",
    "rowid": "1050544",
    "final_x": "3703563.20369",
    "final_y": "513700.85093",
    "longitude": "-89.9990583831085",
    "latitude": "29.90581090359385",
    "geocoded_column": {
      "latitude": "29.90581090359385",
      "longitude": "-89.9990583831085"
    }
  },
  {
    "service_request": "2023-1050543",
    "request_type": "Property Maintenance",
    "request_reason": "Property Maintenance",
    "date_created": "2023-11-16T16:57:13.000",
    "date_modified": "2023-11-16T16:57:14.000",
    "request_status": "Pending",
    "responsible_agency": "Department of Code Enforcement",
    "final_address": "1501 Burbank Dr",
    "address_councildis": "D",
    "status": "Pending",
    "rowid": "1050543",
    "final_x": "3678382.22722",
    "final_y": "554369.49372",
    "longitude": "-90.07712412600742",
    "latitude": "30.018418108263035",
    "geocoded_column": {
      "latitude": "30.018418108263035",
      "longitude": "-90.07712412600742"
    }
  },
  {
    "service_request": "2023-1050542",
    "request_type": "Trash/Recycling",
    "request_reason": "Missed Trash Pick-Up",
    "date_created": "2023-11-16T16:45:28.000",
    "date_modified": "2023-11-16T16:45:29.000",
    "request_status": "Pending",
    "responsible_agency": "Department of Sanitation",
    "final_address": "7452 St Charles Ave",
    "address_councildis": "A",
    "status": "Assigned to Contractor",
    "contractor": "Richards Disposal",
    "rowid": "1050542",
    "final_x": "3662148.11783",
    "final_y": "525313.758653",
    "longitude": "-90.12938281905494",
    "latitude": "29.939003888264164",
    "geocoded_column": {
      "latitude": "29.939003888264164",
      "longitude": "-90.12938281905494"
    }
  },
  {
    "service_request": "2023-1050541",
    "request_type": "Trash/Recycling",
    "request_reason": "Order Recycling Cart",
    "date_created": "2023-11-16T16:35:52.000",
    "date_modified": "2023-11-16T16:35:53.000",
    "request_status": "Pending",
    "responsible_agency": "Department of Sanitation",
    "final_address": "1427 Broadway St",
    "address_councildis": "A",
    "status": "Pending",
    "rowid": "1050541",
    "final_x": "3664755.60813",
    "final_y": "527261.577599",
    "longitude": "-90.12108556978329",
    "latitude": "29.944284175743686",
    "geocoded_column": {
      "latitude": "29.944284175743686",
      "longitude": "-90.12108556978329"
    }
  },
  {
    "service_request": "2023-1050540",
    "request_type": "Trash/Recycling",
    "request_reason": "Order Trash Cart",
    "date_created": "2023-11-16T16:35:34.000",
    "date_modified": "2023-11-16T16:35:34.000",
    "request_status": "Pending",
    "responsible_agency": "Department of Sanitation",
    "final_address": "1427 Broadway St",
    "address_councildis": "A",
    "status": "Assigned to Contractor",
    "contractor": "Richards Disposal",
    "rowid": "1050540",
    "final_x": "3664755.60813",
    "final_y": "527261.577599",
    "longitude": "-90.12108556978329",
    "latitude": "29.944284175743686",
    "geocoded_column": {
      "latitude": "29.944284175743686",
      "longitude": "-90.12108556978329"
    }
  },
  {
    "service_request": "2023-1050539",
    "request_type": "Trash/Recycling",
    "request_reason": "Request a Large Item Pick Up",
    "date_created": "2023-11-16T16:29:33.000",
    "date_modified": "2023-11-16T16:29:34.000",
    "request_status": "Pending",
    "responsible_agency": "Department of Sanitation",
    "final_address": "2938 Clouet St",
    "address_councildis": "D",
    "status": "Assigned to Contractor",
    "contractor": "IV Waste",
    "rowid": "1050539",
    "final_x": "3690795.2543",
    "final_y": "543478.654734",
    "longitude": "-90.03829258135883",
    "latitude": "29.988092258917906",
    "geocoded_column": {
      "latitude": "29.988092258917906",
      "longitude": "-90.03829258135883"
    }
  },
  {
    "service_request": "2023-1050538",
    "request_type": "Roads/Drainage",
    "request_reason": "Pothole",
    "date_created": "2023-11-16T16:18:45.000",
    "date_modified": "2023-11-16T16:18:45.000",
    "request_status": "Pending",
    "responsible_agency": "Department of Public Works",
    "final_address": "630 Tupelo St",
    "address_councildis": "E",
    "status": "Pending",
    "rowid": "1050538",
    "final_x": "3698833.19018",
    "final_y": "531787.104131",
    "longitude": "-90.01332896347238",
    "latitude": "29.95569246534035",
    "geocoded_column": {
      "latitude": "29.95569246534035",
      "longitude": "-90.01332896347238"
    }
  },
  {
    "service_request": "2023-1050537",
    "request_type": "Trash/Recycling",
    "request_reason": "Missed Trash Pick-Up",
    "date_created": "2023-11-16T16:16:10.000",
    "date_modified": "2023-11-16T16:16:10.000",
    "request_status": "Pending",
    "responsible_agency": "Department of Sanitation",
    "final_address": "6561 Catina St",
    "address_councildis": "A",
    "status": "Assigned to Contractor",
    "contractor": "IV Waste",
    "rowid": "1050537",
    "final_x": "3667040.42074",
    "final_y": "551410.545813",
    "longitude": "-90.11305975798852",
    "latitude": "30.010619061796735",
    "geocoded_column": {
      "latitude": "30.010619061796735",
      "longitude": "-90.11305975798852"
    }
  },
  {
    "service_request": "2023-1050536",
    "request_type": "Trash/Recycling",
    "request_reason": "Order Recycling Cart",
    "date_created": "2023-11-16T16:15:19.000",
    "date_modified": "2023-11-16T16:15:19.000",
    "request_status": "Pending",
    "responsible_agency": "Department of Sanitation",
    "final_address": "2723 Paris Ave",
    "address_councildis": "D",
    "status": "Pending",
    "rowid": "1050536",
    "final_x": "3680013.79784",
    "final_y": "542438.059661",
    "longitude": "-90.0723838252374",
    "latitude": "29.985561634903977",
    "geocoded_column": {
      "latitude": "29.985561634903977",
      "longitude": "-90.0723838252374"
    }
  },
  {
    "service_request": "2023-1050535",
    "request_type": "Trash/Recycling",
    "request_reason": "Order Recycling Cart",
    "date_created": "2023-11-16T16:08:32.000",
    "date_modified": "2023-11-16T16:08:33.000",
    "request_status": "Pending",
    "responsible_agency": "Department of Sanitation",
    "final_address": "2534 Chartres St",
    "address_councildis": "C",
    "status": "Pending",
    "rowid": "1050535",
    "final_x": "3686563.27074",
    "final_y": "534598.330309",
    "longitude": "-90.0519736731539",
    "latitude": "29.963805325109952",
    "geocoded_column": {
      "latitude": "29.963805325109952",
      "longitude": "-90.0519736731539"
    }
  },
  {
    "service_request": "2023-1050534",
    "request_type": "Trash/Recycling",
    "request_reason": "Order Trash Cart",
    "date_created": "2023-11-16T16:02:21.000",
    "date_modified": "2023-11-16T16:02:21.000",
    "request_status": "Pending",
    "responsible_agency": "Department of Sanitation",
    "final_address": "2642 New York St",
    "address_councildis": "D",
    "status": "Assigned to Contractor",
    "contractor": "IV Waste",
    "rowid": "1050534",
    "final_x": "3686742.2806",
    "final_y": "556740.570074",
    "longitude": "-90.05062562795358",
    "latitude": "30.024683027428043",
    "geocoded_column": {
      "latitude": "30.024683027428043",
      "longitude": "-90.05062562795358"
    }
  },
  {
    "service_request": "2023-1050533",
    "request_type": "Trash/Recycling",
    "request_reason": "Order Trash Cart",
    "date_created": "2023-11-16T16:02:05.000",
    "date_modified": "2023-11-16T16:02:06.000",
    "request_status": "Pending",
    "responsible_agency": "Department of Sanitation",
    "final_address": "2640 New York St",
    "address_councildis": "D",
    "status": "Assigned to Contractor",
    "contractor": "IV Waste",
    "rowid": "1050533",
    "final_x": "3686703.53058",
    "final_y": "556737.653402",
    "longitude": "-90.05074817433199",
    "latitude": "30.024676200359977",
    "geocoded_column": {
      "latitude": "30.024676200359977",
      "longitude": "-90.05074817433199"
    }
  },
  {
    "service_request": "2023-1050532",
    "request_type": "Trash/Recycling",
    "request_reason": "Missed Trash Pick-Up",
    "date_created": "2023-11-16T16:01:43.000",
    "date_modified": "2023-11-16T16:01:44.000",
    "request_status": "Pending",
    "responsible_agency": "Department of Sanitation",
    "final_address": "5953 Jamison St",
    "address_councildis": "D",
    "status": "Assigned to Contractor",
    "contractor": "Waste Pro",
    "rowid": "1050532",
    "final_x": "3696475.40573",
    "final_y": "553571.948183",
    "longitude": "-90.01998552467907",
    "latitude": "30.015667332437484",
    "geocoded_column": {
      "latitude": "30.015667332437484",
      "longitude": "-90.01998552467907"
    }
  },
  {
    "service_request": "2023-1050531",
    "request_type": "Trash/Recycling",
    "request_reason": "Missed Trash Pick-Up",
    "date_created": "2023-11-16T16:00:01.000",
    "date_modified": "2023-11-16T16:00:02.000",
    "request_status": "Pending",
    "responsible_agency": "Department of Sanitation",
    "final_address": "7268 Endston Ct",
    "address_councildis": "E",
    "status": "Assigned to Contractor",
    "contractor": "Waste Pro",
    "rowid": "1050531",
    "final_x": "3711926.09304",
    "final_y": "564708.58397",
    "longitude": "-89.97075046457952",
    "latitude": "30.045792670660223",
    "geocoded_column": {
      "latitude": "30.045792670660223",
      "longitude": "-89.97075046457952"
    }
  },
  {
    "service_request": "2023-1050530",
    "request_type": "Traffic Signals/Signs/Striping/Streetlights",
    "request_reason": "Striping/Road Surface Markings",
    "date_created": "2023-11-16T15:57:25.000",
    "date_modified": "2023-11-16T15:57:25.000",
    "request_status": "Pending",
    "responsible_agency": "Department of Public Works",
    "final_address": "2300 BLK AP Tureaud Ave",
    "address_councildis": "D",
    "status": "Pending",
    "rowid": "1050530",
    "final_x": "3681603.06917",
    "final_y": "540665.984072",
    "longitude": "-90.0674258076459",
    "latitude": "29.98064086227227",
    "geocoded_column": {
      "latitude": "29.98064086227227",
      "longitude": "-90.0674258076459"
    }
  },
  {
    "service_request": "2023-1050529",
    "request_type": "Trash/Recycling",
    "request_reason": "Repair Recycling Cart",
    "date_created": "2023-11-16T15:51:10.000",
    "date_modified": "2023-11-16T15:51:10.000",
    "request_status": "Pending",
    "responsible_agency": "Department of Sanitation",
    "final_address": "116 Hathaway Pl",
    "address_councildis": "D",
    "status": "Pending",
    "rowid": "1050529",
    "final_x": "3678116.39227",
    "final_y": "544056.002254",
    "longitude": "-90.07832098306231",
    "latitude": "29.990067688914024",
    "geocoded_column": {
      "latitude": "29.990067688914024",
      "longitude": "-90.07832098306231"
    }
  },
  {
    "service_request": "2023-1050528",
    "request_type": "Roads/Drainage",
    "request_reason": "Catch Basin - Broken/Damage",
    "date_created": "2023-11-16T15:50:49.000",
    "date_modified": "2023-11-16T15:50:49.000",
    "request_status": "Pending",
    "responsible_agency": "Department of Public Works",
    "final_address": "1016 Cadiz St",
    "address_councildis": "B",
    "status": "Pending",
    "rowid": "1050528",
    "final_x": "3670212.39239",
    "final_y": "519240.059639",
    "longitude": "-90.10412858700975",
    "latitude": "29.922067712225314",
    "geocoded_column": {
      "latitude": "29.922067712225314",
      "longitude": "-90.10412858700975"
    }
  },
  {
    "service_request": "2023-1050527",
    "request_type": "Trash/Recycling",
    "request_reason": "Repair Trash Cart",
    "date_created": "2023-11-16T15:50:48.000",
    "date_modified": "2023-11-16T15:50:49.000",
    "request_status": "Pending",
    "responsible_agency": "Department of Sanitation",
    "final_address": "116 Hathaway Pl",
    "address_councildis": "D",
    "status": "Assigned to Contractor",
    "contractor": "IV Waste",
    "rowid": "1050527",
    "final_x": "3678116.39227",
    "final_y": "544056.002254",
    "longitude": "-90.07832098306231",
    "latitude": "29.990067688914024",
    "geocoded_column": {
      "latitude": "29.990067688914024",
      "longitude": "-90.07832098306231"
    }
  },
  {
    "service_request": "2023-1050526",
    "request_type": "Abandoned Vehicles",
    "request_reason": "Abandoned/Junk Vehicles",
    "date_created": "2023-11-16T15:48:06.000",
    "date_modified": "2023-11-16T15:48:06.000",
    "request_status": "Pending",
    "responsible_agency": "Department of Public Works",
    "final_address": "2550 N Prieur St",
    "address_councildis": "D",
    "status": "Pending",
    "rowid": "1050526",
    "final_x": "3687427.96034",
    "final_y": "539436.775178",
    "longitude": "-90.04907182315782",
    "latitude": "29.977082739177288",
    "geocoded_column": {
      "latitude": "29.977082739177288",
      "longitude": "-90.04907182315782"
    }
  },
  {
    "service_request": "2023-1050525",
    "request_type": "Trash/Recycling",
    "request_reason": "Illegal Dumping",
    "date_created": "2023-11-16T15:46:32.000",
    "date_modified": "2023-11-16T15:46:32.000",
    "request_status": "Pending",
    "responsible_agency": "Department of Sanitation",
    "final_address": "4200 BLK Almonaster Ave",
    "address_councildis": "D",
    "status": "Pending",
    "rowid": "1050525",
    "final_x": "3691176.47883",
    "final_y": "548349.501186",
    "longitude": "-90.03691435042022",
    "latitude": "30.00147346583787",
    "geocoded_column": {
      "latitude": "30.00147346583787",
      "longitude": "-90.03691435042022"
    }
  },
  {
    "service_request": "2023-1050523",
    "request_type": "Trash/Recycling",
    "request_reason": "Missed Trash Pick-Up",
    "date_created": "2023-11-16T15:44:15.000",
    "date_modified": "2023-11-16T15:45:19.000",
    "request_status": "Pending",
    "responsible_agency": "Department of Sanitation",
    "final_address": "6433 N Miro St",
    "address_councildis": "E",
    "status": "Assigned to Contractor",
    "contractor": "Waste Pro",
    "rowid": "1050523",
    "final_x": "3702263.31287",
    "final_y": "536707.466183",
    "longitude": "-90.00231745215099",
    "latitude": "29.969112593648134",
    "geocoded_column": {
      "latitude": "29.969112593648134",
      "longitude": "-90.00231745215099"
    }
  },
  {
    "service_request": "2023-1050522",
    "request_type": "Trash/Recycling",
    "request_reason": "Illegal Dumping",
    "date_created": "2023-11-16T15:41:07.000",
    "date_modified": "2023-11-16T15:41:08.000",
    "request_status": "Pending",
    "responsible_agency": "Department of Sanitation",
    "final_address": "4000 BLK N Miro St",
    "address_councildis": "D",
    "status": "Pending",
    "rowid": "1050522",
    "final_x": "3692984.46767",
    "final_y": "539405.036135",
    "longitude": "-90.03152379102323",
    "latitude": "29.97682305673247",
    "geocoded_column": {
      "latitude": "29.97682305673247",
      "longitude": "-90.03152379102323"
    }
  },
  {
    "service_request": "2023-1050521",
    "request_type": "Trash/Recycling",
    "request_reason": "Illegal Dumping",
    "date_created": "2023-11-16T15:36:57.000",
    "date_modified": "2023-11-16T15:36:57.000",
    "request_status": "Pending",
    "responsible_agency": "Department of Sanitation",
    "final_address": "10880 Morrison Rd",
    "address_councildis": "E",
    "status": "Pending",
    "rowid": "1050521",
    "final_x": "3710874.24664",
    "final_y": "564678.834402",
    "longitude": "-89.97407590688428",
    "latitude": "30.045745221820557",
    "geocoded_column": {
      "latitude": "30.045745221820557",
      "longitude": "-89.97407590688428"
    }
  },
  {
    "service_request": "2023-1050520",
    "request_type": "Roads/Drainage",
    "request_reason": "Damaged Sidewalk",
    "date_created": "2023-11-16T15:34:35.000",
    "date_modified": "2023-11-16T15:34:35.000",
    "request_status": "Pending",
    "responsible_agency": "Department of Public Works",
    "final_address": "2433 Leon C Simon Dr",
    "address_councildis": "D",
    "status": "Pending",
    "rowid": "1050520",
    "final_x": "3685008.45154",
    "final_y": "557215.699931",
    "longitude": "-90.05608748933476",
    "latitude": "30.02604271278663",
    "geocoded_column": {
      "latitude": "30.02604271278663",
      "longitude": "-90.05608748933476"
    }
  },
  {
    "service_request": "2023-1050519",
    "request_type": "Trash/Recycling",
    "request_reason": "Order Trash Cart",
    "date_created": "2023-11-16T15:34:27.000",
    "date_modified": "2023-11-16T15:40:10.000",
    "request_status": "Pending",
    "responsible_agency": "Department of Sanitation",
    "final_address": "1478 Crescent St",
    "address_councildis": "D",
    "status": "Assigned to Contractor",
    "contractor": "IV Waste",
    "rowid": "1050519",
    "final_x": "3678188.53986",
    "final_y": "552356.62703",
    "longitude": "-90.0778057943075",
    "latitude": "30.01288928856276",
    "geocoded_column": {
      "latitude": "30.01288928856276",
      "longitude": "-90.0778057943075"
    }
  },
  {
    "service_request": "2023-1050518",
    "request_type": "Trash/Recycling",
    "request_reason": "Request a Large Item Pick Up",
    "date_created": "2023-11-16T15:28:46.000",
    "date_modified": "2023-11-16T15:28:47.000",
    "request_status": "Pending",
    "responsible_agency": "Department of Sanitation",
    "final_address": "4641 Anson St",
    "address_councildis": "C",
    "status": "Assigned to Contractor",
    "contractor": "Richards Disposal",
    "rowid": "1050518",
    "final_x": "3702429.4826",
    "final_y": "521499.715321",
    "longitude": "-90.00235055154504",
    "latitude": "29.92729135891679",
    "geocoded_column": {
      "latitude": "29.92729135891679",
      "longitude": "-90.00235055154504"
    }
  },
  {
    "service_request": "2023-1050517",
    "request_type": "Trash/Recycling",
    "request_reason": "Replace Trash Cart",
    "date_created": "2023-11-16T15:27:46.000",
    "date_modified": "2023-11-16T15:27:47.000",
    "request_status": "Pending",
    "responsible_agency": "Department of Sanitation",
    "final_address": "2912 Palmyra St Apt B",
    "address_councildis": "B",
    "status": "Assigned to Contractor",
    "contractor": "Richards Disposal",
    "rowid": "1050517",
    "final_x": "3673980.89473",
    "final_y": "535048.569734",
    "longitude": "-90.09169225046925",
    "latitude": "29.965424224280365",
    "geocoded_column": {
      "latitude": "29.965424224280365",
      "longitude": "-90.09169225046925"
    }
  },
  {
    "service_request": "2023-1050514",
    "request_type": "Traffic Signals/Signs/Striping/Streetlights",
    "request_reason": "Traffic Signal Malfunctioning/Damaged",
    "date_created": "2023-11-16T15:25:34.000",
    "date_modified": "2023-11-16T15:25:35.000",
    "request_status": "Pending",
    "responsible_agency": "Department of Public Works",
    "final_address": "JACKSON AVE & S CLAIBORNE AVE",
    "address_councildis": "B",
    "status": "Pending",
    "rowid": "1050514",
    "final_x": "3674619.0",
    "final_y": "527616.98",
    "longitude": "-90.0899318088514",
    "latitude": "29.944970801128957",
    "geocoded_column": {
      "latitude": "29.944970801128957",
      "longitude": "-90.0899318088514"
    }
  },
  {
    "service_request": "2023-1050513",
    "request_type": "Trash/Recycling",
    "request_reason": "Missed Trash Pick-Up",
    "date_created": "2023-11-16T15:24:30.000",
    "date_modified": "2023-11-16T15:24:30.000",
    "request_status": "Pending",
    "responsible_agency": "Department of Sanitation",
    "final_address": "2314 Delery St",
    "address_councildis": "E",
    "status": "Assigned to Contractor",
    "contractor": "Waste Pro",
    "rowid": "1050513",
    "final_x": "3702208.70065",
    "final_y": "537434.866696",
    "longitude": "-90.00246323893724",
    "latitude": "29.971114425544155",
    "geocoded_column": {
      "latitude": "29.971114425544155",
      "longitude": "-90.00246323893724"
    }
  },
  {
    "service_request": "2023-1050512",
    "request_type": "Roads/Drainage",
    "request_reason": "Pothole",
    "date_created": "2023-11-16T15:19:16.000",
    "date_modified": "2023-11-16T15:19:47.000",
    "request_status": "Pending",
    "responsible_agency": "Department of Public Works",
    "final_address": "3121 Eads St",
    "address_councildis": "D",
    "status": "Pending",
    "rowid": "1050512",
    "final_x": "3687672.4687",
    "final_y": "544511.469647",
    "longitude": "-90.04811981877587",
    "latitude": "29.991028806922778",
    "geocoded_column": {
      "latitude": "29.991028806922778",
      "longitude": "-90.04811981877587"
    }
  },
  {
    "service_request": "2023-1050511",
    "request_type": "Trash/Recycling",
    "request_reason": "Order Trash Cart",
    "date_created": "2023-11-16T15:08:45.000",
    "date_modified": "2023-11-16T15:08:46.000",
    "request_status": "Pending",
    "responsible_agency": "Department of Sanitation",
    "final_address": "3428 Fourth St",
    "address_councildis": "B",
    "status": "Assigned to Contractor",
    "contractor": "Richards Disposal",
    "rowid": "1050511",
    "final_x": "3672517.37902",
    "final_y": "528178.78848",
    "longitude": "-90.09654813872564",
    "latitude": "29.94657813072221",
    "geocoded_column": {
      "latitude": "29.94657813072221",
      "longitude": "-90.09654813872564"
    }
  },
  {
    "service_request": "2023-1050510",
    "request_type": "Trash/Recycling",
    "request_reason": "Order Trash Cart",
    "date_created": "2023-11-16T15:08:32.000",
    "date_modified": "2023-11-16T15:08:32.000",
    "request_status": "Pending",
    "responsible_agency": "Department of Sanitation",
    "final_address": "3426 Fourth St",
    "address_councildis": "B",
    "status": "Assigned to Contractor",
    "contractor": "Richards Disposal",
    "rowid": "1050510",
    "final_x": "3672522.37543",
    "final_y": "528171.892352",
    "longitude": "-90.09653259826018",
    "latitude": "29.94655902034419",
    "geocoded_column": {
      "latitude": "29.94655902034419",
      "longitude": "-90.09653259826018"
    }
  },
  {
    "service_request": "2023-1050509",
    "request_type": "Trash/Recycling",
    "request_reason": "Order Trash Cart",
    "date_created": "2023-11-16T15:08:17.000",
    "date_modified": "2023-11-16T15:08:17.000",
    "request_status": "Pending",
    "responsible_agency": "Department of Sanitation",
    "final_address": "3424 Fourth St",
    "address_councildis": "B",
    "status": "Assigned to Contractor",
    "contractor": "Richards Disposal",
    "rowid": "1050509",
    "final_x": "3672533.00398",
    "final_y": "528156.653056",
    "longitude": "-90.09649955943364",
    "latitude": "29.946516801828913",
    "geocoded_column": {
      "latitude": "29.946516801828913",
      "longitude": "-90.09649955943364"
    }
  },
  {
    "service_request": "2023-1050508",
    "request_type": "Trash/Recycling",
    "request_reason": "Request a Large Item Pick Up",
    "date_created": "2023-11-16T15:02:15.000",
    "date_modified": "2023-11-16T15:02:16.000",
    "request_status": "Pending",
    "responsible_agency": "Department of Sanitation",
    "final_address": "1430 N Roman St",
    "address_councildis": "D",
    "status": "Assigned to Contractor",
    "contractor": "IV Waste",
    "rowid": "1050508",
    "final_x": "3680904.90664",
    "final_y": "537230.160008",
    "longitude": "-90.06975057722227",
    "latitude": "29.97121472707846",
    "geocoded_column": {
      "latitude": "29.97121472707846",
      "longitude": "-90.06975057722227"
    }
  },
  {
    "service_request": "2023-1050507",
    "request_type": "Traffic Signals/Signs/Striping/Streetlights",
    "request_reason": "Street Light Outage/Malfunction",
    "date_created": "2023-11-16T15:00:09.000",
    "date_modified": "2023-11-16T15:00:10.000",
    "request_status": "Pending",
    "responsible_agency": "Department of Public Works",
    "final_address": "3100 BLK Industrial Ct",
    "address_councildis": "D",
    "status": "Assigned to Contractor",
    "contractor": "Legacy Professional Services",
    "rowid": "1050507",
    "final_x": "3689723.18088",
    "final_y": "538403.995486",
    "longitude": "-90.0418595626942",
    "latitude": "29.97417202637867",
    "geocoded_column": {
      "latitude": "29.97417202637867",
      "longitude": "-90.0418595626942"
    }
  },
  {
    "service_request": "2023-1050506",
    "request_type": "Trash/Recycling",
    "request_reason": "MIssed Recycling Pick-Up",
    "date_created": "2023-11-16T14:59:46.000",
    "date_modified": "2023-11-16T14:59:47.000",
    "request_status": "Pending",
    "responsible_agency": "Department of Sanitation",
    "final_address": "4626 Camelot Dr",
    "address_councildis": "E",
    "status": "Assigned to Contractor",
    "contractor": "Waste Pro",
    "rowid": "1050506",
    "final_x": "3708370.26264",
    "final_y": "554907.672216",
    "longitude": "-89.98235377503471",
    "latitude": "30.01895981471352",
    "geocoded_column": {
      "latitude": "30.01895981471352",
      "longitude": "-89.98235377503471"
    }
  },
  {
    "service_request": "2023-1050505",
    "request_type": "Trash/Recycling",
    "request_reason": "MIssed Recycling Pick-Up",
    "date_created": "2023-11-16T14:58:16.000",
    "date_modified": "2023-11-16T14:58:16.000",
    "request_status": "Pending",
    "responsible_agency": "Department of Sanitation",
    "final_address": "5018 N Derbigny St",
    "address_councildis": "E",
    "status": "Assigned to Contractor",
    "contractor": "Waste Pro",
    "rowid": "1050505",
    "final_x": "3696741.78442",
    "final_y": "536390.083335",
    "longitude": "-90.01976622583103",
    "latitude": "29.968415107372625",
    "geocoded_column": {
      "latitude": "29.968415107372625",
      "longitude": "-90.01976622583103"
    }
  },
  {
    "service_request": "2023-1050504",
    "request_type": "Trash/Recycling",
    "request_reason": "Request a Large Item Pick Up",
    "date_created": "2023-11-16T14:56:57.000",
    "date_modified": "2023-11-16T14:56:58.000",
    "request_status": "Pending",
    "responsible_agency": "Department of Sanitation",
    "final_address": "8431 Sycamore St",
    "address_councildis": "A",
    "status": "Assigned to Contractor",
    "contractor": "Richards Disposal",
    "rowid": "1050504",
    "final_x": "3663366.51693",
    "final_y": "531896.733571",
    "longitude": "-90.125317061064",
    "latitude": "29.957069696121547",
    "geocoded_column": {
      "latitude": "29.957069696121547",
      "longitude": "-90.125317061064"
    }
  },
  {
    "service_request": "2023-1050503",
    "request_type": "Mosquito, Termite & Rodent Control",
    "request_reason": "Rodent Complaint (Rats)",
    "date_created": "2023-11-16T14:53:12.000",
    "date_modified": "2023-11-16T14:53:13.000",
    "request_status": "Pending",
    "responsible_agency": "Mosquito, Termite & Rodent Control Board",
    "final_address": "3001 Copernicus St",
    "address_councildis": "C",
    "status": "Pending",
    "rowid": "1050503",
    "final_x": "3695132.68368",
    "final_y": "524141.3271",
    "longitude": "-90.02528939851408",
    "latitude": "29.934785928603077",
    "geocoded_column": {
      "latitude": "29.934785928603077",
      "longitude": "-90.02528939851408"
    }
  },
  {
    "service_request": "2023-1050502",
    "request_type": "Roads/Drainage",
    "request_reason": "Street Subsidence (Sinking)",
    "date_created": "2023-11-16T14:52:56.000",
    "date_modified": "2023-11-16T14:52:56.000",
    "request_status": "Pending",
    "responsible_agency": "Department of Public Works",
    "final_address": "3100 BLK Industrial Ct",
    "address_councildis": "D",
    "status": "Pending",
    "rowid": "1050502",
    "final_x": "3689723.18088",
    "final_y": "538403.995486",
    "longitude": "-90.0418595626942",
    "latitude": "29.97417202637867",
    "geocoded_column": {
      "latitude": "29.97417202637867",
      "longitude": "-90.0418595626942"
    }
  },
  {
    "service_request": "2023-1050501",
    "request_type": "Trash/Recycling",
    "request_reason": "Missed Trash Pick-Up",
    "date_created": "2023-11-16T14:50:36.000",
    "date_modified": "2023-11-16T14:50:37.000",
    "request_status": "Pending",
    "responsible_agency": "Department of Sanitation",
    "final_address": "5921 N Derbigny St",
    "address_councildis": "E",
    "status": "Assigned to Contractor",
    "contractor": "Waste Pro",
    "rowid": "1050501",
    "final_x": "3699951.13207",
    "final_y": "535636.476742",
    "longitude": "-90.00965850763126",
    "latitude": "29.96624140662514",
    "geocoded_column": {
      "latitude": "29.96624140662514",
      "longitude": "-90.00965850763126"
    }
  },
  {
    "service_request": "2023-1050500",
    "request_type": "Trash/Recycling",
    "request_reason": "Request a Large Item Pick Up",
    "date_created": "2023-11-16T14:46:06.000",
    "date_modified": "2023-11-16T14:46:07.000",
    "request_status": "Pending",
    "responsible_agency": "Department of Sanitation",
    "final_address": "6100 Curran Rd",
    "address_councildis": "E",
    "status": "Assigned to Contractor",
    "contractor": "Waste Pro",
    "rowid": "1050500",
    "final_x": "3695694.84995",
    "final_y": "558925.762908",
    "longitude": "-90.02225816428609",
    "latitude": "30.03041287067112",
    "geocoded_column": {
      "latitude": "30.03041287067112",
      "longitude": "-90.02225816428609"
    }
  },
  {
    "service_request": "2023-1050499",
    "request_type": "Trash/Recycling",
    "request_reason": "Repair Trash Cart",
    "date_created": "2023-11-16T14:45:30.000",
    "date_modified": "2023-11-16T14:45:31.000",
    "request_status": "Pending",
    "responsible_agency": "Department of Sanitation",
    "final_address": "1538 Dante St",
    "address_councildis": "A",
    "status": "Assigned to Contractor",
    "contractor": "Richards Disposal",
    "rowid": "1050499",
    "final_x": "3662311.4329",
    "final_y": "529902.632833",
    "longitude": "-90.12871490339111",
    "latitude": "29.951617106471105",
    "geocoded_column": {
      "latitude": "29.951617106471105",
      "longitude": "-90.12871490339111"
    }
  },
  {
    "service_request": "2023-1050498",
    "request_type": "Trash/Recycling",
    "request_reason": "Order Recycling Cart",
    "date_created": "2023-11-16T14:44:48.000",
    "date_modified": "2023-11-16T14:44:48.000",
    "request_status": "Pending",
    "responsible_agency": "Department of Sanitation",
    "final_address": "5919 General Haig St",
    "address_councildis": "A",
    "status": "Pending",
    "rowid": "1050498",
    "final_x": "3670565.11988",
    "final_y": "546591.951633",
    "longitude": "-90.10208743242279",
    "latitude": "29.99726592906485",
    "geocoded_column": {
      "latitude": "29.99726592906485",
      "longitude": "-90.10208743242279"
    }
  },
  {
    "service_request": "2023-1050497",
    "request_type": "Traffic Signals/Signs/Striping/Streetlights",
    "request_reason": "Striping/Road Surface Markings",
    "date_created": "2023-11-16T14:41:50.000",
    "date_modified": "2023-11-16T14:41:50.000",
    "request_status": "Pending",
    "responsible_agency": "Department of Public Works",
    "final_address": "ST JOSEPH ST & TCHOUPITOULAS ST",
    "address_councildis": "B",
    "status": "Pending",
    "rowid": "1050497",
    "final_x": "3681709.4",
    "final_y": "527106.68",
    "longitude": "-90.06756305478176",
    "latitude": "29.943354180318213",
    "geocoded_column": {
      "latitude": "29.943354180318213",
      "longitude": "-90.06756305478176"
    }
  },
  {
    "service_request": "2023-1050496",
    "request_type": "Trash/Recycling",
    "request_reason": "Missed Trash Pick-Up",
    "date_created": "2023-11-16T14:40:36.000",
    "date_modified": "2023-11-16T14:40:37.000",
    "request_status": "Pending",
    "responsible_agency": "Department of Sanitation",
    "final_address": "1003 Jourdan Ave",
    "address_councildis": "E",
    "status": "Assigned to Contractor",
    "contractor": "Waste Pro",
    "rowid": "1050496",
    "final_x": "3694977.12707",
    "final_y": "534104.147525",
    "longitude": "-90.02542147442885",
    "latitude": "29.96218510048322",
    "geocoded_column": {
      "latitude": "29.96218510048322",
      "longitude": "-90.02542147442885"
    }
  },
  {
    "service_request": "2023-1050494",
    "request_type": "Roads/Drainage",
    "request_reason": "Catch Basin - Clogged",
    "date_created": "2023-11-16T14:39:51.000",
    "date_modified": "2023-11-16T14:39:52.000",
    "request_status": "Pending",
    "responsible_agency": "Department of Public Works",
    "final_address": "8411 Palm St",
    "address_councildis": "A",
    "status": "Pending",
    "rowid": "1050494",
    "final_x": "3666874.43597",
    "final_y": "535512.975494",
    "longitude": "-90.11411859861785",
    "latitude": "29.966911013456475",
    "geocoded_column": {
      "latitude": "29.966911013456475",
      "longitude": "-90.11411859861785"
    }
  },
  {
    "service_request": "2023-1050493",
    "request_type": "Trash/Recycling",
    "request_reason": "Repair Trash Cart",
    "date_created": "2023-11-16T14:38:51.000",
    "date_modified": "2023-11-16T14:38:52.000",
    "request_status": "Pending",
    "responsible_agency": "Department of Sanitation",
    "final_address": "211 English Turn Dr",
    "address_councildis": "C",
    "status": "Assigned to Contractor",
    "contractor": "Richards Disposal",
    "rowid": "1050493",
    "final_x": "3719074.01682",
    "final_y": "512300.091505",
    "longitude": "-89.95015917593696",
    "latitude": "29.901453565302532",
    "geocoded_column": {
      "latitude": "29.901453565302532",
      "longitude": "-89.95015917593696"
    }
  },
  {
    "service_request": "2023-1050492",
    "request_type": "Trash/Recycling",
    "request_reason": "Request a Large Item Pick Up",
    "date_created": "2023-11-16T14:37:35.000",
    "date_modified": "2023-11-16T14:37:36.000",
    "request_status": "Pending",
    "responsible_agency": "Department of Sanitation",
    "final_address": "7800 Briarwood Dr",
    "address_councildis": "E",
    "status": "Assigned to Contractor",
    "contractor": "Waste Pro",
    "rowid": "1050492",
    "final_x": "3716879.1422",
    "final_y": "571676.94052",
    "longitude": "-89.95483159004776",
    "latitude": "30.064789895814403",
    "geocoded_column": {
      "latitude": "30.064789895814403",
      "longitude": "-89.95483159004776"
    }
  },
  {
    "service_request": "2023-1050491",
    "request_type": "Trash/Recycling",
    "request_reason": "Request a Large Item Pick Up",
    "date_created": "2023-11-16T14:37:02.000",
    "date_modified": "2023-11-16T14:37:03.000",
    "request_status": "Pending",
    "responsible_agency": "Department of Sanitation",
    "final_address": "1137 Michael St",
    "address_councildis": "C",
    "status": "Assigned to Contractor",
    "contractor": "Richards Disposal",
    "rowid": "1050491",
    "final_x": "3697169.83184",
    "final_y": "527088.103487",
    "longitude": "-90.01875145964432",
    "latitude": "29.942824442293382",
    "geocoded_column": {
      "latitude": "29.942824442293382",
      "longitude": "-90.01875145964432"
    }
  },
  {
    "service_request": "2023-1050490",
    "request_type": "Roads/Drainage",
    "request_reason": "Accessibility Ramps, Curbs and Sidewalk Repair",
    "date_created": "2023-11-16T14:33:36.000",
    "date_modified": "2023-11-16T14:33:37.000",
    "request_status": "Pending",
    "responsible_agency": "Department of Public Works",
    "final_address": "1341 Annette St",
    "address_councildis": "C",
    "status": "Pending",
    "rowid": "1050490",
    "final_x": "3683136.8038",
    "final_y": "536865.122568",
    "longitude": "-90.06271473163969",
    "latitude": "29.970143136201198",
    "geocoded_column": {
      "latitude": "29.970143136201198",
      "longitude": "-90.06271473163969"
    }
  },
  {
    "service_request": "2023-1050489",
    "request_type": "Trash/Recycling",
    "request_reason": "MIssed Recycling Pick-Up",
    "date_created": "2023-11-16T14:33:30.000",
    "date_modified": "2023-11-16T14:33:31.000",
    "request_status": "Pending",
    "responsible_agency": "Department of Sanitation",
    "final_address": "4719 Virgilian St",
    "address_councildis": "D",
    "status": "Assigned to Contractor",
    "contractor": "Waste Pro",
    "rowid": "1050489",
    "final_x": "3697573.29437",
    "final_y": "553614.334103",
    "longitude": "-90.0165151768813",
    "latitude": "30.01574923102479",
    "geocoded_column": {
      "latitude": "30.01574923102479",
      "longitude": "-90.0165151768813"
    }
  },
  {
    "service_request": "2023-1050488",
    "request_type": "Trash/Recycling",
    "request_reason": "Request a Large Item Pick Up",
    "date_created": "2023-11-16T14:30:03.000",
    "date_modified": "2023-11-16T14:30:04.000",
    "request_status": "Pending",
    "responsible_agency": "Department of Sanitation",
    "final_address": "6943 W Laverne St",
    "address_councildis": "D",
    "status": "Assigned to Contractor",
    "contractor": "Waste Pro",
    "rowid": "1050488",
    "final_x": "3696052.31683",
    "final_y": "556458.580762",
    "longitude": "-90.02121784697528",
    "latitude": "30.02361780867705",
    "geocoded_column": {
      "latitude": "30.02361780867705",
      "longitude": "-90.02121784697528"
    }
  },
  {
    "service_request": "2023-1050487",
    "request_type": "Traffic Signals/Signs/Striping/Streetlights",
    "request_reason": "Street Light Outage/Malfunction",
    "date_created": "2023-11-16T14:25:51.000",
    "date_modified": "2023-11-16T14:25:52.000",
    "request_status": "Pending",
    "responsible_agency": "Department of Public Works",
    "final_address": "817 Dumaine St",
    "address_councildis": "C",
    "status": "Assigned to Contractor",
    "contractor": "Legacy Professional Services",
    "rowid": "1050487",
    "final_x": "3682600.53967",
    "final_y": "533388.8249",
    "longitude": "-90.06452987384637",
    "latitude": "29.96060085313952",
    "geocoded_column": {
      "latitude": "29.96060085313952",
      "longitude": "-90.06452987384637"
    }
  },
  {
    "service_request": "2023-1050486",
    "request_type": "Trash/Recycling",
    "request_reason": "Illegal Dumping",
    "date_created": "2023-11-16T14:25:45.000",
    "date_modified": "2023-11-16T14:25:45.000",
    "request_status": "Pending",
    "responsible_agency": "Department of Sanitation",
    "final_address": "4333 St Bernard Ave",
    "address_councildis": "D",
    "status": "Pending",
    "rowid": "1050486",
    "final_x": "3676930.18075",
    "final_y": "548544.365522",
    "longitude": "-90.0819130735056",
    "latitude": "30.002444780690364",
    "geocoded_column": {
      "latitude": "30.002444780690364",
      "longitude": "-90.0819130735056"
    }
  },
  {
    "service_request": "2023-1050485",
    "request_type": "Trash/Recycling",
    "request_reason": "Request a Large Item Pick Up",
    "date_created": "2023-11-16T14:17:42.000",
    "date_modified": "2023-11-16T14:17:43.000",
    "request_status": "Pending",
    "responsible_agency": "Department of Sanitation",
    "final_address": "2734 Cleveland Ave",
    "address_councildis": "B",
    "status": "Assigned to Contractor",
    "contractor": "Richards Disposal",
    "rowid": "1050485",
    "final_x": "3674798.7124",
    "final_y": "534940.718662",
    "longitude": "-90.08911331470452",
    "latitude": "29.9651032775656",
    "geocoded_column": {
      "latitude": "29.9651032775656",
      "longitude": "-90.08911331470452"
    }
  },
  {
    "service_request": "2023-1050484",
    "request_type": "Roads/Drainage",
    "request_reason": "Pothole",
    "date_created": "2023-11-16T14:17:09.000",
    "date_modified": "2023-11-16T14:17:09.000",
    "request_status": "Pending",
    "responsible_agency": "Department of Public Works",
    "final_address": "1836 Valence St",
    "address_councildis": "B",
    "status": "Pending",
    "rowid": "1050484",
    "final_x": "3669548.88276",
    "final_y": "521749.076666",
    "longitude": "-90.10613819354518",
    "latitude": "29.928986265896693",
    "geocoded_column": {
      "latitude": "29.928986265896693",
      "longitude": "-90.10613819354518"
    }
  },
  {
    "service_request": "2023-1050483",
    "request_type": "Trash/Recycling",
    "request_reason": "Request a Large Item Pick Up",
    "date_created": "2023-11-16T14:11:50.000",
    "date_modified": "2023-11-16T14:11:51.000",
    "request_status": "Pending",
    "responsible_agency": "Department of Sanitation",
    "final_address": "7416 Edward St",
    "address_councildis": "E",
    "status": "Assigned to Contractor",
    "contractor": "Waste Pro",
    "rowid": "1050483",
    "final_x": "3701192.91805",
    "final_y": "560327.220893",
    "longitude": "-90.00483297536326",
    "latitude": "30.03409221390936",
    "geocoded_column": {
      "latitude": "30.03409221390936",
      "longitude": "-90.00483297536326"
    }
  },
  {
    "service_request": "2023-1050482",
    "request_type": "Trash/Recycling",
    "request_reason": "Repair Recycling Cart",
    "date_created": "2023-11-16T14:09:01.000",
    "date_modified": "2023-11-16T14:09:01.000",
    "request_status": "Pending",
    "responsible_agency": "Department of Sanitation",
    "final_address": "5622 Franklin Ave",
    "address_councildis": "D",
    "status": "Pending",
    "rowid": "1050482",
    "final_x": "3686443.7926",
    "final_y": "553823.527895",
    "longitude": "-90.0516718966092",
    "latitude": "30.016671425089715",
    "geocoded_column": {
      "latitude": "30.016671425089715",
      "longitude": "-90.0516718966092"
    }
  },
  {
    "service_request": "2023-1050481",
    "request_type": "Traffic Signals/Signs/Striping/Streetlights",
    "request_reason": "Street Light Outage/Malfunction",
    "date_created": "2023-11-16T13:59:01.000",
    "date_modified": "2023-11-16T13:59:02.000",
    "request_status": "Pending",
    "responsible_agency": "Department of Public Works",
    "final_address": "331 Eliza St",
    "address_councildis": "C",
    "status": "Assigned to Contractor",
    "contractor": "Legacy Professional Services",
    "rowid": "1050481",
    "final_x": "3686575.18332",
    "final_y": "529562.404289",
    "longitude": "-90.05211387305478",
    "latitude": "29.949957894077688",
    "geocoded_column": {
      "latitude": "29.949957894077688",
      "longitude": "-90.05211387305478"
    }
  },
  {
    "service_request": "2023-1050480",
    "request_type": "Traffic Signals/Signs/Striping/Streetlights",
    "request_reason": "Street Name Sign Damaged or Missing",
    "date_created": "2023-11-16T13:58:20.000",
    "date_modified": "2023-11-16T13:58:21.000",
    "request_status": "Pending",
    "responsible_agency": "Department of Public Works",
    "final_address": "N ROMAN ST & EGANIA ST",
    "address_councildis": "E",
    "status": "Pending",
    "rowid": "1050480",
    "final_x": "3697535.7",
    "final_y": "536673.78",
    "longitude": "-90.0172487255748",
    "latitude": "29.969170122415637",
    "geocoded_column": {
      "latitude": "29.969170122415637",
      "longitude": "-90.0172487255748"
    }
  },
  {
    "service_request": "2023-1050479",
    "request_type": "Traffic Signals/Signs/Striping/Streetlights",
    "request_reason": "Street Light Outage/Malfunction",
    "date_created": "2023-11-16T13:56:07.000",
    "date_modified": "2023-11-16T13:56:08.000",
    "request_status": "Pending",
    "responsible_agency": "Department of Public Works",
    "final_address": "6400 BLK Milne Blvd",
    "address_councildis": "A",
    "status": "Assigned to Contractor",
    "contractor": "Legacy Professional Services",
    "rowid": "1050479",
    "final_x": "3667349.38213",
    "final_y": "550547.431501",
    "longitude": "-90.11211268960302",
    "latitude": "30.00823674814072",
    "geocoded_column": {
      "latitude": "30.00823674814072",
      "longitude": "-90.11211268960302"
    }
  },
  {
    "service_request": "2023-1050478",
    "request_type": "Trash/Recycling",
    "request_reason": "Request a Large Item Pick Up",
    "date_created": "2023-11-16T13:53:40.000",
    "date_modified": "2023-11-16T13:53:41.000",
    "request_status": "Pending",
    "responsible_agency": "Department of Sanitation",
    "final_address": "1205 Tennessee St",
    "address_councildis": "E",
    "status": "Assigned to Contractor",
    "contractor": "Waste Pro",
    "rowid": "1050478",
    "final_x": "3695827.03638",
    "final_y": "534622.938438",
    "longitude": "-90.02271886229076",
    "latitude": "29.96358488935383",
    "geocoded_column": {
      "latitude": "29.96358488935383",
      "longitude": "-90.02271886229076"
    }
  },
  {
    "service_request": "2023-1050477",
    "request_type": "Abandoned Vehicles",
    "request_reason": "Abandoned/Junk Vehicles",
    "date_created": "2023-11-16T13:52:35.000",
    "date_modified": "2023-11-16T13:52:35.000",
    "request_status": "Pending",
    "responsible_agency": "Department of Public Works",
    "final_address": "1458 N Rocheblave St",
    "address_councildis": "D",
    "status": "Pending",
    "rowid": "1050477",
    "final_x": "3679431.46799",
    "final_y": "538722.554889",
    "longitude": "-90.07435211281206",
    "latitude": "29.975362894499785",
    "geocoded_column": {
      "latitude": "29.975362894499785",
      "longitude": "-90.07435211281206"
    }
  },
  {
    "service_request": "2023-1050476",
    "request_type": "Trash/Recycling",
    "request_reason": "Missed Trash Pick-Up",
    "date_created": "2023-11-16T13:52:06.000",
    "date_modified": "2023-11-16T13:52:07.000",
    "request_status": "Pending",
    "responsible_agency": "Department of Sanitation",
    "final_address": "7150 Lake Barrington Dr",
    "address_councildis": "E",
    "status": "Assigned to Contractor",
    "contractor": "Waste Pro",
    "rowid": "1050476",
    "final_x": "3712215.74418",
    "final_y": "564246.650849",
    "longitude": "-89.96985240414227",
    "latitude": "30.044513067027896",
    "geocoded_column": {
      "latitude": "30.044513067027896",
      "longitude": "-89.96985240414227"
    }
  },
  {
    "service_request": "2023-1050474",
    "request_type": "Abandoned Vehicles",
    "request_reason": "Abandoned/Junk Vehicles",
    "date_created": "2023-11-16T13:43:53.000",
    "date_modified": "2023-11-16T13:43:53.000",
    "request_status": "Pending",
    "responsible_agency": "Department of Public Works",
    "final_address": "1301 Clouet St",
    "address_councildis": "C",
    "status": "Pending",
    "rowid": "1050474",
    "final_x": "3689271.92054",
    "final_y": "536822.90772",
    "longitude": "-90.04334095899789",
    "latitude": "29.96983856912688",
    "geocoded_column": {
      "latitude": "29.96983856912688",
      "longitude": "-90.04334095899789"
    }
  },
  {
    "service_request": "2023-1050473",
    "request_type": "Graffiti Removal",
    "request_reason": "Graffiti Removal",
    "date_created": "2023-11-16T13:39:27.000",
    "date_modified": "2023-11-16T13:39:27.000",
    "request_status": "Pending",
    "responsible_agency": "Department of Code Enforcement",
    "final_address": "1301 Clouet St",
    "address_councildis": "C",
    "status": "Pending",
    "rowid": "1050473",
    "final_x": "3689271.92054",
    "final_y": "536822.90772",
    "longitude": "-90.04334095899789",
    "latitude": "29.96983856912688",
    "geocoded_column": {
      "latitude": "29.96983856912688",
      "longitude": "-90.04334095899789"
    }
  },
  {
    "service_request": "2023-1050472",
    "request_type": "Trash/Recycling",
    "request_reason": "Request a Large Item Pick Up",
    "date_created": "2023-11-16T13:37:10.000",
    "date_modified": "2023-11-16T13:37:11.000",
    "request_status": "Pending",
    "responsible_agency": "Department of Sanitation",
    "final_address": "711 Joseph St",
    "address_councildis": "A",
    "status": "Assigned to Contractor",
    "contractor": "Richards Disposal",
    "rowid": "1050472",
    "final_x": "3666103.10509",
    "final_y": "518638.366903",
    "longitude": "-90.11712010164734",
    "latitude": "29.920533819278106",
    "geocoded_column": {
      "latitude": "29.920533819278106",
      "longitude": "-90.11712010164734"
    }
  },
  {
    "service_request": "2023-1050471",
    "request_type": "Trash/Recycling",
    "request_reason": "Missed Trash Pick-Up",
    "date_created": "2023-11-16T13:36:41.000",
    "date_modified": "2023-11-16T13:36:42.000",
    "request_status": "Pending",
    "responsible_agency": "Department of Sanitation",
    "final_address": "1001 Jourdan Ave",
    "address_councildis": "E",
    "status": "Assigned to Contractor",
    "contractor": "Waste Pro",
    "rowid": "1050471",
    "final_x": "3694972.97066",
    "final_y": "534088.906821",
    "longitude": "-90.02543514903665",
    "latitude": "29.962143324380477",
    "geocoded_column": {
      "latitude": "29.962143324380477",
      "longitude": "-90.02543514903665"
    }
  },
  {
    "service_request": "2023-1050470",
    "request_type": "Trash/Recycling",
    "request_reason": "Request a Large Item Pick Up",
    "date_created": "2023-11-16T13:35:40.000",
    "date_modified": "2023-11-16T13:35:41.000",
    "request_status": "Pending",
    "responsible_agency": "Department of Sanitation",
    "final_address": "711 Joseph St",
    "address_councildis": "A",
    "status": "Assigned to Contractor",
    "contractor": "Richards Disposal",
    "rowid": "1050470",
    "final_x": "3666103.10509",
    "final_y": "518638.366903",
    "longitude": "-90.11712010164734",
    "latitude": "29.920533819278106",
    "geocoded_column": {
      "latitude": "29.920533819278106",
      "longitude": "-90.11712010164734"
    }
  },
  {
    "service_request": "2023-1050469",
    "request_type": "Abandoned Vehicles",
    "request_reason": "Abandoned/Junk Vehicles",
    "date_created": "2023-11-16T13:23:30.000",
    "date_modified": "2023-11-16T13:23:30.000",
    "request_status": "Pending",
    "responsible_agency": "Department of Public Works",
    "final_address": "3251 St Ferdinand St",
    "address_councildis": "D",
    "status": "Pending",
    "rowid": "1050469",
    "final_x": "3689913.11312",
    "final_y": "544797.423055",
    "longitude": "-90.04103198660441",
    "latitude": "29.991745781806454",
    "geocoded_column": {
      "latitude": "29.991745781806454",
      "longitude": "-90.04103198660441"
    }
  },
  {
    "service_request": "2023-1050468",
    "request_type": "Trash/Recycling",
    "request_reason": "Missed Trash Pick-Up",
    "date_created": "2023-11-16T13:22:03.000",
    "date_modified": "2023-11-16T13:22:04.000",
    "request_status": "Pending",
    "responsible_agency": "Department of Sanitation",
    "final_address": "1626 Tennessee St",
    "address_councildis": "E",
    "status": "Assigned to Contractor",
    "contractor": "Waste Pro",
    "rowid": "1050468",
    "final_x": "3696209.39491",
    "final_y": "536418.622983",
    "longitude": "-90.02144649711147",
    "latitude": "29.968510352167392",
    "geocoded_column": {
      "latitude": "29.968510352167392",
      "longitude": "-90.02144649711147"
    }
  },
  {
    "service_request": "2023-1050467",
    "request_type": "Abandoned Vehicles",
    "request_reason": "Abandoned/Junk Vehicles",
    "date_created": "2023-11-16T13:21:01.000",
    "date_modified": "2023-11-16T13:21:01.000",
    "request_status": "Pending",
    "responsible_agency": "Department of Public Works",
    "final_address": "3251 St Ferdinand St",
    "address_councildis": "D",
    "status": "Pending",
    "rowid": "1050467",
    "final_x": "3689913.11312",
    "final_y": "544797.423055",
    "longitude": "-90.04103198660441",
    "latitude": "29.991745781806454",
    "geocoded_column": {
      "latitude": "29.991745781806454",
      "longitude": "-90.04103198660441"
    }
  },
  {
    "service_request": "2023-1050466",
    "request_type": "Trash/Recycling",
    "request_reason": "Order Recycling Cart",
    "date_created": "2023-11-16T13:20:40.000",
    "date_modified": "2023-11-16T13:20:41.000",
    "request_status": "Pending",
    "responsible_agency": "Department of Sanitation",
    "final_address": "2731 Prancer St",
    "address_councildis": "C",
    "status": "Pending",
    "rowid": "1050466",
    "final_x": "3699516.7169",
    "final_y": "520818.437561",
    "longitude": "-90.01157016824787",
    "latitude": "29.925510790230454",
    "geocoded_column": {
      "latitude": "29.925510790230454",
      "longitude": "-90.01157016824787"
    }
  },
  {
    "service_request": "2023-1050465",
    "request_type": "Trash/Recycling",
    "request_reason": "Replace Recycling Cart",
    "date_created": "2023-11-16T13:20:37.000",
    "date_modified": "2023-11-16T13:20:37.000",
    "request_status": "Pending",
    "responsible_agency": "Department of Sanitation",
    "final_address": "2211 Killdeer St",
    "address_councildis": "D",
    "status": "Pending",
    "rowid": "1050465",
    "final_x": "3683796.1894",
    "final_y": "557590.003227",
    "longitude": "-90.05990493471391",
    "latitude": "30.02710900786136",
    "geocoded_column": {
      "latitude": "30.02710900786136",
      "longitude": "-90.05990493471391"
    }
  },
  {
    "service_request": "2023-1050464",
    "request_type": "Abandoned Vehicles",
    "request_reason": "Abandoned/Junk Vehicles",
    "date_created": "2023-11-16T13:18:12.000",
    "date_modified": "2023-11-16T13:18:12.000",
    "request_status": "Pending",
    "responsible_agency": "Department of Public Works",
    "final_address": "3251 St Ferdinand St",
    "address_councildis": "D",
    "status": "Pending",
    "rowid": "1050464",
    "final_x": "3689913.11312",
    "final_y": "544797.423055",
    "longitude": "-90.04103198660441",
    "latitude": "29.991745781806454",
    "geocoded_column": {
      "latitude": "29.991745781806454",
      "longitude": "-90.04103198660441"
    }
  },
  {
    "service_request": "2023-1050463",
    "request_type": "Trash/Recycling",
    "request_reason": "Repair Trash Cart",
    "date_created": "2023-11-16T13:13:49.000",
    "date_modified": "2023-11-16T13:13:50.000",
    "request_status": "Pending",
    "responsible_agency": "Department of Sanitation",
    "final_address": "7216 Claridge Ct",
    "address_councildis": "E",
    "status": "Assigned to Contractor",
    "contractor": "Waste Pro",
    "rowid": "1050463",
    "final_x": "3704834.3322",
    "final_y": "560651.230686",
    "longitude": "-89.99331375577279",
    "latitude": "30.034866524782025",
    "geocoded_column": {
      "latitude": "30.034866524782025",
      "longitude": "-89.99331375577279"
    }
  },
  {
    "service_request": "2023-1050462",
    "request_type": "Trash/Recycling",
    "request_reason": "Return Recycling Cart",
    "date_created": "2023-11-16T13:07:05.000",
    "date_modified": "2023-11-16T13:07:34.000",
    "request_status": "Pending",
    "responsible_agency": "Department of Sanitation",
    "final_address": "3310 State Street Dr",
    "address_councildis": "A",
    "status": "Pending",
    "rowid": "1050462",
    "final_x": "3667629.38977",
    "final_y": "528395.369152",
    "longitude": "-90.11197403391398",
    "latitude": "29.947317823208003",
    "geocoded_column": {
      "latitude": "29.947317823208003",
      "longitude": "-90.11197403391398"
    }
  },
  {
    "service_request": "2023-1050461",
    "request_type": "Roads/Drainage",
    "request_reason": "Road Shoulder Repair",
    "date_created": "2023-11-16T13:04:41.000",
    "date_modified": "2023-11-16T13:04:41.000",
    "request_status": "Pending",
    "responsible_agency": "Department of Public Works",
    "final_address": "723 N Salcedo St",
    "address_councildis": "A",
    "status": "Pending",
    "rowid": "1050461",
    "final_x": "3675522.91835",
    "final_y": "538038.875913",
    "longitude": "-90.08671986775683",
    "latitude": "29.97360051538253",
    "geocoded_column": {
      "latitude": "29.97360051538253",
      "longitude": "-90.08671986775683"
    }
  },
  {
    "service_request": "2023-1050459",
    "request_type": "Trash/Recycling",
    "request_reason": "Missed Trash Pick-Up",
    "date_created": "2023-11-16T12:56:05.000",
    "date_modified": "2023-11-16T12:56:06.000",
    "request_status": "Pending",
    "responsible_agency": "Department of Sanitation",
    "final_address": "4737 Bright Dr",
    "address_councildis": "E",
    "status": "Assigned to Contractor",
    "contractor": "Waste Pro",
    "rowid": "1050459",
    "final_x": "3715897.24428",
    "final_y": "556961.224922",
    "longitude": "-89.9584935773793",
    "latitude": "30.024360106471935",
    "geocoded_column": {
      "latitude": "30.024360106471935",
      "longitude": "-89.9584935773793"
    }
  },
  {
    "service_request": "2023-1050458",
    "request_type": "Abandoned Vehicles",
    "request_reason": "Abandoned/Junk Vehicles",
    "date_created": "2023-11-16T12:55:10.000",
    "date_modified": "2023-11-16T12:55:11.000",
    "request_status": "Pending",
    "responsible_agency": "Department of Public Works",
    "final_address": "4433 Chestnut St",
    "address_councildis": "B",
    "status": "Pending",
    "rowid": "1050458",
    "final_x": "3670619.92859",
    "final_y": "519525.034999",
    "longitude": "-90.10283250192482",
    "latitude": "29.92283927637546",
    "geocoded_column": {
      "latitude": "29.92283927637546",
      "longitude": "-90.10283250192482"
    }
  },
  {
    "service_request": "2023-1050457",
    "request_type": "Property Maintenance",
    "request_reason": "Property Maintenance",
    "date_created": "2023-11-16T12:54:32.000",
    "date_modified": "2023-11-16T12:54:33.000",
    "request_status": "Pending",
    "responsible_agency": "Department of Code Enforcement",
    "final_address": "501 Park Blvd",
    "address_councildis": "C",
    "status": "Pending",
    "rowid": "1050457",
    "final_x": "3687213.93314",
    "final_y": "525782.593469",
    "longitude": "-90.05023069072774",
    "latitude": "29.93954504478847",
    "geocoded_column": {
      "latitude": "29.93954504478847",
      "longitude": "-90.05023069072774"
    }
  },
  {
    "service_request": "2023-1050456",
    "request_type": "Roads/Drainage",
    "request_reason": "Man hole cover issue",
    "date_created": "2023-11-16T12:53:09.000",
    "date_modified": "2023-11-16T12:53:09.000",
    "request_status": "Pending",
    "responsible_agency": "Department of Public Works",
    "final_address": "N GALVEZ ST & CHOCTAW ST",
    "address_councildis": "E",
    "status": "Pending",
    "rowid": "1050456",
    "final_x": "3698423.9",
    "final_y": "537660.18",
    "longitude": "-90.01440788547147",
    "latitude": "29.971854287030173",
    "geocoded_column": {
      "latitude": "29.971854287030173",
      "longitude": "-90.01440788547147"
    }
  },
  {
    "service_request": "2023-1050454",
    "request_type": "Abandoned Vehicles",
    "request_reason": "Abandoned/Junk Vehicles",
    "date_created": "2023-11-16T12:51:52.000",
    "date_modified": "2023-11-16T12:51:52.000",
    "request_status": "Pending",
    "responsible_agency": "Department of Public Works",
    "final_address": "1428 Joseph St",
    "address_councildis": "A",
    "status": "Pending",
    "rowid": "1050454",
    "final_x": "3666579.18465",
    "final_y": "521175.954681",
    "longitude": "-90.11553220434062",
    "latitude": "29.92749748263231",
    "geocoded_column": {
      "latitude": "29.92749748263231",
      "longitude": "-90.11553220434062"
    }
  },
  {
    "service_request": "2023-1050453",
    "request_type": "Roads/Drainage",
    "request_reason": "Damaged Sidewalk",
    "date_created": "2023-11-16T12:50:14.000",
    "date_modified": "2023-11-16T15:52:13.000",
    "request_status": "Pending",
    "responsible_agency": "Department of Public Works",
    "final_address": "5744 St Anthony Ave",
    "address_councildis": "D",
    "status": "Inspected",
    "rowid": "1050453",
    "final_x": "3681948.80911",
    "final_y": "554282.529944",
    "longitude": "-90.06585808816473",
    "latitude": "30.018070993307653",
    "geocoded_column": {
      "latitude": "30.018070993307653",
      "longitude": "-90.06585808816473"
    }
  },
  {
    "service_request": "2023-1050452",
    "request_type": "Trash/Recycling",
    "request_reason": "Request a Large Item Pick Up",
    "date_created": "2023-11-16T12:49:49.000",
    "date_modified": "2023-11-16T12:56:45.000",
    "case_close_date": "2023-11-16T06:56:45.000",
    "request_status": "Closed",
    "responsible_agency": "Department of Sanitation",
    "final_address": "1422 St Roch Ave",
    "address_councildis": "C",
    "status": "Assigned to Contractor",
    "contractor": "IV Waste",
    "contractor_action": "Completed",
    "rowid": "1050452",
    "final_x": "3686300.40393",
    "final_y": "537709.86132",
    "longitude": "-90.05269396075285",
    "latitude": "29.97236903268737",
    "geocoded_column": {
      "latitude": "29.97236903268737",
      "longitude": "-90.05269396075285"
    }
  },
  {
    "service_request": "2023-1050451",
    "request_type": "Abandoned Vehicles",
    "request_reason": "Abandoned/Junk Vehicles",
    "date_created": "2023-11-16T12:49:25.000",
    "date_modified": "2023-11-16T12:49:25.000",
    "request_status": "Pending",
    "responsible_agency": "Department of Public Works",
    "final_address": "1428 Joseph St",
    "address_councildis": "A",
    "status": "Pending",
    "rowid": "1050451",
    "final_x": "3666579.18465",
    "final_y": "521175.954681",
    "longitude": "-90.11553220434062",
    "latitude": "29.92749748263231",
    "geocoded_column": {
      "latitude": "29.92749748263231",
      "longitude": "-90.11553220434062"
    }
  },
  {
    "service_request": "2023-1050450",
    "request_type": "Roads/Drainage",
    "request_reason": "Pothole",
    "date_created": "2023-11-16T12:46:16.000",
    "date_modified": "2023-11-16T15:56:30.000",
    "request_status": "Pending",
    "responsible_agency": "Department of Public Works",
    "final_address": "5744 St Anthony Ave",
    "address_councildis": "D",
    "status": "Inspected",
    "rowid": "1050450",
    "final_x": "3681948.80911",
    "final_y": "554282.529944",
    "longitude": "-90.06585808816473",
    "latitude": "30.018070993307653",
    "geocoded_column": {
      "latitude": "30.018070993307653",
      "longitude": "-90.06585808816473"
    }
  },
  {
    "service_request": "2023-1050449",
    "request_type": "Property Maintenance",
    "request_reason": "Property Maintenance",
    "date_created": "2023-11-16T12:37:19.000",
    "date_modified": "2023-11-16T12:37:20.000",
    "request_status": "Pending",
    "responsible_agency": "Department of Code Enforcement",
    "final_address": "1239 Franklin Ave",
    "address_councildis": "C",
    "status": "Pending",
    "rowid": "1050449",
    "final_x": "3687319.25359",
    "final_y": "537111.4594",
    "longitude": "-90.0494974388826",
    "latitude": "29.97069228709107",
    "geocoded_column": {
      "latitude": "29.97069228709107",
      "longitude": "-90.0494974388826"
    }
  },
  {
    "service_request": "2023-1050448",
    "request_type": "Traffic Signals/Signs/Striping/Streetlights",
    "request_reason": "Street Light Outage/Malfunction",
    "date_created": "2023-11-16T12:32:48.000",
    "date_modified": "2023-11-16T12:32:49.000",
    "request_status": "Pending",
    "responsible_agency": "Department of Public Works",
    "final_address": "249 Downs St",
    "address_councildis": "A",
    "status": "Assigned to Contractor",
    "contractor": "Legacy Professional Services",
    "rowid": "1050448",
    "final_x": "3667377.71949",
    "final_y": "553227.247831",
    "longitude": "-90.11193291602899",
    "latitude": "30.01560447350676",
    "geocoded_column": {
      "latitude": "30.01560447350676",
      "longitude": "-90.11193291602899"
    }
  },
  {
    "service_request": "2023-1050447",
    "request_type": "Traffic Signals/Signs/Striping/Streetlights",
    "request_reason": "Street Light Outage/Malfunction",
    "date_created": "2023-11-16T12:31:24.000",
    "date_modified": "2023-11-16T12:31:25.000",
    "request_status": "Pending",
    "responsible_agency": "Department of Public Works",
    "final_address": "324 Opelousas Ave",
    "address_councildis": "C",
    "status": "Assigned to Contractor",
    "contractor": "Legacy Professional Services",
    "rowid": "1050447",
    "final_x": "3686374.54095",
    "final_y": "529118.557504",
    "longitude": "-90.05276305498681",
    "latitude": "29.948743633988588",
    "geocoded_column": {
      "latitude": "29.948743633988588",
      "longitude": "-90.05276305498681"
    }
  },
  {
    "service_request": "2023-1050446",
    "request_type": "Trash/Recycling",
    "request_reason": "Repair Trash Cart",
    "date_created": "2023-11-16T12:27:56.000",
    "date_modified": "2023-11-16T12:27:57.000",
    "request_status": "Pending",
    "responsible_agency": "Department of Sanitation",
    "final_address": "216 26Th St",
    "address_councildis": "A",
    "status": "Assigned to Contractor",
    "contractor": "IV Waste",
    "rowid": "1050446",
    "final_x": "3665632.3232",
    "final_y": "549855.217556",
    "longitude": "-90.11756063617895",
    "latitude": "30.006383607243574",
    "geocoded_column": {
      "latitude": "30.006383607243574",
      "longitude": "-90.11756063617895"
    }
  },
  {
    "service_request": "2023-1050444",
    "request_type": "Trash/Recycling",
    "request_reason": "Illegal Dumping",
    "date_created": "2023-11-16T12:19:40.000",
    "date_modified": "2023-11-16T12:19:40.000",
    "request_status": "Pending",
    "responsible_agency": "Department of Sanitation",
    "final_address": "4015 Ulloa St",
    "address_councildis": "A",
    "status": "Pending",
    "rowid": "1050444",
    "final_x": "3669964.54945",
    "final_y": "536293.755335",
    "longitude": "-90.1043335432278",
    "latitude": "29.96896712653616",
    "geocoded_column": {
      "latitude": "29.96896712653616",
      "longitude": "-90.1043335432278"
    }
  },
  {
    "service_request": "2023-1050443",
    "request_type": "Trash/Recycling",
    "request_reason": "Request a Large Item Pick Up",
    "date_created": "2023-11-16T12:17:05.000",
    "date_modified": "2023-11-16T12:17:05.000",
    "request_status": "Pending",
    "responsible_agency": "Department of Sanitation",
    "final_address": "7160 Deanne St",
    "address_councildis": "D",
    "status": "Assigned to Contractor",
    "contractor": "Waste Pro",
    "rowid": "1050443",
    "final_x": "3695366.92451",
    "final_y": "556997.46377",
    "longitude": "-90.02336407005002",
    "latitude": "30.025121095238553",
    "geocoded_column": {
      "latitude": "30.025121095238553",
      "longitude": "-90.02336407005002"
    }
  },
  {
    "service_request": "2023-1050442",
    "request_type": "Trash/Recycling",
    "request_reason": "Order Recycling Cart",
    "date_created": "2023-11-16T12:16:48.000",
    "date_modified": "2023-11-16T12:16:48.000",
    "request_status": "Pending",
    "responsible_agency": "Department of Sanitation",
    "final_address": "6969 Whitmore Pl",
    "address_councildis": "E",
    "status": "Pending",
    "rowid": "1050442",
    "final_x": "3719302.2933",
    "final_y": "568993.26327",
    "longitude": "-89.94727447843022",
    "latitude": "30.057330525250034",
    "geocoded_column": {
      "latitude": "30.057330525250034",
      "longitude": "-89.94727447843022"
    }
  },
  {
    "service_request": "2023-1050441",
    "request_type": "Property Maintenance",
    "request_reason": "Property Maintenance",
    "date_created": "2023-11-16T12:10:32.000",
    "date_modified": "2023-11-16T12:10:33.000",
    "request_status": "Pending",
    "responsible_agency": "Department of Code Enforcement",
    "final_address": "505 S Olympia St",
    "address_councildis": "A",
    "status": "Pending",
    "rowid": "1050441",
    "final_x": "3668336.94209",
    "final_y": "538334.301513",
    "longitude": "-90.10940481815352",
    "latitude": "29.97462584702134",
    "geocoded_column": {
      "latitude": "29.97462584702134",
      "longitude": "-90.10940481815352"
    }
  },
  {
    "service_request": "2023-1050440",
    "request_type": "Trash/Recycling",
    "request_reason": "Replace Trash Cart",
    "date_created": "2023-11-16T12:02:22.000",
    "date_modified": "2023-11-16T12:02:23.000",
    "request_status": "Pending",
    "responsible_agency": "Department of Sanitation",
    "final_address": "1818 Napoleon Ave",
    "address_councildis": "B",
    "status": "Assigned to Contractor",
    "contractor": "Richards Disposal",
    "rowid": "1050440",
    "final_x": "3670650.28308",
    "final_y": "521770.186426",
    "longitude": "-90.10266056691204",
    "latitude": "29.929011829867303",
    "geocoded_column": {
      "latitude": "29.929011829867303",
      "longitude": "-90.10266056691204"
    }
  },
  {
    "service_request": "2023-1050439",
    "request_type": "Mosquito, Termite & Rodent Control",
    "request_reason": "Rodent Complaint (Rats)",
    "date_created": "2023-11-16T11:58:37.000",
    "date_modified": "2023-11-16T11:58:38.000",
    "request_status": "Pending",
    "responsible_agency": "Mosquito, Termite & Rodent Control Board",
    "final_address": "2658 George Nick Connor Dr",
    "address_councildis": "D",
    "status": "Pending",
    "rowid": "1050439",
    "final_x": "3681022.48514",
    "final_y": "542081.249804",
    "longitude": "-90.06921022940638",
    "latitude": "29.98454997263202",
    "geocoded_column": {
      "latitude": "29.98454997263202",
      "longitude": "-90.06921022940638"
    }
  },
  {
    "service_request": "2023-1050438",
    "request_type": "Trash/Recycling",
    "request_reason": "Replace Trash Cart",
    "date_created": "2023-11-16T11:54:48.000",
    "date_modified": "2023-11-16T11:54:49.000",
    "request_status": "Pending",
    "responsible_agency": "Department of Sanitation",
    "final_address": "1535 Annunciation St",
    "address_councildis": "B",
    "status": "Assigned to Contractor",
    "contractor": "Richards Disposal",
    "rowid": "1050438",
    "final_x": "3680760.96853",
    "final_y": "523405.708987",
    "longitude": "-90.07068625480736",
    "latitude": "29.933206512920485",
    "geocoded_column": {
      "latitude": "29.933206512920485",
      "longitude": "-90.07068625480736"
    }
  },
  {
    "service_request": "2023-1050436",
    "request_type": "Trash/Recycling",
    "request_reason": "Request a Large Item Pick Up",
    "date_created": "2023-11-16T11:53:08.000",
    "date_modified": "2023-11-16T11:53:08.000",
    "request_status": "Pending",
    "responsible_agency": "Department of Sanitation",
    "final_address": "5100 BLK Urquhart St",
    "address_councildis": "E",
    "status": "Assigned to Contractor",
    "contractor": "Waste Pro",
    "rowid": "1050436",
    "final_x": "3696592.07036",
    "final_y": "534890.954612",
    "longitude": "-90.02029327897075",
    "latitude": "29.964297755672924",
    "geocoded_column": {
      "latitude": "29.964297755672924",
      "longitude": "-90.02029327897075"
    }
  },
  {
    "service_request": "2023-1050435",
    "request_type": "Roads/Drainage",
    "request_reason": "Pothole",
    "date_created": "2023-11-16T11:51:55.000",
    "date_modified": "2023-11-16T11:51:55.000",
    "request_status": "Pending",
    "responsible_agency": "Department of Public Works",
    "final_address": "1427 General Pershing St",
    "address_councildis": "B",
    "status": "Pending",
    "rowid": "1050435",
    "final_x": "3671330.17102",
    "final_y": "520583.22316",
    "longitude": "-90.10055460321166",
    "latitude": "29.92572796471359",
    "geocoded_column": {
      "latitude": "29.92572796471359",
      "longitude": "-90.10055460321166"
    }
  },
  {
    "service_request": "2023-1050434",
    "request_type": "Trash/Recycling",
    "request_reason": "Order Recycling Cart",
    "date_created": "2023-11-16T11:50:23.000",
    "date_modified": "2023-11-16T11:50:24.000",
    "request_status": "Pending",
    "responsible_agency": "Department of Sanitation",
    "final_address": "13080 Maple Wood Dr",
    "address_councildis": "E",
    "status": "Pending",
    "rowid": "1050434",
    "final_x": "3723820.73247",
    "final_y": "563644.669153",
    "longitude": "-89.93319908453847",
    "latitude": "30.042473058641562",
    "geocoded_column": {
      "latitude": "30.042473058641562",
      "longitude": "-89.93319908453847"
    }
  },
  {
    "service_request": "2023-1050433",
    "request_type": "Roads/Drainage",
    "request_reason": "Accessibility Ramps, Curbs and Sidewalk Repair",
    "date_created": "2023-11-16T11:49:21.000",
    "date_modified": "2023-11-16T11:49:22.000",
    "request_status": "Pending",
    "responsible_agency": "Department of Public Works",
    "final_address": "4012 Clermont Dr",
    "address_councildis": "D",
    "status": "Pending",
    "rowid": "1050433",
    "final_x": "3684997.44316",
    "final_y": "547089.589073",
    "longitude": "-90.05647883174254",
    "latitude": "29.99819994238771",
    "geocoded_column": {
      "latitude": "29.99819994238771",
      "longitude": "-90.05647883174254"
    }
  },
  {
    "service_request": "2023-1050432",
    "request_type": "Trash/Recycling",
    "request_reason": "Repair Trash Cart",
    "date_created": "2023-11-16T11:48:12.000",
    "date_modified": "2023-11-16T11:48:13.000",
    "request_status": "Pending",
    "responsible_agency": "Department of Sanitation",
    "final_address": "4729 Camp St",
    "address_councildis": "B",
    "status": "Assigned to Contractor",
    "contractor": "Richards Disposal",
    "rowid": "1050432",
    "final_x": "3669656.9042",
    "final_y": "519054.292855",
    "longitude": "-90.10588831784725",
    "latitude": "29.921573286137974",
    "geocoded_column": {
      "latitude": "29.921573286137974",
      "longitude": "-90.10588831784725"
    }
  },
  {
    "service_request": "2023-1050431",
    "request_type": "Trash/Recycling",
    "request_reason": "Illegal Dumping",
    "date_created": "2023-11-16T11:45:38.000",
    "date_modified": "2023-11-16T11:46:33.000",
    "request_status": "Pending",
    "responsible_agency": "Department of Sanitation",
    "final_address": "4425 Skyview Dr",
    "address_councildis": "D",
    "status": "Pending",
    "rowid": "1050431",
    "final_x": "3696892.04983",
    "final_y": "552701.410198",
    "longitude": "-90.01870068283246",
    "latitude": "30.01326054303281",
    "geocoded_column": {
      "latitude": "30.01326054303281",
      "longitude": "-90.01870068283246"
    }
  },
  {
    "service_request": "2023-1050430",
    "request_type": "Trash/Recycling",
    "request_reason": "Dead Animal Pick Up",
    "date_created": "2023-11-16T11:45:13.000",
    "date_modified": "2023-11-16T11:48:52.000",
    "case_close_date": "2023-11-16T05:48:52.000",
    "request_status": "Closed",
    "responsible_agency": "Department of Sanitation",
    "final_address": "400 BLK Barracks St",
    "address_councildis": "C",
    "status": "Assigned to Contractor",
    "contractor": "Empire Services",
    "contractor_action": "Completed",
    "rowid": "1050430",
    "final_x": "3684560.5416",
    "final_y": "533661.200838",
    "longitude": "-90.05833101640208",
    "latitude": "29.961289970973347",
    "geocoded_column": {
      "latitude": "29.961289970973347",
      "longitude": "-90.05833101640208"
    }
  },
  {
    "service_request": "2023-1050429",
    "request_type": "Trash/Recycling",
    "request_reason": "Dead Animal Pick Up",
    "date_created": "2023-11-16T11:43:23.000",
    "date_modified": "2023-11-16T11:43:41.000",
    "case_close_date": "2023-11-16T05:43:41.000",
    "request_status": "Closed",
    "responsible_agency": "Department of Sanitation",
    "final_address": "508 Burgundy St",
    "address_councildis": "C",
    "status": "Assigned to Contractor",
    "contractor": "Empire Services",
    "contractor_action": "Completed",
    "rowid": "1050429",
    "final_x": "3681318.69186",
    "final_y": "532566.0441",
    "longitude": "-90.06860636964035",
    "latitude": "29.958377452662052",
    "geocoded_column": {
      "latitude": "29.958377452662052",
      "longitude": "-90.06860636964035"
    }
  },
  {
    "service_request": "2023-1050428",
    "request_type": "Traffic Signals/Signs/Striping/Streetlights",
    "request_reason": "Street Light Outage/Malfunction",
    "date_created": "2023-11-16T11:42:35.000",
    "date_modified": "2023-11-16T11:42:36.000",
    "request_status": "Pending",
    "responsible_agency": "Department of Public Works",
    "final_address": "1211 Henry Clay Ave",
    "address_councildis": "A",
    "status": "Assigned to Contractor",
    "contractor": "Legacy Professional Services",
    "rowid": "1050428",
    "final_x": "3664409.52084",
    "final_y": "520938.285305",
    "longitude": "-90.12238925882336",
    "latitude": "29.926907193728507",
    "geocoded_column": {
      "latitude": "29.926907193728507",
      "longitude": "-90.12238925882336"
    }
  },
  {
    "service_request": "2023-1050427",
    "request_type": "Trash/Recycling",
    "request_reason": "Dead Animal Pick Up",
    "date_created": "2023-11-16T11:42:15.000",
    "date_modified": "2023-11-16T11:42:29.000",
    "case_close_date": "2023-11-16T05:42:29.000",
    "request_status": "Closed",
    "responsible_agency": "Department of Sanitation",
    "final_address": "828 Burgundy St",
    "address_councildis": "C",
    "status": "Assigned to Contractor",
    "contractor": "Empire Services",
    "contractor_action": "Completed",
    "rowid": "1050427",
    "final_x": "3682087.54978",
    "final_y": "533591.472645",
    "longitude": "-90.06614271572252",
    "latitude": "29.961173674403632",
    "geocoded_column": {
      "latitude": "29.961173674403632",
      "longitude": "-90.06614271572252"
    }
  },
  {
    "service_request": "2023-1050426",
    "request_type": "Roads/Drainage",
    "request_reason": "Man hole cover issue",
    "date_created": "2023-11-16T11:41:43.000",
    "date_modified": "2023-11-16T11:41:43.000",
    "request_status": "Pending",
    "responsible_agency": "Department of Public Works",
    "final_address": "333 Poydras St",
    "address_councildis": "B",
    "status": "Pending",
    "rowid": "1050426",
    "final_x": "3682119.68354",
    "final_y": "529146.713216",
    "longitude": "-90.0661964585987",
    "latitude": "29.94895111751747",
    "geocoded_column": {
      "latitude": "29.94895111751747",
      "longitude": "-90.0661964585987"
    }
  },
  {
    "service_request": "2023-1050425",
    "request_type": "Trash/Recycling",
    "request_reason": "Dead Animal Pick Up",
    "date_created": "2023-11-16T11:40:50.000",
    "date_modified": "2023-11-16T11:41:06.000",
    "case_close_date": "2023-11-16T05:41:06.000",
    "request_status": "Closed",
    "responsible_agency": "Department of Sanitation",
    "final_address": "816 Burgundy St",
    "address_councildis": "C",
    "status": "Assigned to Contractor",
    "contractor": "Empire Services",
    "contractor_action": "Completed",
    "rowid": "1050425",
    "final_x": "3682001.43093",
    "final_y": "533486.753668",
    "longitude": "-90.06641831953173",
    "latitude": "29.960888351467368",
    "geocoded_column": {
      "latitude": "29.960888351467368",
      "longitude": "-90.06641831953173"
    }
  },
  {
    "service_request": "2023-1050424",
    "request_type": "Trash/Recycling",
    "request_reason": "Dead Animal Pick Up",
    "date_created": "2023-11-16T11:39:30.000",
    "date_modified": "2023-11-16T11:39:59.000",
    "case_close_date": "2023-11-16T05:39:59.000",
    "request_status": "Closed",
    "responsible_agency": "Department of Sanitation",
    "final_address": "824 Burgundy St",
    "address_councildis": "C",
    "status": "Assigned to Contractor",
    "contractor": "Empire Services",
    "contractor_action": "Completed",
    "rowid": "1050424",
    "final_x": "3682061.59221",
    "final_y": "533557.834053",
    "longitude": "-90.06622585963966",
    "latitude": "29.961081969079178",
    "geocoded_column": {
      "latitude": "29.961081969079178",
      "longitude": "-90.06622585963966"
    }
  },
  {
    "service_request": "2023-1050423",
    "request_type": "Trash/Recycling",
    "request_reason": "Dead Animal Pick Up",
    "date_created": "2023-11-16T11:37:57.000",
    "date_modified": "2023-11-16T11:38:11.000",
    "case_close_date": "2023-11-16T05:38:11.000",
    "request_status": "Closed",
    "responsible_agency": "Department of Sanitation",
    "final_address": "741 Dumaine St",
    "address_councildis": "C",
    "status": "Assigned to Contractor",
    "contractor": "Empire Services",
    "contractor_action": "Completed",
    "rowid": "1050423",
    "final_x": "3682756.53839",
    "final_y": "533263.982404",
    "longitude": "-90.06404162840688",
    "latitude": "29.96025282830969",
    "geocoded_column": {
      "latitude": "29.96025282830969",
      "longitude": "-90.06404162840688"
    }
  },
  {
    "service_request": "2023-1050422",
    "request_type": "Trash/Recycling",
    "request_reason": "Dead Animal Pick Up",
    "date_created": "2023-11-16T11:36:52.000",
    "date_modified": "2023-11-16T11:37:04.000",
    "case_close_date": "2023-11-16T05:37:04.000",
    "request_status": "Closed",
    "responsible_agency": "Department of Sanitation",
    "final_address": "731 Dauphine St",
    "address_councildis": "C",
    "status": "Assigned to Contractor",
    "contractor": "Empire Services",
    "contractor_action": "Completed",
    "rowid": "1050422",
    "final_x": "3682118.77148",
    "final_y": "533149.01946",
    "longitude": "-90.06605957588707",
    "latitude": "29.959956129820213",
    "geocoded_column": {
      "latitude": "29.959956129820213",
      "longitude": "-90.06605957588707"
    }
  },
  {
    "service_request": "2023-1050421",
    "request_type": "Trash/Recycling",
    "request_reason": "Dead Animal Pick Up",
    "date_created": "2023-11-16T11:35:19.000",
    "date_modified": "2023-11-16T11:49:08.000",
    "case_close_date": "2023-11-16T05:49:08.000",
    "request_status": "Closed",
    "responsible_agency": "Department of Sanitation",
    "final_address": "920 St Louis St",
    "address_councildis": "C",
    "status": "Assigned to Contractor",
    "contractor": "Empire Services",
    "contractor_action": "Completed",
    "rowid": "1050421",
    "final_x": "3681373.24354",
    "final_y": "532377.667651",
    "longitude": "-90.06844067667576",
    "latitude": "29.9578578257421",
    "geocoded_column": {
      "latitude": "29.9578578257421",
      "longitude": "-90.06844067667576"
    }
  },
  {
    "service_request": "2023-1050420",
    "request_type": "Trash/Recycling",
    "request_reason": "Dead Animal Pick Up",
    "date_created": "2023-11-16T11:33:52.000",
    "date_modified": "2023-11-16T11:34:06.000",
    "case_close_date": "2023-11-16T05:34:06.000",
    "request_status": "Closed",
    "responsible_agency": "Department of Sanitation",
    "final_address": "924 Dumaine St",
    "address_councildis": "C",
    "status": "Assigned to Contractor",
    "contractor": "Empire Services",
    "contractor_action": "Completed",
    "rowid": "1050420",
    "final_x": "3682250.11592",
    "final_y": "533590.834501",
    "longitude": "-90.06562938395369",
    "latitude": "29.961166975311965",
    "geocoded_column": {
      "latitude": "29.961166975311965",
      "longitude": "-90.06562938395369"
    }
  },
  {
    "service_request": "2023-1050419",
    "request_type": "Trash/Recycling",
    "request_reason": "Dead Animal Pick Up",
    "date_created": "2023-11-16T11:32:48.000",
    "date_modified": "2023-11-16T11:33:02.000",
    "case_close_date": "2023-11-16T05:33:02.000",
    "request_status": "Closed",
    "responsible_agency": "Department of Sanitation",
    "final_address": "535 Madison St",
    "address_councildis": "C",
    "status": "Assigned to Contractor",
    "contractor": "Empire Services",
    "contractor_action": "Completed",
    "rowid": "1050419",
    "final_x": "3683291.09045",
    "final_y": "532639.222596",
    "longitude": "-90.06237550993669",
    "latitude": "29.958518659782698",
    "geocoded_column": {
      "latitude": "29.958518659782698",
      "longitude": "-90.06237550993669"
    }
  },
  {
    "service_request": "2023-1050418",
    "request_type": "Trash/Recycling",
    "request_reason": "Missed Trash Pick-Up",
    "date_created": "2023-11-16T11:32:07.000",
    "date_modified": "2023-11-16T11:32:07.000",
    "request_status": "Pending",
    "responsible_agency": "Department of Sanitation",
    "final_address": "407 Decatur St",
    "address_councildis": "C",
    "status": "Assigned to Contractor",
    "contractor": "Empire Services",
    "rowid": "1050418",
    "final_x": "3682508.81717",
    "final_y": "531196.904066",
    "longitude": "-90.06489613715388",
    "latitude": "29.954576610090637",
    "geocoded_column": {
      "latitude": "29.954576610090637",
      "longitude": "-90.06489613715388"
    }
  },
  {
    "service_request": "2023-1050417",
    "request_type": "Trash/Recycling",
    "request_reason": "Dead Animal Pick Up",
    "date_created": "2023-11-16T11:31:33.000",
    "date_modified": "2023-11-16T11:31:46.000",
    "case_close_date": "2023-11-16T05:31:46.000",
    "request_status": "Closed",
    "responsible_agency": "Department of Sanitation",
    "final_address": "732 Burgundy St",
    "address_councildis": "C",
    "status": "Assigned to Contractor",
    "contractor": "Empire Services",
    "contractor_action": "Completed",
    "rowid": "1050417",
    "final_x": "3681889.35183",
    "final_y": "533330.28922",
    "longitude": "-90.06677770517858",
    "latitude": "29.96046153460713",
    "geocoded_column": {
      "latitude": "29.96046153460713",
      "longitude": "-90.06677770517858"
    }
  },
  {
    "service_request": "2023-1050416",
    "request_type": "Trash/Recycling",
    "request_reason": "Request a Large Item Pick Up",
    "date_created": "2023-11-16T11:31:12.000",
    "date_modified": "2023-11-16T11:31:13.000",
    "request_status": "Pending",
    "responsible_agency": "Department of Sanitation",
    "final_address": "7227 Beryl St",
    "address_councildis": "D",
    "status": "Assigned to Contractor",
    "contractor": "IV Waste",
    "rowid": "1050416",
    "final_x": "3668651.70638",
    "final_y": "555568.976089",
    "longitude": "-90.10782855505282",
    "latitude": "30.022005994650225",
    "geocoded_column": {
      "latitude": "30.022005994650225",
      "longitude": "-90.10782855505282"
    }
  },
  {
    "service_request": "2023-1050415",
    "request_type": "Trash/Recycling",
    "request_reason": "Dead Animal Pick Up",
    "date_created": "2023-11-16T11:30:25.000",
    "date_modified": "2023-11-16T11:30:39.000",
    "case_close_date": "2023-11-16T05:30:39.000",
    "request_status": "Closed",
    "responsible_agency": "Department of Sanitation",
    "final_address": "508 Burgundy St",
    "address_councildis": "C",
    "status": "Assigned to Contractor",
    "contractor": "Empire Services",
    "contractor_action": "Completed",
    "rowid": "1050415",
    "final_x": "3681318.69186",
    "final_y": "532566.0441",
    "longitude": "-90.06860636964035",
    "latitude": "29.958377452662052",
    "geocoded_column": {
      "latitude": "29.958377452662052",
      "longitude": "-90.06860636964035"
    }
  },
  {
    "service_request": "2023-1050414",
    "request_type": "Trash/Recycling",
    "request_reason": "Request a Large Item Pick Up",
    "date_created": "2023-11-16T11:30:08.000",
    "date_modified": "2023-11-16T11:30:08.000",
    "request_status": "Pending",
    "responsible_agency": "Department of Sanitation",
    "final_address": "2718 Republic St",
    "address_councildis": "D",
    "status": "Assigned to Contractor",
    "contractor": "IV Waste",
    "rowid": "1050414",
    "final_x": "3680671.37346",
    "final_y": "542491.527181",
    "longitude": "-90.07030495185043",
    "latitude": "29.985688738046278",
    "geocoded_column": {
      "latitude": "29.985688738046278",
      "longitude": "-90.07030495185043"
    }
  },