[
  {
    "service_request": "2022-860726",
    "request_type": "Trash/Recycling",
    "request_reason": "Request a Large Item Pick Up",
    "date_created": "2022-02-14T00:44:05.000",
    "date_modified": "2022-02-14T00:44:05.000",
    "request_status": "Pending",
    "responsible_agency": "Department of Sanitation",
    "final_address": "8521 Morrison Rd",
    "address_councildis": "E",
    "status": "Assigned to Contractor",
    "contractor": "Metro Disposal",
    "rowid": "860726",
    "final_x": "3704443.51031",
    "final_y": "561369.103262",
    "longitude": "-89.99452229678239",
    "latitude": "30.036852954107587",
    "geocoded_column": {
      "latitude": "30.036852954107587",
      "longitude": "-89.99452229678239"
    }
  },
  {
    "service_request": "2022-860725",
    "request_type": "Parks & Parkways",
    "request_reason": "Request Grass Cutting Service (City Owned Property)",
    "date_created": "2022-02-14T00:14:38.000",
    "date_modified": "2022-02-14T00:14:38.000",
    "request_status": "Pending",
    "responsible_agency": "Department of Parks & Parkway",
    "final_address": "4943 Coronado Dr",
    "address_councildis": "E",
    "status": "Pending",
    "rowid": "860725",
    "final_x": "3714073.95448",
    "final_y": "557646.443803",
    "longitude": "-89.96422891170783",
    "latitude": "30.026304213752567",
    "geocoded_column": {
      "latitude": "30.026304213752567",
      "longitude": "-89.96422891170783"
    }
  },
  {
    "service_request": "2022-860724",
    "request_type": "Traffic Signals/Signs/Striping/Streetlights",
    "request_reason": "Street Light Outage/Malfunction",
    "date_created": "2022-02-13T22:25:28.000",
    "date_modified": "2022-02-13T22:25:29.000",
    "request_status": "Pending",
    "responsible_agency": "Department of Public Works",
    "final_address": "938 Jourdan Ave",
    "address_councildis": "E",
    "status": "Pending",
    "contractor": "Royal Engineering",
    "rowid": "860724",
    "final_x": "3694814.05283",
    "final_y": "534034.842821",
    "longitude": "-90.02593893329619",
    "latitude": "29.9619996542102",
    "geocoded_column": {
      "latitude": "29.9619996542102",
      "longitude": "-90.02593893329619"
    }
  },
  {
    "service_request": "2022-860723",
    "request_type": "Trash/Recycling",
    "request_reason": "Order Recycling Cart",
    "date_created": "2022-02-13T22:15:23.000",
    "date_modified": "2022-02-13T22:15:23.000",
    "request_status": "Pending",
    "responsible_agency": "Department of Sanitation",
    "final_address": "3907 Iroquois St",
    "address_councildis": "D",
    "status": "Pending",
    "rowid": "860723",
    "final_x": "3689212.431",
    "final_y": "547604.82549",
    "longitude": "-90.04314543435125",
    "latitude": "29.999486833446753",
    "geocoded_column": {
      "latitude": "29.999486833446753",
      "longitude": "-90.04314543435125"
    }
  },
  {
    "service_request": "2022-860722",
    "request_type": "Trash/Recycling",
    "request_reason": "Request a Large Item Pick Up",
    "date_created": "2022-02-13T22:07:38.000",
    "date_modified": "2022-02-13T22:07:38.000",
    "request_status": "Pending",
    "responsible_agency": "Department of Sanitation",
    "final_address": "2818 Second St",
    "address_councildis": "B",
    "status": "Assigned to Contractor",
    "contractor": "Richards Disposal",
    "rowid": "860722",
    "final_x": "3674226.31105",
    "final_y": "526706.512894",
    "longitude": "-90.09120281217933",
    "latitude": "29.94247902692",
    "geocoded_column": {
      "latitude": "29.94247902692",
      "longitude": "-90.09120281217933"
    }
  },
  {
    "service_request": "2022-860721",
    "request_type": "Traffic Signals/Signs/Striping/Streetlights",
    "request_reason": "Street Light Outage/Malfunction",
    "date_created": "2022-02-13T21:00:04.000",
    "date_modified": "2022-02-13T21:00:05.000",
    "request_status": "Pending",
    "responsible_agency": "Department of Public Works",
    "final_address": "1527 De Battista Pl",
    "address_councildis": "C",
    "status": "Pending",
    "contractor": "Royal Engineering",
    "rowid": "860721",
    "final_x": "3699714.98384",
    "final_y": "525536.219325",
    "longitude": "-90.01077241074624",
    "latitude": "29.93847676805832",
    "geocoded_column": {
      "latitude": "29.93847676805832",
      "longitude": "-90.01077241074624"
    }
  },
  {
    "service_request": "2022-860720",
    "request_type": "Traffic Signals/Signs/Striping/Streetlights",
    "request_reason": "Street Light Outage/Malfunction",
    "date_created": "2022-02-13T20:18:03.000",
    "date_modified": "2022-02-13T20:18:04.000",
    "request_status": "Pending",
    "responsible_agency": "Department of Public Works",
    "final_address": "2537 Bristol Pl",
    "address_councildis": "C",
    "status": "Pending",
    "contractor": "Royal Engineering",
    "rowid": "860720",
    "final_x": "3702567.93623",
    "final_y": "521623.281785",
    "longitude": "-90.00190895910316",
    "latitude": "29.927626700978372",
    "geocoded_column": {
      "latitude": "29.927626700978372",
      "longitude": "-90.00190895910316"
    }
  },
  {
    "service_request": "2022-860719",
    "request_type": "Abandoned Vehicles",
    "request_reason": "Vehicle Blocking Your Driveway",
    "date_created": "2022-02-13T20:06:14.000",
    "date_modified": "2022-02-13T20:06:14.000",
    "request_status": "Pending",
    "responsible_agency": "Department of Public Works",
    "final_address": "3245 Constance Street",
    "address_councildis": "B",
    "status": "Pending",
    "rowid": "860719",
    "final_x": "3675602.1892",
    "final_y": "519515.613751",
    "longitude": "-90.08710576976166",
    "latitude": "29.92266531282202",
    "geocoded_column": {
      "latitude": "29.92266531282202",
      "longitude": "-90.08710576976166"
    }
  },
  {
    "service_request": "2022-860718",
    "request_type": "Abandoned Vehicles",
    "request_reason": "Vehicle Blocking Your Driveway",
    "date_created": "2022-02-13T20:02:54.000",
    "date_modified": "2022-02-13T20:02:54.000",
    "request_status": "Pending",
    "responsible_agency": "Department of Public Works",
    "final_address": "3249 Constance Street",
    "address_councildis": "B",
    "status": "Pending",
    "rowid": "860718",
    "final_x": "3675559.06651",
    "final_y": "519489.831799",
    "longitude": "-90.0872427760935",
    "latitude": "29.92259571030201",
    "geocoded_column": {
      "latitude": "29.92259571030201",
      "longitude": "-90.0872427760935"
    }
  },
  {
    "service_request": "2022-860717",
    "request_type": "Trash/Recycling",
    "request_reason": "Replace Trash Cart",
    "date_created": "2022-02-13T18:06:21.000",
    "date_modified": "2022-02-13T18:06:22.000",
    "request_status": "Pending",
    "responsible_agency": "Department of Sanitation",
    "final_address": "5942 Durbridge Dr",
    "address_councildis": "C",
    "status": "Assigned to Contractor",
    "contractor": "Richards Disposal",
    "rowid": "860717",
    "final_x": "3705474.94033",
    "final_y": "521091.354937",
    "longitude": "-89.99275197034086",
    "latitude": "29.92607088866698",
    "geocoded_column": {
      "latitude": "29.92607088866698",
      "longitude": "-89.99275197034086"
    }
  },
  {
    "service_request": "2022-860716",
    "request_type": "Parks & Parkways",
    "request_reason": "Request Tree Service (Right of Way/Public Property)",
    "date_created": "2022-02-13T17:47:18.000",
    "date_modified": "2022-02-13T17:47:18.000",
    "request_status": "Pending",
    "responsible_agency": "Department of Parks & Parkway",
    "final_address": "4666 Wright Rd",
    "address_councildis": "E",
    "status": "Pending",
    "rowid": "860716",
    "final_x": "3716611.17253",
    "final_y": "556591.805594",
    "longitude": "-89.95625174776956",
    "latitude": "30.023320777487026",
    "geocoded_column": {
      "latitude": "30.023320777487026",
      "longitude": "-89.95625174776956"
    }
  },
  {
    "service_request": "2022-860715",
    "request_type": "Abandoned Vehicles",
    "request_reason": "Abandoned/Junk Vehicles",
    "date_created": "2022-02-13T17:42:45.000",
    "date_modified": "2022-02-13T17:42:45.000",
    "request_status": "Pending",
    "responsible_agency": "Department of Public Works",
    "final_address": "4674 Wright Rd",
    "address_councildis": "E",
    "status": "Pending",
    "rowid": "860715",
    "final_x": "3716605.09279",
    "final_y": "556648.027994",
    "longitude": "-89.95626882323849",
    "latitude": "30.023475567629692",
    "geocoded_column": {
      "latitude": "30.023475567629692",
      "longitude": "-89.95626882323849"
    }
  },
  {
    "service_request": "2022-860713",
    "request_type": "Trash/Recycling",
    "request_reason": "Start Trash Service",
    "date_created": "2022-02-13T16:50:15.000",
    "date_modified": "2022-02-13T16:50:16.000",
    "request_status": "Pending",
    "responsible_agency": "Department of Sanitation",
    "final_address": "805 Exposition Blvd",
    "address_councildis": "A",
    "status": "Assigned to Contractor",
    "contractor": "Richards Disposal",
    "rowid": "860713",
    "final_x": "3663234.1209",
    "final_y": "519908.529208",
    "longitude": "-90.12613395065918",
    "latitude": "29.92410979052288",
    "geocoded_column": {
      "latitude": "29.92410979052288",
      "longitude": "-90.12613395065918"
    }
  },
  {
    "service_request": "2022-860712",
    "request_type": "Trash/Recycling",
    "request_reason": "Request a Large Item Pick Up",
    "date_created": "2022-02-13T16:47:13.000",
    "date_modified": "2022-02-13T16:47:14.000",
    "request_status": "Pending",
    "responsible_agency": "Department of Sanitation",
    "final_address": "7917 Redfish St",
    "address_councildis": "E",
    "status": "Assigned to Contractor",
    "contractor": "Metro Disposal",
    "rowid": "860712",
    "final_x": "3698642.52983",
    "final_y": "560953.74851",
    "longitude": "-90.0128696655094",
    "latitude": "30.035895980814814",
    "geocoded_column": {
      "latitude": "30.035895980814814",
      "longitude": "-90.0128696655094"
    }
  },
  {
    "service_request": "2022-860711",
    "request_type": "Traffic Signals/Signs/Striping/Streetlights",
    "request_reason": "Street Light Outage/Malfunction",
    "date_created": "2022-02-13T16:28:08.000",
    "date_modified": "2022-02-13T16:28:09.000",
    "request_status": "Pending",
    "responsible_agency": "Department of Public Works",
    "final_address": "817 St Louis St",
    "address_councildis": "C",
    "status": "Pending",
    "contractor": "Royal Engineering",
    "rowid": "860711",
    "final_x": "3681728.39413",
    "final_y": "532189.375299",
    "longitude": "-90.06732578259236",
    "latitude": "29.957329300967153",
    "geocoded_column": {
      "latitude": "29.957329300967153",
      "longitude": "-90.06732578259236"
    }
  },
  {
    "service_request": "2022-860710",
    "request_type": "Traffic Signals/Signs/Striping/Streetlights",
    "request_reason": "Street Light Knocked Down/Leaning",
    "date_created": "2022-02-13T16:20:45.000",
    "date_modified": "2022-02-13T16:20:46.000",
    "request_status": "Pending",
    "responsible_agency": "Department of Public Works",
    "final_address": "S CARROLLTON AVE & TULANE AVE",
    "address_councildis": "A",
    "status": "Pending",
    "contractor": "Royal Engineering",
    "rowid": "860710",
    "final_x": "3669337.8",
    "final_y": "536308.78",
    "longitude": "-90.10631235722039",
    "latitude": "29.96902690865695",
    "geocoded_column": {
      "latitude": "29.96902690865695",
      "longitude": "-90.10631235722039"
    }
  },
  {
    "service_request": "2022-860709",
    "request_type": "Traffic Signals/Signs/Striping/Streetlights",
    "request_reason": "Traffic Signal Malfunctioning/Damaged",
    "date_created": "2022-02-13T16:16:44.000",
    "date_modified": "2022-02-13T16:16:44.000",
    "request_status": "Pending",
    "responsible_agency": "Department of Public Works",
    "final_address": "S CARROLLTON AVE & EARHART BLVD",
    "address_councildis": "A",
    "status": "Pending",
    "rowid": "860709",
    "final_x": "3666566.6",
    "final_y": "533372.08",
    "longitude": "-90.11516262601634",
    "latitude": "29.961033260434334",
    "geocoded_column": {
      "latitude": "29.961033260434334",
      "longitude": "-90.11516262601634"
    }
  },
  {
    "service_request": "2022-860708",
    "request_type": "Abandoned Vehicles",
    "request_reason": "Abandoned/Junk Vehicles",
    "date_created": "2022-02-13T16:05:29.000",
    "date_modified": "2022-02-13T16:05:29.000",
    "request_status": "Pending",
    "responsible_agency": "Department of Public Works",
    "final_address": "1736 Second St",
    "address_councildis": "B",
    "status": "Pending",
    "rowid": "860708",
    "final_x": "3676287.05576",
    "final_y": "523610.965627",
    "longitude": "-90.08480305765268",
    "latitude": "29.93390570177759",
    "geocoded_column": {
      "latitude": "29.93390570177759",
      "longitude": "-90.08480305765268"
    }
  },
  {
    "service_request": "2022-860707",
    "request_type": "Property Maintenance",
    "request_reason": "Property Maintenance",
    "date_created": "2022-02-13T15:52:11.000",
    "date_modified": "2022-02-13T15:52:11.000",
    "request_status": "Pending",
    "responsible_agency": "Department of Code Enforcement",
    "final_address": "1937 St Ann St",
    "address_councildis": "D",
    "status": "Pending",
    "rowid": "860707",
    "final_x": "3679243.69864",
    "final_y": "535591.551174",
    "longitude": "-90.07505372781881",
    "latitude": "29.96675938053113",
    "geocoded_column": {
      "latitude": "29.96675938053113",
      "longitude": "-90.07505372781881"
    }
  },
  {
    "service_request": "2022-860706",
    "request_type": "Property Maintenance",
    "request_reason": "Property Maintenance",
    "date_created": "2022-02-13T15:41:36.000",
    "date_modified": "2022-02-13T15:41:36.000",
    "request_status": "Pending",
    "responsible_agency": "Department of Code Enforcement",
    "final_address": "3661 Tchoupitoulas St",
    "address_councildis": "B",
    "status": "Pending",
    "rowid": "860706",
    "final_x": "3674114.70888",
    "final_y": "517807.711862",
    "longitude": "-90.09185957073232",
    "latitude": "29.91801352960331",
    "geocoded_column": {
      "latitude": "29.91801352960331",
      "longitude": "-90.09185957073232"
    }
  },
  {
    "service_request": "2022-860705",
    "request_type": "Abandoned Vehicles",
    "request_reason": "Abandoned/Junk Vehicles",
    "date_created": "2022-02-13T15:38:11.000",
    "date_modified": "2022-02-13T15:38:11.000",
    "request_status": "Pending",
    "responsible_agency": "Department of Public Works",
    "final_address": "2907 Annunciation St",
    "address_councildis": "B",
    "status": "Pending",
    "rowid": "860705",
    "final_x": "3677146.18299",
    "final_y": "519608.538808",
    "longitude": "-90.08222879094664",
    "latitude": "29.92287456210172",
    "geocoded_column": {
      "latitude": "29.92287456210172",
      "longitude": "-90.08222879094664"
    }
  },
  {
    "service_request": "2022-860704",
    "request_type": "Trash/Recycling",
    "request_reason": "Order Recycling Cart",
    "date_created": "2022-02-13T15:31:16.000",
    "date_modified": "2022-02-13T15:31:16.000",
    "request_status": "Pending",
    "responsible_agency": "Department of Sanitation",
    "final_address": "826 Rosedale Dr",
    "address_councildis": "A",
    "status": "Pending",
    "rowid": "860704",
    "final_x": "3668596.19066",
    "final_y": "541900.123596",
    "longitude": "-90.1084656603649",
    "latitude": "29.984423036041996",
    "geocoded_column": {
      "latitude": "29.984423036041996",
      "longitude": "-90.1084656603649"
    }
  },
  {
    "service_request": "2022-860703",
    "request_type": "Trash/Recycling",
    "request_reason": "Illegal Dumping",
    "date_created": "2022-02-13T15:25:30.000",
    "date_modified": "2022-02-13T15:25:30.000",
    "request_status": "Pending",
    "responsible_agency": "Department of Code Enforcement",
    "final_address": "FLOOD ST & N PRIEUR ST",
    "address_councildis": "E",
    "status": "Pending",
    "rowid": "860703",
    "final_x": "3698513.3",
    "final_y": "536827.78",
    "longitude": "-90.01415581310995",
    "latitude": "29.96956265650831",
    "geocoded_column": {
      "latitude": "29.96956265650831",
      "longitude": "-90.01415581310995"
    }
  },
  {
    "service_request": "2022-860702",
    "request_type": "Trash/Recycling",
    "request_reason": "Order Trash Cart",
    "date_created": "2022-02-13T15:19:31.000",
    "date_modified": "2022-02-13T15:19:32.000",
    "request_status": "Pending",
    "responsible_agency": "Department of Sanitation",
    "final_address": "4821 Congress Dr",
    "address_councildis": "D",
    "status": "Assigned to Contractor",
    "contractor": "Metro Disposal",
    "rowid": "860702",
    "final_x": "3692299.1567",
    "final_y": "552062.973142",
    "longitude": "-90.03323461326983",
    "latitude": "30.01164916971203",
    "geocoded_column": {
      "latitude": "30.01164916971203",
      "longitude": "-90.03323461326983"
    }
  },
  {
    "service_request": "2022-860701",
    "request_type": "Traffic Signals/Signs/Striping/Streetlights",
    "request_reason": "Traffic Sign Missing/Damaged",
    "date_created": "2022-02-13T15:17:56.000",
    "date_modified": "2022-02-13T15:17:56.000",
    "request_status": "Pending",
    "responsible_agency": "Department of Public Works",
    "final_address": "ST MAURICE AVE & BURGUNDY ST",
    "address_councildis": "E",
    "status": "Pending",
    "rowid": "860701",
    "final_x": "3699533.4",
    "final_y": "532417.68",
    "longitude": "-90.01109498601211",
    "latitude": "29.957404126790035",
    "geocoded_column": {
      "latitude": "29.957404126790035",
      "longitude": "-90.01109498601211"
    }
  },
  {
    "service_request": "2022-860700",
    "request_type": "Roads/Drainage",
    "request_reason": "Catch Basin - Broken/Damage",
    "date_created": "2022-02-13T15:14:48.000",
    "date_modified": "2022-02-13T15:14:48.000",
    "request_status": "Pending",
    "responsible_agency": "Department of Public Works",
    "final_address": "WILKINSON ST & DECATUR ST",
    "address_councildis": "C",
    "status": "Pending",
    "rowid": "860700",
    "final_x": "3683044.3",
    "final_y": "531832.48",
    "longitude": "-90.06318304650163",
    "latitude": "29.956307917397485",
    "geocoded_column": {
      "latitude": "29.956307917397485",
      "longitude": "-90.06318304650163"
    }
  },
  {
    "service_request": "2022-860699",
    "request_type": "Trash/Recycling",
    "request_reason": "Request a Large Item Pick Up",
    "date_created": "2022-02-13T15:03:57.000",
    "date_modified": "2022-02-13T15:03:58.000",
    "request_status": "Pending",
    "responsible_agency": "Department of Sanitation",
    "final_address": "3661 Plymouth Pl",
    "address_councildis": "C",
    "status": "Assigned to Contractor",
    "contractor": "Richards Disposal",
    "rowid": "860699",
    "final_x": "3702688.25585",
    "final_y": "517129.575989",
    "longitude": "-90.00169399889872",
    "latitude": "29.915266714296404",
    "geocoded_column": {
      "latitude": "29.915266714296404",
      "longitude": "-90.00169399889872"
    }
  },
  {
    "service_request": "2022-860698",
    "request_type": "Roads/Drainage",
    "request_reason": "Pothole",
    "date_created": "2022-02-13T15:01:13.000",
    "date_modified": "2022-02-13T15:01:13.000",
    "request_status": "Pending",
    "responsible_agency": "Department of Public Works",
    "final_address": "420 Delery St",
    "address_councildis": "E",
    "status": "Pending",
    "rowid": "860698",
    "final_x": "3699517.16925",
    "final_y": "530761.234626",
    "longitude": "-90.01120659014201",
    "latitude": "29.952850003967722",
    "geocoded_column": {
      "latitude": "29.952850003967722",
      "longitude": "-90.01120659014201"
    }
  },
  {
    "service_request": "2022-860697",
    "request_type": "Traffic Signals/Signs/Striping/Streetlights",
    "request_reason": "Additional signage",
    "date_created": "2022-02-13T14:58:55.000",
    "date_modified": "2022-02-13T14:58:55.000",
    "request_status": "Pending",
    "responsible_agency": "Department of Public Works",
    "final_address": "818 Caffin Ave",
    "address_councildis": "E",
    "status": "Pending",
    "rowid": "860697",
    "final_x": "3697707.43696",
    "final_y": "532797.721732",
    "longitude": "-90.01684700923774",
    "latitude": "29.958506917747936",
    "geocoded_column": {
      "latitude": "29.958506917747936",
      "longitude": "-90.01684700923774"
    }
  },
  {
    "service_request": "2022-860696",
    "request_type": "Trash/Recycling",
    "request_reason": "Illegal Dumping",
    "date_created": "2022-02-13T14:49:29.000",
    "date_modified": "2022-02-13T14:49:29.000",
    "request_status": "Pending",
    "responsible_agency": "Department of Sanitation",
    "final_address": "8927 Willow St",
    "address_councildis": "A",
    "status": "Pending",
    "rowid": "860696",
    "final_x": "3660209.40627",
    "final_y": "530975.683074",
    "longitude": "-90.135316701187",
    "latitude": "29.95462824662377",
    "geocoded_column": {
      "latitude": "29.95462824662377",
      "longitude": "-90.135316701187"
    }
  },
  {
    "service_request": "2022-860695",
    "request_type": "Traffic Signals/Signs/Striping/Streetlights",
    "request_reason": "Street Light Knocked Down/Leaning",
    "date_created": "2022-02-13T14:19:24.000",
    "date_modified": "2022-02-13T14:19:25.000",
    "request_status": "Pending",
    "responsible_agency": "Department of Public Works",
    "final_address": "2331 S Carrollton Ave",
    "address_councildis": "A",
    "status": "Pending",
    "contractor": "Royal Engineering",
    "rowid": "860695",
    "final_x": "3664907.98612",
    "final_y": "531355.822146",
    "longitude": "-90.12046763841364",
    "latitude": "29.955537590722443",
    "geocoded_column": {
      "latitude": "29.955537590722443",
      "longitude": "-90.12046763841364"
    }
  },
  {
    "service_request": "2022-860694",
    "request_type": "Roads/Drainage",
    "request_reason": "Man hole cover issue",
    "date_created": "2022-02-13T14:14:23.000",
    "date_modified": "2022-02-13T14:14:23.000",
    "request_status": "Pending",
    "responsible_agency": "Department of Public Works",
    "final_address": "Westbend Pkwy & Gen de Gaulle Dr, New Orleans, Louisiana, 70114",
    "status": "Pending",
    "rowid": "860694",
    "longitude": "0.0",
    "latitude": "0.0",
    "geocoded_column": {
      "latitude": "0.0",
      "longitude": "0.0"
    }
  },
  {
    "service_request": "2022-860693",
    "request_type": "Abandoned Vehicles",
    "request_reason": "Abandoned/Junk Vehicles",
    "date_created": "2022-02-13T13:57:36.000",
    "date_modified": "2022-02-13T13:57:36.000",
    "request_status": "Pending",
    "responsible_agency": "Department of Public Works",
    "final_address": "1420 Euterpe St",
    "address_councildis": "B",
    "status": "Pending",
    "rowid": "860693",
    "final_x": "3679554.70511",
    "final_y": "524551.345916",
    "longitude": "-90.07445461444732",
    "latitude": "29.936393131063696",
    "geocoded_column": {
      "latitude": "29.936393131063696",
      "longitude": "-90.07445461444732"
    }
  },
  {
    "service_request": "2022-860692",
    "request_type": "Trash/Recycling",
    "request_reason": "MIssed Recycling Pick-Up",
    "date_created": "2022-02-13T13:48:10.000",
    "date_modified": "2022-02-13T13:48:11.000",
    "request_status": "Pending",
    "responsible_agency": "Department of Sanitation",
    "final_address": "9311 Palm St",
    "address_councildis": "A",
    "status": "Assigned to Contractor",
    "contractor": "Richards Disposal",
    "rowid": "860692",
    "final_x": "3664572.92282",
    "final_y": "537665.023368",
    "longitude": "-90.12131492438881",
    "latitude": "29.972895568662175",
    "geocoded_column": {
      "latitude": "29.972895568662175",
      "longitude": "-90.12131492438881"
    }
  },
  {
    "service_request": "2022-860691",
    "request_type": "Trash/Recycling",
    "request_reason": "MIssed Recycling Pick-Up",
    "date_created": "2022-02-13T13:41:28.000",
    "date_modified": "2022-02-13T13:41:29.000",
    "request_status": "Pending",
    "responsible_agency": "Department of Sanitation",
    "final_address": "1607 Pine St",
    "address_councildis": "A",
    "status": "Assigned to Contractor",
    "contractor": "Richards Disposal",
    "rowid": "860691",
    "final_x": "3664824.95968",
    "final_y": "527862.477375",
    "longitude": "-90.12084653058926",
    "latitude": "29.945934439308413",
    "geocoded_column": {
      "latitude": "29.945934439308413",
      "longitude": "-90.12084653058926"
    }
  },
  {
    "service_request": "2022-860690",
    "request_type": "Trash/Recycling",
    "request_reason": "Repair Trash Cart",
    "date_created": "2022-02-13T13:20:26.000",
    "date_modified": "2022-02-13T13:20:27.000",
    "request_status": "Pending",
    "responsible_agency": "Department of Sanitation",
    "final_address": "3314 Palmyra St",
    "address_councildis": "B",
    "status": "Assigned to Contractor",
    "contractor": "Richards Disposal",
    "rowid": "860690",
    "final_x": "3672942.1691",
    "final_y": "535828.554375",
    "longitude": "-90.09494588346462",
    "latitude": "29.96759982824493",
    "geocoded_column": {
      "latitude": "29.96759982824493",
      "longitude": "-90.09494588346462"
    }
  },
  {
    "service_request": "2022-860689",
    "request_type": "Trash/Recycling",
    "request_reason": "Request a Large Item Pick Up",
    "date_created": "2022-02-13T13:19:21.000",
    "date_modified": "2022-02-13T13:19:22.000",
    "request_status": "Pending",
    "responsible_agency": "Department of Sanitation",
    "final_address": "3314 Palmyra St",
    "address_councildis": "B",
    "status": "Assigned to Contractor",
    "contractor": "Richards Disposal",
    "rowid": "860689",
    "final_x": "3672942.1691",
    "final_y": "535828.554375",
    "longitude": "-90.09494588346462",
    "latitude": "29.96759982824493",
    "geocoded_column": {
      "latitude": "29.96759982824493",
      "longitude": "-90.09494588346462"
    }
  },
  {
    "service_request": "2022-860688",
    "request_type": "Abandoned Vehicles",
    "request_reason": "Abandoned/Junk Vehicles",
    "date_created": "2022-02-13T13:15:06.000",
    "date_modified": "2022-02-13T13:15:06.000",
    "request_status": "Pending",
    "responsible_agency": "Department of Public Works",
    "final_address": "3300 Palmyra St",
    "address_councildis": "B",
    "status": "Pending",
    "rowid": "860688",
    "final_x": "3673015.32756",
    "final_y": "535775.136263",
    "longitude": "-90.09471667048695",
    "latitude": "29.96745077213938",
    "geocoded_column": {
      "latitude": "29.96745077213938",
      "longitude": "-90.09471667048695"
    }
  },
  {
    "service_request": "2022-860687",
    "request_type": "Trash/Recycling",
    "request_reason": "Replace Trash Cart",
    "date_created": "2022-02-13T13:03:56.000",
    "date_modified": "2022-02-13T13:03:57.000",
    "request_status": "Pending",
    "responsible_agency": "Department of Sanitation",
    "final_address": "3326 Prytania St, New Orleans, Louisiana, 70115",
    "address_councildis": "B",
    "status": "Assigned to Contractor",
    "contractor": "Richards Disposal",
    "rowid": "860687",
    "final_x": "3674596.27009",
    "final_y": "521049.547257",
    "longitude": "-90.09022852955073",
    "latitude": "29.92691318049125",
    "geocoded_column": {
      "latitude": "29.92691318049125",
      "longitude": "-90.09022852955073"
    }
  },
  {
    "service_request": "2022-860685",
    "request_type": "Trash/Recycling",
    "request_reason": "Missed Trash Pick-Up",
    "date_created": "2022-02-13T12:19:08.000",
    "date_modified": "2022-02-13T12:19:09.000",
    "request_status": "Pending",
    "responsible_agency": "Department of Sanitation",
    "final_address": "428 Pacific Ave",
    "address_councildis": "C",
    "status": "Assigned to Contractor",
    "contractor": "Richards Disposal",
    "rowid": "860685",
    "final_x": "3688564.3967",
    "final_y": "530053.611841",
    "longitude": "-90.04581559266526",
    "latitude": "29.95124723740326",
    "geocoded_column": {
      "latitude": "29.95124723740326",
      "longitude": "-90.04581559266526"
    }
  },
  {
    "service_request": "2022-860684",
    "request_type": "Abandoned Vehicles",
    "request_reason": "Vehicle Blocking Your Driveway",
    "date_created": "2022-02-13T12:05:32.000",
    "date_modified": "2022-02-13T12:05:32.000",
    "request_status": "Pending",
    "responsible_agency": "Department of Public Works",
    "final_address": "8001 Sycamore St",
    "address_councildis": "A",
    "status": "Pending",
    "rowid": "860684",
    "final_x": "3664654.28256",
    "final_y": "530731.804354",
    "longitude": "-90.1212895894244",
    "latitude": "29.95382912620364",
    "geocoded_column": {
      "latitude": "29.95382912620364",
      "longitude": "-90.1212895894244"
    }
  },
  {
    "service_request": "2022-860683",
    "request_type": "Trash/Recycling",
    "request_reason": "Request a Large Item Pick Up",
    "date_created": "2022-02-13T11:52:00.000",
    "date_modified": "2022-02-13T11:52:01.000",
    "request_status": "Pending",
    "responsible_agency": "Department of Sanitation",
    "final_address": "1308 Bordeaux St",
    "address_councildis": "B",
    "status": "Assigned to Contractor",
    "contractor": "Richards Disposal",
    "rowid": "860683",
    "final_x": "3669369.00487",
    "final_y": "519993.92684",
    "longitude": "-90.10676534417283",
    "latitude": "29.924165458647515",
    "geocoded_column": {
      "latitude": "29.924165458647515",
      "longitude": "-90.10676534417283"
    }
  },
  {
    "service_request": "2022-860682",
    "request_type": "Trash/Recycling",
    "request_reason": "Replace Trash Cart",
    "date_created": "2022-02-13T11:50:58.000",
    "date_modified": "2022-02-13T11:50:59.000",
    "request_status": "Pending",
    "responsible_agency": "Department of Sanitation",
    "final_address": "2022 Chippewa St",
    "address_councildis": "B",
    "status": "Assigned to Contractor",
    "contractor": "Richards Disposal",
    "rowid": "860682",
    "final_x": "3680319.5629",
    "final_y": "521299.788281",
    "longitude": "-90.07215291779012",
    "latitude": "29.927429290313864",
    "geocoded_column": {
      "latitude": "29.927429290313864",
      "longitude": "-90.07215291779012"
    }
  },
  {
    "service_request": "2022-860681",
    "request_type": "Trash/Recycling",
    "request_reason": "Request a Large Item Pick Up",
    "date_created": "2022-02-13T11:37:31.000",
    "date_modified": "2022-02-13T11:37:32.000",
    "request_status": "Pending",
    "responsible_agency": "Department of Sanitation",
    "final_address": "1532 Constance St",
    "address_councildis": "B",
    "status": "Assigned to Contractor",
    "contractor": "Richards Disposal",
    "rowid": "860681",
    "final_x": "3680522.02517",
    "final_y": "523441.998587",
    "longitude": "-90.07143932144413",
    "latitude": "29.93331353509918",
    "geocoded_column": {
      "latitude": "29.93331353509918",
      "longitude": "-90.07143932144413"
    }
  },
  {
    "service_request": "2022-860680",
    "request_type": "Abandoned Vehicles",
    "request_reason": "Vehicle Blocking Your Driveway",
    "date_created": "2022-02-13T11:23:21.000",
    "date_modified": "2022-02-13T11:23:21.000",
    "request_status": "Pending",
    "responsible_agency": "Department of Public Works",
    "final_address": "2436 Calhoun St",
    "address_councildis": "A",
    "status": "Pending",
    "rowid": "860680",
    "final_x": "3666112.21332",
    "final_y": "526011.945981",
    "longitude": "-90.11684425070925",
    "latitude": "29.940808556874728",
    "geocoded_column": {
      "latitude": "29.940808556874728",
      "longitude": "-90.11684425070925"
    }
  },
  {
    "service_request": "2022-860679",
    "request_type": "Trash/Recycling",
    "request_reason": "Request a Large Item Pick Up",
    "date_created": "2022-02-13T11:14:45.000",
    "date_modified": "2022-02-13T11:14:46.000",
    "request_status": "Pending",
    "responsible_agency": "Department of Sanitation",
    "final_address": "1127 Peniston St",
    "address_councildis": "B",
    "status": "Assigned to Contractor",
    "contractor": "Richards Disposal",
    "rowid": "860679",
    "final_x": "3673208.60366",
    "final_y": "520000.284344",
    "longitude": "-90.09464484012774",
    "latitude": "29.924069366672935",
    "geocoded_column": {
      "latitude": "29.924069366672935",
      "longitude": "-90.09464484012774"
    }
  },
  {
    "service_request": "2022-860678",
    "request_type": "Roads/Drainage",
    "request_reason": "Catch Basin - Clogged",
    "date_created": "2022-02-13T11:08:59.000",
    "date_modified": "2022-02-13T11:08:59.000",
    "request_status": "Pending",
    "responsible_agency": "Department of Public Works",
    "final_address": "1325 Elysian Fields Ave",
    "address_councildis": "C",
    "status": "Pending",
    "rowid": "860678",
    "final_x": "3685056.42601",
    "final_y": "537256.62516",
    "longitude": "-90.05663860095456",
    "latitude": "29.971160961575965",
    "geocoded_column": {
      "latitude": "29.971160961575965",
      "longitude": "-90.05663860095456"
    }
  },
  {
    "service_request": "2022-860677",
    "request_type": "Roads/Drainage",
    "request_reason": "Catch Basin - Broken/Damage",
    "date_created": "2022-02-13T10:38:18.000",
    "date_modified": "2022-02-13T10:38:18.000",
    "request_status": "Pending",
    "responsible_agency": "Department of Public Works",
    "final_address": "1103 Crete St",
    "address_councildis": "A",
    "status": "Pending",
    "rowid": "860677",
    "final_x": "3677583.95144",
    "final_y": "538753.899145",
    "longitude": "-90.08018598662544",
    "latitude": "29.975504767469626",
    "geocoded_column": {
      "latitude": "29.975504767469626",
      "longitude": "-90.08018598662544"
    }
  },
  {
    "service_request": "2022-860675",
    "request_type": "Property Maintenance",
    "request_reason": "Property Maintenance",
    "date_created": "2022-02-13T09:56:06.000",
    "date_modified": "2022-02-13T09:56:06.000",
    "request_status": "Pending",
    "responsible_agency": "Department of Code Enforcement",
    "final_address": "3707 Constance St",
    "address_councildis": "B",
    "status": "Pending",
    "rowid": "860675",
    "final_x": "3673663.7892",
    "final_y": "518776.564471",
    "longitude": "-90.09324978382564",
    "latitude": "29.920690990890986",
    "geocoded_column": {
      "latitude": "29.920690990890986",
      "longitude": "-90.09324978382564"
    }
  },
  {
    "service_request": "2022-860674",
    "request_type": "Roads/Drainage",
    "request_reason": "Street Subsidence (Sinking)",
    "date_created": "2022-02-13T09:48:07.000",
    "date_modified": "2022-02-13T09:48:07.000",
    "request_status": "Pending",
    "responsible_agency": "Department of Public Works",
    "final_address": "2001 Alvar St",
    "address_councildis": "D",
    "status": "Pending",
    "rowid": "860674",
    "final_x": "3692427.4223",
    "final_y": "538814.294409",
    "longitude": "-90.03330427661932",
    "latitude": "29.9752161174562",
    "geocoded_column": {
      "latitude": "29.9752161174562",
      "longitude": "-90.03330427661932"
    }
  },
  {
    "service_request": "2022-860673",
    "request_type": "Safety & Permits",
    "request_reason": "Licenses & Permits",
    "date_created": "2022-02-13T09:28:44.000",
    "date_modified": "2022-02-13T21:27:10.000",
    "request_status": "Pending",
    "responsible_agency": "Safety and Permits",
    "final_address": "New Orleans,LA",
    "address_councildis": "A",
    "rowid": "860673",
    "final_x": "3665262.91328",
    "final_y": "518053.415862",
    "longitude": "-90.11979176184829",
    "latitude": "29.918949881491216",
    "geocoded_column": {
      "latitude": "29.918949881491216",
      "longitude": "-90.11979176184829"
    }
  },
  {
    "service_request": "2022-860672",
    "request_type": "Trash/Recycling",
    "request_reason": "Repair Trash Cart",
    "date_created": "2022-02-13T09:00:49.000",
    "date_modified": "2022-02-13T09:00:50.000",
    "request_status": "Pending",
    "responsible_agency": "Department of Sanitation",
    "final_address": "1515 Jefferson Ave",
    "address_councildis": "B",
    "status": "Assigned to Contractor",
    "contractor": "Richards Disposal",
    "rowid": "860672",
    "final_x": "3667248.21767",
    "final_y": "520687.835257",
    "longitude": "-90.11343662860484",
    "latitude": "29.926135740304627",
    "geocoded_column": {
      "latitude": "29.926135740304627",
      "longitude": "-90.11343662860484"
    }
  },
  {
    "service_request": "2022-860671",
    "request_type": "Mosquito, Termite & Rodent Control",
    "request_reason": "Non-Rodent Complaint (Mice, Possums, Snakes)",
    "date_created": "2022-02-13T08:50:18.000",
    "date_modified": "2022-02-13T08:50:18.000",
    "request_status": "Pending",
    "responsible_agency": "Mosquito, Termite & Rodent Control Board",
    "final_address": "1014 Third St",
    "address_councildis": "B",
    "status": "Pending",
    "rowid": "860671",
    "final_x": "3677655.2621",
    "final_y": "520941.881401",
    "longitude": "-90.08057581134814",
    "latitude": "29.926525527810462",
    "geocoded_column": {
      "latitude": "29.926525527810462",
      "longitude": "-90.08057581134814"
    }
  },
  {
    "service_request": "2022-860670",
    "request_type": "Trash/Recycling",
    "request_reason": "Start Trash Service",
    "date_created": "2022-02-13T08:25:21.000",
    "date_modified": "2022-02-13T08:25:21.000",
    "request_status": "Pending",
    "responsible_agency": "Department of Sanitation",
    "final_address": "1022 Mandeville St",
    "address_councildis": "C",
    "status": "Assigned to Contractor",
    "contractor": "Metro Disposal",
    "rowid": "860670",
    "final_x": "3685759.71279",
    "final_y": "536196.788423",
    "longitude": "-90.05445488756139",
    "latitude": "29.96822521448583",
    "geocoded_column": {
      "latitude": "29.96822521448583",
      "longitude": "-90.05445488756139"
    }
  },
  {
    "service_request": "2022-860669",
    "request_type": "Trash/Recycling",
    "request_reason": "Missed Trash Pick-Up",
    "date_created": "2022-02-13T08:07:52.000",
    "date_modified": "2022-02-13T08:07:53.000",
    "request_status": "Pending",
    "responsible_agency": "Department of Sanitation",
    "final_address": "8735 Apricot St",
    "address_councildis": "A",
    "status": "Assigned to Contractor",
    "contractor": "Richards Disposal",
    "rowid": "860669",
    "final_x": "3664064.00032",
    "final_y": "534284.947717",
    "longitude": "-90.12303496031429",
    "latitude": "29.96361626729517",
    "geocoded_column": {
      "latitude": "29.96361626729517",
      "longitude": "-90.12303496031429"
    }
  },
  {
    "service_request": "2022-860668",
    "request_type": "Trash/Recycling",
    "request_reason": "Dead Animal Pick Up",
    "date_created": "2022-02-13T07:08:04.000",
    "date_modified": "2022-02-13T21:52:58.000",
    "request_status": "Pending",
    "responsible_agency": "Department of Sanitation",
    "final_address": "New Orleans,LA",
    "address_councildis": "B",
    "status": "Assigned to Contractor",
    "contractor": "Richards Disposal",
    "rowid": "860668",
    "final_x": "3670403.1",
    "final_y": "525802.98",
    "longitude": "-90.10330421591848",
    "latitude": "29.940108010867398",
    "geocoded_column": {
      "latitude": "29.940108010867398",
      "longitude": "-90.10330421591848"
    }
  },
  {
    "service_request": "2022-860667",
    "request_type": "Roads/Drainage",
    "request_reason": "Pothole",
    "date_created": "2022-02-13T06:32:37.000",
    "date_modified": "2022-02-13T06:32:37.000",
    "request_status": "Pending",
    "responsible_agency": "Department of Public Works",
    "final_address": "3318 Short St",
    "address_councildis": "B",
    "status": "Pending",
    "rowid": "860667",
    "final_x": "3667415.3433",
    "final_y": "533747.688709",
    "longitude": "-90.11246980453193",
    "latitude": "29.96204122244859",
    "geocoded_column": {
      "latitude": "29.96204122244859",
      "longitude": "-90.11246980453193"
    }
  },
  {
    "service_request": "2022-860666",
    "request_type": "Roads/Drainage",
    "request_reason": "Man hole cover issue",
    "date_created": "2022-02-13T03:07:25.000",
    "date_modified": "2022-02-13T03:07:25.000",
    "request_status": "Pending",
    "responsible_agency": "Department of Public Works",
    "final_address": "1600 BLK S Peters St",
    "address_councildis": "B",
    "status": "Pending",
    "rowid": "860666",
    "final_x": "3682595.86082",
    "final_y": "522306.417117",
    "longitude": "-90.06493204131179",
    "latitude": "29.930128100015754",
    "geocoded_column": {
      "latitude": "29.930128100015754",
      "longitude": "-90.06493204131179"
    }
  },
  {
    "service_request": "2022-860665",
    "request_type": "Traffic Signals/Signs/Striping/Streetlights",
    "request_reason": "Street Light Outage/Malfunction",
    "date_created": "2022-02-13T00:21:27.000",
    "date_modified": "2022-02-13T00:21:28.000",
    "request_status": "Pending",
    "responsible_agency": "Department of Public Works",
    "final_address": "1016 Crete St",
    "address_councildis": "A",
    "status": "Pending",
    "contractor": "Royal Engineering",
    "rowid": "860665",
    "final_x": "3677559.72181",
    "final_y": "538465.779209",
    "longitude": "-90.08027246155306",
    "latitude": "29.97471326520945",
    "geocoded_column": {
      "latitude": "29.97471326520945",
      "longitude": "-90.08027246155306"
    }
  },
  {
    "service_request": "2022-860664",
    "request_type": "Trash/Recycling",
    "request_reason": "Request a Large Item Pick Up",
    "date_created": "2022-02-12T23:51:56.000",
    "date_modified": "2022-02-12T23:51:57.000",
    "request_status": "Pending",
    "responsible_agency": "Department of Sanitation",
    "final_address": "2919 Grand Route St John St",
    "address_councildis": "A",
    "status": "Assigned to Contractor",
    "contractor": "Metro Disposal",
    "rowid": "860664",
    "final_x": "3677538.89832",
    "final_y": "540332.715979",
    "longitude": "-90.08027374756085",
    "latitude": "29.979847324618056",
    "geocoded_column": {
      "latitude": "29.979847324618056",
      "longitude": "-90.08027374756085"
    }
  },
  {
    "service_request": "2022-860663",
    "request_type": "Mayor's Request",
    "request_reason": "Requests to the Mayor",
    "date_created": "2022-02-12T22:57:50.000",
    "date_modified": "2022-02-12T22:57:50.000",
    "request_status": "Pending",
    "responsible_agency": "Executive Office of the Mayor",
    "status": "Pending",
    "rowid": "860663",
    "longitude": "0.0",
    "latitude": "0.0",
    "geocoded_column": {
      "latitude": "0.0",
      "longitude": "0.0"
    }
  },
  {
    "service_request": "2022-860662",
    "request_type": "Property Maintenance",
    "request_reason": "Property Maintenance",
    "date_created": "2022-02-12T22:41:23.000",
    "date_modified": "2022-02-12T22:41:23.000",
    "request_status": "Pending",
    "responsible_agency": "Department of Code Enforcement",
    "final_address": "2200 Westbend Prkwy",
    "address_councildis": "C",
    "status": "Pending",
    "rowid": "860662",
    "final_x": "3696946.85053",
    "final_y": "522293.408442",
    "longitude": "-90.01962901768334",
    "latitude": "29.929647717511468",
    "geocoded_column": {
      "latitude": "29.929647717511468",
      "longitude": "-90.01962901768334"
    }
  },
  {
    "service_request": "2022-860661",
    "request_type": "Trash/Recycling",
    "request_reason": "Replace Trash Cart",
    "date_created": "2022-02-12T21:13:25.000",
    "date_modified": "2022-02-12T21:13:26.000",
    "request_status": "Pending",
    "responsible_agency": "Department of Sanitation",
    "final_address": "2528 Cambronne St",
    "address_councildis": "A",
    "status": "Assigned to Contractor",
    "contractor": "Richards Disposal",
    "rowid": "860661",
    "final_x": "3664457.78944",
    "final_y": "532781.833796",
    "longitude": "-90.12184159591777",
    "latitude": "29.959471753351487",
    "geocoded_column": {
      "latitude": "29.959471753351487",
      "longitude": "-90.12184159591777"
    }
  },
  {
    "service_request": "2022-860660",
    "request_type": "Traffic Signals/Signs/Striping/Streetlights",
    "request_reason": "Street Light Outage/Malfunction",
    "date_created": "2022-02-12T20:55:21.000",
    "date_modified": "2022-02-12T20:55:22.000",
    "request_status": "Pending",
    "responsible_agency": "Department of Public Works",
    "final_address": "2125 Laurel St",
    "address_councildis": "B",
    "status": "Pending",
    "contractor": "Royal Engineering",
    "rowid": "860660",
    "final_x": "3679422.33858",
    "final_y": "521628.256313",
    "longitude": "-90.07497384523181",
    "latitude": "29.92835959355394",
    "geocoded_column": {
      "latitude": "29.92835959355394",
      "longitude": "-90.07497384523181"
    }
  },
  {
    "service_request": "2022-860659",
    "request_type": "Trash/Recycling",
    "request_reason": "Request a Large Item Pick Up",
    "date_created": "2022-02-12T20:38:18.000",
    "date_modified": "2022-02-12T20:38:19.000",
    "request_status": "Pending",
    "responsible_agency": "Department of Sanitation",
    "final_address": "468 Flood St",
    "address_councildis": "E",
    "status": "Assigned to Contractor",
    "contractor": "Metro Disposal",
    "rowid": "860659",
    "final_x": "3697072.87338",
    "final_y": "531654.914435",
    "longitude": "-90.01889217853372",
    "latitude": "29.955384632585787",
    "geocoded_column": {
      "latitude": "29.955384632585787",
      "longitude": "-90.01889217853372"
    }
  },
  {
    "service_request": "2022-860658",
    "request_type": "Trash/Recycling",
    "request_reason": "Repair Recycling Cart",
    "date_created": "2022-02-12T20:29:51.000",
    "date_modified": "2022-02-12T20:29:51.000",
    "request_status": "Pending",
    "responsible_agency": "Department of Sanitation",
    "final_address": "2719 Amelia St",
    "address_councildis": "B",
    "status": "Pending",
    "rowid": "860658",
    "final_x": "3672187.06343",
    "final_y": "525125.520957",
    "longitude": "-90.09769502300443",
    "latitude": "29.938192441050376",
    "geocoded_column": {
      "latitude": "29.938192441050376",
      "longitude": "-90.09769502300443"
    }
  },
  {
    "service_request": "2022-860657",
    "request_type": "Traffic Signals/Signs/Striping/Streetlights",
    "request_reason": "Traffic Signal Malfunctioning/Damaged",
    "date_created": "2022-02-12T20:04:47.000",
    "date_modified": "2022-02-12T20:04:47.000",
    "request_status": "Pending",
    "responsible_agency": "Department of Public Works",
    "final_address": "2200 Prytania St",
    "address_councildis": "B",
    "status": "Pending",
    "rowid": "860657",
    "final_x": "3677884.99771",
    "final_y": "523197.775803",
    "longitude": "-90.07977269224845",
    "latitude": "29.93272159259696",
    "geocoded_column": {
      "latitude": "29.93272159259696",
      "longitude": "-90.07977269224845"
    }
  },
  {
    "service_request": "2022-860656",
    "request_type": "Traffic Signals/Signs/Striping/Streetlights",
    "request_reason": "Street Light Outage/Malfunction",
    "date_created": "2022-02-12T20:03:39.000",
    "date_modified": "2022-02-12T20:03:40.000",
    "request_status": "Pending",
    "responsible_agency": "Department of Public Works",
    "final_address": "2008 Carondelet St Apt A",
    "address_councildis": "B",
    "status": "Pending",
    "contractor": "Royal Engineering",
    "rowid": "860656",
    "final_x": "3677837.17275",
    "final_y": "524431.360252",
    "longitude": "-90.07988107122166",
    "latitude": "29.936114983609777",
    "geocoded_column": {
      "latitude": "29.936114983609777",
      "longitude": "-90.07988107122166"
    }
  },
  {
    "service_request": "2022-860655",
    "request_type": "COVID-19",
    "request_reason": "COVID-19 Business Non-Compliance",
    "date_created": "2022-02-12T19:59:03.000",
    "date_modified": "2022-02-12T19:59:04.000",
    "request_status": "Pending",
    "responsible_agency": "Safety and Permits",
    "final_address": "555 Canal St",
    "address_councildis": "C",
    "status": "Pending",
    "rowid": "860655",
    "final_x": "3681657.1156",
    "final_y": "530427.761794",
    "longitude": "-90.06761230467993",
    "latitude": "29.952487626263423",
    "geocoded_column": {
      "latitude": "29.952487626263423",
      "longitude": "-90.06761230467993"
    }
  },
  {
    "service_request": "2022-860654",
    "request_type": "Roads/Drainage",
    "request_reason": "Accessibility Ramps, Curbs and Sidewalk Repair",
    "date_created": "2022-02-12T19:40:00.000",
    "date_modified": "2022-02-12T19:40:00.000",
    "request_status": "Pending",
    "responsible_agency": "Department of Public Works",
    "final_address": "7502 Jeannette St",
    "address_councildis": "A",
    "status": "Pending",
    "rowid": "860654",
    "final_x": "3664191.29178",
    "final_y": "527678.314367",
    "longitude": "-90.12285338554169",
    "latitude": "29.945446472188472",
    "geocoded_column": {
      "latitude": "29.945446472188472",
      "longitude": "-90.12285338554169"
    }
  },
  {
    "service_request": "2022-860653",
    "request_type": "Mayor's Request",
    "request_reason": "Requests to the Mayor",
    "date_created": "2022-02-12T19:37:01.000",
    "date_modified": "2022-02-12T19:37:01.000",
    "request_status": "Pending",
    "responsible_agency": "Executive Office of the Mayor",
    "final_address": "3223 Jackson Ave",
    "address_councildis": "B",
    "status": "Pending",
    "rowid": "860653",
    "final_x": "3673851.86504",
    "final_y": "528676.2032",
    "longitude": "-90.09231767249027",
    "latitude": "29.947906183478004",
    "geocoded_column": {
      "latitude": "29.947906183478004",
      "longitude": "-90.09231767249027"
    }
  },
  {
    "service_request": "2022-860652",
    "request_type": "Property Maintenance",
    "request_reason": "Property Maintenance",
    "date_created": "2022-02-12T19:29:19.000",
    "date_modified": "2022-02-12T19:29:19.000",
    "request_status": "Pending",
    "responsible_agency": "Department of Code Enforcement",
    "final_address": "3473 Vespasian St",
    "address_councildis": "C",
    "status": "Pending",
    "rowid": "860652",
    "final_x": "3696073.47741",
    "final_y": "522569.576186",
    "longitude": "-90.02237611262355",
    "latitude": "29.93043458845842",
    "geocoded_column": {
      "latitude": "29.93043458845842",
      "longitude": "-90.02237611262355"
    }
  },
  {
    "service_request": "2022-860651",
    "request_type": "Roads/Drainage",
    "request_reason": "Leaking Hydrant",
    "date_created": "2022-02-12T19:14:58.000",
    "date_modified": "2022-02-12T19:14:58.000",
    "request_status": "Pending",
    "responsible_agency": "Department of Public Works",
    "final_address": "1200 L B Landry Ave, New Orleans, Louisiana, 70114",
    "status": "Pending",
    "rowid": "860651",
    "longitude": "0.0",
    "latitude": "0.0",
    "geocoded_column": {
      "latitude": "0.0",
      "longitude": "0.0"
    }
  },
  {
    "service_request": "2022-860650",
    "request_type": "Trash/Recycling",
    "request_reason": "Request a Large Item Pick Up",
    "date_created": "2022-02-12T18:59:26.000",
    "date_modified": "2022-02-12T18:59:27.000",
    "request_status": "Pending",
    "responsible_agency": "Department of Sanitation",
    "final_address": "722 Louque Pl",
    "address_councildis": "A",
    "status": "Assigned to Contractor",
    "contractor": "Metro Disposal",
    "rowid": "860650",
    "final_x": "3668415.9433",
    "final_y": "543493.073358",
    "longitude": "-90.1089812217495",
    "latitude": "29.988808402033648",
    "geocoded_column": {
      "latitude": "29.988808402033648",
      "longitude": "-90.1089812217495"
    }
  },
  {
    "service_request": "2022-860649",
    "request_type": "Roads/Drainage",
    "request_reason": "Pothole",
    "date_created": "2022-02-12T18:38:00.000",
    "date_modified": "2022-02-12T18:38:00.000",
    "request_status": "Pending",
    "responsible_agency": "Department of Public Works",
    "final_address": "2721 Clover St",
    "address_councildis": "D",
    "status": "Pending",
    "rowid": "860649",
    "final_x": "3688031.23311",
    "final_y": "546767.438865",
    "longitude": "-90.04690656566008",
    "latitude": "29.99722084054449",
    "geocoded_column": {
      "latitude": "29.99722084054449",
      "longitude": "-90.04690656566008"
    }
  },
  {
    "service_request": "2022-860648",
    "request_type": "Health Related Questions",
    "request_reason": "Noise Ordinance Complaint",
    "date_created": "2022-02-12T18:36:44.000",
    "date_modified": "2022-02-12T18:36:44.000",
    "request_status": "Pending",
    "responsible_agency": "Health Department",
    "final_address": "2526 Saint Thomas Street",
    "status": "Pending",
    "rowid": "860648",
    "longitude": "0.0",
    "latitude": "0.0",
    "geocoded_column": {
      "latitude": "0.0",
      "longitude": "0.0"
    }
  },
  {
    "service_request": "2022-860647",
    "request_type": "Trash/Recycling",
    "request_reason": "Missed Trash Pick-Up",
    "date_created": "2022-02-12T18:35:34.000",
    "date_modified": "2022-02-12T18:35:35.000",
    "request_status": "Pending",
    "responsible_agency": "Department of Sanitation",
    "final_address": "905 Navarre St",
    "address_councildis": "A",
    "status": "Assigned to Contractor",
    "contractor": "Metro Disposal",
    "rowid": "860647",
    "final_x": "3669596.44865",
    "final_y": "543795.73083",
    "longitude": "-90.10524210923342",
    "latitude": "29.989605869657318",
    "geocoded_column": {
      "latitude": "29.989605869657318",
      "longitude": "-90.10524210923342"
    }
  },
  {
    "service_request": "2022-860646",
    "request_type": "Trash/Recycling",
    "request_reason": "Missed Trash Pick-Up",
    "date_created": "2022-02-12T17:29:31.000",
    "date_modified": "2022-02-12T17:29:32.000",
    "request_status": "Pending",
    "responsible_agency": "Department of Sanitation",
    "final_address": "4635 Redwood St",
    "address_councildis": "E",
    "status": "Assigned to Contractor",
    "contractor": "Metro Disposal",
    "rowid": "860646",
    "final_x": "3712630.38738",
    "final_y": "555520.216089",
    "longitude": "-89.96887037017903",
    "latitude": "30.020505273276047",
    "geocoded_column": {
      "latitude": "30.020505273276047",
      "longitude": "-89.96887037017903"
    }
  },
  {
    "service_request": "2022-860645",
    "request_type": "Parks & Parkways",
    "request_reason": "Request Tree Service (Right of Way/Public Property)",
    "date_created": "2022-02-12T17:25:13.000",
    "date_modified": "2022-02-12T17:25:13.000",
    "request_status": "Pending",
    "responsible_agency": "Department of Parks & Parkway",
    "final_address": "1830 Burdette St",
    "address_councildis": "A",
    "status": "Pending",
    "rowid": "860645",
    "final_x": "3664344.93645",
    "final_y": "529386.598337",
    "longitude": "-90.12231127343227",
    "latitude": "29.95013923890983",
    "geocoded_column": {
      "latitude": "29.95013923890983",
      "longitude": "-90.12231127343227"
    }
  },
  {
    "service_request": "2022-860644",
    "request_type": "Property Maintenance",
    "request_reason": "Property Maintenance",
    "date_created": "2022-02-12T17:23:22.000",
    "date_modified": "2022-02-13T21:28:53.000",
    "request_status": "Pending",
    "responsible_agency": "Department of Code Enforcement",
    "final_address": "New Orleans,LA",
    "address_councildis": "E",
    "rowid": "860644",
    "final_x": "3713656.21951",
    "final_y": "557293.050459",
    "longitude": "-89.96556222012688",
    "latitude": "30.025346239619385",
    "geocoded_column": {
      "latitude": "30.025346239619385",
      "longitude": "-89.96556222012688"
    }
  },
  {
    "service_request": "2022-860643",
    "request_type": "Traffic Signals/Signs/Striping/Streetlights",
    "request_reason": "Street Light Outage/Malfunction",
    "date_created": "2022-02-12T17:17:03.000",
    "date_modified": "2022-02-12T17:17:04.000",
    "request_status": "Pending",
    "responsible_agency": "Department of Public Works",
    "final_address": "1016 Crete St",
    "address_councildis": "A",
    "status": "Pending",
    "contractor": "Royal Engineering",
    "rowid": "860643",
    "final_x": "3677559.72181",
    "final_y": "538465.779209",
    "longitude": "-90.08027246155306",
    "latitude": "29.97471326520945",
    "geocoded_column": {
      "latitude": "29.97471326520945",
      "longitude": "-90.08027246155306"
    }
  },
  {
    "service_request": "2022-860642",
    "request_type": "Traffic Signals/Signs/Striping/Streetlights",
    "request_reason": "Street Light Outage/Malfunction",
    "date_created": "2022-02-12T17:06:36.000",
    "date_modified": "2022-02-12T17:06:36.000",
    "request_status": "Pending",
    "responsible_agency": "Department of Public Works",
    "final_address": "1016 Crete St",
    "address_councildis": "A",
    "status": "Pending",
    "contractor": "Royal Engineering",
    "rowid": "860642",
    "final_x": "3677559.72181",
    "final_y": "538465.779209",
    "longitude": "-90.08027246155306",
    "latitude": "29.97471326520945",
    "geocoded_column": {
      "latitude": "29.97471326520945",
      "longitude": "-90.08027246155306"
    }
  },
  {
    "service_request": "2022-860641",
    "request_type": "Traffic Signals/Signs/Striping/Streetlights",
    "request_reason": "Street Light Outage/Malfunction",
    "date_created": "2022-02-12T17:03:08.000",
    "date_modified": "2022-02-12T17:03:09.000",
    "request_status": "Pending",
    "responsible_agency": "Department of Public Works",
    "final_address": "1103 Crete St",
    "address_councildis": "A",
    "status": "Pending",
    "contractor": "Royal Engineering",
    "rowid": "860641",
    "final_x": "3677583.95144",
    "final_y": "538753.899145",
    "longitude": "-90.08018598662544",
    "latitude": "29.975504767469626",
    "geocoded_column": {
      "latitude": "29.975504767469626",
      "longitude": "-90.08018598662544"
    }
  },
  {
    "service_request": "2022-860639",
    "request_type": "COVID-19",
    "request_reason": "COVID-19 Business Non-Compliance",
    "date_created": "2022-02-12T16:26:43.000",
    "date_modified": "2022-02-12T16:26:44.000",
    "request_status": "Pending",
    "responsible_agency": "Safety and Permits",
    "final_address": "7133 St Charles Ave",
    "address_councildis": "A",
    "status": "Pending",
    "rowid": "860639",
    "final_x": "3663093.39981",
    "final_y": "524744.202748",
    "longitude": "-90.1264173779191",
    "latitude": "29.937410446197084",
    "geocoded_column": {
      "latitude": "29.937410446197084",
      "longitude": "-90.1264173779191"
    }
  },
  {
    "service_request": "2022-860638",
    "request_type": "Trash/Recycling",
    "request_reason": "Missed Trash Pick-Up",
    "date_created": "2022-02-12T16:19:50.000",
    "date_modified": "2022-02-12T16:19:51.000",
    "request_status": "Pending",
    "responsible_agency": "Department of Sanitation",
    "final_address": "4515 Paris Ave",
    "address_councildis": "D",
    "status": "Assigned to Contractor",
    "contractor": "Metro Disposal",
    "rowid": "860638",
    "final_x": "3679513.47938",
    "final_y": "549166.464467",
    "longitude": "-90.07373050399403",
    "latitude": "30.004077501456866",
    "geocoded_column": {
      "latitude": "30.004077501456866",
      "longitude": "-90.07373050399403"
    }
  },
  {
    "service_request": "2022-860637",
    "request_type": "Trash/Recycling",
    "request_reason": "MIssed Recycling Pick-Up",
    "date_created": "2022-02-12T15:45:24.000",
    "date_modified": "2022-02-12T15:45:25.000",
    "request_status": "Pending",
    "responsible_agency": "Department of Sanitation",
    "final_address": "3416 Livingston St",
    "address_councildis": "A",
    "status": "Assigned to Contractor",
    "contractor": "Richards Disposal",
    "rowid": "860637",
    "final_x": "3663649.56301",
    "final_y": "537623.806216",
    "longitude": "-90.12423245766217",
    "latitude": "29.97280905845163",
    "geocoded_column": {
      "latitude": "29.97280905845163",
      "longitude": "-90.12423245766217"
    }
  },
  {
    "service_request": "2022-860636",
    "request_type": "Traffic Signals/Signs/Striping/Streetlights",
    "request_reason": "Request for Stop Sign",
    "date_created": "2022-02-12T15:44:38.000",
    "date_modified": "2022-02-12T15:44:38.000",
    "request_status": "Pending",
    "responsible_agency": "Department of Public Works",
    "final_address": "2550 Dumaine St",
    "address_councildis": "D",
    "status": "Pending",
    "rowid": "860636",
    "final_x": "3677612.72328",
    "final_y": "537123.734216",
    "longitude": "-90.08015142540307",
    "latitude": "29.971021507466098",
    "geocoded_column": {
      "latitude": "29.971021507466098",
      "longitude": "-90.08015142540307"
    }
  },
  {
    "service_request": "2022-860635",
    "request_type": "Roads/Drainage",
    "request_reason": "Street Subsidence (Sinking)",
    "date_created": "2022-02-12T15:34:36.000",
    "date_modified": "2022-02-12T15:34:36.000",
    "request_status": "Pending",
    "responsible_agency": "Department of Public Works",
    "final_address": "8501 Oleander St",
    "address_councildis": "A",
    "status": "Pending",
    "rowid": "860635",
    "final_x": "3665712.01338",
    "final_y": "534683.015302",
    "longitude": "-90.11781734918478",
    "latitude": "29.964662855150934",
    "geocoded_column": {
      "latitude": "29.964662855150934",
      "longitude": "-90.11781734918478"
    }
  },
  {
    "service_request": "2022-860634",
    "request_type": "Trash/Recycling",
    "request_reason": "Request a Large Item Pick Up",
    "date_created": "2022-02-12T15:30:06.000",
    "date_modified": "2022-02-12T15:30:06.000",
    "request_status": "Pending",
    "responsible_agency": "Department of Sanitation",
    "final_address": "432 14Th St",
    "address_councildis": "A",
    "status": "Assigned to Contractor",
    "contractor": "Metro Disposal",
    "rowid": "860634",
    "final_x": "3664494.42266",
    "final_y": "548120.031954",
    "longitude": "-90.12121355506527",
    "latitude": "30.001645593735713",
    "geocoded_column": {
      "latitude": "30.001645593735713",
      "longitude": "-90.12121355506527"
    }
  },
  {
    "service_request": "2022-860633",
    "request_type": "Trash/Recycling",
    "request_reason": "Request a Large Item Pick Up",
    "date_created": "2022-02-12T15:19:59.000",
    "date_modified": "2022-02-12T15:20:00.000",
    "request_status": "Pending",
    "responsible_agency": "Department of Sanitation",
    "final_address": "1915 Mediamolle Dr",
    "address_councildis": "C",
    "status": "Assigned to Contractor",
    "contractor": "Richards Disposal",
    "rowid": "860633",
    "final_x": "3699427.23792",
    "final_y": "524283.515132",
    "longitude": "-90.0117264638219",
    "latitude": "29.93504139585885",
    "geocoded_column": {
      "latitude": "29.93504139585885",
      "longitude": "-90.0117264638219"
    }
  },
  {
    "service_request": "2022-860632",
    "request_type": "Traffic Signals/Signs/Striping/Streetlights",
    "request_reason": "Traffic Signal Malfunctioning/Damaged",
    "date_created": "2022-02-12T15:14:11.000",
    "date_modified": "2022-02-12T15:14:11.000",
    "request_status": "Pending",
    "responsible_agency": "Department of Public Works",
    "final_address": "ESPLANADE AVE & N CLAIBORNE AVE",
    "address_councildis": "D",
    "status": "Pending",
    "rowid": "860632",
    "final_x": "3681231.3",
    "final_y": "536639.18",
    "longitude": "-90.06874038104324",
    "latitude": "29.969579834804723",
    "geocoded_column": {
      "latitude": "29.969579834804723",
      "longitude": "-90.06874038104324"
    }
  },
  {
    "service_request": "2022-860631",
    "request_type": "Roads/Drainage",
    "request_reason": "Street Flooding / Drainage",
    "date_created": "2022-02-12T15:12:38.000",
    "date_modified": "2022-02-12T15:12:38.000",
    "request_status": "Pending",
    "responsible_agency": "Department of Public Works",
    "final_address": "2735 Saint Philip St, New Orleans, Louisiana, 70119",
    "status": "Pending",
    "rowid": "860631",
    "longitude": "0.0",
    "latitude": "0.0",
    "geocoded_column": {
      "latitude": "0.0",
      "longitude": "0.0"
    }
  },
  {
    "service_request": "2022-860630",
    "request_type": "Trash/Recycling",
    "request_reason": "Illegal Dumping",
    "date_created": "2022-02-12T14:47:29.000",
    "date_modified": "2022-02-12T14:47:29.000",
    "request_status": "Pending",
    "responsible_agency": "Department of Sanitation",
    "final_address": "1819 S Liberty St",
    "address_councildis": "B",
    "status": "Pending",
    "rowid": "860630",
    "final_x": "3676525.49979",
    "final_y": "526286.049662",
    "longitude": "-90.08395821749045",
    "latitude": "29.941254158703206",
    "geocoded_column": {
      "latitude": "29.941254158703206",
      "longitude": "-90.08395821749045"
    }
  },
  {
    "service_request": "2022-860629",
    "request_type": "Trash/Recycling",
    "request_reason": "Replace Trash Cart",
    "date_created": "2022-02-12T14:37:19.000",
    "date_modified": "2022-02-12T14:37:20.000",
    "request_status": "Pending",
    "responsible_agency": "Department of Sanitation",
    "final_address": "8121 Fig St",
    "address_councildis": "A",
    "status": "Assigned to Contractor",
    "contractor": "Richards Disposal",
    "rowid": "860629",
    "final_x": "3666230.68321",
    "final_y": "533313.289924",
    "longitude": "-90.11622536518563",
    "latitude": "29.960881422407002",
    "geocoded_column": {
      "latitude": "29.960881422407002",
      "longitude": "-90.11622536518563"
    }
  },
  {
    "service_request": "2022-860628",
    "request_type": "Trash/Recycling",
    "request_reason": "Missed Trash Pick-Up",
    "date_created": "2022-02-12T14:28:04.000",
    "date_modified": "2022-02-12T14:28:05.000",
    "request_status": "Pending",
    "responsible_agency": "Department of Sanitation",
    "final_address": "4934 Laine Ave",
    "address_councildis": "E",
    "status": "Assigned to Contractor",
    "contractor": "Metro Disposal",
    "rowid": "860628",
    "final_x": "3705527.16875",
    "final_y": "556406.305626",
    "longitude": "-89.99128142070897",
    "latitude": "30.023172340590907",
    "geocoded_column": {
      "latitude": "30.023172340590907",
      "longitude": "-89.99128142070897"
    }
  },
  {
    "service_request": "2022-860627",
    "request_type": "Property Maintenance",
    "request_reason": "Property Maintenance",
    "date_created": "2022-02-12T14:25:37.000",
    "date_modified": "2022-02-12T14:25:37.000",
    "request_status": "Pending",
    "responsible_agency": "Department of Code Enforcement",
    "final_address": "1329 Mandolin St",
    "address_councildis": "D",
    "status": "Pending",
    "rowid": "860627",
    "final_x": "3677456.01672",
    "final_y": "548108.25301",
    "longitude": "-90.08026695708274",
    "latitude": "30.00122982448429",
    "geocoded_column": {
      "latitude": "30.00122982448429",
      "longitude": "-90.08026695708274"
    }
  },
  {
    "service_request": "2022-860626",
    "request_type": "Trash/Recycling",
    "request_reason": "Missed Trash Pick-Up",
    "date_created": "2022-02-12T14:20:09.000",
    "date_modified": "2022-02-12T14:20:09.000",
    "request_status": "Pending",
    "responsible_agency": "Department of Sanitation",
    "final_address": "4843 Chrysler St",
    "address_councildis": "E",
    "status": "Assigned to Contractor",
    "contractor": "Metro Disposal",
    "rowid": "860626",
    "final_x": "3715337.28485",
    "final_y": "557329.737563",
    "longitude": "-89.96024897473912",
    "latitude": "30.025391831821544",
    "geocoded_column": {
      "latitude": "30.025391831821544",
      "longitude": "-89.96024897473912"
    }
  },
  {
    "service_request": "2022-860625",
    "request_type": "Trash/Recycling",
    "request_reason": "Request a Large Item Pick Up",
    "date_created": "2022-02-12T14:17:04.000",
    "date_modified": "2022-02-12T14:17:05.000",
    "request_status": "Pending",
    "responsible_agency": "Department of Sanitation",
    "final_address": "951 Navarre Ave, New Orleans, Louisiana, 70124",
    "status": "Assigned to Contractor",
    "rowid": "860625",
    "longitude": "0.0",
    "latitude": "0.0",
    "geocoded_column": {
      "latitude": "0.0",
      "longitude": "0.0"
    }
  },
  {
    "service_request": "2022-860624",
    "request_type": "Trash/Recycling",
    "request_reason": "Request a Large Item Pick Up",
    "date_created": "2022-02-12T14:11:57.000",
    "date_modified": "2022-02-12T14:11:58.000",
    "request_status": "Pending",
    "responsible_agency": "Department of Sanitation",
    "final_address": "951 Navarre St",
    "address_councildis": "A",
    "status": "Assigned to Contractor",
    "contractor": "Metro Disposal",
    "rowid": "860624",
    "final_x": "3669914.11822",
    "final_y": "543765.706766",
    "longitude": "-90.10423969464283",
    "latitude": "29.989513948147117",
    "geocoded_column": {
      "latitude": "29.989513948147117",
      "longitude": "-90.10423969464283"
    }
  },
  {
    "service_request": "2022-860623",
    "request_type": "Trash/Recycling",
    "request_reason": "Missed Trash Pick-Up",
    "date_created": "2022-02-12T14:03:06.000",
    "date_modified": "2022-02-12T14:03:07.000",
    "request_status": "Pending",
    "responsible_agency": "Department of Sanitation",
    "final_address": "8718 Grant St",
    "address_councildis": "E",
    "status": "Assigned to Contractor",
    "contractor": "Metro Disposal",
    "rowid": "860623",
    "final_x": "3707725.61822",
    "final_y": "554379.357144",
    "longitude": "-89.98441025848267",
    "latitude": "30.01752803590589",
    "geocoded_column": {
      "latitude": "30.01752803590589",
      "longitude": "-89.98441025848267"
    }
  },
  {
    "service_request": "2022-860621",
    "request_type": "Abandoned Vehicles",
    "request_reason": "Vehicle Blocking Your Driveway",
    "date_created": "2022-02-12T13:41:37.000",
    "date_modified": "2022-02-12T13:41:37.000",
    "request_status": "Pending",
    "responsible_agency": "Department of Public Works",
    "final_address": "2432 Dumaine Street",
    "address_councildis": "D",
    "status": "Pending",
    "rowid": "860621",
    "final_x": "3678019.8285",
    "final_y": "536817.822216",
    "longitude": "-90.07887631013025",
    "latitude": "29.97016810518361",
    "geocoded_column": {
      "latitude": "29.97016810518361",
      "longitude": "-90.07887631013025"
    }
  },
  {
    "service_request": "2022-860619",
    "request_type": "Abandoned Vehicles",
    "request_reason": "Abandoned/Junk Vehicles",
    "date_created": "2022-02-12T13:26:53.000",
    "date_modified": "2022-02-12T13:26:53.000",
    "request_status": "Pending",
    "responsible_agency": "Department of Public Works",
    "final_address": "1807 Old Prieur St",
    "address_councildis": "D",
    "status": "Pending",
    "rowid": "860619",
    "final_x": "3682000.4806",
    "final_y": "539403.374986",
    "longitude": "-90.06621470977804",
    "latitude": "29.977157049105102",
    "geocoded_column": {
      "latitude": "29.977157049105102",
      "longitude": "-90.06621470977804"
    }
  },
  {
    "service_request": "2022-860618",
    "request_type": "Abandoned Vehicles",
    "request_reason": "Abandoned/Junk Vehicles",
    "date_created": "2022-02-12T13:10:20.000",
    "date_modified": "2022-02-12T13:10:20.000",
    "request_status": "Pending",
    "responsible_agency": "Department of Public Works",
    "final_address": "1540 N Broad St",
    "address_councildis": "D",
    "status": "Pending",
    "rowid": "860618",
    "final_x": "3678912.58779",
    "final_y": "539777.695562",
    "longitude": "-90.07595430799411",
    "latitude": "29.978279833004798",
    "geocoded_column": {
      "latitude": "29.978279833004798",
      "longitude": "-90.07595430799411"
    }
  },
  {
    "service_request": "2022-860617",
    "request_type": "Roads/Drainage",
    "request_reason": "Street Subsidence (Sinking)",
    "date_created": "2022-02-12T12:55:06.000",
    "date_modified": "2022-02-12T12:55:06.000",
    "request_status": "Pending",
    "responsible_agency": "Department of Public Works",
    "final_address": "7200 Boston Dr",
    "address_councildis": "E",
    "status": "Pending",
    "rowid": "860617",
    "final_x": "3706068.55403",
    "final_y": "561326.240094",
    "longitude": "-89.98938843918204",
    "latitude": "30.036682789638512",
    "geocoded_column": {
      "latitude": "30.036682789638512",
      "longitude": "-89.98938843918204"
    }
  },
  {
    "service_request": "2022-860616",
    "request_type": "Trash/Recycling",
    "request_reason": "Order Trash Cart",
    "date_created": "2022-02-12T12:44:57.000",
    "date_modified": "2022-02-12T12:44:57.000",
    "request_status": "Pending",
    "responsible_agency": "Department of Sanitation",
    "final_address": "11308 King Richard Dr, New Orleans, Louisiana, 70128",
    "address_councildis": "E",
    "status": "Assigned to Contractor",
    "contractor": "Metro Disposal",
    "rowid": "860616",
    "final_x": "3717314.2334",
    "final_y": "556428.16009",
    "longitude": "-89.95403647609145",
    "latitude": "30.02284756597243",
    "geocoded_column": {
      "latitude": "30.02284756597243",
      "longitude": "-89.95403647609145"
    }
  },
  {
    "service_request": "2022-860615",
    "request_type": "Abandoned Vehicles",
    "request_reason": "Abandoned/Junk Vehicles",
    "date_created": "2022-02-12T12:43:47.000",
    "date_modified": "2022-02-12T12:43:47.000",
    "request_status": "Pending",
    "responsible_agency": "Department of Public Works",
    "final_address": "2119 Erato St",
    "address_councildis": "B",
    "status": "Pending",
    "rowid": "860615",
    "final_x": "3677760.0187",
    "final_y": "527201.238911",
    "longitude": "-90.08002900170735",
    "latitude": "29.943733556069297",
    "geocoded_column": {
      "latitude": "29.943733556069297",
      "longitude": "-90.08002900170735"
    }
  },
  {
    "service_request": "2022-860614",
    "request_type": "Abandoned Vehicles",
    "request_reason": "Abandoned/Junk Vehicles",
    "date_created": "2022-02-12T12:43:44.000",
    "date_modified": "2022-02-12T12:43:44.000",
    "request_status": "Pending",
    "responsible_agency": "Department of Public Works",
    "final_address": "2119 Erato St",
    "address_councildis": "B",
    "status": "Pending",
    "rowid": "860614",
    "final_x": "3677760.0187",
    "final_y": "527201.238911",
    "longitude": "-90.08002900170735",
    "latitude": "29.943733556069297",
    "geocoded_column": {
      "latitude": "29.943733556069297",
      "longitude": "-90.08002900170735"
    }
  },
  {
    "service_request": "2022-860613",
    "request_type": "Roads/Drainage",
    "request_reason": "Street Flooding / Drainage",
    "date_created": "2022-02-12T12:41:36.000",
    "date_modified": "2022-02-12T12:41:36.000",
    "request_status": "Pending",
    "responsible_agency": "Department of Public Works",
    "final_address": "934 Port St",
    "address_councildis": "C",
    "status": "Pending",
    "rowid": "860613",
    "final_x": "3687264.99522",
    "final_y": "535893.784327",
    "longitude": "-90.04971187264331",
    "latitude": "29.967345777334884",
    "geocoded_column": {
      "latitude": "29.967345777334884",
      "longitude": "-90.04971187264331"
    }
  },
  {
    "service_request": "2022-860612",
    "request_type": "Abandoned Vehicles",
    "request_reason": "Abandoned/Junk Vehicles",
    "date_created": "2022-02-12T12:34:58.000",
    "date_modified": "2022-02-12T12:34:58.000",
    "request_status": "Pending",
    "responsible_agency": "Department of Public Works",
    "final_address": "7321 Newcastle St",
    "address_councildis": "E",
    "status": "Pending",
    "rowid": "860612",
    "final_x": "3697587.67223",
    "final_y": "558496.11894",
    "longitude": "-90.01629246222988",
    "latitude": "30.029171828013045",
    "geocoded_column": {
      "latitude": "30.029171828013045",
      "longitude": "-90.01629246222988"
    }
  },
  {
    "service_request": "2022-860611",
    "request_type": "Roads/Drainage",
    "request_reason": "Street Subsidence (Sinking)",
    "date_created": "2022-02-12T12:21:32.000",
    "date_modified": "2022-02-12T12:21:32.000",
    "request_status": "Pending",
    "responsible_agency": "Department of Public Works",
    "final_address": "3240 Nashville Ave",
    "address_councildis": "A",
    "status": "Pending",
    "rowid": "860611",
    "final_x": "3667882.07303",
    "final_y": "527779.398399",
    "longitude": "-90.11119695740331",
    "latitude": "29.94561669520137",
    "geocoded_column": {
      "latitude": "29.94561669520137",
      "longitude": "-90.11119695740331"
    }
  },
  {
    "service_request": "2022-860610",
    "request_type": "Trash/Recycling",
    "request_reason": "Missed Trash Pick-Up",
    "date_created": "2022-02-12T12:03:39.000",
    "date_modified": "2022-02-12T12:03:40.000",
    "request_status": "Pending",
    "responsible_agency": "Department of Sanitation",
    "final_address": "4635 Redwood St",
    "address_councildis": "E",
    "status": "Assigned to Contractor",
    "contractor": "Metro Disposal",
    "rowid": "860610",
    "final_x": "3712630.38738",
    "final_y": "555520.216089",
    "longitude": "-89.96887037017903",
    "latitude": "30.020505273276047",
    "geocoded_column": {
      "latitude": "30.020505273276047",
      "longitude": "-89.96887037017903"
    }
  },
  {
    "service_request": "2022-860609",
    "request_type": "Abandoned Vehicles",
    "request_reason": "Abandoned/Junk Vehicles",
    "date_created": "2022-02-12T12:01:55.000",
    "date_modified": "2022-02-12T12:01:55.000",
    "request_status": "Pending",
    "responsible_agency": "Department of Public Works",
    "final_address": "1727 Bordeaux St",
    "address_councildis": "B",
    "status": "Pending",
    "rowid": "860609",
    "final_x": "3669423.18746",
    "final_y": "521314.262521",
    "longitude": "-90.10654968566124",
    "latitude": "29.92779436673298",
    "geocoded_column": {
      "latitude": "29.92779436673298",
      "longitude": "-90.10654968566124"
    }
  },
  {
    "service_request": "2022-860608",
    "request_type": "Abandoned Vehicles",
    "request_reason": "Abandoned/Junk Vehicles",
    "date_created": "2022-02-12T11:50:43.000",
    "date_modified": "2022-02-12T11:50:43.000",
    "request_status": "Pending",
    "responsible_agency": "Department of Public Works",
    "final_address": "1727 Bordeaux St",
    "address_councildis": "B",
    "status": "Pending",
    "rowid": "860608",
    "final_x": "3669423.18746",
    "final_y": "521314.262521",
    "longitude": "-90.10654968566124",
    "latitude": "29.92779436673298",
    "geocoded_column": {
      "latitude": "29.92779436673298",
      "longitude": "-90.10654968566124"
    }
  },
  {
    "service_request": "2022-860607",
    "request_type": "Trash/Recycling",
    "request_reason": "MIssed Recycling Pick-Up",
    "date_created": "2022-02-12T11:31:08.000",
    "date_modified": "2022-02-12T11:31:08.000",
    "request_status": "Pending",
    "responsible_agency": "Department of Sanitation",
    "final_address": "8205 Neron Pl",
    "address_councildis": "A",
    "status": "Assigned to Contractor",
    "contractor": "Richards Disposal",
    "rowid": "860607",
    "final_x": "3664214.43226",
    "final_y": "531598.190851",
    "longitude": "-90.12264955618208",
    "latitude": "29.956224193580095",
    "geocoded_column": {
      "latitude": "29.956224193580095",
      "longitude": "-90.12264955618208"
    }
  },
  {
    "service_request": "2022-860606",
    "request_type": "Trash/Recycling",
    "request_reason": "Replace Trash Cart",
    "date_created": "2022-02-12T11:20:20.000",
    "date_modified": "2022-02-12T11:20:21.000",
    "request_status": "Pending",
    "responsible_agency": "Department of Sanitation",
    "final_address": "5700 Pembrook Dr",
    "address_councildis": "C",
    "status": "Assigned to Contractor",
    "contractor": "Richards Disposal",
    "rowid": "860606",
    "final_x": "3704670.77034",
    "final_y": "520932.173369",
    "longitude": "-89.99529634866032",
    "latitude": "29.92565904028873",
    "geocoded_column": {
      "latitude": "29.92565904028873",
      "longitude": "-89.99529634866032"
    }
  },
  {
    "service_request": "2022-860605",
    "request_type": "Traffic Signals/Signs/Striping/Streetlights",
    "request_reason": "Request for Stop Sign",
    "date_created": "2022-02-12T11:17:44.000",
    "date_modified": "2022-02-12T11:17:44.000",
    "request_status": "Pending",
    "responsible_agency": "Department of Public Works",
    "final_address": "1102 Lowerline St",
    "address_councildis": "A",
    "status": "Pending",
    "rowid": "860605",
    "final_x": "3663474.69293",
    "final_y": "526580.69555",
    "longitude": "-90.12515247026288",
    "latitude": "29.94244916786242",
    "geocoded_column": {
      "latitude": "29.94244916786242",
      "longitude": "-90.12515247026288"
    }
  },
  {
    "service_request": "2022-860604",
    "request_type": "Trash/Recycling",
    "request_reason": "Repair Trash Cart",
    "date_created": "2022-02-12T11:15:34.000",
    "date_modified": "2022-02-12T11:15:35.000",
    "request_status": "Pending",
    "responsible_agency": "Department of Sanitation",
    "final_address": "5333 Coliseum St",
    "address_councildis": "B",
    "status": "Assigned to Contractor",
    "contractor": "Richards Disposal",
    "rowid": "860604",
    "final_x": "3667383.56705",
    "final_y": "519801.768312",
    "longitude": "-90.1130391562591",
    "latitude": "29.923695373444726",
    "geocoded_column": {
      "latitude": "29.923695373444726",
      "longitude": "-90.1130391562591"
    }
  },
  {
    "service_request": "2022-860603",
    "request_type": "Trash/Recycling",
    "request_reason": "Replace Trash Cart",
    "date_created": "2022-02-12T11:02:11.000",
    "date_modified": "2022-02-12T11:02:12.000",
    "request_status": "Pending",
    "responsible_agency": "Department of Sanitation",
    "final_address": "433 Burgundy St",
    "address_councildis": "C",
    "status": "Assigned to Contractor",
    "contractor": "Empire Services",
    "rowid": "860603",
    "final_x": "3681160.5668",
    "final_y": "532468.786244",
    "longitude": "-90.06910907420115",
    "latitude": "29.958114824683726",
    "geocoded_column": {
      "latitude": "29.958114824683726",
      "longitude": "-90.06910907420115"
    }
  },
  {
    "service_request": "2022-860602",
    "request_type": "Property Maintenance",
    "request_reason": "Property Maintenance",
    "date_created": "2022-02-12T10:55:20.000",
    "date_modified": "2022-02-12T10:55:20.000",
    "request_status": "Pending",
    "responsible_agency": "Department of Code Enforcement",
    "final_address": "1619 Ursulines Ave",
    "address_councildis": "D",
    "status": "Pending",
    "rowid": "860602",
    "final_x": "3680863.66287",
    "final_y": "535677.607303",
    "longitude": "-90.06993489281842",
    "latitude": "29.966946991489632",
    "geocoded_column": {
      "latitude": "29.966946991489632",
      "longitude": "-90.06993489281842"
    }
  },
  {
    "service_request": "2022-860601",
    "request_type": "Property Maintenance",
    "request_reason": "Property Maintenance",
    "date_created": "2022-02-12T10:35:45.000",
    "date_modified": "2022-02-12T10:35:45.000",
    "request_status": "Pending",
    "responsible_agency": "Department of Code Enforcement",
    "final_address": "8316 Oleander St",
    "address_councildis": "A",
    "status": "Pending",
    "rowid": "860601",
    "final_x": "3666092.58919",
    "final_y": "534225.456325",
    "longitude": "-90.11663085573271",
    "latitude": "29.96339361247495",
    "geocoded_column": {
      "latitude": "29.96339361247495",
      "longitude": "-90.11663085573271"
    }
  },
  {
    "service_request": "2022-860600",
    "request_type": "Roads/Drainage",
    "request_reason": "Man hole cover issue",
    "date_created": "2022-02-12T10:29:15.000",
    "date_modified": "2022-02-12T10:29:15.000",
    "request_status": "Pending",
    "responsible_agency": "Department of Public Works",
    "final_address": "DUMAINE ST & DECATUR ST",
    "address_councildis": "C",
    "status": "Pending",
    "rowid": "860600",
    "final_x": "3683617.3",
    "final_y": "532578.38",
    "longitude": "-90.06134756058213",
    "latitude": "29.958341410343664",
    "geocoded_column": {
      "latitude": "29.958341410343664",
      "longitude": "-90.06134756058213"
    }
  },
  {
    "service_request": "2022-860598",
    "request_type": "Traffic Signals/Signs/Striping/Streetlights",
    "request_reason": "Traffic Signal Malfunctioning/Damaged",
    "date_created": "2022-02-12T09:58:20.000",
    "date_modified": "2022-02-12T09:58:20.000",
    "request_status": "Pending",
    "responsible_agency": "Department of Public Works",
    "final_address": "525 State St",
    "address_councildis": "A",
    "status": "Pending",
    "rowid": "860598",
    "final_x": "3664494.58656",
    "final_y": "518423.212982",
    "longitude": "-90.12220464572418",
    "latitude": "29.919989060642724",
    "geocoded_column": {
      "latitude": "29.919989060642724",
      "longitude": "-90.12220464572418"
    }
  },
  {
    "service_request": "2022-860597",
    "request_type": "Health Related Questions",
    "request_reason": "Noise Ordinance Complaint",
    "date_created": "2022-02-12T09:56:56.000",
    "date_modified": "2022-02-12T09:56:56.000",
    "request_status": "Pending",
    "responsible_agency": "Health Department",
    "final_address": "260 Abalon Ct, New Orleans, Louisiana, 70114",
    "address_councildis": "C",
    "status": "Pending",
    "rowid": "860597",
    "final_x": "3689355.63689",
    "final_y": "530855.410498",
    "longitude": "-90.0432887522724",
    "latitude": "29.953427437266736",
    "geocoded_column": {
      "latitude": "29.953427437266736",
      "longitude": "-90.0432887522724"
    }
  },
  {
    "service_request": "2022-860596",
    "request_type": "Property Maintenance",
    "request_reason": "Property Maintenance",
    "date_created": "2022-02-12T09:47:01.000",
    "date_modified": "2022-02-12T09:47:01.000",
    "request_status": "Pending",
    "responsible_agency": "Department of Code Enforcement",
    "final_address": "1619 Ursulines Ave",
    "address_councildis": "D",
    "status": "Pending",
    "rowid": "860596",
    "final_x": "3680863.66287",
    "final_y": "535677.607303",
    "longitude": "-90.06993489281842",
    "latitude": "29.966946991489632",
    "geocoded_column": {
      "latitude": "29.966946991489632",
      "longitude": "-90.06993489281842"
    }
  },
  {
    "service_request": "2022-860595",
    "request_type": "Trash/Recycling",
    "request_reason": "Missed Trash Pick-Up",
    "date_created": "2022-02-12T09:42:00.000",
    "date_modified": "2022-02-12T09:42:01.000",
    "request_status": "Pending",
    "responsible_agency": "Department of Sanitation",
    "final_address": "927 Royal St",
    "address_councildis": "C",
    "status": "Assigned to Contractor",
    "contractor": "Empire Services",
    "rowid": "860595",
    "final_x": "3683113.71426",
    "final_y": "533239.977732",
    "longitude": "-90.06291458363339",
    "latitude": "29.960175939607936",
    "geocoded_column": {
      "latitude": "29.960175939607936",
      "longitude": "-90.06291458363339"
    }
  },
  {
    "service_request": "2022-860594",
    "request_type": "Roads/Drainage",
    "request_reason": "Man hole cover issue",
    "date_created": "2022-02-12T09:24:15.000",
    "date_modified": "2022-02-12T09:24:15.000",
    "request_status": "Pending",
    "responsible_agency": "Department of Public Works",
    "final_address": "915 Conti St",
    "address_councildis": "C",
    "status": "Pending",
    "rowid": "860594",
    "final_x": "3681227.66434",
    "final_y": "532128.050755",
    "longitude": "-90.06890907188632",
    "latitude": "29.9571758820904",
    "geocoded_column": {
      "latitude": "29.9571758820904",
      "longitude": "-90.06890907188632"
    }
  },
  {
    "service_request": "2022-860593",
    "request_type": "Trash/Recycling",
    "request_reason": "Missed Trash Pick-Up",
    "date_created": "2022-02-12T09:19:54.000",
    "date_modified": "2022-02-12T09:24:06.000",
    "request_status": "Pending",
    "responsible_agency": "Department of Sanitation",
    "final_address": "4137 General Ogden St, New Orleans, Louisiana, 70118",
    "address_councildis": "A",
    "status": "Assigned to Contractor",
    "contractor": "Richards Disposal",
    "rowid": "860593",
    "final_x": "3667022.69581",
    "final_y": "538069.887625",
    "longitude": "-90.11356443502756",
    "latitude": "29.973937331843185",
    "geocoded_column": {
      "latitude": "29.973937331843185",
      "longitude": "-90.11356443502756"
    }
  },
  {
    "service_request": "2022-860591",
    "request_type": "Trash/Recycling",
    "request_reason": "Request a Large Item Pick Up",
    "date_created": "2022-02-12T09:19:24.000",
    "date_modified": "2022-02-12T09:19:25.000",
    "request_status": "Pending",
    "responsible_agency": "Department of Sanitation",
    "final_address": "2768 N Dorgenois St, New Orleans, Louisiana, 70117",
    "address_councildis": "D",
    "status": "Assigned to Contractor",
    "contractor": "Metro Disposal",
    "rowid": "860591",
    "final_x": "3687828.54582",
    "final_y": "541684.987532",
    "longitude": "-90.04772698133753",
    "latitude": "29.983252175589712",
    "geocoded_column": {
      "latitude": "29.983252175589712",
      "longitude": "-90.04772698133753"
    }
  },
  {
    "service_request": "2022-860590",
    "request_type": "Trash/Recycling",
    "request_reason": "Missed Trash Pick-Up",
    "date_created": "2022-02-12T09:13:58.000",
    "date_modified": "2022-02-12T09:13:58.000",
    "request_status": "Pending",
    "responsible_agency": "Department of Sanitation",
    "final_address": "4137 General Ogden St, New Orleans, Louisiana, 70118",
    "address_councildis": "A",
    "status": "Assigned to Contractor",
    "contractor": "Richards Disposal",
    "rowid": "860590",
    "final_x": "3667022.69581",
    "final_y": "538069.887625",
    "longitude": "-90.11356443502756",
    "latitude": "29.973937331843185",
    "geocoded_column": {
      "latitude": "29.973937331843185",
      "longitude": "-90.11356443502756"
    }
  },
  {
    "service_request": "2022-860589",
    "request_type": "Trash/Recycling",
    "request_reason": "Request a Large Item Pick Up",
    "date_created": "2022-02-12T09:09:55.000",
    "date_modified": "2022-02-12T09:09:56.000",
    "request_status": "Pending",
    "responsible_agency": "Department of Sanitation",
    "final_address": "5716 Laurel St",
    "address_councildis": "A",
    "status": "Assigned to Contractor",
    "contractor": "Richards Disposal",
    "rowid": "860589",
    "final_x": "3665445.68039",
    "final_y": "517932.344054",
    "longitude": "-90.11921890736036",
    "latitude": "29.918611648140505",
    "geocoded_column": {
      "latitude": "29.918611648140505",
      "longitude": "-90.11921890736036"
    }
  },
  {
    "service_request": "2022-860588",
    "request_type": "Trash/Recycling",
    "request_reason": "Repair Recycling Cart",
    "date_created": "2022-02-12T08:52:34.000",
    "date_modified": "2022-02-12T08:52:34.000",
    "request_status": "Pending",
    "responsible_agency": "Department of Sanitation",
    "final_address": "2008 Dumaine St",
    "address_councildis": "D",
    "status": "Pending",
    "rowid": "860588",
    "final_x": "3679253.02939",
    "final_y": "535868.562119",
    "longitude": "-90.07501465462701",
    "latitude": "29.967520784224973",
    "geocoded_column": {
      "latitude": "29.967520784224973",
      "longitude": "-90.07501465462701"
    }
  },
  {
    "service_request": "2022-860587",
    "request_type": "Trash/Recycling",
    "request_reason": "Illegal Dumping",
    "date_created": "2022-02-12T08:47:46.000",
    "date_modified": "2022-02-12T08:47:46.000",
    "request_status": "Pending",
    "responsible_agency": "Department of Sanitation",
    "final_address": "1820 Pauline St",
    "address_councildis": "D",
    "status": "Pending",
    "rowid": "860587",
    "final_x": "3691885.74704",
    "final_y": "538318.554953",
    "longitude": "-90.03503276337817",
    "latitude": "29.973869897390333",
    "geocoded_column": {
      "latitude": "29.973869897390333",
      "longitude": "-90.03503276337817"
    }
  },
  {
    "service_request": "2022-860586",
    "request_type": "Mosquito, Termite & Rodent Control",
    "request_reason": "Rodent Complaint (Rats)",
    "date_created": "2022-02-12T08:42:13.000",
    "date_modified": "2022-02-12T08:42:13.000",
    "request_status": "Pending",
    "responsible_agency": "Mosquito, Termite & Rodent Control Board",
    "final_address": "1838 Pauline St",
    "address_councildis": "D",
    "status": "Pending",
    "rowid": "860586",
    "final_x": "3691891.10096",
    "final_y": "538374.251849",
    "longitude": "-90.03501386147337",
    "latitude": "29.974022877273118",
    "geocoded_column": {
      "latitude": "29.974022877273118",
      "longitude": "-90.03501386147337"
    }
  },
  {
    "service_request": "2022-860585",
    "request_type": "Roads/Drainage",
    "request_reason": "Street Flooding / Drainage",
    "date_created": "2022-02-12T08:40:59.000",
    "date_modified": "2022-02-12T08:40:59.000",
    "request_status": "Pending",
    "responsible_agency": "Department of Public Works",
    "final_address": "6449 Avenue A",
    "address_councildis": "A",
    "status": "Pending",
    "rowid": "860585",
    "final_x": "3666029.40468",
    "final_y": "551069.295317",
    "longitude": "-90.1162654111666",
    "latitude": "30.009710308312005",
    "geocoded_column": {
      "latitude": "30.009710308312005",
      "longitude": "-90.1162654111666"
    }
  },
  {
    "service_request": "2022-860584",
    "request_type": "Trash/Recycling",
    "request_reason": "Request a Large Item Pick Up",
    "date_created": "2022-02-12T08:27:22.000",
    "date_modified": "2022-02-12T08:27:22.000",
    "request_status": "Pending",
    "responsible_agency": "Department of Sanitation",
    "final_address": "4712 Tulip St",
    "address_councildis": "E",
    "status": "Assigned to Contractor",
    "contractor": "Metro Disposal",
    "rowid": "860584",
    "final_x": "3702019.03556",
    "final_y": "554103.300888",
    "longitude": "-90.00245080205826",
    "latitude": "30.016952471920423",
    "geocoded_column": {
      "latitude": "30.016952471920423",
      "longitude": "-90.00245080205826"
    }
  },
  {
    "service_request": "2022-860583",
    "request_type": "Trash/Recycling",
    "request_reason": "Order Recycling Cart",
    "date_created": "2022-02-12T07:58:42.000",
    "date_modified": "2022-02-12T07:58:42.000",
    "request_status": "Pending",
    "responsible_agency": "Department of Sanitation",
    "final_address": "3413 Camp St",
    "address_councildis": "B",
    "status": "Pending",
    "rowid": "860583",
    "final_x": "3674726.85877",
    "final_y": "519948.705848",
    "longitude": "-90.08985400686382",
    "latitude": "29.923882325219097",
    "geocoded_column": {
      "latitude": "29.923882325219097",
      "longitude": "-90.08985400686382"
    }
  },
  {
    "service_request": "2022-860582",
    "request_type": "Roads/Drainage",
    "request_reason": "Pothole",
    "date_created": "2022-02-12T07:51:12.000",
    "date_modified": "2022-02-12T07:51:12.000",
    "request_status": "Pending",
    "responsible_agency": "Department of Public Works",
    "final_address": "1021 Decatur St",
    "address_councildis": "C",
    "status": "Pending",
    "rowid": "860582",
    "final_x": "3683914.61929",
    "final_y": "533034.587204",
    "longitude": "-90.06039270418516",
    "latitude": "29.95958674529692",
    "geocoded_column": {
      "latitude": "29.95958674529692",
      "longitude": "-90.06039270418516"
    }
  },
  {
    "service_request": "2022-860581",
    "request_type": "Roads/Drainage",
    "request_reason": "Pothole",
    "date_created": "2022-02-12T07:50:54.000",
    "date_modified": "2022-02-12T07:50:54.000",
    "request_status": "Pending",
    "responsible_agency": "Department of Public Works",
    "final_address": "1021 Decatur St",
    "address_councildis": "C",
    "status": "Pending",
    "rowid": "860581",
    "final_x": "3683914.61929",
    "final_y": "533034.587204",
    "longitude": "-90.06039270418516",
    "latitude": "29.95958674529692",
    "geocoded_column": {
      "latitude": "29.95958674529692",
      "longitude": "-90.06039270418516"
    }
  },
  {
    "service_request": "2022-860580",
    "request_type": "Tax and Revenue",
    "request_reason": "Personal Property Tax Question",
    "date_created": "2022-02-12T06:08:29.000",
    "date_modified": "2022-02-12T06:08:29.000",
    "request_status": "Pending",
    "responsible_agency": "Bureau of Treasury",
    "status": "Pending",
    "rowid": "860580",
    "longitude": "0.0",
    "latitude": "0.0",
    "geocoded_column": {
      "latitude": "0.0",
      "longitude": "0.0"
    }
  },
  {
    "service_request": "2022-860579",
    "request_type": "Abandoned Vehicles",
    "request_reason": "Abandoned/Junk Vehicles",
    "date_created": "2022-02-12T05:24:33.000",
    "date_modified": "2022-02-12T05:24:33.000",
    "request_status": "Pending",
    "responsible_agency": "Department of Public Works",
    "final_address": "1201 Marigny St",
    "address_councildis": "C",
    "status": "Pending",
    "rowid": "860579",
    "final_x": "3685419.20937",
    "final_y": "536738.670471",
    "longitude": "-90.05551112589927",
    "latitude": "29.96972564708198",
    "geocoded_column": {
      "latitude": "29.96972564708198",
      "longitude": "-90.05551112589927"
    }
  },