[
  {
    "service_request": "2022-862877",
    "request_type": "Health Related Questions",
    "request_reason": "Noise Ordinance Complaint",
    "date_created": "2022-02-22T22:56:30.000",
    "date_modified": "2022-02-22T22:56:30.000",
    "request_status": "Pending",
    "responsible_agency": "Health Department",
    "final_address": "711 Bourbon St, New Orleans, Louisiana, 70116",
    "address_councildis": "C",
    "status": "Pending",
    "rowid": "862877",
    "final_x": "3682299.38447",
    "final_y": "532765.705988",
    "longitude": "-90.06550263299877",
    "latitude": "29.95889665479323",
    "geocoded_column": {
      "latitude": "29.95889665479323",
      "longitude": "-90.06550263299877"
    }
  },
  {
    "service_request": "2022-862876",
    "request_type": "Health Related Questions",
    "request_reason": "Noise Ordinance Complaint",
    "date_created": "2022-02-22T22:29:43.000",
    "date_modified": "2022-02-22T22:29:43.000",
    "request_status": "Pending",
    "responsible_agency": "Health Department",
    "final_address": "2000 St Andrew St",
    "address_councildis": "B",
    "status": "Pending",
    "rowid": "862876",
    "final_x": "3677183.76661",
    "final_y": "525426.221181",
    "longitude": "-90.08190959104485",
    "latitude": "29.93887016179482",
    "geocoded_column": {
      "latitude": "29.93887016179482",
      "longitude": "-90.08190959104485"
    }
  },
  {
    "service_request": "2022-862875",
    "request_type": "Trash/Recycling",
    "request_reason": "Repair Trash Cart",
    "date_created": "2022-02-22T21:54:49.000",
    "date_modified": "2022-02-22T21:54:50.000",
    "request_status": "Pending",
    "responsible_agency": "Department of Sanitation",
    "final_address": "3035 General Taylor St",
    "address_councildis": "B",
    "status": "Assigned to Contractor",
    "contractor": "Richards Disposal",
    "rowid": "862875",
    "final_x": "3671432.22446",
    "final_y": "526283.649982",
    "longitude": "-90.10003877114559",
    "latitude": "29.941399280235576",
    "geocoded_column": {
      "latitude": "29.941399280235576",
      "longitude": "-90.10003877114559"
    }
  },
  {
    "service_request": "2022-862874",
    "request_type": "Property Maintenance",
    "request_reason": "Property Maintenance",
    "date_created": "2022-02-22T21:36:35.000",
    "date_modified": "2022-02-22T21:36:35.000",
    "request_status": "Pending",
    "responsible_agency": "Department of Code Enforcement",
    "final_address": "10948 Hayne Blvd",
    "address_councildis": "E",
    "status": "Pending",
    "rowid": "862874",
    "final_x": "3709532.45848",
    "final_y": "566966.734372",
    "longitude": "-89.97823107093508",
    "latitude": "30.0520797223644",
    "geocoded_column": {
      "latitude": "30.0520797223644",
      "longitude": "-89.97823107093508"
    }
  },
  {
    "service_request": "2022-862873",
    "request_type": "Trash/Recycling",
    "request_reason": "Missed Trash Pick-Up",
    "date_created": "2022-02-22T21:34:40.000",
    "date_modified": "2022-02-22T21:34:41.000",
    "request_status": "Pending",
    "responsible_agency": "Department of Sanitation",
    "final_address": "247 Opal St",
    "address_councildis": "D",
    "status": "Assigned to Contractor",
    "contractor": "Metro Disposal",
    "rowid": "862873",
    "final_x": "3667431.63661",
    "final_y": "555563.716121",
    "longitude": "-90.11168385610124",
    "latitude": "30.022027355063972",
    "geocoded_column": {
      "latitude": "30.022027355063972",
      "longitude": "-90.11168385610124"
    }
  },
  {
    "service_request": "2022-862872",
    "request_type": "Traffic Signals/Signs/Striping/Streetlights",
    "request_reason": "Street Light Outage/Malfunction",
    "date_created": "2022-02-22T21:27:17.000",
    "date_modified": "2022-02-22T21:27:18.000",
    "request_status": "Pending",
    "responsible_agency": "Department of Public Works",
    "final_address": "13106 Hayne Blvd",
    "address_councildis": "E",
    "status": "Pending",
    "contractor": "Royal Engineering",
    "rowid": "862872",
    "final_x": "3715764.55884",
    "final_y": "571130.936168",
    "longitude": "-89.9583755716543",
    "latitude": "30.063325433060513",
    "geocoded_column": {
      "latitude": "30.063325433060513",
      "longitude": "-89.9583755716543"
    }
  },
  {
    "service_request": "2022-862871",
    "request_type": "Traffic Signals/Signs/Striping/Streetlights",
    "request_reason": "Street Light Outage/Malfunction",
    "date_created": "2022-02-22T21:13:04.000",
    "date_modified": "2022-02-22T21:13:05.000",
    "request_status": "Pending",
    "responsible_agency": "Department of Public Works",
    "final_address": "23 Honeysuckle Ln",
    "address_councildis": "E",
    "status": "Pending",
    "contractor": "Royal Engineering",
    "rowid": "862871",
    "final_x": "3712947.10264",
    "final_y": "568449.062373",
    "longitude": "-89.96738267223158",
    "latitude": "30.056044040651045",
    "geocoded_column": {
      "latitude": "30.056044040651045",
      "longitude": "-89.96738267223158"
    }
  },
  {
    "service_request": "2022-862870",
    "request_type": "Traffic Signals/Signs/Striping/Streetlights",
    "request_reason": "Street Name Sign Damaged or Missing",
    "date_created": "2022-02-22T19:51:50.000",
    "date_modified": "2022-02-22T19:51:50.000",
    "request_status": "Pending",
    "responsible_agency": "Department of Public Works",
    "final_address": "900 Howard Ave",
    "address_councildis": "B",
    "status": "Pending",
    "rowid": "862870",
    "final_x": "3679280.57096",
    "final_y": "527611.107455",
    "longitude": "-90.07521400248727",
    "latitude": "29.944814739164837",
    "geocoded_column": {
      "latitude": "29.944814739164837",
      "longitude": "-90.07521400248727"
    }
  },
  {
    "service_request": "2022-862869",
    "request_type": "Safety & Permits",
    "request_reason": "Short term Rental (Enforcement)",
    "date_created": "2022-02-22T19:48:22.000",
    "date_modified": "2022-02-22T19:48:22.000",
    "request_status": "Pending",
    "responsible_agency": "Safety and Permits",
    "final_address": "1860 Burgundy St",
    "address_councildis": "C",
    "status": "Pending",
    "rowid": "862869",
    "final_x": "3683867.46351",
    "final_y": "535454.942598",
    "longitude": "-90.06045670835087",
    "latitude": "29.96624333054572",
    "geocoded_column": {
      "latitude": "29.96624333054572",
      "longitude": "-90.06045670835087"
    }
  },
  {
    "service_request": "2022-862868",
    "request_type": "Trash/Recycling",
    "request_reason": "Request a Large Item Pick Up",
    "date_created": "2022-02-22T19:46:11.000",
    "date_modified": "2022-02-22T19:46:12.000",
    "request_status": "Pending",
    "responsible_agency": "Department of Sanitation",
    "final_address": "1754 Pratt Dr",
    "address_councildis": "D",
    "status": "Assigned to Contractor",
    "contractor": "Metro Disposal",
    "rowid": "862868",
    "final_x": "3680533.89685",
    "final_y": "549376.204819",
    "longitude": "-90.0704995224288",
    "latitude": "30.00462332936836",
    "geocoded_column": {
      "latitude": "30.00462332936836",
      "longitude": "-90.0704995224288"
    }
  },
  {
    "service_request": "2022-862867",
    "request_type": "Traffic Signals/Signs/Striping/Streetlights",
    "request_reason": "Street Light Outage/Malfunction",
    "date_created": "2022-02-22T19:40:06.000",
    "date_modified": "2022-02-22T19:40:07.000",
    "request_status": "Pending",
    "responsible_agency": "Department of Public Works",
    "final_address": "818 Bourbon St",
    "address_councildis": "C",
    "status": "Pending",
    "contractor": "Royal Engineering",
    "rowid": "862867",
    "final_x": "3682615.78152",
    "final_y": "533091.092292",
    "longitude": "-90.06449215420184",
    "latitude": "29.959781726157583",
    "geocoded_column": {
      "latitude": "29.959781726157583",
      "longitude": "-90.06449215420184"
    }
  },
  {
    "service_request": "2022-862866",
    "request_type": "Traffic Signals/Signs/Striping/Streetlights",
    "request_reason": "Street Light Outage/Malfunction",
    "date_created": "2022-02-22T19:36:20.000",
    "date_modified": "2022-02-22T19:36:21.000",
    "request_status": "Pending",
    "responsible_agency": "Department of Public Works",
    "final_address": "11 Fortress Rd",
    "address_councildis": "D",
    "status": "Pending",
    "contractor": "Royal Engineering",
    "rowid": "862866",
    "final_x": "3676531.5275",
    "final_y": "554558.107224",
    "longitude": "-90.08296515783212",
    "latitude": "30.018992386574578",
    "geocoded_column": {
      "latitude": "30.018992386574578",
      "longitude": "-90.08296515783212"
    }
  },
  {
    "service_request": "2022-862865",
    "request_type": "Roads/Drainage",
    "request_reason": "Pothole",
    "date_created": "2022-02-22T19:11:56.000",
    "date_modified": "2022-02-22T19:11:56.000",
    "request_status": "Pending",
    "responsible_agency": "Department of Public Works",
    "final_address": "5600 BLK Abbey Dr",
    "address_councildis": "C",
    "status": "Pending",
    "rowid": "862865",
    "final_x": "3704669.96628",
    "final_y": "521147.385643",
    "longitude": "-89.99529095368702",
    "latitude": "29.926250824951907",
    "geocoded_column": {
      "latitude": "29.926250824951907",
      "longitude": "-89.99529095368702"
    }
  },
  {
    "service_request": "2022-862864",
    "request_type": "Abandoned Vehicles",
    "request_reason": "Abandoned/Junk Vehicles",
    "date_created": "2022-02-22T19:10:33.000",
    "date_modified": "2022-02-22T19:10:33.000",
    "request_status": "Pending",
    "responsible_agency": "Department of Public Works",
    "final_address": "900 BLK Euterpe St",
    "address_councildis": "B",
    "status": "Pending",
    "rowid": "862864",
    "final_x": "3680861.95287",
    "final_y": "524069.679339",
    "longitude": "-90.07034434986006",
    "latitude": "29.93502915173235",
    "geocoded_column": {
      "latitude": "29.93502915173235",
      "longitude": "-90.07034434986006"
    }
  },
  {
    "service_request": "2022-862863",
    "request_type": "Trash/Recycling",
    "request_reason": "Request a Large Item Pick Up",
    "date_created": "2022-02-22T19:08:05.000",
    "date_modified": "2022-02-22T19:08:07.000",
    "request_status": "Pending",
    "responsible_agency": "Department of Sanitation",
    "final_address": "932 St Peter St Apt A",
    "address_councildis": "C",
    "status": "Assigned to Contractor",
    "contractor": "Empire Services",
    "rowid": "862863",
    "final_x": "3681735.98709",
    "final_y": "533012.353988",
    "longitude": "-90.06727309262932",
    "latitude": "29.95959198152614",
    "geocoded_column": {
      "latitude": "29.95959198152614",
      "longitude": "-90.06727309262932"
    }
  },
  {
    "service_request": "2022-862862",
    "request_type": "Traffic Signals/Signs/Striping/Streetlights",
    "request_reason": "Road Surface Marking Maintenance-Parking Lane",
    "date_created": "2022-02-22T18:38:34.000",
    "date_modified": "2022-02-22T18:38:34.000",
    "request_status": "Pending",
    "responsible_agency": "Department of Public Works",
    "final_address": "1717 Kerlerec St",
    "address_councildis": "D",
    "status": "Pending",
    "rowid": "862862",
    "final_x": "3681115.45205",
    "final_y": "537242.631432",
    "longitude": "-90.06908521171943",
    "latitude": "29.971242633354112",
    "geocoded_column": {
      "latitude": "29.971242633354112",
      "longitude": "-90.06908521171943"
    }
  },
  {
    "service_request": "2022-862861",
    "request_type": "Roads/Drainage",
    "request_reason": "Road Shoulder Repair",
    "date_created": "2022-02-22T18:33:25.000",
    "date_modified": "2022-02-22T18:33:25.000",
    "request_status": "Pending",
    "responsible_agency": "Department of Public Works",
    "final_address": "995 Chapelle St",
    "address_councildis": "A",
    "status": "Pending",
    "rowid": "862861",
    "final_x": "3671278.09966",
    "final_y": "552522.399766",
    "longitude": "-90.09963344553836",
    "latitude": "30.013551496041316",
    "geocoded_column": {
      "latitude": "30.013551496041316",
      "longitude": "-90.09963344553836"
    }
  },
  {
    "service_request": "2022-862860",
    "request_type": "Traffic Signals/Signs/Striping/Streetlights",
    "request_reason": "Street Light Outage/Malfunction",
    "date_created": "2022-02-22T18:32:47.000",
    "date_modified": "2022-02-22T18:32:48.000",
    "request_status": "Pending",
    "responsible_agency": "Department of Public Works",
    "final_address": "7901 Crowder Blvd",
    "address_councildis": "E",
    "status": "Pending",
    "contractor": "Royal Engineering",
    "rowid": "862860",
    "final_x": "3703220.065",
    "final_y": "562663.083616",
    "longitude": "-89.99834097664298",
    "latitude": "30.040450140792508",
    "geocoded_column": {
      "latitude": "30.040450140792508",
      "longitude": "-89.99834097664298"
    }
  },
  {
    "service_request": "2022-862859",
    "request_type": "Traffic Signals/Signs/Striping/Streetlights",
    "request_reason": "Street Light Outage/Malfunction",
    "date_created": "2022-02-22T18:32:24.000",
    "date_modified": "2022-02-22T18:32:25.000",
    "request_status": "Pending",
    "responsible_agency": "Department of Public Works",
    "final_address": "7901 Crowder Blvd",
    "address_councildis": "E",
    "status": "Pending",
    "contractor": "Royal Engineering",
    "rowid": "862859",
    "final_x": "3703220.065",
    "final_y": "562663.083616",
    "longitude": "-89.99834097664298",
    "latitude": "30.040450140792508",
    "geocoded_column": {
      "latitude": "30.040450140792508",
      "longitude": "-89.99834097664298"
    }
  },
  {
    "service_request": "2022-862858",
    "request_type": "Traffic Signals/Signs/Striping/Streetlights",
    "request_reason": "Street Light Outage/Malfunction",
    "date_created": "2022-02-22T18:32:02.000",
    "date_modified": "2022-02-22T18:32:03.000",
    "request_status": "Pending",
    "responsible_agency": "Department of Public Works",
    "final_address": "7901 Crowder Blvd",
    "address_councildis": "E",
    "status": "Pending",
    "contractor": "Royal Engineering",
    "rowid": "862858",
    "final_x": "3703220.065",
    "final_y": "562663.083616",
    "longitude": "-89.99834097664298",
    "latitude": "30.040450140792508",
    "geocoded_column": {
      "latitude": "30.040450140792508",
      "longitude": "-89.99834097664298"
    }
  },
  {
    "service_request": "2022-862857",
    "request_type": "Traffic Signals/Signs/Striping/Streetlights",
    "request_reason": "Street Light Outage/Malfunction",
    "date_created": "2022-02-22T18:31:37.000",
    "date_modified": "2022-02-22T18:31:38.000",
    "request_status": "Pending",
    "responsible_agency": "Department of Public Works",
    "final_address": "7901 Crowder Blvd",
    "address_councildis": "E",
    "status": "Pending",
    "contractor": "Royal Engineering",
    "rowid": "862857",
    "final_x": "3703220.065",
    "final_y": "562663.083616",
    "longitude": "-89.99834097664298",
    "latitude": "30.040450140792508",
    "geocoded_column": {
      "latitude": "30.040450140792508",
      "longitude": "-89.99834097664298"
    }
  },
  {
    "service_request": "2022-862856",
    "request_type": "Traffic Signals/Signs/Striping/Streetlights",
    "request_reason": "Street Light Outage/Malfunction",
    "date_created": "2022-02-22T18:31:15.000",
    "date_modified": "2022-02-22T18:31:16.000",
    "request_status": "Pending",
    "responsible_agency": "Department of Public Works",
    "final_address": "7901 Crowder Blvd",
    "address_councildis": "E",
    "status": "Pending",
    "contractor": "Royal Engineering",
    "rowid": "862856",
    "final_x": "3703220.065",
    "final_y": "562663.083616",
    "longitude": "-89.99834097664298",
    "latitude": "30.040450140792508",
    "geocoded_column": {
      "latitude": "30.040450140792508",
      "longitude": "-89.99834097664298"
    }
  },
  {
    "service_request": "2022-862855",
    "request_type": "Traffic Signals/Signs/Striping/Streetlights",
    "request_reason": "Street Light Outage/Malfunction",
    "date_created": "2022-02-22T18:30:52.000",
    "date_modified": "2022-02-22T18:30:53.000",
    "request_status": "Pending",
    "responsible_agency": "Department of Public Works",
    "final_address": "7901 Crowder Blvd",
    "address_councildis": "E",
    "status": "Pending",
    "contractor": "Royal Engineering",
    "rowid": "862855",
    "final_x": "3703220.065",
    "final_y": "562663.083616",
    "longitude": "-89.99834097664298",
    "latitude": "30.040450140792508",
    "geocoded_column": {
      "latitude": "30.040450140792508",
      "longitude": "-89.99834097664298"
    }
  },
  {
    "service_request": "2022-862854",
    "request_type": "Traffic Signals/Signs/Striping/Streetlights",
    "request_reason": "Street Light Outage/Malfunction",
    "date_created": "2022-02-22T18:30:40.000",
    "date_modified": "2022-02-22T18:30:41.000",
    "request_status": "Pending",
    "responsible_agency": "Department of Public Works",
    "final_address": "7901 Crowder Blvd",
    "address_councildis": "E",
    "status": "Pending",
    "contractor": "Royal Engineering",
    "rowid": "862854",
    "final_x": "3703220.065",
    "final_y": "562663.083616",
    "longitude": "-89.99834097664298",
    "latitude": "30.040450140792508",
    "geocoded_column": {
      "latitude": "30.040450140792508",
      "longitude": "-89.99834097664298"
    }
  },
  {
    "service_request": "2022-862853",
    "request_type": "Traffic Signals/Signs/Striping/Streetlights",
    "request_reason": "Street Light Outage/Malfunction",
    "date_created": "2022-02-22T18:30:24.000",
    "date_modified": "2022-02-22T18:30:25.000",
    "request_status": "Pending",
    "responsible_agency": "Department of Public Works",
    "final_address": "7901 Crowder Blvd",
    "address_councildis": "E",
    "status": "Pending",
    "contractor": "Royal Engineering",
    "rowid": "862853",
    "final_x": "3703220.065",
    "final_y": "562663.083616",
    "longitude": "-89.99834097664298",
    "latitude": "30.040450140792508",
    "geocoded_column": {
      "latitude": "30.040450140792508",
      "longitude": "-89.99834097664298"
    }
  },
  {
    "service_request": "2022-862852",
    "request_type": "Traffic Signals/Signs/Striping/Streetlights",
    "request_reason": "Street Light Outage/Malfunction",
    "date_created": "2022-02-22T18:30:01.000",
    "date_modified": "2022-02-22T18:30:02.000",
    "request_status": "Pending",
    "responsible_agency": "Department of Public Works",
    "final_address": "7901 Crowder Blvd",
    "address_councildis": "E",
    "status": "Pending",
    "contractor": "Royal Engineering",
    "rowid": "862852",
    "final_x": "3703220.065",
    "final_y": "562663.083616",
    "longitude": "-89.99834097664298",
    "latitude": "30.040450140792508",
    "geocoded_column": {
      "latitude": "30.040450140792508",
      "longitude": "-89.99834097664298"
    }
  },
  {
    "service_request": "2022-862851",
    "request_type": "Traffic Signals/Signs/Striping/Streetlights",
    "request_reason": "Street Light Outage/Malfunction",
    "date_created": "2022-02-22T18:29:27.000",
    "date_modified": "2022-02-22T18:29:28.000",
    "request_status": "Pending",
    "responsible_agency": "Department of Public Works",
    "final_address": "7901 Crowder Blvd",
    "address_councildis": "E",
    "status": "Pending",
    "contractor": "Royal Engineering",
    "rowid": "862851",
    "final_x": "3703220.065",
    "final_y": "562663.083616",
    "longitude": "-89.99834097664298",
    "latitude": "30.040450140792508",
    "geocoded_column": {
      "latitude": "30.040450140792508",
      "longitude": "-89.99834097664298"
    }
  },
  {
    "service_request": "2022-862850",
    "request_type": "Abandoned Vehicles",
    "request_reason": "Abandoned/Junk Vehicles",
    "date_created": "2022-02-22T18:21:19.000",
    "date_modified": "2022-02-22T18:21:20.000",
    "request_status": "Pending",
    "responsible_agency": "Department of Public Works",
    "final_address": "2200 Napoleon Ave",
    "address_councildis": "B",
    "status": "Pending",
    "rowid": "862850",
    "final_x": "3670534.06945",
    "final_y": "523043.573755",
    "longitude": "-90.10298426821755",
    "latitude": "29.932516668063727",
    "geocoded_column": {
      "latitude": "29.932516668063727",
      "longitude": "-90.10298426821755"
    }
  },
  {
    "service_request": "2022-862849",
    "request_type": "Property Maintenance",
    "request_reason": "Property Maintenance",
    "date_created": "2022-02-22T18:10:41.000",
    "date_modified": "2022-02-22T18:10:41.000",
    "request_status": "Pending",
    "responsible_agency": "Department of Code Enforcement",
    "final_address": "1782 N Dorgenois St",
    "address_councildis": "D",
    "status": "Pending",
    "rowid": "862849",
    "final_x": "3680460.3037",
    "final_y": "540923.676811",
    "longitude": "-90.07102619121812",
    "latitude": "29.98138409271417",
    "geocoded_column": {
      "latitude": "29.98138409271417",
      "longitude": "-90.07102619121812"
    }
  },
  {
    "service_request": "2022-862848",
    "request_type": "Traffic Signals/Signs/Striping/Streetlights",
    "request_reason": "Street Light Outage/Malfunction",
    "date_created": "2022-02-22T18:04:35.000",
    "date_modified": "2022-02-22T18:04:36.000",
    "request_status": "Pending",
    "responsible_agency": "Department of Public Works",
    "final_address": "109 Lark St",
    "address_councildis": "D",
    "status": "Pending",
    "contractor": "Royal Engineering",
    "rowid": "862848",
    "final_x": "3674864.29409",
    "final_y": "556196.748954",
    "longitude": "-90.08817677621316",
    "latitude": "30.023547979881883",
    "geocoded_column": {
      "latitude": "30.023547979881883",
      "longitude": "-90.08817677621316"
    }
  },
  {
    "service_request": "2022-862847",
    "request_type": "Health Related Questions",
    "request_reason": "Noise Ordinance Complaint",
    "date_created": "2022-02-22T17:46:26.000",
    "date_modified": "2022-02-22T17:46:26.000",
    "request_status": "Pending",
    "responsible_agency": "Health Department",
    "final_address": "5335 St Charles Ave",
    "address_councildis": "B",
    "status": "Pending",
    "rowid": "862847",
    "final_x": "3667657.76039",
    "final_y": "521550.158521",
    "longitude": "-90.1121148042707",
    "latitude": "29.92849486045484",
    "geocoded_column": {
      "latitude": "29.92849486045484",
      "longitude": "-90.1121148042707"
    }
  },
  {
    "service_request": "2022-862846",
    "request_type": "Trash/Recycling",
    "request_reason": "Request a Large Item Pick Up",
    "date_created": "2022-02-22T17:38:13.000",
    "date_modified": "2022-02-22T17:38:14.000",
    "request_status": "Pending",
    "responsible_agency": "Department of Sanitation",
    "final_address": "2027 Marais St",
    "address_councildis": "C",
    "status": "Assigned to Contractor",
    "contractor": "Metro Disposal",
    "rowid": "862846",
    "final_x": "3684436.97653",
    "final_y": "536655.550791",
    "longitude": "-90.05861602111564",
    "latitude": "29.969527179147164",
    "geocoded_column": {
      "latitude": "29.969527179147164",
      "longitude": "-90.05861602111564"
    }
  },
  {
    "service_request": "2022-862844",
    "request_type": "Trash/Recycling",
    "request_reason": "Request a Large Item Pick Up",
    "date_created": "2022-02-22T17:35:48.000",
    "date_modified": "2022-02-22T17:35:48.000",
    "request_status": "Pending",
    "responsible_agency": "Department of Sanitation",
    "final_address": "2023 Mercedes Blvd",
    "address_councildis": "C",
    "status": "Assigned to Contractor",
    "contractor": "Richards Disposal",
    "rowid": "862844",
    "final_x": "3698049.10627",
    "final_y": "523460.569723",
    "longitude": "-90.01610705640411",
    "latitude": "29.93282221484074",
    "geocoded_column": {
      "latitude": "29.93282221484074",
      "longitude": "-90.01610705640411"
    }
  },
  {
    "service_request": "2022-862843",
    "request_type": "Trash/Recycling",
    "request_reason": "Request a Large Item Pick Up",
    "date_created": "2022-02-22T17:35:07.000",
    "date_modified": "2022-02-22T17:35:08.000",
    "request_status": "Pending",
    "responsible_agency": "Department of Sanitation",
    "final_address": "732 France St",
    "address_councildis": "C",
    "status": "Assigned to Contractor",
    "contractor": "Metro Disposal",
    "rowid": "862843",
    "final_x": "3692047.89014",
    "final_y": "533922.738053",
    "longitude": "-90.03467802600387",
    "latitude": "29.961777899264597",
    "geocoded_column": {
      "latitude": "29.961777899264597",
      "longitude": "-90.03467802600387"
    }
  },
  {
    "service_request": "2022-862842",
    "request_type": "Trash/Recycling",
    "request_reason": "Request a Large Item Pick Up",
    "date_created": "2022-02-22T17:35:04.000",
    "date_modified": "2022-02-22T17:35:05.000",
    "request_status": "Pending",
    "responsible_agency": "Department of Sanitation",
    "final_address": "1225 Louisa St",
    "address_councildis": "C",
    "status": "Assigned to Contractor",
    "contractor": "Metro Disposal",
    "rowid": "862842",
    "final_x": "3689734.15695",
    "final_y": "536415.813063",
    "longitude": "-90.04189566780137",
    "latitude": "29.968704884910395",
    "geocoded_column": {
      "latitude": "29.968704884910395",
      "longitude": "-90.04189566780137"
    }
  },
  {
    "service_request": "2022-862841",
    "request_type": "Trash/Recycling",
    "request_reason": "Request a Large Item Pick Up",
    "date_created": "2022-02-22T17:33:59.000",
    "date_modified": "2022-02-22T17:34:00.000",
    "request_status": "Pending",
    "responsible_agency": "Department of Sanitation",
    "final_address": "2023 Mercedes Blvd",
    "address_councildis": "C",
    "status": "Assigned to Contractor",
    "contractor": "Richards Disposal",
    "rowid": "862841",
    "final_x": "3698049.10627",
    "final_y": "523460.569723",
    "longitude": "-90.01610705640411",
    "latitude": "29.93282221484074",
    "geocoded_column": {
      "latitude": "29.93282221484074",
      "longitude": "-90.01610705640411"
    }
  },
  {
    "service_request": "2022-862840",
    "request_type": "Abandoned Vehicles",
    "request_reason": "Abandoned/Junk Vehicles",
    "date_created": "2022-02-22T17:33:03.000",
    "date_modified": "2022-02-22T17:34:42.000",
    "request_status": "Pending",
    "responsible_agency": "Department of Public Works",
    "final_address": "2306 Camp St",
    "address_councildis": "B",
    "status": "Pending",
    "rowid": "862840",
    "final_x": "3678284.17979",
    "final_y": "522076.443194",
    "longitude": "-90.07855127142224",
    "latitude": "29.929626280864753",
    "geocoded_column": {
      "latitude": "29.929626280864753",
      "longitude": "-90.07855127142224"
    }
  },
  {
    "service_request": "2022-862839",
    "request_type": "Trash/Recycling",
    "request_reason": "Missed Trash Pick-Up",
    "date_created": "2022-02-22T17:28:53.000",
    "date_modified": "2022-02-22T17:28:54.000",
    "request_status": "Pending",
    "responsible_agency": "Department of Sanitation",
    "final_address": "2218 General Taylor St",
    "address_councildis": "B",
    "status": "Assigned to Contractor",
    "contractor": "Richards Disposal",
    "rowid": "862839",
    "final_x": "3672063.26427",
    "final_y": "523309.380091",
    "longitude": "-90.09814767731935",
    "latitude": "29.933202312105387",
    "geocoded_column": {
      "latitude": "29.933202312105387",
      "longitude": "-90.09814767731935"
    }
  },
  {
    "service_request": "2022-862838",
    "request_type": "Trash/Recycling",
    "request_reason": "Repair Trash Cart",
    "date_created": "2022-02-22T17:18:51.000",
    "date_modified": "2022-02-22T17:18:52.000",
    "request_status": "Pending",
    "responsible_agency": "Department of Sanitation",
    "final_address": "1720 Upperline St",
    "address_councildis": "B",
    "status": "Assigned to Contractor",
    "contractor": "Richards Disposal",
    "rowid": "862838",
    "final_x": "3669004.93537",
    "final_y": "521267.481529",
    "longitude": "-90.10787159205766",
    "latitude": "29.927678040265288",
    "geocoded_column": {
      "latitude": "29.927678040265288",
      "longitude": "-90.10787159205766"
    }
  },
  {
    "service_request": "2022-862837",
    "request_type": "Roads/Drainage",
    "request_reason": "Pothole",
    "date_created": "2022-02-22T17:16:27.000",
    "date_modified": "2022-02-22T17:16:27.000",
    "request_status": "Pending",
    "responsible_agency": "Department of Public Works",
    "final_address": "1828 Forstall St",
    "address_councildis": "E",
    "status": "Pending",
    "rowid": "862837",
    "final_x": "3697021.47504",
    "final_y": "537081.59892",
    "longitude": "-90.01885790175108",
    "latitude": "29.970307708650353",
    "geocoded_column": {
      "latitude": "29.970307708650353",
      "longitude": "-90.01885790175108"
    }
  },
  {
    "service_request": "2022-862836",
    "request_type": "Abandoned Vehicles",
    "request_reason": "Abandoned/Junk Vehicles",
    "date_created": "2022-02-22T17:13:03.000",
    "date_modified": "2022-02-22T17:14:11.000",
    "request_status": "Pending",
    "responsible_agency": "Department of Public Works",
    "final_address": "DOWNMAN RD & CURRAN BLVD",
    "address_councildis": "D",
    "status": "Pending",
    "rowid": "862836",
    "final_x": "3694594.4",
    "final_y": "558628.48",
    "longitude": "-90.02574630322133",
    "latitude": "30.02963003170184",
    "geocoded_column": {
      "latitude": "30.02963003170184",
      "longitude": "-90.02574630322133"
    }
  },
  {
    "service_request": "2022-862835",
    "request_type": "Trash/Recycling",
    "request_reason": "Request a Large Item Pick Up",
    "date_created": "2022-02-22T17:10:50.000",
    "date_modified": "2022-02-22T17:10:51.000",
    "request_status": "Pending",
    "responsible_agency": "Department of Sanitation",
    "final_address": "1331 Congress St",
    "address_councildis": "D",
    "status": "Assigned to Contractor",
    "contractor": "Metro Disposal",
    "rowid": "862835",
    "final_x": "3690999.4806",
    "final_y": "536546.397255",
    "longitude": "-90.03789505458752",
    "latitude": "29.969024671856417",
    "geocoded_column": {
      "latitude": "29.969024671856417",
      "longitude": "-90.03789505458752"
    }
  },
  {
    "service_request": "2022-862834",
    "request_type": "Trash/Recycling",
    "request_reason": "Request a Large Item Pick Up",
    "date_created": "2022-02-22T17:09:17.000",
    "date_modified": "2022-02-22T17:09:20.000",
    "request_status": "Pending",
    "responsible_agency": "Department of Sanitation",
    "final_address": "4801 Francis Dr",
    "address_councildis": "D",
    "status": "Assigned to Contractor",
    "contractor": "Metro Disposal",
    "rowid": "862834",
    "final_x": "3698285.9537",
    "final_y": "554613.36956",
    "longitude": "-90.01422717121498",
    "latitude": "30.018473661517216",
    "geocoded_column": {
      "latitude": "30.018473661517216",
      "longitude": "-90.01422717121498"
    }
  },
  {
    "service_request": "2022-862832",
    "request_type": "Trash/Recycling",
    "request_reason": "Replace Trash Cart",
    "date_created": "2022-02-22T17:03:48.000",
    "date_modified": "2022-02-22T17:03:49.000",
    "request_status": "Pending",
    "responsible_agency": "Department of Sanitation",
    "final_address": "14562 Beekman Rd",
    "address_councildis": "E",
    "status": "Assigned to Contractor",
    "contractor": "Metro Disposal",
    "rowid": "862832",
    "final_x": "3721062.69049",
    "final_y": "572942.667305",
    "longitude": "-89.94155854593055",
    "latitude": "30.068131059149795",
    "geocoded_column": {
      "latitude": "30.068131059149795",
      "longitude": "-89.94155854593055"
    }
  },
  {
    "service_request": "2022-862831",
    "request_type": "Safety & Permits",
    "request_reason": "School Bus Complaints",
    "date_created": "2022-02-22T17:01:33.000",
    "date_modified": "2022-02-22T17:01:34.000",
    "request_status": "Pending",
    "responsible_agency": "Safety and Permits",
    "final_address": "COVE DR & MORRISON RD",
    "address_councildis": "E",
    "status": "Pending",
    "rowid": "862831",
    "final_x": "3700041.9",
    "final_y": "559163.08",
    "longitude": "-90.00851285164408",
    "latitude": "30.030927920569",
    "geocoded_column": {
      "latitude": "30.030927920569",
      "longitude": "-90.00851285164408"
    }
  },
  {
    "service_request": "2022-862830",
    "request_type": "Traffic Signals/Signs/Striping/Streetlights",
    "request_reason": "Traffic Sign Missing/Damaged",
    "date_created": "2022-02-22T16:59:18.000",
    "date_modified": "2022-02-22T16:59:18.000",
    "request_status": "Pending",
    "responsible_agency": "Department of Public Works",
    "final_address": "WILLOW ST & CALHOUN ST",
    "address_councildis": "A",
    "status": "Pending",
    "rowid": "862830",
    "final_x": "3666182.2",
    "final_y": "526022.88",
    "longitude": "-90.1166229230814",
    "latitude": "29.940836578675558",
    "geocoded_column": {
      "latitude": "29.940836578675558",
      "longitude": "-90.1166229230814"
    }
  },
  {
    "service_request": "2022-862829",
    "request_type": "Trash/Recycling",
    "request_reason": "Request a Large Item Pick Up",
    "date_created": "2022-02-22T16:53:04.000",
    "date_modified": "2022-02-22T16:53:04.000",
    "request_status": "Pending",
    "responsible_agency": "Department of Sanitation",
    "final_address": "213 Chartres St",
    "address_councildis": "C",
    "status": "Assigned to Contractor",
    "contractor": "Empire Services",
    "rowid": "862829",
    "final_x": "3681773.10735",
    "final_y": "530896.572162",
    "longitude": "-90.06722969927763",
    "latitude": "29.953773172554495",
    "geocoded_column": {
      "latitude": "29.953773172554495",
      "longitude": "-90.06722969927763"
    }
  },
  {
    "service_request": "2022-862828",
    "request_type": "Trash/Recycling",
    "request_reason": "Repair Trash Cart",
    "date_created": "2022-02-22T16:53:03.000",
    "date_modified": "2022-02-22T16:53:05.000",
    "request_status": "Pending",
    "responsible_agency": "Department of Sanitation",
    "final_address": "5308 Prytania St, New Orleans, Louisiana, 70115",
    "address_councildis": "B",
    "status": "Assigned to Contractor",
    "contractor": "Richards Disposal",
    "rowid": "862828",
    "final_x": "3667573.16941",
    "final_y": "520110.20364",
    "longitude": "-90.11243027493322",
    "latitude": "29.924537919551472",
    "geocoded_column": {
      "latitude": "29.924537919551472",
      "longitude": "-90.11243027493322"
    }
  },
  {
    "service_request": "2022-862827",
    "request_type": "Traffic Signals/Signs/Striping/Streetlights",
    "request_reason": "Traffic Sign Missing/Damaged",
    "date_created": "2022-02-22T16:50:21.000",
    "date_modified": "2022-02-22T16:50:21.000",
    "request_status": "Pending",
    "responsible_agency": "Department of Public Works",
    "final_address": "N DORGENOIS ST & NEW ORLEANS ST",
    "address_councildis": "D",
    "status": "Pending",
    "rowid": "862827",
    "final_x": "3681994.6",
    "final_y": "541252.18",
    "longitude": "-90.06616870874959",
    "latitude": "29.982240796435047",
    "geocoded_column": {
      "latitude": "29.982240796435047",
      "longitude": "-90.06616870874959"
    }
  },
  {
    "service_request": "2022-862826",
    "request_type": "Trash/Recycling",
    "request_reason": "Order Recycling Cart",
    "date_created": "2022-02-22T16:49:18.000",
    "date_modified": "2022-02-22T16:49:18.000",
    "request_status": "Pending",
    "responsible_agency": "Department of Sanitation",
    "final_address": "300 Cherokee St",
    "address_councildis": "A",
    "status": "Pending",
    "rowid": "862826",
    "final_x": "3661405.56531",
    "final_y": "524663.720636",
    "longitude": "-90.13174867835883",
    "latitude": "29.93723792158714",
    "geocoded_column": {
      "latitude": "29.93723792158714",
      "longitude": "-90.13174867835883"
    }
  },
  {
    "service_request": "2022-862825",
    "request_type": "Abandoned Vehicles",
    "request_reason": "Abandoned/Junk Vehicles",
    "date_created": "2022-02-22T16:43:31.000",
    "date_modified": "2022-02-22T16:43:31.000",
    "request_status": "Pending",
    "responsible_agency": "Department of Public Works",
    "final_address": "714 S Gayoso St",
    "address_councildis": "B",
    "status": "Pending",
    "rowid": "862825",
    "final_x": "3672810.91118",
    "final_y": "533779.418437",
    "longitude": "-90.09543031131383",
    "latitude": "29.961969291868236",
    "geocoded_column": {
      "latitude": "29.961969291868236",
      "longitude": "-90.09543031131383"
    }
  },
  {
    "service_request": "2022-862824",
    "request_type": "Taxi Issues",
    "request_reason": "Taxi Complaint",
    "date_created": "2022-02-22T16:37:15.000",
    "date_modified": "2022-02-22T16:37:15.000",
    "request_status": "Pending",
    "responsible_agency": "Ground Transportation Bureau",
    "final_address": "921 Canal St",
    "address_councildis": "C",
    "status": "Pending",
    "rowid": "862824",
    "final_x": "3680566.91771",
    "final_y": "531286.97037",
    "longitude": "-90.07102476435877",
    "latitude": "29.954883227751075",
    "geocoded_column": {
      "latitude": "29.954883227751075",
      "longitude": "-90.07102476435877"
    }
  },
  {
    "service_request": "2022-862823",
    "request_type": "Traffic Signals/Signs/Striping/Streetlights",
    "request_reason": "Street Light Outage/Malfunction",
    "date_created": "2022-02-22T16:34:14.000",
    "date_modified": "2022-02-22T16:34:15.000",
    "request_status": "Pending",
    "responsible_agency": "Department of Public Works",
    "final_address": "4803 Rosemont Pl",
    "address_councildis": "E",
    "status": "Pending",
    "contractor": "Royal Engineering",
    "rowid": "862823",
    "final_x": "3702747.57815",
    "final_y": "555183.689561",
    "longitude": "-90.00010920817427",
    "latitude": "30.019899839470614",
    "geocoded_column": {
      "latitude": "30.019899839470614",
      "longitude": "-90.00010920817427"
    }
  },
  {
    "service_request": "2022-862822",
    "request_type": "Trash/Recycling",
    "request_reason": "Request a Large Item Pick Up",
    "date_created": "2022-02-22T16:28:19.000",
    "date_modified": "2022-02-22T16:28:20.000",
    "request_status": "Pending",
    "responsible_agency": "Department of Sanitation",
    "final_address": "10110 Flossmoor Dr",
    "address_councildis": "E",
    "status": "Assigned to Contractor",
    "contractor": "Metro Disposal",
    "rowid": "862822",
    "final_x": "3709557.01797",
    "final_y": "563446.624928",
    "longitude": "-89.97828502006499",
    "latitude": "30.042400038298496",
    "geocoded_column": {
      "latitude": "30.042400038298496",
      "longitude": "-89.97828502006499"
    }
  },
  {
    "service_request": "2022-862821",
    "request_type": "Trash/Recycling",
    "request_reason": "Order Trash Cart",
    "date_created": "2022-02-22T16:26:13.000",
    "date_modified": "2022-02-22T16:26:14.000",
    "request_status": "Pending",
    "responsible_agency": "Department of Sanitation",
    "final_address": "1820 N Derbigny St",
    "address_councildis": "D",
    "status": "Assigned to Contractor",
    "contractor": "Metro Disposal",
    "rowid": "862821",
    "final_x": "3683536.72757",
    "final_y": "538341.749001",
    "longitude": "-90.06139996758668",
    "latitude": "29.974191145994354",
    "geocoded_column": {
      "latitude": "29.974191145994354",
      "longitude": "-90.06139996758668"
    }
  },
  {
    "service_request": "2022-862820",
    "request_type": "Trash/Recycling",
    "request_reason": "Order Recycling Cart",
    "date_created": "2022-02-22T16:26:03.000",
    "date_modified": "2022-02-22T16:26:03.000",
    "request_status": "Pending",
    "responsible_agency": "Department of Sanitation",
    "final_address": "1820 N Derbigny St",
    "address_councildis": "D",
    "status": "Pending",
    "rowid": "862820",
    "final_x": "3683536.72757",
    "final_y": "538341.749001",
    "longitude": "-90.06139996758668",
    "latitude": "29.974191145994354",
    "geocoded_column": {
      "latitude": "29.974191145994354",
      "longitude": "-90.06139996758668"
    }
  },
  {
    "service_request": "2022-862819",
    "request_type": "Trash/Recycling",
    "request_reason": "Order Recycling Cart",
    "date_created": "2022-02-22T16:25:34.000",
    "date_modified": "2022-02-22T16:25:34.000",
    "request_status": "Pending",
    "responsible_agency": "Department of Sanitation",
    "final_address": "1820 N Derbigny St",
    "address_councildis": "D",
    "status": "Pending",
    "rowid": "862819",
    "final_x": "3683536.72757",
    "final_y": "538341.749001",
    "longitude": "-90.06139996758668",
    "latitude": "29.974191145994354",
    "geocoded_column": {
      "latitude": "29.974191145994354",
      "longitude": "-90.06139996758668"
    }
  },
  {
    "service_request": "2022-862818",
    "request_type": "Trash/Recycling",
    "request_reason": "Order Recycling Cart",
    "date_created": "2022-02-22T16:25:12.000",
    "date_modified": "2022-02-22T16:25:12.000",
    "request_status": "Pending",
    "responsible_agency": "Department of Sanitation",
    "final_address": "1822 N Derbigny St",
    "address_councildis": "D",
    "status": "Pending",
    "rowid": "862818",
    "final_x": "3683536.72757",
    "final_y": "538341.749001",
    "longitude": "-90.06139996758668",
    "latitude": "29.974191145994354",
    "geocoded_column": {
      "latitude": "29.974191145994354",
      "longitude": "-90.06139996758668"
    }
  },
  {
    "service_request": "2022-862817",
    "request_type": "Trash/Recycling",
    "request_reason": "Order Trash Cart",
    "date_created": "2022-02-22T16:23:57.000",
    "date_modified": "2022-02-22T16:24:35.000",
    "request_status": "Pending",
    "responsible_agency": "Department of Sanitation",
    "final_address": "1822 N Derbigny St",
    "address_councildis": "D",
    "status": "Assigned to Contractor",
    "contractor": "Metro Disposal",
    "rowid": "862817",
    "final_x": "3683536.72757",
    "final_y": "538341.749001",
    "longitude": "-90.06139996758668",
    "latitude": "29.974191145994354",
    "geocoded_column": {
      "latitude": "29.974191145994354",
      "longitude": "-90.06139996758668"
    }
  },
  {
    "service_request": "2022-862816",
    "request_type": "Roads/Drainage",
    "request_reason": "Pothole",
    "date_created": "2022-02-22T16:23:44.000",
    "date_modified": "2022-02-22T16:23:44.000",
    "request_status": "Pending",
    "responsible_agency": "Department of Public Works",
    "final_address": "7704 Green St",
    "address_councildis": "A",
    "status": "Pending",
    "rowid": "862816",
    "final_x": "3664159.07271",
    "final_y": "528694.701312",
    "longitude": "-90.12292121290974",
    "latitude": "29.948242145269102",
    "geocoded_column": {
      "latitude": "29.948242145269102",
      "longitude": "-90.12292121290974"
    }
  },
  {
    "service_request": "2022-862815",
    "request_type": "Roads/Drainage",
    "request_reason": "Pothole",
    "date_created": "2022-02-22T16:22:18.000",
    "date_modified": "2022-02-22T16:22:18.000",
    "request_status": "Pending",
    "responsible_agency": "Department of Public Works",
    "final_address": "1203 Leboeuf St",
    "address_councildis": "C",
    "status": "Pending",
    "rowid": "862815",
    "final_x": "3689678.9007",
    "final_y": "527079.381374",
    "longitude": "-90.0424023542296",
    "latitude": "29.943034641982248",
    "geocoded_column": {
      "latitude": "29.943034641982248",
      "longitude": "-90.0424023542296"
    }
  },
  {
    "service_request": "2022-862814",
    "request_type": "Trash/Recycling",
    "request_reason": "Missed Trash Pick-Up",
    "date_created": "2022-02-22T16:19:22.000",
    "date_modified": "2022-02-22T16:19:23.000",
    "request_status": "Pending",
    "responsible_agency": "Department of Sanitation",
    "final_address": "334 Carondelet St Unit 311",
    "address_councildis": "B",
    "status": "Assigned to Contractor",
    "contractor": "Empire Services",
    "rowid": "862814",
    "final_x": "3680499.46363",
    "final_y": "529800.835201",
    "longitude": "-90.07128944413633",
    "latitude": "29.95079890032125",
    "geocoded_column": {
      "latitude": "29.95079890032125",
      "longitude": "-90.07128944413633"
    }
  },
  {
    "service_request": "2022-862813",
    "request_type": "Traffic Signals/Signs/Striping/Streetlights",
    "request_reason": "Traffic Signal Malfunctioning/Damaged",
    "date_created": "2022-02-22T16:13:48.000",
    "date_modified": "2022-02-22T16:13:48.000",
    "request_status": "Pending",
    "responsible_agency": "Department of Public Works",
    "final_address": "BROADWAY ST & ST CHARLES AVE",
    "address_councildis": "A",
    "status": "Pending",
    "rowid": "862813",
    "final_x": "3662980.9",
    "final_y": "524725.38",
    "longitude": "-90.12677317488857",
    "latitude": "29.937361947391178",
    "geocoded_column": {
      "latitude": "29.937361947391178",
      "longitude": "-90.12677317488857"
    }
  },
  {
    "service_request": "2022-862812",
    "request_type": "Roads/Drainage",
    "request_reason": "Street Subsidence (Sinking)",
    "date_created": "2022-02-22T16:12:46.000",
    "date_modified": "2022-02-22T16:12:46.000",
    "request_status": "Pending",
    "responsible_agency": "Department of Public Works",
    "final_address": "MORRISON RD & GANNON RD",
    "address_councildis": "E",
    "status": "Pending",
    "rowid": "862812",
    "final_x": "3716844.9",
    "final_y": "569274.68",
    "longitude": "-89.9550311752423",
    "latitude": "30.058185809886584",
    "geocoded_column": {
      "latitude": "30.058185809886584",
      "longitude": "-89.9550311752423"
    }
  },
  {
    "service_request": "2022-862811",
    "request_type": "Traffic Signals/Signs/Striping/Streetlights",
    "request_reason": "Request for Traffic Calming due to Speeding",
    "date_created": "2022-02-22T16:07:00.000",
    "date_modified": "2022-02-22T16:07:00.000",
    "request_status": "Pending",
    "responsible_agency": "Department of Public Works",
    "final_address": "1100 L. B. Landry Ave",
    "address_councildis": "C",
    "status": "Pending",
    "rowid": "862811",
    "final_x": "3690213.80041",
    "final_y": "527431.124863",
    "longitude": "-90.040701022052",
    "latitude": "29.94398523515066",
    "geocoded_column": {
      "latitude": "29.94398523515066",
      "longitude": "-90.040701022052"
    }
  },
  {
    "service_request": "2022-862810",
    "request_type": "COVID-19",
    "request_reason": "COVID-19 Business Non-Compliance",
    "date_created": "2022-02-22T16:02:51.000",
    "date_modified": "2022-02-22T16:02:52.000",
    "request_status": "Pending",
    "responsible_agency": "Safety and Permits",
    "final_address": "5619 Magazine St",
    "address_councildis": "A",
    "status": "Pending",
    "rowid": "862810",
    "final_x": "3665953.74925",
    "final_y": "518968.003703",
    "longitude": "-90.11758051033121",
    "latitude": "29.921444575284983",
    "geocoded_column": {
      "latitude": "29.921444575284983",
      "longitude": "-90.11758051033121"
    }
  },
  {
    "service_request": "2022-862809",
    "request_type": "Trash/Recycling",
    "request_reason": "Order Trash Cart",
    "date_created": "2022-02-22T16:02:30.000",
    "date_modified": "2022-02-22T16:02:30.000",
    "request_status": "Pending",
    "responsible_agency": "Department of Sanitation",
    "final_address": "9 Yellowstone Dr",
    "address_councildis": "C",
    "status": "Assigned to Contractor",
    "contractor": "Richards Disposal",
    "rowid": "862809",
    "final_x": "3699566.32887",
    "final_y": "517970.712374",
    "longitude": "-90.0115172589337",
    "latitude": "29.917678946252064",
    "geocoded_column": {
      "latitude": "29.917678946252064",
      "longitude": "-90.0115172589337"
    }
  },
  {
    "service_request": "2022-862808",
    "request_type": "Trash/Recycling",
    "request_reason": "Replace Trash Cart",
    "date_created": "2022-02-22T15:59:14.000",
    "date_modified": "2022-02-22T15:59:15.000",
    "request_status": "Pending",
    "responsible_agency": "Department of Sanitation",
    "final_address": "4735 Rosalia Dr",
    "address_councildis": "E",
    "status": "Assigned to Contractor",
    "contractor": "Metro Disposal",
    "rowid": "862808",
    "final_x": "3711269.17784",
    "final_y": "555770.196313",
    "longitude": "-89.97316196204655",
    "latitude": "30.021237120055414",
    "geocoded_column": {
      "latitude": "30.021237120055414",
      "longitude": "-89.97316196204655"
    }
  },
  {
    "service_request": "2022-862807",
    "request_type": "Safety & Permits",
    "request_reason": "Licenses & Permits",
    "date_created": "2022-02-22T15:58:18.000",
    "date_modified": "2022-02-22T15:58:18.000",
    "request_status": "Pending",
    "responsible_agency": "Safety and Permits",
    "final_address": "1810 Magic Walk",
    "address_councildis": "D",
    "status": "Pending",
    "rowid": "862807",
    "final_x": "3679188.94888",
    "final_y": "534852.339014",
    "longitude": "-90.07525225834107",
    "latitude": "29.964728452297713",
    "geocoded_column": {
      "latitude": "29.964728452297713",
      "longitude": "-90.07525225834107"
    }
  },
  {
    "service_request": "2022-862806",
    "request_type": "Trash/Recycling",
    "request_reason": "Repair Trash Cart",
    "date_created": "2022-02-22T15:55:06.000",
    "date_modified": "2022-02-22T15:55:07.000",
    "request_status": "Pending",
    "responsible_agency": "Department of Sanitation",
    "final_address": "4559 Knight Dr",
    "address_councildis": "E",
    "status": "Assigned to Contractor",
    "contractor": "Metro Disposal",
    "rowid": "862806",
    "final_x": "3708313.61003",
    "final_y": "554533.44028",
    "longitude": "-89.98254671507779",
    "latitude": "30.01793265862104",
    "geocoded_column": {
      "latitude": "30.01793265862104",
      "longitude": "-89.98254671507779"
    }
  },
  {
    "service_request": "2022-862805",
    "request_type": "Trash/Recycling",
    "request_reason": "Request a Large Item Pick Up",
    "date_created": "2022-02-22T15:49:50.000",
    "date_modified": "2022-02-22T15:49:51.000",
    "request_status": "Pending",
    "responsible_agency": "Department of Sanitation",
    "final_address": "4440 Baccich St",
    "address_councildis": "D",
    "status": "Assigned to Contractor",
    "contractor": "Metro Disposal",
    "rowid": "862805",
    "final_x": "3687782.63964",
    "final_y": "549240.086355",
    "longitude": "-90.04760421473537",
    "latitude": "30.004027396459538",
    "geocoded_column": {
      "latitude": "30.004027396459538",
      "longitude": "-90.04760421473537"
    }
  },
  {
    "service_request": "2022-862804",
    "request_type": "Abandoned Vehicles",
    "request_reason": "Abandoned/Junk Vehicles",
    "date_created": "2022-02-22T15:49:46.000",
    "date_modified": "2022-02-22T15:49:46.000",
    "request_status": "Pending",
    "responsible_agency": "Department of Public Works",
    "final_address": "3054 Burgundy St",
    "address_councildis": "C",
    "status": "Pending",
    "rowid": "862804",
    "final_x": "3688668.50236",
    "final_y": "535213.385542",
    "longitude": "-90.04530374246015",
    "latitude": "29.96543161169067",
    "geocoded_column": {
      "latitude": "29.96543161169067",
      "longitude": "-90.04530374246015"
    }
  },
  {
    "service_request": "2022-862803",
    "request_type": "Trash/Recycling",
    "request_reason": "Order Recycling Cart",
    "date_created": "2022-02-22T15:47:47.000",
    "date_modified": "2022-02-22T15:47:47.000",
    "request_status": "Pending",
    "responsible_agency": "Department of Sanitation",
    "final_address": "66 Grand Canyon Dr",
    "address_councildis": "C",
    "status": "Pending",
    "rowid": "862803",
    "final_x": "3699202.0817",
    "final_y": "516013.591924",
    "longitude": "-90.01273817429848",
    "latitude": "29.912309077969574",
    "geocoded_column": {
      "latitude": "29.912309077969574",
      "longitude": "-90.01273817429848"
    }
  },
  {
    "service_request": "2022-862802",
    "request_type": "Trash/Recycling",
    "request_reason": "Start Trash Service",
    "date_created": "2022-02-22T15:46:44.000",
    "date_modified": "2022-02-22T15:46:45.000",
    "request_status": "Pending",
    "responsible_agency": "Department of Sanitation",
    "final_address": "5101 Elysian Fields Ave",
    "address_councildis": "D",
    "status": "Assigned to Contractor",
    "contractor": "Metro Disposal",
    "rowid": "862802",
    "final_x": "3683908.73365",
    "final_y": "551404.528405",
    "longitude": "-90.0597665483023",
    "latitude": "30.01009778241652",
    "geocoded_column": {
      "latitude": "30.01009778241652",
      "longitude": "-90.0597665483023"
    }
  },
  {
    "service_request": "2022-862801",
    "request_type": "Trash/Recycling",
    "request_reason": "Order Trash Cart",
    "date_created": "2022-02-22T15:46:35.000",
    "date_modified": "2022-02-22T15:46:36.000",
    "request_status": "Pending",
    "responsible_agency": "Department of Sanitation",
    "final_address": "5101 Elysian Fields Ave",
    "address_councildis": "D",
    "status": "Assigned to Contractor",
    "contractor": "Metro Disposal",
    "rowid": "862801",
    "final_x": "3683908.73365",
    "final_y": "551404.528405",
    "longitude": "-90.0597665483023",
    "latitude": "30.01009778241652",
    "geocoded_column": {
      "latitude": "30.01009778241652",
      "longitude": "-90.0597665483023"
    }
  },
  {
    "service_request": "2022-862800",
    "request_type": "Trash/Recycling",
    "request_reason": "Order Recycling Cart",
    "date_created": "2022-02-22T15:46:21.000",
    "date_modified": "2022-02-22T15:46:21.000",
    "request_status": "Pending",
    "responsible_agency": "Department of Sanitation",
    "final_address": "5101 Elysian Fields Ave",
    "address_councildis": "D",
    "status": "Pending",
    "rowid": "862800",
    "final_x": "3683908.73365",
    "final_y": "551404.528405",
    "longitude": "-90.0597665483023",
    "latitude": "30.01009778241652",
    "geocoded_column": {
      "latitude": "30.01009778241652",
      "longitude": "-90.0597665483023"
    }
  },
  {
    "service_request": "2022-862799",
    "request_type": "Trash/Recycling",
    "request_reason": "Repair Trash Cart",
    "date_created": "2022-02-22T15:43:50.000",
    "date_modified": "2022-02-22T15:43:51.000",
    "request_status": "Pending",
    "responsible_agency": "Department of Sanitation",
    "final_address": "3921 Indiana St",
    "address_councildis": "C",
    "status": "Assigned to Contractor",
    "contractor": "Richards Disposal",
    "rowid": "862799",
    "final_x": "3692695.71062",
    "final_y": "519344.135671",
    "longitude": "-90.03315469888943",
    "latitude": "29.921671545136146",
    "geocoded_column": {
      "latitude": "29.921671545136146",
      "longitude": "-90.03315469888943"
    }
  },
  {
    "service_request": "2022-862798",
    "request_type": "Roads/Drainage",
    "request_reason": "Street Subsidence (Sinking)",
    "date_created": "2022-02-22T15:40:52.000",
    "date_modified": "2022-02-22T15:40:52.000",
    "request_status": "Pending",
    "responsible_agency": "Department of Public Works",
    "final_address": "3501 S Carrollton Ave",
    "address_councildis": "B",
    "status": "Pending",
    "rowid": "862798",
    "final_x": "3667635.90426",
    "final_y": "534354.767109",
    "longitude": "-90.1117528665523",
    "latitude": "29.96370402378397",
    "geocoded_column": {
      "latitude": "29.96370402378397",
      "longitude": "-90.1117528665523"
    }
  },
  {
    "service_request": "2022-862797",
    "request_type": "Traffic Signals/Signs/Striping/Streetlights",
    "request_reason": "Street Light Outage/Malfunction",
    "date_created": "2022-02-22T15:36:43.000",
    "date_modified": "2022-02-22T15:36:44.000",
    "request_status": "Pending",
    "responsible_agency": "Department of Public Works",
    "final_address": "1021 Wilson Dr",
    "address_councildis": "A",
    "status": "Pending",
    "contractor": "Royal Engineering",
    "rowid": "862797",
    "final_x": "3674392.06894",
    "final_y": "540649.353867",
    "longitude": "-90.09020189136714",
    "latitude": "29.980812218406793",
    "geocoded_column": {
      "latitude": "29.980812218406793",
      "longitude": "-90.09020189136714"
    }
  },
  {
    "service_request": "2022-862796",
    "request_type": "Tax and Revenue",
    "request_reason": "Business Renewal",
    "date_created": "2022-02-22T15:31:40.000",
    "date_modified": "2022-02-22T15:44:03.000",
    "request_status": "Pending",
    "responsible_agency": "Bureau of Revenue",
    "final_address": "New Orleans,LA",
    "rowid": "862796",
    "longitude": "0.0",
    "latitude": "0.0",
    "geocoded_column": {
      "latitude": "0.0",
      "longitude": "0.0"
    }
  },
  {
    "service_request": "2022-862795",
    "request_type": "Abandoned Vehicles",
    "request_reason": "Abandoned/Junk Vehicles",
    "date_created": "2022-02-22T15:31:09.000",
    "date_modified": "2022-02-22T15:31:10.000",
    "request_status": "Pending",
    "responsible_agency": "Department of Public Works",
    "final_address": "S DERBIGNY ST & MARTIN LUTHER KING JR BLVD",
    "address_councildis": "B",
    "status": "Pending",
    "rowid": "862795",
    "final_x": "3674740.1",
    "final_y": "528306.78",
    "longitude": "-90.08952581728816",
    "latitude": "29.94686390968573",
    "geocoded_column": {
      "latitude": "29.94686390968573",
      "longitude": "-90.08952581728816"
    }
  },
  {
    "service_request": "2022-862794",
    "request_type": "Trash/Recycling",
    "request_reason": "Illegal Dumping",
    "date_created": "2022-02-22T15:27:26.000",
    "date_modified": "2022-02-22T15:27:26.000",
    "request_status": "Pending",
    "responsible_agency": "Department of Sanitation",
    "final_address": "S BROAD AVE & S BROAD ST OVERPASS",
    "address_councildis": "B",
    "status": "Pending",
    "rowid": "862794",
    "final_x": "3673890.9",
    "final_y": "533199.08",
    "longitude": "-90.09203972167974",
    "latitude": "29.960341429387586",
    "geocoded_column": {
      "latitude": "29.960341429387586",
      "longitude": "-90.09203972167974"
    }
  },
  {
    "service_request": "2022-862793",
    "request_type": "Trash/Recycling",
    "request_reason": "Illegal Dumping",
    "date_created": "2022-02-22T15:26:24.000",
    "date_modified": "2022-02-22T15:26:25.000",
    "request_status": "Pending",
    "responsible_agency": "Department of Sanitation",
    "final_address": "MARTIN LUTHER KING JR BLVD & S GALVEZ ST & JACKSON AVE",
    "address_councildis": "B",
    "status": "Pending",
    "rowid": "862793",
    "final_x": "3673580.1",
    "final_y": "529021.78",
    "longitude": "-90.09316393532373",
    "latitude": "29.948864496224587",
    "geocoded_column": {
      "latitude": "29.948864496224587",
      "longitude": "-90.09316393532373"
    }
  },
  {
    "service_request": "2022-862792",
    "request_type": "Abandoned Vehicles",
    "request_reason": "Abandoned/Junk Vehicles",
    "date_created": "2022-02-22T15:24:12.000",
    "date_modified": "2022-02-22T15:33:15.000",
    "request_status": "Pending",
    "responsible_agency": "Department of Public Works",
    "final_address": "1815 N Broad St",
    "address_councildis": "D",
    "status": "Pending",
    "rowid": "862792",
    "final_x": "3679980.57691",
    "final_y": "541529.409932",
    "longitude": "-90.0725203368758",
    "latitude": "29.983064170636805",
    "geocoded_column": {
      "latitude": "29.983064170636805",
      "longitude": "-90.0725203368758"
    }
  },
  {
    "service_request": "2022-862791",
    "request_type": "Trash/Recycling",
    "request_reason": "Request a Large Item Pick Up",
    "date_created": "2022-02-22T15:22:21.000",
    "date_modified": "2022-02-22T15:22:22.000",
    "request_status": "Pending",
    "responsible_agency": "Department of Sanitation",
    "final_address": "1612 Lisbon St",
    "address_councildis": "D",
    "status": "Assigned to Contractor",
    "contractor": "Metro Disposal",
    "rowid": "862791",
    "final_x": "3679117.97775",
    "final_y": "556126.199962",
    "longitude": "-90.0747384575916",
    "latitude": "30.023226211512913",
    "geocoded_column": {
      "latitude": "30.023226211512913",
      "longitude": "-90.0747384575916"
    }
  },
  {
    "service_request": "2022-862790",
    "request_type": "Trash/Recycling",
    "request_reason": "Order Trash Cart",
    "date_created": "2022-02-22T15:21:47.000",
    "date_modified": "2022-02-22T15:21:48.000",
    "request_status": "Pending",
    "responsible_agency": "Department of Sanitation",
    "final_address": "7119 West End Blvd",
    "address_councildis": "A",
    "status": "Assigned to Contractor",
    "contractor": "Metro Disposal",
    "rowid": "862790",
    "final_x": "3666897.52724",
    "final_y": "554721.068248",
    "longitude": "-90.11339985973706",
    "latitude": "30.019726018547875",
    "geocoded_column": {
      "latitude": "30.019726018547875",
      "longitude": "-90.11339985973706"
    }
  },
  {
    "service_request": "2022-862789",
    "request_type": "Trash/Recycling",
    "request_reason": "Repair Recycling Cart",
    "date_created": "2022-02-22T15:20:00.000",
    "date_modified": "2022-02-22T15:20:02.000",
    "request_status": "Pending",
    "responsible_agency": "Department of Sanitation",
    "final_address": "2035 Short St",
    "address_councildis": "A",
    "status": "Pending",
    "rowid": "862789",
    "final_x": "3664428.16628",
    "final_y": "530349.659906",
    "longitude": "-90.12201633050184",
    "latitude": "29.95278492762223",
    "geocoded_column": {
      "latitude": "29.95278492762223",
      "longitude": "-90.12201633050184"
    }
  },
  {
    "service_request": "2022-862788",
    "request_type": "Trash/Recycling",
    "request_reason": "Repair Trash Cart",
    "date_created": "2022-02-22T15:19:01.000",
    "date_modified": "2022-02-22T15:19:03.000",
    "request_status": "Pending",
    "responsible_agency": "Department of Sanitation",
    "final_address": "3119 Eagle St",
    "address_councildis": "A",
    "status": "Assigned to Contractor",
    "contractor": "Richards Disposal",
    "rowid": "862788",
    "final_x": "3664867.36448",
    "final_y": "535197.031686",
    "longitude": "-90.12046752083596",
    "latitude": "29.96610084116657",
    "geocoded_column": {
      "latitude": "29.96610084116657",
      "longitude": "-90.12046752083596"
    }
  },
  {
    "service_request": "2022-862787",
    "request_type": "Trash/Recycling",
    "request_reason": "Request a Large Item Pick Up",
    "date_created": "2022-02-22T15:14:24.000",
    "date_modified": "2022-02-22T15:14:25.000",
    "request_status": "Pending",
    "responsible_agency": "Department of Sanitation",
    "final_address": "4969 Western St",
    "address_councildis": "D",
    "status": "Assigned to Contractor",
    "contractor": "Metro Disposal",
    "rowid": "862787",
    "final_x": "3684162.16098",
    "final_y": "551281.430293",
    "longitude": "-90.05897020452448",
    "latitude": "30.009751559815395",
    "geocoded_column": {
      "latitude": "30.009751559815395",
      "longitude": "-90.05897020452448"
    }
  },
  {
    "service_request": "2022-862786",
    "request_type": "Abandoned Vehicles",
    "request_reason": "Abandoned/Junk Vehicles",
    "date_created": "2022-02-22T15:11:25.000",
    "date_modified": "2022-02-22T15:11:25.000",
    "request_status": "Pending",
    "responsible_agency": "Department of Public Works",
    "final_address": "2143 N Tonti St",
    "address_councildis": "D",
    "status": "Pending",
    "rowid": "862786",
    "final_x": "3683818.78857",
    "final_y": "540702.035019",
    "longitude": "-90.06042634524941",
    "latitude": "29.980672495114252",
    "geocoded_column": {
      "latitude": "29.980672495114252",
      "longitude": "-90.06042634524941"
    }
  },
  {
    "service_request": "2022-862785",
    "request_type": "Property Maintenance",
    "request_reason": "Property Maintenance",
    "date_created": "2022-02-22T15:09:54.000",
    "date_modified": "2022-02-22T15:09:54.000",
    "request_status": "Pending",
    "responsible_agency": "Department of Code Enforcement",
    "final_address": "2016 N Robertson St",
    "address_councildis": "C",
    "status": "Pending",
    "rowid": "862785",
    "final_x": "3684286.30325",
    "final_y": "537698.13684",
    "longitude": "-90.05905524286185",
    "latitude": "29.972398536648665",
    "geocoded_column": {
      "latitude": "29.972398536648665",
      "longitude": "-90.05905524286185"
    }
  },
  {
    "service_request": "2022-862784",
    "request_type": "Trash/Recycling",
    "request_reason": "Replace Trash Cart",
    "date_created": "2022-02-22T15:09:38.000",
    "date_modified": "2022-02-22T15:09:39.000",
    "request_status": "Pending",
    "responsible_agency": "Department of Sanitation",
    "final_address": "1723 Broadway St",
    "address_councildis": "A",
    "status": "Assigned to Contractor",
    "contractor": "Richards Disposal",
    "rowid": "862784",
    "final_x": "3665303.98592",
    "final_y": "528091.997119",
    "longitude": "-90.11932639904393",
    "latitude": "29.94655159818513",
    "geocoded_column": {
      "latitude": "29.94655159818513",
      "longitude": "-90.11932639904393"
    }
  },
  {
    "service_request": "2022-862783",
    "request_type": "Trash/Recycling",
    "request_reason": "Request a Large Item Pick Up",
    "date_created": "2022-02-22T15:05:10.000",
    "date_modified": "2022-02-22T15:05:11.000",
    "request_status": "Pending",
    "responsible_agency": "Department of Sanitation",
    "final_address": "824 Burgundy St",
    "address_councildis": "C",
    "status": "Assigned to Contractor",
    "contractor": "Empire Services",
    "rowid": "862783",
    "final_x": "3682061.59221",
    "final_y": "533557.834053",
    "longitude": "-90.06622585963966",
    "latitude": "29.961081969079178",
    "geocoded_column": {
      "latitude": "29.961081969079178",
      "longitude": "-90.06622585963966"
    }
  },
  {
    "service_request": "2022-862782",
    "request_type": "Abandoned Vehicles",
    "request_reason": "Vehicle Blocking Your Driveway",
    "date_created": "2022-02-22T15:04:25.000",
    "date_modified": "2022-02-22T15:04:25.000",
    "request_status": "Pending",
    "responsible_agency": "Department of Public Works",
    "final_address": "831 Third St",
    "address_councildis": "B",
    "status": "Pending",
    "rowid": "862782",
    "final_x": "3678067.34875",
    "final_y": "520473.358264",
    "longitude": "-90.07929115387763",
    "latitude": "29.9252248468082",
    "geocoded_column": {
      "latitude": "29.9252248468082",
      "longitude": "-90.07929115387763"
    }
  },
  {
    "service_request": "2022-862781",
    "request_type": "Mosquito, Termite & Rodent Control",
    "request_reason": "Non-Rodent Complaint (Mice, Possums, Snakes)",
    "date_created": "2022-02-22T15:03:49.000",
    "date_modified": "2022-02-22T15:03:49.000",
    "request_status": "Pending",
    "responsible_agency": "Mosquito, Termite & Rodent Control Board",
    "final_address": "1441 Touro St",
    "address_councildis": "C",
    "status": "Pending",
    "rowid": "862781",
    "final_x": "3684145.27708",
    "final_y": "537669.9826",
    "longitude": "-90.05950161597002",
    "latitude": "29.972325433918815",
    "geocoded_column": {
      "latitude": "29.972325433918815",
      "longitude": "-90.05950161597002"
    }
  },
  {
    "service_request": "2022-862780",
    "request_type": "COVID-19",
    "request_reason": "COVID-19 Business Non-Compliance",
    "date_created": "2022-02-22T15:01:20.000",
    "date_modified": "2022-02-22T15:01:22.000",
    "request_status": "Pending",
    "responsible_agency": "Safety and Permits",
    "final_address": "3701 Iberville St",
    "address_councildis": "B",
    "status": "Pending",
    "rowid": "862780",
    "final_x": "3672595.6036",
    "final_y": "537800.55092",
    "longitude": "-90.0959730972056",
    "latitude": "29.973032447709773",
    "geocoded_column": {
      "latitude": "29.973032447709773",
      "longitude": "-90.0959730972056"
    }
  },
  {
    "service_request": "2022-862779",
    "request_type": "COVID-19",
    "request_reason": "COVID-19 Business Non-Compliance",
    "date_created": "2022-02-22T14:57:33.000",
    "date_modified": "2022-02-22T14:57:35.000",
    "request_status": "Pending",
    "responsible_agency": "Safety and Permits",
    "final_address": "3701 Iberville St",
    "address_councildis": "B",
    "status": "Pending",
    "rowid": "862779",
    "final_x": "3672595.6036",
    "final_y": "537800.55092",
    "longitude": "-90.0959730972056",
    "latitude": "29.973032447709773",
    "geocoded_column": {
      "latitude": "29.973032447709773",
      "longitude": "-90.0959730972056"
    }
  },
  {
    "service_request": "2022-862778",
    "request_type": "Trash/Recycling",
    "request_reason": "Request a Large Item Pick Up",
    "date_created": "2022-02-22T14:56:13.000",
    "date_modified": "2022-02-22T14:56:14.000",
    "request_status": "Pending",
    "responsible_agency": "Department of Sanitation",
    "final_address": "738 Pleasant St",
    "address_councildis": "B",
    "status": "Assigned to Contractor",
    "contractor": "Richards Disposal",
    "rowid": "862778",
    "final_x": "3676089.54062",
    "final_y": "518759.053943",
    "longitude": "-90.08559339948374",
    "latitude": "29.920570433421247",
    "geocoded_column": {
      "latitude": "29.920570433421247",
      "longitude": "-90.08559339948374"
    }
  },
  {
    "service_request": "2022-862777",
    "request_type": "Trash/Recycling",
    "request_reason": "Request a Large Item Pick Up",
    "date_created": "2022-02-22T14:48:10.000",
    "date_modified": "2022-02-22T14:48:11.000",
    "request_status": "Pending",
    "responsible_agency": "Department of Sanitation",
    "final_address": "5542 Chatham Dr",
    "address_councildis": "D",
    "status": "Assigned to Contractor",
    "contractor": "Metro Disposal",
    "rowid": "862777",
    "final_x": "3679641.27439",
    "final_y": "552916.108375",
    "longitude": "-90.07319650292024",
    "latitude": "30.014383811412316",
    "geocoded_column": {
      "latitude": "30.014383811412316",
      "longitude": "-90.07319650292024"
    }
  },
  {
    "service_request": "2022-862776",
    "request_type": "Trash/Recycling",
    "request_reason": "Illegal Dumping",
    "date_created": "2022-02-22T14:45:22.000",
    "date_modified": "2022-02-22T14:45:22.000",
    "request_status": "Pending",
    "responsible_agency": "Department of Sanitation",
    "final_address": "GENERAL DE GAULLE DR & WOODLAND HWY & WOODLAND DR & WOODLAND BRIDGE",
    "address_councildis": "C",
    "status": "Pending",
    "rowid": "862776",
    "final_x": "3705400.3",
    "final_y": "514971.88",
    "longitude": "-89.99321351264551",
    "latitude": "29.90924684950023",
    "geocoded_column": {
      "latitude": "29.90924684950023",
      "longitude": "-89.99321351264551"
    }
  },
  {
    "service_request": "2022-862775",
    "request_type": "Roads/Drainage",
    "request_reason": "Accessibility Ramps, Curbs and Sidewalk Repair",
    "date_created": "2022-02-22T14:42:48.000",
    "date_modified": "2022-02-22T14:42:48.000",
    "request_status": "Pending",
    "responsible_agency": "Department of Public Works",
    "final_address": "2525 Mistletoe St",
    "address_councildis": "A",
    "status": "Pending",
    "rowid": "862775",
    "final_x": "3662383.68179",
    "final_y": "534539.356613",
    "longitude": "-90.12833281059393",
    "latitude": "29.96436450386319",
    "geocoded_column": {
      "latitude": "29.96436450386319",
      "longitude": "-90.12833281059393"
    }
  },
  {
    "service_request": "2022-862774",
    "request_type": "Trash/Recycling",
    "request_reason": "Request a Large Item Pick Up",
    "date_created": "2022-02-22T14:38:49.000",
    "date_modified": "2022-02-22T14:38:49.000",
    "request_status": "Pending",
    "responsible_agency": "Department of Sanitation",
    "final_address": "1784 Rosiere St",
    "address_councildis": "D",
    "status": "Assigned to Contractor",
    "contractor": "Metro Disposal",
    "rowid": "862774",
    "final_x": "3678827.57973",
    "final_y": "542051.638604",
    "longitude": "-90.07614399567126",
    "latitude": "29.98453495184527",
    "geocoded_column": {
      "latitude": "29.98453495184527",
      "longitude": "-90.07614399567126"
    }
  },
  {
    "service_request": "2022-862773",
    "request_type": "Roads/Drainage",
    "request_reason": "Road Shoulder Repair",
    "date_created": "2022-02-22T14:34:50.000",
    "date_modified": "2022-02-22T14:34:50.000",
    "request_status": "Pending",
    "responsible_agency": "Department of Public Works",
    "final_address": "2116 Philip St",
    "address_councildis": "B",
    "status": "Pending",
    "rowid": "862773",
    "final_x": "3676044.26792",
    "final_y": "524942.370364",
    "longitude": "-90.08552375679847",
    "latitude": "29.937573901168292",
    "geocoded_column": {
      "latitude": "29.937573901168292",
      "longitude": "-90.08552375679847"
    }
  },
  {
    "service_request": "2022-862772",
    "request_type": "Parks & Parkways",
    "request_reason": "Request Tree Service (Right of Way/Public Property)",
    "date_created": "2022-02-22T14:34:37.000",
    "date_modified": "2022-02-22T15:18:19.000",
    "request_status": "Pending",
    "responsible_agency": "Department of Parks & Parkway",
    "final_address": "6979 Argonne Blvd",
    "address_councildis": "A",
    "status": "Pending",
    "rowid": "862772",
    "final_x": "3670831.17435",
    "final_y": "553776.279319",
    "longitude": "-90.10100289335857",
    "latitude": "30.017012443624704",
    "geocoded_column": {
      "latitude": "30.017012443624704",
      "longitude": "-90.10100289335857"
    }
  },
  {
    "service_request": "2022-862771",
    "request_type": "Abandoned Vehicles",
    "request_reason": "Abandoned/Junk Vehicles",
    "date_created": "2022-02-22T14:32:32.000",
    "date_modified": "2022-02-22T14:32:32.000",
    "request_status": "Pending",
    "responsible_agency": "Department of Public Works",
    "final_address": "732 S Gayoso St",
    "address_councildis": "B",
    "status": "Pending",
    "rowid": "862771",
    "final_x": "3672725.5364",
    "final_y": "533678.716421",
    "longitude": "-90.0957033468948",
    "latitude": "29.961694930838497",
    "geocoded_column": {
      "latitude": "29.961694930838497",
      "longitude": "-90.0957033468948"
    }
  },
  {
    "service_request": "2022-862770",
    "request_type": "Safety & Permits",
    "request_reason": "Licenses & Permits",
    "date_created": "2022-02-22T14:30:49.000",
    "date_modified": "2022-02-22T14:30:49.000",
    "request_status": "Pending",
    "responsible_agency": "Safety and Permits",
    "final_address": "501 Elysian Fields Ave",
    "address_councildis": "C",
    "status": "Pending",
    "rowid": "862770",
    "final_x": "3685311.29135",
    "final_y": "534246.794053",
    "longitude": "-90.05593967076524",
    "latitude": "29.962877159039945",
    "geocoded_column": {
      "latitude": "29.962877159039945",
      "longitude": "-90.05593967076524"
    }
  },
  {
    "service_request": "2022-862769",
    "request_type": "Roads/Drainage",
    "request_reason": "Catch Basin - Broken/Damage",
    "date_created": "2022-02-22T14:28:19.000",
    "date_modified": "2022-02-22T14:28:19.000",
    "request_status": "Pending",
    "responsible_agency": "Department of Public Works",
    "final_address": "461 Pine St",
    "address_councildis": "A",
    "status": "Pending",
    "rowid": "862769",
    "final_x": "3662352.24627",
    "final_y": "524230.352252",
    "longitude": "-90.1287743155141",
    "latitude": "29.93601896467124",
    "geocoded_column": {
      "latitude": "29.93601896467124",
      "longitude": "-90.1287743155141"
    }
  },
  {
    "service_request": "2022-862768",
    "request_type": "Trash/Recycling",
    "request_reason": "Request a Large Item Pick Up",
    "date_created": "2022-02-22T14:27:55.000",
    "date_modified": "2022-02-22T14:27:56.000",
    "request_status": "Pending",
    "responsible_agency": "Department of Sanitation",
    "final_address": "4409 Shalimar Dr",
    "address_councildis": "D",
    "status": "Assigned to Contractor",
    "contractor": "Metro Disposal",
    "rowid": "862768",
    "final_x": "3697409.00624",
    "final_y": "552467.24527",
    "longitude": "-90.01707588312688",
    "latitude": "30.012600359096194",
    "geocoded_column": {
      "latitude": "30.012600359096194",
      "longitude": "-90.01707588312688"
    }
  },
  {
    "service_request": "2022-862767",
    "request_type": "Trash/Recycling",
    "request_reason": "Repair Trash Cart",
    "date_created": "2022-02-22T14:26:57.000",
    "date_modified": "2022-02-22T14:26:59.000",
    "request_status": "Pending",
    "responsible_agency": "Department of Sanitation",
    "final_address": "4921 America St",
    "address_councildis": "E",
    "status": "Assigned to Contractor",
    "contractor": "Metro Disposal",
    "rowid": "862767",
    "final_x": "3699719.72068",
    "final_y": "555406.013209",
    "longitude": "-90.00966809011308",
    "latitude": "30.020607667043013",
    "geocoded_column": {
      "latitude": "30.020607667043013",
      "longitude": "-90.00966809011308"
    }
  },
  {
    "service_request": "2022-862766",
    "request_type": "Trash/Recycling",
    "request_reason": "Request a Large Item Pick Up",
    "date_created": "2022-02-22T14:25:36.000",
    "date_modified": "2022-02-22T14:25:37.000",
    "request_status": "Pending",
    "responsible_agency": "Department of Sanitation",
    "final_address": "41 Dove St",
    "address_councildis": "D",
    "status": "Assigned to Contractor",
    "contractor": "Metro Disposal",
    "rowid": "862766",
    "final_x": "3673463.86587",
    "final_y": "555020.868313",
    "longitude": "-90.09264208054755",
    "latitude": "30.020356501053794",
    "geocoded_column": {
      "latitude": "30.020356501053794",
      "longitude": "-90.09264208054755"
    }
  },
  {
    "service_request": "2022-862765",
    "request_type": "Trash/Recycling",
    "request_reason": "Replace Trash Cart",
    "date_created": "2022-02-22T14:23:58.000",
    "date_modified": "2022-02-22T14:23:58.000",
    "request_status": "Pending",
    "responsible_agency": "Department of Sanitation",
    "final_address": "1226 N Villere St",
    "address_councildis": "C",
    "status": "Assigned to Contractor",
    "contractor": "Richards Disposal",
    "rowid": "862765",
    "final_x": "3681667.26357",
    "final_y": "535901.013895",
    "longitude": "-90.0673893271912",
    "latitude": "29.967536895101183",
    "geocoded_column": {
      "latitude": "29.967536895101183",
      "longitude": "-90.0673893271912"
    }
  },
  {
    "service_request": "2022-862764",
    "request_type": "Trash/Recycling",
    "request_reason": "Missed Trash Pick-Up",
    "date_created": "2022-02-22T14:22:38.000",
    "date_modified": "2022-02-22T14:22:39.000",
    "request_status": "Pending",
    "responsible_agency": "Department of Sanitation",
    "final_address": "2232 State St",
    "address_councildis": "A",
    "status": "Assigned to Contractor",
    "contractor": "Richards Disposal",
    "rowid": "862764",
    "final_x": "3666506.12359",
    "final_y": "525018.044989",
    "longitude": "-90.11563394936432",
    "latitude": "29.938064142981172",
    "geocoded_column": {
      "latitude": "29.938064142981172",
      "longitude": "-90.11563394936432"
    }
  },
  {
    "service_request": "2022-862763",
    "request_type": "Abandoned Vehicles",
    "request_reason": "Abandoned/Junk Vehicles",
    "date_created": "2022-02-22T14:22:15.000",
    "date_modified": "2022-02-22T14:22:15.000",
    "request_status": "Pending",
    "responsible_agency": "Department of Public Works",
    "status": "Inspected",
    "rowid": "862763",
    "longitude": "0.0",
    "latitude": "0.0",
    "geocoded_column": {
      "latitude": "0.0",
      "longitude": "0.0"
    }
  },
  {
    "service_request": "2022-862761",
    "request_type": "Property Maintenance",
    "request_reason": "Property Maintenance",
    "date_created": "2022-02-22T14:19:55.000",
    "date_modified": "2022-02-22T14:19:55.000",
    "request_status": "Pending",
    "responsible_agency": "Department of Code Enforcement",
    "final_address": "2111 Amelia St",
    "address_councildis": "B",
    "status": "Pending",
    "rowid": "862761",
    "final_x": "3672730.49217",
    "final_y": "523041.802235",
    "longitude": "-90.09605039972139",
    "latitude": "29.932446765526915",
    "geocoded_column": {
      "latitude": "29.932446765526915",
      "longitude": "-90.09605039972139"
    }
  },
  {
    "service_request": "2022-862760",
    "request_type": "Trash/Recycling",
    "request_reason": "Missed Trash Pick-Up",
    "date_created": "2022-02-22T14:18:37.000",
    "date_modified": "2022-02-22T14:18:38.000",
    "request_status": "Pending",
    "responsible_agency": "Department of Sanitation",
    "final_address": "1514 Jefferson Ave",
    "address_councildis": "A",
    "status": "Assigned to Contractor",
    "contractor": "Richards Disposal",
    "rowid": "862760",
    "final_x": "3667123.60666",
    "final_y": "520687.995001",
    "longitude": "-90.11382998562364",
    "latitude": "29.92613982681207",
    "geocoded_column": {
      "latitude": "29.92613982681207",
      "longitude": "-90.11382998562364"
    }
  },
  {
    "service_request": "2022-862759",
    "request_type": "Property Maintenance",
    "request_reason": "Property Maintenance",
    "date_created": "2022-02-22T14:18:00.000",
    "date_modified": "2022-02-22T14:18:00.000",
    "request_status": "Pending",
    "responsible_agency": "Department of Code Enforcement",
    "final_address": "2111 Amelia St",
    "address_councildis": "B",
    "status": "Pending",
    "rowid": "862759",
    "final_x": "3672730.49217",
    "final_y": "523041.802235",
    "longitude": "-90.09605039972139",
    "latitude": "29.932446765526915",
    "geocoded_column": {
      "latitude": "29.932446765526915",
      "longitude": "-90.09605039972139"
    }
  },
  {
    "service_request": "2022-862758",
    "request_type": "Trash/Recycling",
    "request_reason": "Replace Trash Cart",
    "date_created": "2022-02-22T14:17:11.000",
    "date_modified": "2022-02-22T14:17:12.000",
    "request_status": "Pending",
    "responsible_agency": "Department of Sanitation",
    "final_address": "5501 S Robertson St",
    "address_councildis": "A",
    "status": "Assigned to Contractor",
    "contractor": "Richards Disposal",
    "rowid": "862758",
    "final_x": "3667595.85357",
    "final_y": "524395.145916",
    "longitude": "-90.11221452098654",
    "latitude": "29.936319482220707",
    "geocoded_column": {
      "latitude": "29.936319482220707",
      "longitude": "-90.11221452098654"
    }
  },
  {
    "service_request": "2022-862757",
    "request_type": "Trash/Recycling",
    "request_reason": "Missed Trash Pick-Up",
    "date_created": "2022-02-22T14:14:03.000",
    "date_modified": "2022-02-22T14:29:15.000",
    "request_status": "Pending",
    "responsible_agency": "Department of Sanitation",
    "final_address": "New Orleans,LA",
    "address_councildis": "A",
    "status": "Assigned to Contractor",
    "contractor": "Metro Disposal",
    "rowid": "862757",
    "final_x": "3668547.95502",
    "final_y": "546255.507728",
    "longitude": "-90.10847096120473",
    "latitude": "29.996400269209776",
    "geocoded_column": {
      "latitude": "29.996400269209776",
      "longitude": "-90.10847096120473"
    }
  },
  {
    "service_request": "2022-862756",
    "request_type": "Traffic Signals/Signs/Striping/Streetlights",
    "request_reason": "Traffic Sign Missing/Damaged",
    "date_created": "2022-02-22T14:13:39.000",
    "date_modified": "2022-02-22T14:14:36.000",
    "request_status": "Pending",
    "responsible_agency": "Department of Public Works",
    "final_address": "3014 Dauphine St",
    "address_councildis": "C",
    "status": "Pending",
    "rowid": "862756",
    "final_x": "3688321.17487",
    "final_y": "534921.81575",
    "longitude": "-90.04641092507173",
    "latitude": "29.964640627239753",
    "geocoded_column": {
      "latitude": "29.964640627239753",
      "longitude": "-90.04641092507173"
    }
  },
  {
    "service_request": "2022-862755",
    "request_type": "Roads/Drainage",
    "request_reason": "Alley Way",
    "date_created": "2022-02-22T14:07:43.000",
    "date_modified": "2022-02-22T14:08:10.000",
    "case_close_date": "2022-02-22T08:08:10.000",
    "request_status": "Closed",
    "responsible_agency": "Department of Public Works",
    "final_address": "6400 BLK Louisville St",
    "address_councildis": "A",
    "status": "Resolved",
    "rowid": "862755",
    "final_x": "3668027.64357",
    "final_y": "550440.723381",
    "longitude": "-90.10997344390462",
    "latitude": "30.00792344397219",
    "geocoded_column": {
      "latitude": "30.00792344397219",
      "longitude": "-90.10997344390462"
    }
  },
  {
    "service_request": "2022-862754",
    "request_type": "Abandoned Vehicles",
    "request_reason": "Abandoned/Junk Vehicles",
    "date_created": "2022-02-22T14:01:32.000",
    "date_modified": "2022-02-22T14:01:32.000",
    "request_status": "Pending",
    "responsible_agency": "Department of Public Works",
    "final_address": "2317 Conti St",
    "address_councildis": "B",
    "status": "Pending",
    "rowid": "862754",
    "final_x": "3677296.06498",
    "final_y": "535128.895302",
    "longitude": "-90.08122031708561",
    "latitude": "29.965545898687594",
    "geocoded_column": {
      "latitude": "29.965545898687594",
      "longitude": "-90.08122031708561"
    }
  },
  {
    "service_request": "2022-862753",
    "request_type": "Trash/Recycling",
    "request_reason": "Request a Large Item Pick Up",
    "date_created": "2022-02-22T13:59:19.000",
    "date_modified": "2022-02-22T13:59:20.000",
    "request_status": "Pending",
    "responsible_agency": "Department of Sanitation",
    "final_address": "2036 Ursulines Ave",
    "address_councildis": "D",
    "status": "Assigned to Contractor",
    "contractor": "Richards Disposal",
    "rowid": "862753",
    "final_x": "3679523.65819",
    "final_y": "536575.972103",
    "longitude": "-90.07413545317966",
    "latitude": "29.969457744804046",
    "geocoded_column": {
      "latitude": "29.969457744804046",
      "longitude": "-90.07413545317966"
    }
  },
  {
    "service_request": "2022-862752",
    "request_type": "Roads/Drainage",
    "request_reason": "Road Shoulder Repair",
    "date_created": "2022-02-22T13:56:47.000",
    "date_modified": "2022-02-22T13:57:09.000",
    "case_close_date": "2022-02-22T07:57:09.000",
    "request_status": "Closed",
    "responsible_agency": "Department of Public Works",
    "final_address": "2200 BLK Perdido St",
    "address_councildis": "B",
    "status": "Resolved",
    "rowid": "862752",
    "final_x": "3675376.63674",
    "final_y": "532081.757146",
    "longitude": "-90.08738643206708",
    "latitude": "29.957224826547638",
    "geocoded_column": {
      "latitude": "29.957224826547638",
      "longitude": "-90.08738643206708"
    }
  },
  {
    "service_request": "2022-862751",
    "request_type": "Abandoned Vehicles",
    "request_reason": "Abandoned/Junk Vehicles",
    "date_created": "2022-02-22T13:56:38.000",
    "date_modified": "2022-02-22T13:56:38.000",
    "request_status": "Pending",
    "responsible_agency": "Department of Public Works",
    "final_address": "529 Nashville Ave",
    "address_councildis": "A",
    "status": "Pending",
    "rowid": "862751",
    "final_x": "3665418.08173",
    "final_y": "518220.394166",
    "longitude": "-90.11929638877453",
    "latitude": "29.919404500001356",
    "geocoded_column": {
      "latitude": "29.919404500001356",
      "longitude": "-90.11929638877453"
    }
  },
  {
    "service_request": "2022-862750",
    "request_type": "Abandoned Vehicles",
    "request_reason": "Abandoned/Junk Vehicles",
    "date_created": "2022-02-22T13:53:17.000",
    "date_modified": "2022-02-22T13:55:24.000",
    "request_status": "Pending",
    "responsible_agency": "Department of Public Works",
    "final_address": "2126 Port St",
    "address_councildis": "D",
    "status": "Pending",
    "rowid": "862750",
    "final_x": "3688364.87324",
    "final_y": "540402.544139",
    "longitude": "-90.04607849131983",
    "latitude": "29.979709354846307",
    "geocoded_column": {
      "latitude": "29.979709354846307",
      "longitude": "-90.04607849131983"
    }
  },
  {
    "service_request": "2022-862749",
    "request_type": "Property Maintenance",
    "request_reason": "Property Maintenance",
    "date_created": "2022-02-22T13:51:54.000",
    "date_modified": "2022-02-22T13:52:52.000",
    "request_status": "Pending",
    "responsible_agency": "Department of Code Enforcement",
    "final_address": "3325 N Miro St",
    "address_councildis": "D",
    "status": "Pending",
    "rowid": "862749",
    "final_x": "3691094.7398",
    "final_y": "539937.42401",
    "longitude": "-90.03747310893485",
    "latitude": "29.97834583230723",
    "geocoded_column": {
      "latitude": "29.97834583230723",
      "longitude": "-90.03747310893485"
    }
  },
  {
    "service_request": "2022-862748",
    "request_type": "Trash/Recycling",
    "request_reason": "Start Trash Service",
    "date_created": "2022-02-22T13:48:13.000",
    "date_modified": "2022-02-22T13:48:14.000",
    "request_status": "Pending",
    "responsible_agency": "Department of Sanitation",
    "final_address": "1618 Horace St",
    "address_councildis": "C",
    "status": "Assigned to Contractor",
    "contractor": "Richards Disposal",
    "rowid": "862748",
    "final_x": "3696357.70871",
    "final_y": "525315.617725",
    "longitude": "-90.0213795871973",
    "latitude": "29.93797631399743",
    "geocoded_column": {
      "latitude": "29.93797631399743",
      "longitude": "-90.0213795871973"
    }
  },
  {
    "service_request": "2022-862747",
    "request_type": "Trash/Recycling",
    "request_reason": "Order Trash Cart",
    "date_created": "2022-02-22T13:47:26.000",
    "date_modified": "2022-02-22T13:47:27.000",
    "request_status": "Pending",
    "responsible_agency": "Department of Sanitation",
    "final_address": "1618 Horace St",
    "address_councildis": "C",
    "status": "Assigned to Contractor",
    "contractor": "Richards Disposal",
    "rowid": "862747",
    "final_x": "3696357.70871",
    "final_y": "525315.617725",
    "longitude": "-90.0213795871973",
    "latitude": "29.93797631399743",
    "geocoded_column": {
      "latitude": "29.93797631399743",
      "longitude": "-90.0213795871973"
    }
  },
  {
    "service_request": "2022-862746",
    "request_type": "Property Maintenance",
    "request_reason": "Property Maintenance",
    "date_created": "2022-02-22T13:47:13.000",
    "date_modified": "2022-02-22T13:47:13.000",
    "request_status": "Pending",
    "responsible_agency": "Department of Code Enforcement",
    "final_address": "4905 Camp St, New Orleans ",
    "status": "Pending",
    "rowid": "862746",
    "longitude": "0.0",
    "latitude": "0.0",
    "geocoded_column": {
      "latitude": "0.0",
      "longitude": "0.0"
    }
  },
  {
    "service_request": "2022-862745",
    "request_type": "Trash/Recycling",
    "request_reason": "Request a Large Item Pick Up",
    "date_created": "2022-02-22T13:46:33.000",
    "date_modified": "2022-02-22T13:46:35.000",
    "request_status": "Pending",
    "responsible_agency": "Department of Sanitation",
    "final_address": "DANTE ST & SPRUCE ST",
    "address_councildis": "A",
    "status": "Assigned to Contractor",
    "contractor": "Richards Disposal",
    "rowid": "862745",
    "final_x": "3663313.0",
    "final_y": "530942.28",
    "longitude": "-90.12551782056207",
    "latitude": "29.95444680961698",
    "geocoded_column": {
      "latitude": "29.95444680961698",
      "longitude": "-90.12551782056207"
    }
  },
  {
    "service_request": "2022-862744",
    "request_type": "Abandoned Vehicles",
    "request_reason": "Abandoned/Junk Vehicles",
    "date_created": "2022-02-22T13:43:59.000",
    "date_modified": "2022-02-22T13:43:59.000",
    "request_status": "Pending",
    "responsible_agency": "Department of Public Works",
    "final_address": "4819 Clio St",
    "address_councildis": "B",
    "status": "Pending",
    "rowid": "862744",
    "final_x": "3669336.36058",
    "final_y": "532944.610436",
    "longitude": "-90.10643066201783",
    "latitude": "29.95977660334355",
    "geocoded_column": {
      "latitude": "29.95977660334355",
      "longitude": "-90.10643066201783"
    }
  },
  {
    "service_request": "2022-862743",
    "request_type": "Property Maintenance",
    "request_reason": "Property Maintenance",
    "date_created": "2022-02-22T13:43:07.000",
    "date_modified": "2022-02-22T13:43:07.000",
    "request_status": "Pending",
    "responsible_agency": "Department of Code Enforcement",
    "final_address": "2609 S Johnson St",
    "address_councildis": "B",
    "status": "Pending",
    "rowid": "862743",
    "final_x": "3672822.45595",
    "final_y": "528181.88768",
    "longitude": "-90.09558479416492",
    "latitude": "29.946577594576716",
    "geocoded_column": {
      "latitude": "29.946577594576716",
      "longitude": "-90.09558479416492"
    }
  },
  {
    "service_request": "2022-862742",
    "request_type": "Trash/Recycling",
    "request_reason": "Dead Animal Pick Up",
    "date_created": "2022-02-22T13:41:42.000",
    "date_modified": "2022-02-22T13:41:43.000",
    "request_status": "Pending",
    "responsible_agency": "Department of Sanitation",
    "final_address": "5945 Tchoupitoulas St",
    "address_councildis": "A",
    "status": "Assigned to Contractor",
    "contractor": "Richards Disposal",
    "rowid": "862742",
    "final_x": "3664454.77914",
    "final_y": "517467.915446",
    "longitude": "-90.12236216722926",
    "latitude": "29.917363446965656",
    "geocoded_column": {
      "latitude": "29.917363446965656",
      "longitude": "-90.12236216722926"
    }
  },
  {
    "service_request": "2022-862741",
    "request_type": "Roads/Drainage",
    "request_reason": "Pothole",
    "date_created": "2022-02-22T13:38:12.000",
    "date_modified": "2022-02-22T13:38:13.000",
    "request_status": "Pending",
    "responsible_agency": "Department of Public Works",
    "final_address": "BEHRMAN HWY & TULLIS DR",
    "address_councildis": "C",
    "status": "Pending",
    "rowid": "862741",
    "final_x": "3697485.2",
    "final_y": "514316.98",
    "longitude": "-90.01821855328248",
    "latitude": "29.90769826240668",
    "geocoded_column": {
      "latitude": "29.90769826240668",
      "longitude": "-90.01821855328248"
    }
  },
  {
    "service_request": "2022-862739",
    "request_type": "Trash/Recycling",
    "request_reason": "MIssed Recycling Pick-Up",
    "date_created": "2022-02-22T13:31:44.000",
    "date_modified": "2022-02-22T13:31:45.000",
    "request_status": "Pending",
    "responsible_agency": "Department of Sanitation",
    "final_address": "1429 Richland Rd",
    "address_councildis": "C",
    "status": "Assigned to Contractor",
    "contractor": "Richards Disposal",
    "rowid": "862739",
    "final_x": "3697879.62576",
    "final_y": "525863.361853",
    "longitude": "-90.016554920009",
    "latitude": "29.939434418400438",
    "geocoded_column": {
      "latitude": "29.939434418400438",
      "longitude": "-90.016554920009"
    }
  },
  {
    "service_request": "2022-862738",
    "request_type": "Roads/Drainage",
    "request_reason": "Catch Basin - Broken/Damage",
    "date_created": "2022-02-22T13:25:34.000",
    "date_modified": "2022-02-22T13:25:34.000",
    "request_status": "Pending",
    "responsible_agency": "Department of Public Works",
    "final_address": "704 Josephine St",
    "address_councildis": "B",
    "status": "Pending",
    "rowid": "862738",
    "final_x": "3679988.68879",
    "final_y": "521188.967481",
    "longitude": "-90.07320125236308",
    "latitude": "29.927134578997002",
    "geocoded_column": {
      "latitude": "29.927134578997002",
      "longitude": "-90.07320125236308"
    }
  },
  {
    "service_request": "2022-862737",
    "request_type": "Abandoned Vehicles",
    "request_reason": "Abandoned/Junk Vehicles",
    "date_created": "2022-02-22T13:21:16.000",
    "date_modified": "2022-02-22T13:21:16.000",
    "request_status": "Pending",
    "responsible_agency": "Department of Public Works",
    "final_address": "3200 Trafalgar St",
    "address_councildis": "A",
    "status": "Pending",
    "rowid": "862737",
    "final_x": "3678352.38862",
    "final_y": "543124.136653",
    "longitude": "-90.07760779109671",
    "latitude": "29.987498274923976",
    "geocoded_column": {
      "latitude": "29.987498274923976",
      "longitude": "-90.07760779109671"
    }
  },
  {
    "service_request": "2022-862736",
    "request_type": "Trash/Recycling",
    "request_reason": "Return Recycling Cart",
    "date_created": "2022-02-22T13:20:33.000",
    "date_modified": "2022-02-22T13:20:34.000",
    "request_status": "Pending",
    "responsible_agency": "Department of Sanitation",
    "final_address": "2632 Coliseum St",
    "address_councildis": "B",
    "status": "Pending",
    "contractor": "Richards Disposal",
    "rowid": "862736",
    "final_x": "3676810.45531",
    "final_y": "521846.733178",
    "longitude": "-90.08321147151409",
    "latitude": "29.929038946133236",
    "geocoded_column": {
      "latitude": "29.929038946133236",
      "longitude": "-90.08321147151409"
    }
  },
  {
    "service_request": "2022-862735",
    "request_type": "Roads/Drainage",
    "request_reason": "Leaking Hydrant",
    "date_created": "2022-02-22T13:19:26.000",
    "date_modified": "2022-02-22T13:19:26.000",
    "request_status": "Pending",
    "responsible_agency": "Department of Public Works",
    "final_address": "S CARROLLTON AVE & PRITCHARD PL",
    "address_councildis": "A",
    "status": "Pending",
    "rowid": "862735",
    "final_x": "3666093.2",
    "final_y": "532850.98",
    "longitude": "-90.1166750139435",
    "latitude": "29.9596142366118",
    "geocoded_column": {
      "latitude": "29.9596142366118",
      "longitude": "-90.1166750139435"
    }
  },