[
  {
    "service_request": "2023-981770",
    "request_type": "Abandoned Vehicles",
    "request_reason": "Vehicle Blocking Your Driveway",
    "date_created": "2023-03-09T22:29:17.000",
    "date_modified": "2023-03-09T22:29:17.000",
    "request_status": "Pending",
    "responsible_agency": "Department of Public Works",
    "final_address": "1528 Conti St",
    "address_councildis": "C",
    "status": "Pending",
    "rowid": "981770",
    "final_x": "3679686.15426",
    "final_y": "533125.588228",
    "longitude": "-90.07374206067149",
    "latitude": "29.95996545508881",
    "geocoded_column": {
      "latitude": "29.95996545508881",
      "longitude": "-90.07374206067149"
    }
  },
  {
    "service_request": "2023-981769",
    "request_type": "Trash/Recycling",
    "request_reason": "Replace Recycling Cart",
    "date_created": "2023-03-09T21:47:26.000",
    "date_modified": "2023-03-09T21:47:26.000",
    "request_status": "Pending",
    "responsible_agency": "Department of Sanitation",
    "final_address": "1917 General Pershing St",
    "address_councildis": "B",
    "status": "Pending",
    "rowid": "981769",
    "final_x": "3671212.5195",
    "final_y": "522129.425786",
    "longitude": "-90.10087349576531",
    "latitude": "29.929983006621438",
    "geocoded_column": {
      "latitude": "29.929983006621438",
      "longitude": "-90.10087349576531"
    }
  },
  {
    "service_request": "2023-981768",
    "request_type": "Trash/Recycling",
    "request_reason": "Missed Trash Pick-Up",
    "date_created": "2023-03-09T21:17:50.000",
    "date_modified": "2023-03-09T21:17:51.000",
    "request_status": "Pending",
    "responsible_agency": "Department of Sanitation",
    "final_address": "1131 Orange St",
    "address_councildis": "B",
    "status": "Assigned to Contractor",
    "contractor": "Richards Disposal",
    "rowid": "981768",
    "final_x": "3679856.47944",
    "final_y": "523577.759035",
    "longitude": "-90.07353569564594",
    "latitude": "29.933706968638734",
    "geocoded_column": {
      "latitude": "29.933706968638734",
      "longitude": "-90.07353569564594"
    }
  },
  {
    "service_request": "2023-981767",
    "request_type": "Trash/Recycling",
    "request_reason": "Request a Large Item Pick Up",
    "date_created": "2023-03-09T21:15:59.000",
    "date_modified": "2023-03-09T21:15:59.000",
    "request_status": "Pending",
    "responsible_agency": "Department of Sanitation",
    "final_address": "7432 Spring Lake Dr",
    "address_councildis": "E",
    "status": "Assigned to Contractor",
    "contractor": "Waste Pro",
    "rowid": "981767",
    "final_x": "3701026.48791",
    "final_y": "559092.073692",
    "longitude": "-90.00540414732905",
    "latitude": "30.030701342756128",
    "geocoded_column": {
      "latitude": "30.030701342756128",
      "longitude": "-90.00540414732905"
    }
  },
  {
    "service_request": "2023-981766",
    "request_type": "Trash/Recycling",
    "request_reason": "Order Recycling Cart",
    "date_created": "2023-03-09T21:06:08.000",
    "date_modified": "2023-03-09T21:06:08.000",
    "request_status": "Pending",
    "responsible_agency": "Department of Sanitation",
    "final_address": "825 Sixth St",
    "address_councildis": "B",
    "status": "Pending",
    "rowid": "981766",
    "final_x": "3677144.18664",
    "final_y": "519813.4158",
    "longitude": "-90.08222803136175",
    "latitude": "29.923437967486834",
    "geocoded_column": {
      "latitude": "29.923437967486834",
      "longitude": "-90.08222803136175"
    }
  },
  {
    "service_request": "2023-981765",
    "request_type": "Trash/Recycling",
    "request_reason": "Request a Large Item Pick Up",
    "date_created": "2023-03-09T20:45:44.000",
    "date_modified": "2023-03-09T20:45:45.000",
    "request_status": "Pending",
    "responsible_agency": "Department of Sanitation",
    "final_address": "4744 Mandeville St",
    "address_councildis": "D",
    "status": "Assigned to Contractor",
    "contractor": "IV Waste",
    "rowid": "981765",
    "final_x": "3684609.10773",
    "final_y": "550466.81698",
    "longitude": "-90.05758679658783",
    "latitude": "30.007497993672434",
    "geocoded_column": {
      "latitude": "30.007497993672434",
      "longitude": "-90.05758679658783"
    }
  },
  {
    "service_request": "2023-981764",
    "request_type": "Trash/Recycling",
    "request_reason": "Order Recycling Cart",
    "date_created": "2023-03-09T20:42:59.000",
    "date_modified": "2023-03-09T20:42:59.000",
    "request_status": "Pending",
    "responsible_agency": "Department of Sanitation",
    "final_address": "4867 Piety Dr",
    "address_councildis": "D",
    "status": "Pending",
    "rowid": "981764",
    "final_x": "3691579.07446",
    "final_y": "551747.227797",
    "longitude": "-90.03552094393538",
    "latitude": "30.010803432440564",
    "geocoded_column": {
      "latitude": "30.010803432440564",
      "longitude": "-90.03552094393538"
    }
  },
  {
    "service_request": "2023-981763",
    "request_type": "Trash/Recycling",
    "request_reason": "Order Trash Cart",
    "date_created": "2023-03-09T20:42:03.000",
    "date_modified": "2023-03-09T20:42:04.000",
    "request_status": "Pending",
    "responsible_agency": "Department of Sanitation",
    "final_address": "4867 Piety Dr",
    "address_councildis": "D",
    "status": "Assigned to Contractor",
    "contractor": "IV Waste",
    "rowid": "981763",
    "final_x": "3691579.07446",
    "final_y": "551747.227797",
    "longitude": "-90.03552094393538",
    "latitude": "30.010803432440564",
    "geocoded_column": {
      "latitude": "30.010803432440564",
      "longitude": "-90.03552094393538"
    }
  },
  {
    "service_request": "2023-981761",
    "request_type": "Safety & Permits",
    "request_reason": "Safety & Permits Request (Cyber Incident Back Up)",
    "date_created": "2023-03-09T20:26:45.000",
    "date_modified": "2023-03-09T20:26:45.000",
    "request_status": "Pending",
    "responsible_agency": "Safety and Permits",
    "status": "Pending",
    "rowid": "981761",
    "longitude": "0.0",
    "latitude": "0.0",
    "geocoded_column": {
      "latitude": "0.0",
      "longitude": "0.0"
    }
  },
  {
    "service_request": "2023-981760",
    "request_type": "Trash/Recycling",
    "request_reason": "Replace Trash Cart",
    "date_created": "2023-03-09T19:59:14.000",
    "date_modified": "2023-03-09T19:59:15.000",
    "request_status": "Pending",
    "responsible_agency": "Department of Sanitation",
    "final_address": "2517 Eads St",
    "address_councildis": "D",
    "status": "Assigned to Contractor",
    "contractor": "IV Waste",
    "rowid": "981760",
    "final_x": "3687890.02415",
    "final_y": "541914.73518",
    "longitude": "-90.04752465838266",
    "latitude": "29.983882003155834",
    "geocoded_column": {
      "latitude": "29.983882003155834",
      "longitude": "-90.04752465838266"
    }
  },
  {
    "service_request": "2023-981759",
    "request_type": "Trash/Recycling",
    "request_reason": "Replace Trash Cart",
    "date_created": "2023-03-09T19:57:39.000",
    "date_modified": "2023-03-09T19:57:40.000",
    "request_status": "Pending",
    "responsible_agency": "Department of Sanitation",
    "final_address": "2519 Eads St",
    "address_councildis": "D",
    "status": "Assigned to Contractor",
    "contractor": "IV Waste",
    "rowid": "981759",
    "final_x": "3687888.77417",
    "final_y": "541929.73518",
    "longitude": "-90.04752807482915",
    "latitude": "29.983923286388766",
    "geocoded_column": {
      "latitude": "29.983923286388766",
      "longitude": "-90.04752807482915"
    }
  },
  {
    "service_request": "2023-981758",
    "request_type": "Traffic Signals/Signs/Striping/Streetlights",
    "request_reason": "Street Light Outage/Malfunction",
    "date_created": "2023-03-09T19:46:44.000",
    "date_modified": "2023-03-09T19:46:45.000",
    "request_status": "Pending",
    "responsible_agency": "Department of Public Works",
    "final_address": "40 Killdeer St",
    "address_councildis": "D",
    "status": "Assigned to Contractor",
    "contractor": "Legacy Professional Services",
    "rowid": "981758",
    "final_x": "3675526.83259",
    "final_y": "555836.056153",
    "longitude": "-90.08609569400075",
    "latitude": "30.022536392181493",
    "geocoded_column": {
      "latitude": "30.022536392181493",
      "longitude": "-90.08609569400075"
    }
  },
  {
    "service_request": "2023-981757",
    "request_type": "Trash/Recycling",
    "request_reason": "Order Recycling Cart",
    "date_created": "2023-03-09T19:40:24.000",
    "date_modified": "2023-03-09T19:40:24.000",
    "request_status": "Pending",
    "responsible_agency": "Department of Sanitation",
    "final_address": "4126 DHemecourt St",
    "address_councildis": "A",
    "status": "Pending",
    "rowid": "981757",
    "final_x": "3669527.7513",
    "final_y": "536998.687752",
    "longitude": "-90.10568913309561",
    "latitude": "29.970918329539646",
    "geocoded_column": {
      "latitude": "29.970918329539646",
      "longitude": "-90.10568913309561"
    }
  },
  {
    "service_request": "2023-981756",
    "request_type": "Trash/Recycling",
    "request_reason": "Order Recycling Cart",
    "date_created": "2023-03-09T19:40:23.000",
    "date_modified": "2023-03-09T19:40:23.000",
    "request_status": "Pending",
    "responsible_agency": "Department of Sanitation",
    "final_address": "4126 DHemecourt St",
    "address_councildis": "A",
    "status": "Pending",
    "rowid": "981756",
    "final_x": "3669527.7513",
    "final_y": "536998.687752",
    "longitude": "-90.10568913309561",
    "latitude": "29.970918329539646",
    "geocoded_column": {
      "latitude": "29.970918329539646",
      "longitude": "-90.10568913309561"
    }
  },
  {
    "service_request": "2023-981755",
    "request_type": "Roads/Drainage",
    "request_reason": "Street Flooding / Drainage",
    "date_created": "2023-03-09T19:38:42.000",
    "date_modified": "2023-03-09T19:38:42.000",
    "request_status": "Pending",
    "responsible_agency": "Department of Public Works",
    "final_address": "3100 Dauphine St",
    "address_councildis": "C",
    "status": "Pending",
    "rowid": "981755",
    "final_x": "3688735.29532",
    "final_y": "534828.592454",
    "longitude": "-90.04510647553754",
    "latitude": "29.96437150027764",
    "geocoded_column": {
      "latitude": "29.96437150027764",
      "longitude": "-90.04510647553754"
    }
  },
  {
    "service_request": "2023-981754",
    "request_type": "Traffic Signals/Signs/Striping/Streetlights",
    "request_reason": "Street Light Outage/Malfunction",
    "date_created": "2023-03-09T19:34:09.000",
    "date_modified": "2023-03-09T19:34:10.000",
    "request_status": "Pending",
    "responsible_agency": "Department of Public Works",
    "final_address": "57 Gull St",
    "address_councildis": "D",
    "status": "Assigned to Contractor",
    "contractor": "Legacy Professional Services",
    "rowid": "981754",
    "final_x": "3674861.75803",
    "final_y": "555845.909337",
    "longitude": "-90.08819683614189",
    "latitude": "30.02258337349863",
    "geocoded_column": {
      "latitude": "30.02258337349863",
      "longitude": "-90.08819683614189"
    }
  },
  {
    "service_request": "2023-981753",
    "request_type": "Trash/Recycling",
    "request_reason": "Missed Trash Pick-Up",
    "date_created": "2023-03-09T19:27:14.000",
    "date_modified": "2023-03-09T19:27:15.000",
    "request_status": "Pending",
    "responsible_agency": "Department of Sanitation",
    "final_address": "1025 Richard St",
    "address_councildis": "B",
    "status": "Assigned to Contractor",
    "contractor": "Richards Disposal",
    "rowid": "981753",
    "final_x": "3680194.48725",
    "final_y": "523114.910523",
    "longitude": "-90.07248470048943",
    "latitude": "29.932424065033068",
    "geocoded_column": {
      "latitude": "29.932424065033068",
      "longitude": "-90.07248470048943"
    }
  },
  {
    "service_request": "2023-981750",
    "request_type": "Traffic Signals/Signs/Striping/Streetlights",
    "request_reason": "Street Light Outage/Malfunction",
    "date_created": "2023-03-09T19:24:20.000",
    "date_modified": "2023-03-09T19:24:21.000",
    "request_status": "Pending",
    "responsible_agency": "Department of Public Works",
    "final_address": "114 Lark St",
    "address_councildis": "D",
    "status": "Assigned to Contractor",
    "contractor": "Legacy Professional Services",
    "rowid": "981750",
    "final_x": "3674615.85672",
    "final_y": "556343.09705",
    "longitude": "-90.0889567663995",
    "latitude": "30.02395780511709",
    "geocoded_column": {
      "latitude": "30.02395780511709",
      "longitude": "-90.0889567663995"
    }
  },
  {
    "service_request": "2023-981749",
    "request_type": "Traffic Signals/Signs/Striping/Streetlights",
    "request_reason": "Street Light Outage/Malfunction",
    "date_created": "2023-03-09T19:21:26.000",
    "date_modified": "2023-03-09T19:21:27.000",
    "request_status": "Pending",
    "responsible_agency": "Department of Public Works",
    "final_address": "2025 Lamarque St",
    "address_councildis": "C",
    "status": "Assigned to Contractor",
    "contractor": "Legacy Professional Services",
    "rowid": "981749",
    "final_x": "3691613.80457",
    "final_y": "526571.891838",
    "longitude": "-90.03631154732832",
    "latitude": "29.94157913766319",
    "geocoded_column": {
      "latitude": "29.94157913766319",
      "longitude": "-90.03631154732832"
    }
  },
  {
    "service_request": "2023-981748",
    "request_type": "Traffic Signals/Signs/Striping/Streetlights",
    "request_reason": "Street Light Outage/Malfunction",
    "date_created": "2023-03-09T19:15:26.000",
    "date_modified": "2023-03-09T19:15:26.000",
    "request_status": "Pending",
    "responsible_agency": "Department of Public Works",
    "final_address": "109 Lark St",
    "address_councildis": "D",
    "status": "Assigned to Contractor",
    "contractor": "Legacy Professional Services",
    "rowid": "981748",
    "final_x": "3674864.29409",
    "final_y": "556196.748954",
    "longitude": "-90.08817677621316",
    "latitude": "30.023547979881883",
    "geocoded_column": {
      "latitude": "30.023547979881883",
      "longitude": "-90.08817677621316"
    }
  },
  {
    "service_request": "2023-981747",
    "request_type": "Traffic Signals/Signs/Striping/Streetlights",
    "request_reason": "Street Light Outage/Malfunction",
    "date_created": "2023-03-09T19:03:42.000",
    "date_modified": "2023-03-09T19:03:42.000",
    "request_status": "Pending",
    "responsible_agency": "Department of Public Works",
    "final_address": "4721 Camp St",
    "address_councildis": "B",
    "status": "Assigned to Contractor",
    "contractor": "Legacy Professional Services",
    "rowid": "981747",
    "final_x": "3669712.82446",
    "final_y": "519069.213175",
    "longitude": "-90.10571129671877",
    "latitude": "29.92161266503804",
    "geocoded_column": {
      "latitude": "29.92161266503804",
      "longitude": "-90.10571129671877"
    }
  },
  {
    "service_request": "2023-981746",
    "request_type": "Property Maintenance",
    "request_reason": "Property Maintenance",
    "date_created": "2023-03-09T18:57:10.000",
    "date_modified": "2023-03-09T18:57:10.000",
    "request_status": "Pending",
    "responsible_agency": "Department of Code Enforcement",
    "final_address": "7901 Lehigh St",
    "address_councildis": "E",
    "status": "Pending",
    "rowid": "981746",
    "final_x": "3710001.84145",
    "final_y": "566639.118435",
    "longitude": "-89.97675976638644",
    "latitude": "30.051163639475664",
    "geocoded_column": {
      "latitude": "30.051163639475664",
      "longitude": "-89.97675976638644"
    }
  },
  {
    "service_request": "2023-981745",
    "request_type": "Trash/Recycling",
    "request_reason": "Missed Trash Pick-Up",
    "date_created": "2023-03-09T18:56:20.000",
    "date_modified": "2023-03-09T18:56:21.000",
    "request_status": "Pending",
    "responsible_agency": "Department of Sanitation",
    "final_address": "1655 Alabo St",
    "address_councildis": "E",
    "status": "Assigned to Contractor",
    "contractor": "Waste Pro",
    "rowid": "981745",
    "final_x": "3699531.2682",
    "final_y": "535676.040775",
    "longitude": "-90.01098297906002",
    "latitude": "29.966363523395273",
    "geocoded_column": {
      "latitude": "29.966363523395273",
      "longitude": "-90.01098297906002"
    }
  },
  {
    "service_request": "2023-981744",
    "request_type": "Traffic Signals/Signs/Striping/Streetlights",
    "request_reason": "Street Light Outage/Malfunction",
    "date_created": "2023-03-09T18:56:04.000",
    "date_modified": "2023-03-09T18:56:04.000",
    "request_status": "Pending",
    "responsible_agency": "Department of Public Works",
    "final_address": "7901 Lehigh St",
    "address_councildis": "E",
    "status": "Assigned to Contractor",
    "contractor": "Legacy Professional Services",
    "rowid": "981744",
    "final_x": "3710001.84145",
    "final_y": "566639.118435",
    "longitude": "-89.97675976638644",
    "latitude": "30.051163639475664",
    "geocoded_column": {
      "latitude": "30.051163639475664",
      "longitude": "-89.97675976638644"
    }
  },
  {
    "service_request": "2023-981743",
    "request_type": "Roads/Drainage",
    "request_reason": "Pothole",
    "date_created": "2023-03-09T18:55:04.000",
    "date_modified": "2023-03-09T18:55:04.000",
    "request_status": "Pending",
    "responsible_agency": "Department of Public Works",
    "final_address": "1 Acadiana Pl",
    "address_councildis": "E",
    "status": "Pending",
    "rowid": "981743",
    "final_x": "3725195.07846",
    "final_y": "564304.480033",
    "longitude": "-89.92883011346031",
    "latitude": "30.04424101770111",
    "geocoded_column": {
      "latitude": "30.04424101770111",
      "longitude": "-89.92883011346031"
    }
  },
  {
    "service_request": "2023-981742",
    "request_type": "Property Maintenance",
    "request_reason": "Property Maintenance",
    "date_created": "2023-03-09T18:43:29.000",
    "date_modified": "2023-03-09T18:43:29.000",
    "request_status": "Pending",
    "responsible_agency": "Department of Code Enforcement",
    "final_address": "3114 Music St",
    "address_councildis": "D",
    "status": "Pending",
    "rowid": "981742",
    "final_x": "3686134.1469",
    "final_y": "544337.898383",
    "longitude": "-90.05298513126742",
    "latitude": "29.990598901567246",
    "geocoded_column": {
      "latitude": "29.990598901567246",
      "longitude": "-90.05298513126742"
    }
  },
  {
    "service_request": "2023-981741",
    "request_type": "Trash/Recycling",
    "request_reason": "Order Recycling Cart",
    "date_created": "2023-03-09T18:36:21.000",
    "date_modified": "2023-03-09T18:36:21.000",
    "request_status": "Pending",
    "responsible_agency": "Department of Sanitation",
    "final_address": "1214 Numa St",
    "address_councildis": "C",
    "status": "Pending",
    "rowid": "981741",
    "final_x": "3691850.48592",
    "final_y": "526901.850174",
    "longitude": "-90.03555250116433",
    "latitude": "29.942479041270524",
    "geocoded_column": {
      "latitude": "29.942479041270524",
      "longitude": "-90.03555250116433"
    }
  },
  {
    "service_request": "2023-981740",
    "request_type": "Trash/Recycling",
    "request_reason": "Request a Large Item Pick Up",
    "date_created": "2023-03-09T18:27:11.000",
    "date_modified": "2023-03-09T18:27:12.000",
    "request_status": "Pending",
    "responsible_agency": "Department of Sanitation",
    "final_address": "5936 Dover Pl",
    "address_councildis": "C",
    "status": "Assigned to Contractor",
    "contractor": "Richards Disposal",
    "rowid": "981740",
    "final_x": "3705786.2147",
    "final_y": "519177.085879",
    "longitude": "-89.9918401216447",
    "latitude": "29.92079729789274",
    "geocoded_column": {
      "latitude": "29.92079729789274",
      "longitude": "-89.9918401216447"
    }
  },
  {
    "service_request": "2023-981739",
    "request_type": "Trash/Recycling",
    "request_reason": "Order Recycling Cart",
    "date_created": "2023-03-09T18:15:48.000",
    "date_modified": "2023-03-09T18:15:48.000",
    "request_status": "Pending",
    "responsible_agency": "Department of Sanitation",
    "final_address": "4708 Cleveland Ave",
    "address_councildis": "A",
    "status": "Pending",
    "rowid": "981739",
    "final_x": "3668760.71361",
    "final_y": "539539.270026",
    "longitude": "-90.10802574438299",
    "latitude": "29.977926651516878",
    "geocoded_column": {
      "latitude": "29.977926651516878",
      "longitude": "-90.10802574438299"
    }
  },
  {
    "service_request": "2023-981738",
    "request_type": "Trash/Recycling",
    "request_reason": "Request a Large Item Pick Up",
    "date_created": "2023-03-09T18:11:11.000",
    "date_modified": "2023-03-09T18:11:11.000",
    "request_status": "Pending",
    "responsible_agency": "Department of Sanitation",
    "final_address": "41 Christy Ln",
    "address_councildis": "E",
    "status": "Assigned to Contractor",
    "contractor": "Waste Pro",
    "rowid": "981738",
    "final_x": "3707862.7882",
    "final_y": "557641.264155",
    "longitude": "-89.98385548030666",
    "latitude": "30.02649256963313",
    "geocoded_column": {
      "latitude": "30.02649256963313",
      "longitude": "-89.98385548030666"
    }
  },
  {
    "service_request": "2023-981737",
    "request_type": "Traffic Signals/Signs/Striping/Streetlights",
    "request_reason": "Street Light Outage/Malfunction",
    "date_created": "2023-03-09T18:08:23.000",
    "date_modified": "2023-03-09T18:08:24.000",
    "request_status": "Pending",
    "responsible_agency": "Department of Public Works",
    "final_address": "6032 Marigny St",
    "address_councildis": "D",
    "status": "Assigned to Contractor",
    "contractor": "Legacy Professional Services",
    "rowid": "981737",
    "final_x": "3683776.46332",
    "final_y": "555237.263449",
    "longitude": "-90.06004988033473",
    "latitude": "30.020640444805906",
    "geocoded_column": {
      "latitude": "30.020640444805906",
      "longitude": "-90.06004988033473"
    }
  },
  {
    "service_request": "2023-981736",
    "request_type": "Traffic Signals/Signs/Striping/Streetlights",
    "request_reason": "Additional signage",
    "date_created": "2023-03-09T18:07:35.000",
    "date_modified": "2023-03-09T18:07:35.000",
    "request_status": "Pending",
    "responsible_agency": "Department of Public Works",
    "final_address": "1932 St Philip St",
    "address_councildis": "D",
    "status": "Pending",
    "rowid": "981736",
    "final_x": "3679638.23131",
    "final_y": "536075.439559",
    "longitude": "-90.07379099772749",
    "latitude": "29.968077989303925",
    "geocoded_column": {
      "latitude": "29.968077989303925",
      "longitude": "-90.07379099772749"
    }
  },
  {
    "service_request": "2023-981735",
    "request_type": "Trash/Recycling",
    "request_reason": "Replace Recycling Cart",
    "date_created": "2023-03-09T18:04:06.000",
    "date_modified": "2023-03-09T18:04:06.000",
    "request_status": "Pending",
    "responsible_agency": "Department of Sanitation",
    "final_address": "5209 Perrier St",
    "address_councildis": "B",
    "status": "Pending",
    "rowid": "981735",
    "final_x": "3667984.57537",
    "final_y": "519962.996856",
    "longitude": "-90.11113655805326",
    "latitude": "29.9241210876722",
    "geocoded_column": {
      "latitude": "29.9241210876722",
      "longitude": "-90.11113655805326"
    }
  },
  {
    "service_request": "2023-981734",
    "request_type": "Trash/Recycling",
    "request_reason": "Request a Large Item Pick Up",
    "date_created": "2023-03-09T18:03:20.000",
    "date_modified": "2023-03-09T18:03:21.000",
    "request_status": "Pending",
    "responsible_agency": "Department of Sanitation",
    "final_address": "1000 Aline St",
    "address_councildis": "B",
    "status": "Assigned to Contractor",
    "contractor": "Richards Disposal",
    "rowid": "981734",
    "final_x": "3674498.80936",
    "final_y": "519141.643511",
    "longitude": "-90.09060150805863",
    "latitude": "29.921669965991597",
    "geocoded_column": {
      "latitude": "29.921669965991597",
      "longitude": "-90.09060150805863"
    }
  },
  {
    "service_request": "2023-981733",
    "request_type": "Trash/Recycling",
    "request_reason": "Request a Large Item Pick Up",
    "date_created": "2023-03-09T17:55:21.000",
    "date_modified": "2023-03-09T17:55:22.000",
    "request_status": "Pending",
    "responsible_agency": "Department of Sanitation",
    "final_address": "931 Governor Nicholls St",
    "address_councildis": "C",
    "status": "Assigned to Contractor",
    "contractor": "Empire Services",
    "rowid": "981733",
    "final_x": "3682892.3622",
    "final_y": "534528.764037",
    "longitude": "-90.06356846714478",
    "latitude": "29.963726406528114",
    "geocoded_column": {
      "latitude": "29.963726406528114",
      "longitude": "-90.06356846714478"
    }
  },
  {
    "service_request": "2023-981732",
    "request_type": "Roads/Drainage",
    "request_reason": "Pothole",
    "date_created": "2023-03-09T17:54:56.000",
    "date_modified": "2023-03-09T17:54:57.000",
    "request_status": "Pending",
    "responsible_agency": "Department of Public Works",
    "final_address": "900 BLK N Miro St",
    "address_councildis": "D",
    "status": "Pending",
    "rowid": "981732",
    "final_x": "3678639.78278",
    "final_y": "536636.035768",
    "longitude": "-90.07692472455064",
    "latitude": "29.969649577611598",
    "geocoded_column": {
      "latitude": "29.969649577611598",
      "longitude": "-90.07692472455064"
    }
  },
  {
    "service_request": "2023-981731",
    "request_type": "Trash/Recycling",
    "request_reason": "Missed Trash Pick-Up",
    "date_created": "2023-03-09T17:54:25.000",
    "date_modified": "2023-03-09T18:01:40.000",
    "request_status": "Pending",
    "responsible_agency": "Department of Sanitation",
    "final_address": "7600 Founders Ct",
    "address_councildis": "E",
    "status": "Assigned to Contractor",
    "contractor": "Waste Pro",
    "rowid": "981731",
    "final_x": "3725690.9079",
    "final_y": "570781.834215",
    "longitude": "-89.92701184315688",
    "latitude": "30.062034303388494",
    "geocoded_column": {
      "latitude": "30.062034303388494",
      "longitude": "-89.92701184315688"
    }
  },
  {
    "service_request": "2023-981730",
    "request_type": "Trash/Recycling",
    "request_reason": "Missed Trash Pick-Up",
    "date_created": "2023-03-09T17:45:54.000",
    "date_modified": "2023-03-09T17:45:55.000",
    "request_status": "Pending",
    "responsible_agency": "Department of Sanitation",
    "final_address": "1461 Magazine St",
    "address_councildis": "B",
    "status": "Assigned to Contractor",
    "contractor": "Richards Disposal",
    "rowid": "981730",
    "final_x": "3680202.78491",
    "final_y": "524023.150652",
    "longitude": "-90.0724269539209",
    "latitude": "29.934921174757065",
    "geocoded_column": {
      "latitude": "29.934921174757065",
      "longitude": "-90.0724269539209"
    }
  },
  {
    "service_request": "2023-981729",
    "request_type": "Trash/Recycling",
    "request_reason": "Missed Trash Pick-Up",
    "date_created": "2023-03-09T17:45:48.000",
    "date_modified": "2023-03-09T17:45:48.000",
    "request_status": "Pending",
    "responsible_agency": "Department of Sanitation",
    "final_address": "1461 Magazine St",
    "address_councildis": "B",
    "status": "Assigned to Contractor",
    "contractor": "Richards Disposal",
    "rowid": "981729",
    "final_x": "3680202.78491",
    "final_y": "524023.150652",
    "longitude": "-90.0724269539209",
    "latitude": "29.934921174757065",
    "geocoded_column": {
      "latitude": "29.934921174757065",
      "longitude": "-90.0724269539209"
    }
  },
  {
    "service_request": "2023-981728",
    "request_type": "Roads/Drainage",
    "request_reason": "Street Flooding / Drainage",
    "date_created": "2023-03-09T17:40:19.000",
    "date_modified": "2023-03-09T17:40:19.000",
    "request_status": "Pending",
    "responsible_agency": "Department of Public Works",
    "final_address": "6230 Kingston Ct",
    "address_councildis": "C",
    "status": "Pending",
    "rowid": "981728",
    "final_x": "3707088.22123",
    "final_y": "517832.726646",
    "longitude": "-89.98778015000175",
    "latitude": "29.917058799370366",
    "geocoded_column": {
      "latitude": "29.917058799370366",
      "longitude": "-89.98778015000175"
    }
  },
  {
    "service_request": "2023-981727",
    "request_type": "Trash/Recycling",
    "request_reason": "Missed Trash Pick-Up",
    "date_created": "2023-03-09T17:27:57.000",
    "date_modified": "2023-03-09T17:27:57.000",
    "request_status": "Pending",
    "responsible_agency": "Department of Sanitation",
    "final_address": "3730 Rue Nichole",
    "address_councildis": "C",
    "status": "Assigned to Contractor",
    "contractor": "Richards Disposal",
    "rowid": "981727",
    "final_x": "3704036.14481",
    "final_y": "516737.049333",
    "longitude": "-89.99745404325218",
    "latitude": "29.914144259807255",
    "geocoded_column": {
      "latitude": "29.914144259807255",
      "longitude": "-89.99745404325218"
    }
  },
  {
    "service_request": "2023-981726",
    "request_type": "Roads/Drainage",
    "request_reason": "Street Subsidence (Sinking)",
    "date_created": "2023-03-09T17:26:36.000",
    "date_modified": "2023-03-09T17:26:36.000",
    "request_status": "Pending",
    "responsible_agency": "Department of Public Works",
    "final_address": "173 Broadway St",
    "address_councildis": "A",
    "status": "Pending",
    "rowid": "981726",
    "final_x": "3661081.52474",
    "final_y": "521807.188602",
    "longitude": "-90.13286618213397",
    "latitude": "29.929392695420223",
    "geocoded_column": {
      "latitude": "29.929392695420223",
      "longitude": "-90.13286618213397"
    }
  },
  {
    "service_request": "2023-981725",
    "request_type": "Trash/Recycling",
    "request_reason": "Request a Large Item Pick Up",
    "date_created": "2023-03-09T17:25:55.000",
    "date_modified": "2023-03-09T17:25:56.000",
    "request_status": "Pending",
    "responsible_agency": "Department of Sanitation",
    "final_address": "4618 Arthur Dr",
    "address_councildis": "E",
    "status": "Assigned to Contractor",
    "contractor": "Waste Pro",
    "rowid": "981725",
    "final_x": "3707705.95659",
    "final_y": "554607.338136",
    "longitude": "-89.98446390128218",
    "latitude": "30.018155531764542",
    "geocoded_column": {
      "latitude": "30.018155531764542",
      "longitude": "-89.98446390128218"
    }
  },
  {
    "service_request": "2023-981724",
    "request_type": "Roads/Drainage",
    "request_reason": "Pothole",
    "date_created": "2023-03-09T17:24:31.000",
    "date_modified": "2023-03-09T17:24:31.000",
    "request_status": "Pending",
    "responsible_agency": "Department of Public Works",
    "final_address": "101 Kingston Ct",
    "address_councildis": "C",
    "status": "Pending",
    "rowid": "981724",
    "final_x": "3705581.06462",
    "final_y": "517702.394742",
    "longitude": "-89.99254215012103",
    "latitude": "29.916749010523684",
    "geocoded_column": {
      "latitude": "29.916749010523684",
      "longitude": "-89.99254215012103"
    }
  },
  {
    "service_request": "2023-981723",
    "request_type": "Trash/Recycling",
    "request_reason": "Repair Recycling Cart",
    "date_created": "2023-03-09T17:18:47.000",
    "date_modified": "2023-03-09T17:18:47.000",
    "request_status": "Pending",
    "responsible_agency": "Department of Sanitation",
    "final_address": "2131 Pine St",
    "address_councildis": "A",
    "status": "Pending",
    "rowid": "981723",
    "final_x": "3665909.4937",
    "final_y": "529533.544385",
    "longitude": "-90.11736628690176",
    "latitude": "29.950497732790637",
    "geocoded_column": {
      "latitude": "29.950497732790637",
      "longitude": "-90.11736628690176"
    }
  },
  {
    "service_request": "2023-981722",
    "request_type": "Trash/Recycling",
    "request_reason": "Replace Trash Cart",
    "date_created": "2023-03-09T17:18:17.000",
    "date_modified": "2023-03-09T17:18:18.000",
    "request_status": "Pending",
    "responsible_agency": "Department of Sanitation",
    "final_address": "8131 Cohn Street, New Orleans LA 70118",
    "address_councildis": "A",
    "status": "Assigned to Contractor",
    "contractor": "Richards Disposal",
    "rowid": "981722",
    "final_x": "3663465.41274",
    "final_y": "530397.342722",
    "longitude": "-90.12505470345558",
    "latitude": "29.9529439900729",
    "geocoded_column": {
      "latitude": "29.9529439900729",
      "longitude": "-90.12505470345558"
    }
  },
  {
    "service_request": "2023-981721",
    "request_type": "Roads/Drainage",
    "request_reason": "Leaking Hydrant",
    "date_created": "2023-03-09T17:18:15.000",
    "date_modified": "2023-03-09T17:18:15.000",
    "request_status": "Pending",
    "responsible_agency": "Department of Public Works",
    "final_address": "NAPOLEON AVE & S CLAIBORNE AVE",
    "address_councildis": "B",
    "status": "Pending",
    "rowid": "981721",
    "final_x": "3670320.5",
    "final_y": "525786.88",
    "longitude": "-90.10356554298984",
    "latitude": "29.940066178929065",
    "geocoded_column": {
      "latitude": "29.940066178929065",
      "longitude": "-90.10356554298984"
    }
  },
  {
    "service_request": "2023-981720",
    "request_type": "Traffic Signals/Signs/Striping/Streetlights",
    "request_reason": "Traffic Signal Malfunctioning/Damaged",
    "date_created": "2023-03-09T17:16:52.000",
    "date_modified": "2023-03-09T17:16:52.000",
    "request_status": "Pending",
    "responsible_agency": "Department of Public Works",
    "final_address": "1100 City Park Ave",
    "address_councildis": "A",
    "status": "Pending",
    "rowid": "981720",
    "final_x": "3673004.98414",
    "final_y": "541486.667532",
    "longitude": "-90.09455433412155",
    "latitude": "29.98315584972434",
    "geocoded_column": {
      "latitude": "29.98315584972434",
      "longitude": "-90.09455433412155"
    }
  },
  {
    "service_request": "2023-981718",
    "request_type": "Parks & Parkways",
    "request_reason": "Request Grass Cutting Service (City Owned Property)",
    "date_created": "2023-03-09T17:09:40.000",
    "date_modified": "2023-03-09T17:09:40.000",
    "request_status": "Pending",
    "responsible_agency": "Department of Parks & Parkway",
    "final_address": "2036 St Ferdinand St",
    "address_councildis": "D",
    "status": "Pending",
    "rowid": "981718",
    "final_x": "3688626.41999",
    "final_y": "540006.636491",
    "longitude": "-90.0452664792684",
    "latitude": "29.978612667354046",
    "geocoded_column": {
      "latitude": "29.978612667354046",
      "longitude": "-90.0452664792684"
    }
  },
  {
    "service_request": "2023-981717",
    "request_type": "Property Maintenance",
    "request_reason": "Property Maintenance",
    "date_created": "2023-03-09T17:07:45.000",
    "date_modified": "2023-03-09T17:07:45.000",
    "request_status": "Pending",
    "responsible_agency": "Department of Code Enforcement",
    "final_address": "2420 Ursulines Ave",
    "address_councildis": "D",
    "status": "Pending",
    "rowid": "981717",
    "final_x": "3678523.08565",
    "final_y": "537359.475272",
    "longitude": "-90.0772682197892",
    "latitude": "29.97164230635432",
    "geocoded_column": {
      "latitude": "29.97164230635432",
      "longitude": "-90.0772682197892"
    }
  },
  {
    "service_request": "2023-981716",
    "request_type": "Abandoned Vehicles",
    "request_reason": "Abandoned/Junk Vehicles",
    "date_created": "2023-03-09T17:01:09.000",
    "date_modified": "2023-03-09T17:06:05.000",
    "request_status": "Pending",
    "responsible_agency": "Department of Public Works",
    "final_address": "1100 Constance St",
    "address_councildis": "B",
    "status": "Pending",
    "rowid": "981716",
    "final_x": "3681185.23644",
    "final_y": "526174.720894",
    "longitude": "-90.06925043292526",
    "latitude": "29.940807514682593",
    "geocoded_column": {
      "latitude": "29.940807514682593",
      "longitude": "-90.06925043292526"
    }
  },
  {
    "service_request": "2023-981715",
    "request_type": "Abandoned Vehicles",
    "request_reason": "Abandoned/Junk Vehicles",
    "date_created": "2023-03-09T17:00:34.000",
    "date_modified": "2023-03-09T17:01:48.000",
    "request_status": "Pending",
    "responsible_agency": "Department of Public Works",
    "final_address": "729 Soraparu St",
    "address_councildis": "B",
    "status": "Pending",
    "rowid": "981715",
    "final_x": "3679024.92392",
    "final_y": "520660.351865",
    "longitude": "-90.07626191723749",
    "latitude": "29.925710166985333",
    "geocoded_column": {
      "latitude": "29.925710166985333",
      "longitude": "-90.07626191723749"
    }
  },
  {
    "service_request": "2023-981714",
    "request_type": "Trash/Recycling",
    "request_reason": "Order Recycling Cart",
    "date_created": "2023-03-09T17:00:30.000",
    "date_modified": "2023-03-09T17:00:30.000",
    "request_status": "Pending",
    "responsible_agency": "Department of Sanitation",
    "final_address": "1218 Sixth St",
    "address_councildis": "B",
    "status": "Pending",
    "rowid": "981714",
    "final_x": "3676251.90491",
    "final_y": "520943.700985",
    "longitude": "-90.08500576336402",
    "latitude": "29.926572644811525",
    "geocoded_column": {
      "latitude": "29.926572644811525",
      "longitude": "-90.08500576336402"
    }
  },
  {
    "service_request": "2023-981713",
    "request_type": "Trash/Recycling",
    "request_reason": "Repair Trash Cart",
    "date_created": "2023-03-09T16:58:32.000",
    "date_modified": "2023-03-09T16:58:32.000",
    "request_status": "Pending",
    "responsible_agency": "Department of Sanitation",
    "final_address": "3612 Upperline St",
    "address_councildis": "B",
    "status": "Assigned to Contractor",
    "contractor": "Richards Disposal",
    "rowid": "981713",
    "final_x": "3669257.15047",
    "final_y": "528162.601152",
    "longitude": "-90.10684242432613",
    "latitude": "29.94662997876134",
    "geocoded_column": {
      "latitude": "29.94662997876134",
      "longitude": "-90.10684242432613"
    }
  },
  {
    "service_request": "2023-981712",
    "request_type": "Abandoned Vehicles",
    "request_reason": "Abandoned/Junk Vehicles",
    "date_created": "2023-03-09T16:57:48.000",
    "date_modified": "2023-03-09T16:57:48.000",
    "request_status": "Pending",
    "responsible_agency": "Department of Public Works",
    "final_address": "405 Delaronde St",
    "address_councildis": "C",
    "status": "Pending",
    "rowid": "981712",
    "final_x": "3686648.77346",
    "final_y": "531002.116738",
    "longitude": "-90.0518306748774",
    "latitude": "29.953914348090272",
    "geocoded_column": {
      "latitude": "29.953914348090272",
      "longitude": "-90.0518306748774"
    }
  },
  {
    "service_request": "2023-981711",
    "request_type": "Trash/Recycling",
    "request_reason": "Repair Trash Cart",
    "date_created": "2023-03-09T16:56:38.000",
    "date_modified": "2023-03-09T16:56:39.000",
    "request_status": "Pending",
    "responsible_agency": "Department of Sanitation",
    "final_address": "3612 Upperline St",
    "address_councildis": "B",
    "status": "Assigned to Contractor",
    "contractor": "Richards Disposal",
    "rowid": "981711",
    "final_x": "3669257.15047",
    "final_y": "528162.601152",
    "longitude": "-90.10684242432613",
    "latitude": "29.94662997876134",
    "geocoded_column": {
      "latitude": "29.94662997876134",
      "longitude": "-90.10684242432613"
    }
  },
  {
    "service_request": "2023-981710",
    "request_type": "Abandoned Vehicles",
    "request_reason": "Abandoned/Junk Vehicles",
    "date_created": "2023-03-09T16:50:14.000",
    "date_modified": "2023-03-09T16:50:14.000",
    "request_status": "Pending",
    "responsible_agency": "Department of Public Works",
    "final_address": "825 Filmore Ave",
    "address_councildis": "A",
    "status": "Pending",
    "rowid": "981710",
    "final_x": "3669848.6779",
    "final_y": "551991.850454",
    "longitude": "-90.10416766627587",
    "latitude": "30.012134912852837",
    "geocoded_column": {
      "latitude": "30.012134912852837",
      "longitude": "-90.10416766627587"
    }
  },
  {
    "service_request": "2023-981709",
    "request_type": "Trash/Recycling",
    "request_reason": "Repair Recycling Cart",
    "date_created": "2023-03-09T16:48:51.000",
    "date_modified": "2023-03-09T16:48:51.000",
    "request_status": "Pending",
    "responsible_agency": "Department of Sanitation",
    "final_address": "1568 De Battista Pl",
    "address_councildis": "C",
    "status": "Pending",
    "rowid": "981709",
    "final_x": "3699809.61328",
    "final_y": "525241.170301",
    "longitude": "-90.01048441185623",
    "latitude": "29.937662482347605",
    "geocoded_column": {
      "latitude": "29.937662482347605",
      "longitude": "-90.01048441185623"
    }
  },
  {
    "service_request": "2023-981708",
    "request_type": "Trash/Recycling",
    "request_reason": "Order Recycling Cart",
    "date_created": "2023-03-09T16:47:48.000",
    "date_modified": "2023-03-09T16:47:48.000",
    "request_status": "Pending",
    "responsible_agency": "Department of Sanitation",
    "final_address": "3309 Banks St",
    "address_councildis": "B",
    "status": "Pending",
    "rowid": "981708",
    "final_x": "3672799.43745",
    "final_y": "535590.964934",
    "longitude": "-90.09540474029697",
    "latitude": "29.966950778066604",
    "geocoded_column": {
      "latitude": "29.966950778066604",
      "longitude": "-90.09540474029697"
    }
  },
  {
    "service_request": "2023-981707",
    "request_type": "Trash/Recycling",
    "request_reason": "Order Recycling Cart",
    "date_created": "2023-03-09T16:46:13.000",
    "date_modified": "2023-03-09T16:46:13.000",
    "request_status": "Pending",
    "responsible_agency": "Department of Sanitation",
    "final_address": "2915 Annunciation St",
    "address_councildis": "B",
    "status": "Pending",
    "rowid": "981707",
    "final_x": "3677093.22254",
    "final_y": "519576.636024",
    "longitude": "-90.08239706584881",
    "latitude": "29.922788429674977",
    "geocoded_column": {
      "latitude": "29.922788429674977",
      "longitude": "-90.08239706584881"
    }
  },
  {
    "service_request": "2023-981706",
    "request_type": "Trash/Recycling",
    "request_reason": "Order Recycling Cart",
    "date_created": "2023-03-09T16:43:48.000",
    "date_modified": "2023-03-09T16:43:49.000",
    "request_status": "Pending",
    "responsible_agency": "Department of Sanitation",
    "final_address": "2222 Prytania St",
    "address_councildis": "B",
    "status": "Pending",
    "rowid": "981706",
    "final_x": "3677770.39765",
    "final_y": "523111.458299",
    "longitude": "-90.08013745584697",
    "latitude": "29.93248769458786",
    "geocoded_column": {
      "latitude": "29.93248769458786",
      "longitude": "-90.08013745584697"
    }
  },
  {
    "service_request": "2023-981705",
    "request_type": "Trash/Recycling",
    "request_reason": "Repair Trash Cart",
    "date_created": "2023-03-09T16:43:41.000",
    "date_modified": "2023-03-09T16:43:41.000",
    "request_status": "Pending",
    "responsible_agency": "Department of Sanitation",
    "final_address": "5026 E St Andrews Cir",
    "address_councildis": "E",
    "status": "Assigned to Contractor",
    "contractor": "Waste Pro",
    "rowid": "981705",
    "final_x": "3719778.82495",
    "final_y": "559949.447325",
    "longitude": "-89.94611432565542",
    "latitude": "30.032447884191743",
    "geocoded_column": {
      "latitude": "30.032447884191743",
      "longitude": "-89.94611432565542"
    }
  },
  {
    "service_request": "2023-981704",
    "request_type": "Trash/Recycling",
    "request_reason": "Repair Trash Cart",
    "date_created": "2023-03-09T16:43:40.000",
    "date_modified": "2023-03-09T16:43:40.000",
    "request_status": "Pending",
    "responsible_agency": "Department of Sanitation",
    "final_address": "5323 Timber Haven Ln",
    "address_councildis": "C",
    "status": "Assigned to Contractor",
    "contractor": "Richards Disposal",
    "rowid": "981704",
    "final_x": "3703861.90628",
    "final_y": "511327.259056",
    "longitude": "-89.99820295173951",
    "latitude": "29.89927476360019",
    "geocoded_column": {
      "latitude": "29.89927476360019",
      "longitude": "-89.99820295173951"
    }
  },
  {
    "service_request": "2023-981702",
    "request_type": "Trash/Recycling",
    "request_reason": "Order Recycling Cart",
    "date_created": "2023-03-09T16:38:41.000",
    "date_modified": "2023-03-09T16:38:41.000",
    "request_status": "Pending",
    "responsible_agency": "Department of Sanitation",
    "final_address": "2828 Audubon St",
    "address_councildis": "B",
    "status": "Pending",
    "rowid": "981702",
    "final_x": "3667632.12429",
    "final_y": "531322.592194",
    "longitude": "-90.11186687626252",
    "latitude": "29.955366651870104",
    "geocoded_column": {
      "latitude": "29.955366651870104",
      "longitude": "-90.11186687626252"
    }
  },
  {
    "service_request": "2023-981701",
    "request_type": "Trash/Recycling",
    "request_reason": "MIssed Recycling Pick-Up",
    "date_created": "2023-03-09T16:36:47.000",
    "date_modified": "2023-03-09T16:36:48.000",
    "request_status": "Pending",
    "responsible_agency": "Department of Sanitation",
    "final_address": "2833 S Liberty St",
    "address_councildis": "B",
    "status": "Assigned to Contractor",
    "contractor": "Richards Disposal",
    "rowid": "981701",
    "final_x": "3674286.65134",
    "final_y": "524479.15078",
    "longitude": "-90.09108854333479",
    "latitude": "29.936352710840243",
    "geocoded_column": {
      "latitude": "29.936352710840243",
      "longitude": "-90.09108854333479"
    }
  },
  {
    "service_request": "2023-981700",
    "request_type": "Trash/Recycling",
    "request_reason": "Request a Large Item Pick Up",
    "date_created": "2023-03-09T16:34:19.000",
    "date_modified": "2023-03-09T16:34:19.000",
    "request_status": "Pending",
    "responsible_agency": "Department of Sanitation",
    "final_address": "1907 Ellen Park Pl",
    "address_councildis": "C",
    "status": "Assigned to Contractor",
    "contractor": "Richards Disposal",
    "rowid": "981700",
    "final_x": "3702874.2881",
    "final_y": "523908.827964",
    "longitude": "-90.00085798677532",
    "latitude": "29.933901365581594",
    "geocoded_column": {
      "latitude": "29.933901365581594",
      "longitude": "-90.00085798677532"
    }
  },
  {
    "service_request": "2023-981699",
    "request_type": "Trash/Recycling",
    "request_reason": "Order Recycling Cart",
    "date_created": "2023-03-09T16:33:00.000",
    "date_modified": "2023-03-09T16:33:01.000",
    "request_status": "Pending",
    "responsible_agency": "Department of Sanitation",
    "final_address": "11274 Willow Dr",
    "address_councildis": "C",
    "status": "Pending",
    "rowid": "981699",
    "final_x": "3726335.45965",
    "final_y": "514760.721267",
    "longitude": "-89.92714761072934",
    "latitude": "29.907976392423347",
    "geocoded_column": {
      "latitude": "29.907976392423347",
      "longitude": "-89.92714761072934"
    }
  },
  {
    "service_request": "2023-981698",
    "request_type": "Trash/Recycling",
    "request_reason": "Order Trash Cart",
    "date_created": "2023-03-09T16:29:21.000",
    "date_modified": "2023-03-09T16:29:22.000",
    "request_status": "Pending",
    "responsible_agency": "Department of Sanitation",
    "final_address": "2342 Industry St",
    "address_councildis": "D",
    "status": "Assigned to Contractor",
    "contractor": "IV Waste",
    "rowid": "981698",
    "final_x": "3685644.92418",
    "final_y": "542989.203213",
    "longitude": "-90.05457800461039",
    "latitude": "29.98690549161062",
    "geocoded_column": {
      "latitude": "29.98690549161062",
      "longitude": "-90.05457800461039"
    }
  },
  {
    "service_request": "2023-981697",
    "request_type": "Trash/Recycling",
    "request_reason": "Replace Trash Cart",
    "date_created": "2023-03-09T16:27:08.000",
    "date_modified": "2023-03-09T16:27:09.000",
    "request_status": "Pending",
    "responsible_agency": "Department of Sanitation",
    "final_address": "1718 Martin Luther King, Jr. Blvd",
    "address_councildis": "B",
    "status": "Assigned to Contractor",
    "contractor": "Richards Disposal",
    "rowid": "981697",
    "final_x": "3678643.30274",
    "final_y": "525839.585277",
    "longitude": "-90.07728736286099",
    "latitude": "29.939962865276375",
    "geocoded_column": {
      "latitude": "29.939962865276375",
      "longitude": "-90.07728736286099"
    }
  },
  {
    "service_request": "2023-981696",
    "request_type": "Trash/Recycling",
    "request_reason": "Replace Trash Cart",
    "date_created": "2023-03-09T16:26:45.000",
    "date_modified": "2023-03-09T16:26:47.000",
    "request_status": "Pending",
    "responsible_agency": "Department of Sanitation",
    "final_address": "1720 Martin Luther King, Jr. Blvd",
    "address_councildis": "B",
    "status": "Assigned to Contractor",
    "contractor": "Richards Disposal",
    "rowid": "981696",
    "final_x": "3678630.32686",
    "final_y": "525849.883069",
    "longitude": "-90.07732797327384",
    "latitude": "29.939991571900737",
    "geocoded_column": {
      "latitude": "29.939991571900737",
      "longitude": "-90.07732797327384"
    }
  },
  {
    "service_request": "2023-981695",
    "request_type": "Roads/Drainage",
    "request_reason": "Catch Basin - Clogged",
    "date_created": "2023-03-09T16:26:10.000",
    "date_modified": "2023-03-09T16:26:10.000",
    "request_status": "Pending",
    "responsible_agency": "Department of Public Works",
    "final_address": "6100 Pratt Dr",
    "address_councildis": "D",
    "status": "Pending",
    "rowid": "981695",
    "final_x": "3680080.62306",
    "final_y": "555015.518937",
    "longitude": "-90.07173534729769",
    "latitude": "30.020143135178785",
    "geocoded_column": {
      "latitude": "30.020143135178785",
      "longitude": "-90.07173534729769"
    }
  },
  {
    "service_request": "2023-981694",
    "request_type": "Roads/Drainage",
    "request_reason": "Catch Basin - Clogged",
    "date_created": "2023-03-09T16:25:50.000",
    "date_modified": "2023-03-09T16:25:50.000",
    "request_status": "Pending",
    "responsible_agency": "Department of Public Works",
    "final_address": "6000 BLK Pratt Dr",
    "address_councildis": "D",
    "status": "Pending",
    "rowid": "981694",
    "final_x": "3680170.85747",
    "final_y": "554954.377084",
    "longitude": "-90.07145236244669",
    "latitude": "30.019972285287746",
    "geocoded_column": {
      "latitude": "30.019972285287746",
      "longitude": "-90.07145236244669"
    }
  },
  {
    "service_request": "2023-981693",
    "request_type": "Roads/Drainage",
    "request_reason": "Catch Basin - Clogged",
    "date_created": "2023-03-09T16:25:33.000",
    "date_modified": "2023-03-09T16:25:33.000",
    "request_status": "Pending",
    "responsible_agency": "Department of Public Works",
    "final_address": "5900 BLK Pratt Dr",
    "address_councildis": "D",
    "status": "Pending",
    "rowid": "981693",
    "final_x": "3680221.02108",
    "final_y": "554329.387848",
    "longitude": "-90.07131561136431",
    "latitude": "30.018252273347073",
    "geocoded_column": {
      "latitude": "30.018252273347073",
      "longitude": "-90.07131561136431"
    }
  },
  {
    "service_request": "2023-981692",
    "request_type": "Roads/Drainage",
    "request_reason": "Catch Basin - Clogged",
    "date_created": "2023-03-09T16:25:20.000",
    "date_modified": "2023-03-09T16:25:20.000",
    "request_status": "Pending",
    "responsible_agency": "Department of Public Works",
    "final_address": "5800 Pratt Dr",
    "address_councildis": "D",
    "status": "Pending",
    "rowid": "981692",
    "final_x": "3680164.4324",
    "final_y": "553946.903128",
    "longitude": "-90.0715077188007",
    "latitude": "30.01720229300259",
    "geocoded_column": {
      "latitude": "30.01720229300259",
      "longitude": "-90.0715077188007"
    }
  },
  {
    "service_request": "2023-981691",
    "request_type": "Roads/Drainage",
    "request_reason": "Catch Basin - Clogged",
    "date_created": "2023-03-09T16:25:07.000",
    "date_modified": "2023-03-09T16:25:07.000",
    "request_status": "Pending",
    "responsible_agency": "Department of Public Works",
    "final_address": "5700 Pratt Dr",
    "address_councildis": "D",
    "status": "Pending",
    "rowid": "981691",
    "final_x": "3680202.11035",
    "final_y": "553671.280023",
    "longitude": "-90.0713982627344",
    "latitude": "30.0164432886091",
    "geocoded_column": {
      "latitude": "30.0164432886091",
      "longitude": "-90.0713982627344"
    }
  },
  {
    "service_request": "2023-981690",
    "request_type": "Roads/Drainage",
    "request_reason": "Catch Basin - Clogged",
    "date_created": "2023-03-09T16:24:51.000",
    "date_modified": "2023-03-09T16:24:51.000",
    "request_status": "Pending",
    "responsible_agency": "Department of Public Works",
    "final_address": "5600 Pratt Dr",
    "address_councildis": "D",
    "status": "Pending",
    "rowid": "981690",
    "final_x": "3680235.81141",
    "final_y": "553084.203927",
    "longitude": "-90.07131221175514",
    "latitude": "30.01482802162792",
    "geocoded_column": {
      "latitude": "30.01482802162792",
      "longitude": "-90.07131221175514"
    }
  },
  {
    "service_request": "2023-981689",
    "request_type": "Roads/Drainage",
    "request_reason": "Catch Basin - Clogged",
    "date_created": "2023-03-09T16:24:29.000",
    "date_modified": "2023-03-09T16:24:29.000",
    "request_status": "Pending",
    "responsible_agency": "Department of Public Works",
    "final_address": "5500 Pratt Dr",
    "address_councildis": "D",
    "status": "Pending",
    "rowid": "981689",
    "final_x": "3680268.27567",
    "final_y": "552664.035798",
    "longitude": "-90.07122426269619",
    "latitude": "30.013671728184182",
    "geocoded_column": {
      "latitude": "30.013671728184182",
      "longitude": "-90.07122426269619"
    }
  },
  {
    "service_request": "2023-981688",
    "request_type": "Trash/Recycling",
    "request_reason": "Missed Trash Pick-Up",
    "date_created": "2023-03-09T16:24:11.000",
    "date_modified": "2023-03-09T16:24:12.000",
    "request_status": "Pending",
    "responsible_agency": "Department of Sanitation",
    "final_address": "219 S Broad St",
    "address_councildis": "B",
    "status": "Assigned to Contractor",
    "contractor": "Richards Disposal",
    "rowid": "981688",
    "final_x": "3674921.15176",
    "final_y": "534689.04711",
    "longitude": "-90.08873529021356",
    "latitude": "29.964407609372653",
    "geocoded_column": {
      "latitude": "29.964407609372653",
      "longitude": "-90.08873529021356"
    }
  },
  {
    "service_request": "2023-981687",
    "request_type": "Traffic Signals/Signs/Striping/Streetlights",
    "request_reason": "Street Light Outage/Malfunction",
    "date_created": "2023-03-09T16:24:01.000",
    "date_modified": "2023-03-09T16:24:02.000",
    "request_status": "Pending",
    "responsible_agency": "Department of Public Works",
    "final_address": "4419 St Ann St",
    "address_councildis": "A",
    "status": "Assigned to Contractor",
    "contractor": "Legacy Professional Services",
    "rowid": "981687",
    "final_x": "3671492.67681",
    "final_y": "541430.167564",
    "longitude": "-90.09933291293981",
    "latitude": "29.9830453634559",
    "geocoded_column": {
      "latitude": "29.9830453634559",
      "longitude": "-90.09933291293981"
    }
  },
  {
    "service_request": "2023-981686",
    "request_type": "Roads/Drainage",
    "request_reason": "Catch Basin - Clogged",
    "date_created": "2023-03-09T16:23:45.000",
    "date_modified": "2023-03-09T16:23:45.000",
    "request_status": "Pending",
    "responsible_agency": "Department of Public Works",
    "final_address": "5400 BLK Pratt Dr",
    "address_councildis": "D",
    "status": "Pending",
    "rowid": "981686",
    "final_x": "3680294.30834",
    "final_y": "553398.45992",
    "longitude": "-90.07111645228765",
    "latitude": "30.01569034002694",
    "geocoded_column": {
      "latitude": "30.01569034002694",
      "longitude": "-90.07111645228765"
    }
  },
  {
    "service_request": "2023-981685",
    "request_type": "Roads/Drainage",
    "request_reason": "Catch Basin - Clogged",
    "date_created": "2023-03-09T16:23:18.000",
    "date_modified": "2023-03-09T16:23:18.000",
    "request_status": "Pending",
    "responsible_agency": "Department of Public Works",
    "final_address": "5300 BLK Pratt Dr",
    "address_councildis": "D",
    "status": "Pending",
    "rowid": "981685",
    "final_x": "3680377.19892",
    "final_y": "552325.965346",
    "longitude": "-90.07089189000109",
    "latitude": "30.01273885735905",
    "geocoded_column": {
      "latitude": "30.01273885735905",
      "longitude": "-90.07089189000109"
    }
  },
  {
    "service_request": "2023-981683",
    "request_type": "Trash/Recycling",
    "request_reason": "Replace Recycling Cart",
    "date_created": "2023-03-09T16:18:14.000",
    "date_modified": "2023-03-09T16:18:45.000",
    "request_status": "Pending",
    "responsible_agency": "Department of Sanitation",
    "final_address": "6127 Tchoupitoulas St",
    "address_councildis": "A",
    "status": "Pending",
    "rowid": "981683",
    "final_x": "3663304.41389",
    "final_y": "517898.472694",
    "longitude": "-90.12597891624836",
    "latitude": "29.91858072495307",
    "geocoded_column": {
      "latitude": "29.91858072495307",
      "longitude": "-90.12597891624836"
    }
  },
  {
    "service_request": "2023-981682",
    "request_type": "Trash/Recycling",
    "request_reason": "Replace Trash Cart",
    "date_created": "2023-03-09T16:16:07.000",
    "date_modified": "2023-03-09T16:16:07.000",
    "request_status": "Pending",
    "responsible_agency": "Department of Sanitation",
    "final_address": "5525 Pratt Dr",
    "address_councildis": "D",
    "status": "Assigned to Contractor",
    "contractor": "IV Waste",
    "rowid": "981682",
    "final_x": "3680443.88514",
    "final_y": "552873.514519",
    "longitude": "-90.07066213472915",
    "latitude": "30.0142423990705",
    "geocoded_column": {
      "latitude": "30.0142423990705",
      "longitude": "-90.07066213472915"
    }
  },
  {
    "service_request": "2023-981681",
    "request_type": "Trash/Recycling",
    "request_reason": "Request a Large Item Pick Up",
    "date_created": "2023-03-09T16:14:47.000",
    "date_modified": "2023-03-09T16:14:47.000",
    "request_status": "Pending",
    "responsible_agency": "Department of Sanitation",
    "final_address": "4711 Deanne St",
    "address_councildis": "D",
    "status": "Assigned to Contractor",
    "contractor": "Waste Pro",
    "rowid": "981681",
    "final_x": "3696445.6929",
    "final_y": "553970.610008",
    "longitude": "-90.02006496683816",
    "latitude": "30.016764438691446",
    "geocoded_column": {
      "latitude": "30.016764438691446",
      "longitude": "-90.02006496683816"
    }
  },
  {
    "service_request": "2023-981680",
    "request_type": "Abandoned Vehicles",
    "request_reason": "Abandoned/Junk Vehicles",
    "date_created": "2023-03-09T16:13:41.000",
    "date_modified": "2023-03-09T16:13:42.000",
    "request_status": "Pending",
    "responsible_agency": "Department of Public Works",
    "final_address": "7712 Mill St",
    "address_councildis": "E",
    "status": "Pending",
    "rowid": "981680",
    "final_x": "3696427.60816",
    "final_y": "559394.671517",
    "longitude": "-90.01992566732824",
    "latitude": "30.031679115757395",
    "geocoded_column": {
      "latitude": "30.031679115757395",
      "longitude": "-90.01992566732824"
    }
  },
  {
    "service_request": "2023-981678",
    "request_type": "Traffic Signals/Signs/Striping/Streetlights",
    "request_reason": "Traffic Sign Missing/Damaged",
    "date_created": "2023-03-09T16:12:59.000",
    "date_modified": "2023-03-09T16:12:59.000",
    "request_status": "Pending",
    "responsible_agency": "Department of Public Works",
    "final_address": "2628 N Roman St",
    "address_councildis": "D",
    "status": "Pending",
    "rowid": "981678",
    "final_x": "3688034.08323",
    "final_y": "538989.620874",
    "longitude": "-90.04717334842266",
    "latitude": "29.975834529073385",
    "geocoded_column": {
      "latitude": "29.975834529073385",
      "longitude": "-90.04717334842266"
    }
  },
  {
    "service_request": "2023-981679",
    "request_type": "Traffic Signals/Signs/Striping/Streetlights",
    "request_reason": "Traffic Sign Missing/Damaged",
    "date_created": "2023-03-09T16:12:59.000",
    "date_modified": "2023-03-09T16:12:59.000",
    "request_status": "Pending",
    "responsible_agency": "Department of Public Works",
    "final_address": "2628 N Roman St",
    "address_councildis": "D",
    "status": "Pending",
    "rowid": "981679",
    "final_x": "3688034.08323",
    "final_y": "538989.620874",
    "longitude": "-90.04717334842266",
    "latitude": "29.975834529073385",
    "geocoded_column": {
      "latitude": "29.975834529073385",
      "longitude": "-90.04717334842266"
    }
  },
  {
    "service_request": "2023-981677",
    "request_type": "Property Maintenance",
    "request_reason": "Property Maintenance",
    "date_created": "2023-03-09T16:12:53.000",
    "date_modified": "2023-03-09T16:12:53.000",
    "request_status": "Pending",
    "responsible_agency": "Department of Code Enforcement",
    "final_address": "1733 Robert St",
    "address_councildis": "B",
    "status": "Pending",
    "rowid": "981677",
    "final_x": "3668849.26471",
    "final_y": "522094.295418",
    "longitude": "-90.10833510482976",
    "latitude": "29.929956091874406",
    "geocoded_column": {
      "latitude": "29.929956091874406",
      "longitude": "-90.10833510482976"
    }
  },
  {
    "service_request": "2023-981676",
    "request_type": "Trash/Recycling",
    "request_reason": "Missed Trash Pick-Up",
    "date_created": "2023-03-09T16:12:20.000",
    "date_modified": "2023-03-09T16:12:21.000",
    "request_status": "Pending",
    "responsible_agency": "Department of Sanitation",
    "final_address": "1502 Amelia St",
    "address_councildis": "B",
    "status": "Assigned to Contractor",
    "contractor": "Richards Disposal",
    "rowid": "981676",
    "final_x": "3673231.4443",
    "final_y": "520665.732409",
    "longitude": "-90.09455003048376",
    "latitude": "29.92589845633124",
    "geocoded_column": {
      "latitude": "29.92589845633124",
      "longitude": "-90.09455003048376"
    }
  },
  {
    "service_request": "2023-981675",
    "request_type": "Traffic Signals/Signs/Striping/Streetlights",
    "request_reason": "Traffic Sign Missing/Damaged",
    "date_created": "2023-03-09T16:09:28.000",
    "date_modified": "2023-03-09T16:09:28.000",
    "request_status": "Pending",
    "responsible_agency": "Department of Public Works",
    "final_address": "543 Burgundy St",
    "address_councildis": "C",
    "status": "Pending",
    "rowid": "981675",
    "final_x": "3681412.71112",
    "final_y": "532805.64826",
    "longitude": "-90.0683011292159",
    "latitude": "29.95903342880448",
    "geocoded_column": {
      "latitude": "29.95903342880448",
      "longitude": "-90.0683011292159"
    }
  },
  {
    "service_request": "2023-981674",
    "request_type": "Trash/Recycling",
    "request_reason": "Repair Trash Cart",
    "date_created": "2023-03-09T16:09:19.000",
    "date_modified": "2023-03-09T16:09:19.000",
    "request_status": "Pending",
    "responsible_agency": "Department of Sanitation",
    "final_address": "8415 Sycamore St",
    "address_councildis": "A",
    "status": "Assigned to Contractor",
    "contractor": "Richards Disposal",
    "rowid": "981674",
    "final_x": "3663452.16883",
    "final_y": "531821.476163",
    "longitude": "-90.12504910358079",
    "latitude": "29.956860279484673",
    "geocoded_column": {
      "latitude": "29.956860279484673",
      "longitude": "-90.12504910358079"
    }
  },
  {
    "service_request": "2023-981673",
    "request_type": "Trash/Recycling",
    "request_reason": "Repair Recycling Cart",
    "date_created": "2023-03-09T16:09:08.000",
    "date_modified": "2023-03-09T16:09:08.000",
    "request_status": "Pending",
    "responsible_agency": "Department of Sanitation",
    "final_address": "8415 Sycamore St",
    "address_councildis": "A",
    "status": "Pending",
    "rowid": "981673",
    "final_x": "3663452.16883",
    "final_y": "531821.476163",
    "longitude": "-90.12504910358079",
    "latitude": "29.956860279484673",
    "geocoded_column": {
      "latitude": "29.956860279484673",
      "longitude": "-90.12504910358079"
    }
  },
  {
    "service_request": "2023-981671",
    "request_type": "Trash/Recycling",
    "request_reason": "Order Recycling Cart",
    "date_created": "2023-03-09T16:08:20.000",
    "date_modified": "2023-03-09T16:10:42.000",
    "request_status": "Pending",
    "responsible_agency": "Department of Sanitation",
    "final_address": "7724 Green St",
    "address_councildis": "A",
    "status": "Pending",
    "rowid": "981671",
    "final_x": "3664057.68967",
    "final_y": "528786.764416",
    "longitude": "-90.12323825239633",
    "latitude": "29.9484982335566",
    "geocoded_column": {
      "latitude": "29.9484982335566",
      "longitude": "-90.12323825239633"
    }
  },
  {
    "service_request": "2023-981670",
    "request_type": "Property Maintenance",
    "request_reason": "Property Maintenance",
    "date_created": "2023-03-09T16:07:13.000",
    "date_modified": "2023-03-09T16:07:14.000",
    "request_status": "Pending",
    "responsible_agency": "Department of Code Enforcement",
    "final_address": "7711 Mill St",
    "address_councildis": "E",
    "status": "Pending",
    "rowid": "981670",
    "final_x": "3696525.20874",
    "final_y": "559426.898333",
    "longitude": "-90.019616078461",
    "latitude": "30.03176465067175",
    "geocoded_column": {
      "latitude": "30.03176465067175",
      "longitude": "-90.019616078461"
    }
  },
  {
    "service_request": "2023-981669",
    "request_type": "Roads/Drainage",
    "request_reason": "Damaged Sidewalk",
    "date_created": "2023-03-09T16:03:13.000",
    "date_modified": "2023-03-09T16:03:13.000",
    "request_status": "Pending",
    "responsible_agency": "Department of Public Works",
    "final_address": "2854 Maurepas St",
    "address_councildis": "A",
    "status": "Pending",
    "rowid": "981669",
    "final_x": "3677949.32072",
    "final_y": "540639.115595",
    "longitude": "-90.07896687067871",
    "latitude": "29.98067747002621",
    "geocoded_column": {
      "latitude": "29.98067747002621",
      "longitude": "-90.07896687067871"
    }
  },
  {
    "service_request": "2023-981668",
    "request_type": "Trash/Recycling",
    "request_reason": "Order Trash Cart",
    "date_created": "2023-03-09T16:02:19.000",
    "date_modified": "2023-03-09T16:02:20.000",
    "request_status": "Pending",
    "responsible_agency": "Department of Sanitation",
    "final_address": "1805 Alvar St",
    "address_councildis": "D",
    "status": "Assigned to Contractor",
    "contractor": "IV Waste",
    "rowid": "981668",
    "final_x": "3692206.69917",
    "final_y": "538063.109449",
    "longitude": "-90.03402827757202",
    "latitude": "29.973157509797556",
    "geocoded_column": {
      "latitude": "29.973157509797556",
      "longitude": "-90.03402827757202"
    }
  },
  {
    "service_request": "2023-981667",
    "request_type": "Traffic Signals/Signs/Striping/Streetlights",
    "request_reason": "Street Light Outage/Malfunction",
    "date_created": "2023-03-09T15:59:03.000",
    "date_modified": "2023-03-09T15:59:04.000",
    "request_status": "Pending",
    "responsible_agency": "Department of Public Works",
    "final_address": "7211 Camberley Dr",
    "address_councildis": "E",
    "status": "Assigned to Contractor",
    "contractor": "Legacy Professional Services",
    "rowid": "981667",
    "final_x": "3713217.16318",
    "final_y": "565076.067234",
    "longitude": "-89.96665622910959",
    "latitude": "30.04676082321544",
    "geocoded_column": {
      "latitude": "30.04676082321544",
      "longitude": "-89.96665622910959"
    }
  },
  {
    "service_request": "2023-981666",
    "request_type": "Trash/Recycling",
    "request_reason": "Request a Large Item Pick Up",
    "date_created": "2023-03-09T15:57:32.000",
    "date_modified": "2023-03-09T15:57:33.000",
    "request_status": "Pending",
    "responsible_agency": "Department of Sanitation",
    "final_address": "7732 Mill St",
    "address_councildis": "E",
    "status": "Assigned to Contractor",
    "contractor": "Waste Pro",
    "rowid": "981666",
    "final_x": "3696391.30986",
    "final_y": "559499.446173",
    "longitude": "-90.02003657644735",
    "latitude": "30.031968349855312",
    "geocoded_column": {
      "latitude": "30.031968349855312",
      "longitude": "-90.02003657644735"
    }
  },
  {
    "service_request": "2023-981665",
    "request_type": "Trash/Recycling",
    "request_reason": "Order Recycling Cart",
    "date_created": "2023-03-09T15:56:30.000",
    "date_modified": "2023-03-09T15:56:30.000",
    "request_status": "Pending",
    "responsible_agency": "Department of Sanitation",
    "final_address": "3922 Lennox Blvd",
    "address_councildis": "C",
    "status": "Pending",
    "rowid": "981665",
    "final_x": "3700666.34513",
    "final_y": "516672.961141",
    "longitude": "-90.00809251864217",
    "latitude": "29.91407563495323",
    "geocoded_column": {
      "latitude": "29.91407563495323",
      "longitude": "-90.00809251864217"
    }
  },
  {
    "service_request": "2023-981664",
    "request_type": "Trash/Recycling",
    "request_reason": "Illegal Dumping",
    "date_created": "2023-03-09T15:54:59.000",
    "date_modified": "2023-03-09T15:54:59.000",
    "request_status": "Pending",
    "responsible_agency": "Department of Sanitation",
    "final_address": "6800 BLK Parc Brittany Blvd",
    "address_councildis": "E",
    "status": "Pending",
    "rowid": "981664",
    "final_x": "3702765.0298",
    "final_y": "557733.155647",
    "longitude": "-89.99996032832304",
    "latitude": "30.026909330455236",
    "geocoded_column": {
      "latitude": "30.026909330455236",
      "longitude": "-89.99996032832304"
    }
  },
  {
    "service_request": "2023-981663",
    "request_type": "Abandoned Vehicles",
    "request_reason": "Abandoned/Junk Vehicles",
    "date_created": "2023-03-09T15:51:45.000",
    "date_modified": "2023-03-09T15:53:43.000",
    "request_status": "Pending",
    "responsible_agency": "Department of Public Works",
    "final_address": "3233 Tulane Ave",
    "address_councildis": "B",
    "status": "Pending",
    "rowid": "981663",
    "final_x": "3672404.4971",
    "final_y": "534791.565382",
    "longitude": "-90.09667921129079",
    "latitude": "29.96476442391414",
    "geocoded_column": {
      "latitude": "29.96476442391414",
      "longitude": "-90.09667921129079"
    }
  },
  {
    "service_request": "2023-981662",
    "request_type": "Trash/Recycling",
    "request_reason": "Replace Trash Cart",
    "date_created": "2023-03-09T15:50:30.000",
    "date_modified": "2023-03-09T15:50:30.000",
    "request_status": "Pending",
    "responsible_agency": "Department of Sanitation",
    "final_address": "2535 N Roman St",
    "address_councildis": "D",
    "status": "Assigned to Contractor",
    "contractor": "IV Waste",
    "rowid": "981662",
    "final_x": "3687316.64079",
    "final_y": "539113.53537",
    "longitude": "-90.04943484437834",
    "latitude": "29.976197373772532",
    "geocoded_column": {
      "latitude": "29.976197373772532",
      "longitude": "-90.04943484437834"
    }
  },
  {
    "service_request": "2023-981661",
    "request_type": "Trash/Recycling",
    "request_reason": "Request a Large Item Pick Up",
    "date_created": "2023-03-09T15:49:40.000",
    "date_modified": "2023-03-09T15:49:41.000",
    "request_status": "Pending",
    "responsible_agency": "Department of Sanitation",
    "final_address": "8933 Curran Rd",
    "address_councildis": "E",
    "status": "Assigned to Contractor",
    "contractor": "Waste Pro",
    "rowid": "981661",
    "final_x": "3705147.26903",
    "final_y": "563132.557152",
    "longitude": "-89.99223305969223",
    "latitude": "30.041679128225116",
    "geocoded_column": {
      "latitude": "30.041679128225116",
      "longitude": "-89.99223305969223"
    }
  },
  {
    "service_request": "2023-981660",
    "request_type": "Trash/Recycling",
    "request_reason": "Dead Animal Pick Up",
    "date_created": "2023-03-09T15:46:47.000",
    "date_modified": "2023-03-09T15:46:48.000",
    "request_status": "Pending",
    "responsible_agency": "Department of Sanitation",
    "final_address": "2341 Cypress Acres Dr",
    "address_councildis": "C",
    "status": "Assigned to Contractor",
    "contractor": "Richards Disposal",
    "rowid": "981660",
    "final_x": "3696129.60426",
    "final_y": "522022.917178",
    "longitude": "-90.02221867596711",
    "latitude": "29.928929697291867",
    "geocoded_column": {
      "latitude": "29.928929697291867",
      "longitude": "-90.02221867596711"
    }
  },
  {
    "service_request": "2023-981659",
    "request_type": "Trash/Recycling",
    "request_reason": "Illegal Dumping",
    "date_created": "2023-03-09T15:46:16.000",
    "date_modified": "2023-03-09T15:46:16.000",
    "request_status": "Pending",
    "responsible_agency": "Department of Sanitation",
    "final_address": "5100 Canal Blvd",
    "address_councildis": "A",
    "status": "Pending",
    "rowid": "981659",
    "final_x": "3667853.33082",
    "final_y": "542150.040269",
    "longitude": "-90.1108036102348",
    "latitude": "29.9851320359883",
    "geocoded_column": {
      "latitude": "29.9851320359883",
      "longitude": "-90.1108036102348"
    }
  },
  {
    "service_request": "2023-981658",
    "request_type": "Trash/Recycling",
    "request_reason": "Replace Recycling Cart",
    "date_created": "2023-03-09T15:46:15.000",
    "date_modified": "2023-03-09T15:46:15.000",
    "request_status": "Pending",
    "responsible_agency": "Department of Sanitation",
    "final_address": "1021 Soniat St",
    "address_councildis": "B",
    "status": "Pending",
    "rowid": "981658",
    "final_x": "3668447.80558",
    "final_y": "519131.891959",
    "longitude": "-90.10970231504416",
    "latitude": "29.92182221785086",
    "geocoded_column": {
      "latitude": "29.92182221785086",
      "longitude": "-90.10970231504416"
    }
  },
  {
    "service_request": "2023-981657",
    "request_type": "Trash/Recycling",
    "request_reason": "Order Recycling Cart",
    "date_created": "2023-03-09T15:43:32.000",
    "date_modified": "2023-03-09T15:43:33.000",
    "request_status": "Pending",
    "responsible_agency": "Department of Sanitation",
    "final_address": "11 Sugarberry Pl",
    "address_councildis": "C",
    "status": "Pending",
    "rowid": "981657",
    "final_x": "3716990.7086",
    "final_y": "516399.605237",
    "longitude": "-89.95657842398924",
    "latitude": "29.912794767696923",
    "geocoded_column": {
      "latitude": "29.912794767696923",
      "longitude": "-89.95657842398924"
    }
  },
  {
    "service_request": "2023-981656",
    "request_type": "Trash/Recycling",
    "request_reason": "Order Trash Cart",
    "date_created": "2023-03-09T15:42:48.000",
    "date_modified": "2023-03-09T15:42:49.000",
    "request_status": "Pending",
    "responsible_agency": "Department of Sanitation",
    "final_address": "11 Sugarberry Pl",
    "address_councildis": "C",
    "status": "Assigned to Contractor",
    "contractor": "Richards Disposal",
    "rowid": "981656",
    "final_x": "3716990.7086",
    "final_y": "516399.605237",
    "longitude": "-89.95657842398924",
    "latitude": "29.912794767696923",
    "geocoded_column": {
      "latitude": "29.912794767696923",
      "longitude": "-89.95657842398924"
    }
  },
  {
    "service_request": "2023-981655",
    "request_type": "Trash/Recycling",
    "request_reason": "Request a Large Item Pick Up",
    "date_created": "2023-03-09T15:42:40.000",
    "date_modified": "2023-03-09T15:42:41.000",
    "request_status": "Pending",
    "responsible_agency": "Department of Sanitation",
    "final_address": "4211 St Charles Ave",
    "address_councildis": "B",
    "status": "Assigned to Contractor",
    "contractor": "Richards Disposal",
    "rowid": "981655",
    "final_x": "3671479.18484",
    "final_y": "521031.231161",
    "longitude": "-90.10006898917122",
    "latitude": "29.926955434238756",
    "geocoded_column": {
      "latitude": "29.926955434238756",
      "longitude": "-90.10006898917122"
    }
  },
  {
    "service_request": "2023-981654",
    "request_type": "Trash/Recycling",
    "request_reason": "Dead Animal Pick Up",
    "date_created": "2023-03-09T15:41:01.000",
    "date_modified": "2023-03-09T15:41:02.000",
    "request_status": "Pending",
    "responsible_agency": "Department of Sanitation",
    "final_address": "9315 Grant St",
    "address_councildis": "E",
    "status": "Assigned to Contractor",
    "contractor": "Waste Pro",
    "rowid": "981654",
    "final_x": "3709910.15659",
    "final_y": "554916.142936",
    "longitude": "-89.97748798055565",
    "latitude": "30.018933094289828",
    "geocoded_column": {
      "latitude": "30.018933094289828",
      "longitude": "-89.97748798055565"
    }
  },
  {
    "service_request": "2023-981653",
    "request_type": "Trash/Recycling",
    "request_reason": "Order Recycling Cart",
    "date_created": "2023-03-09T15:33:57.000",
    "date_modified": "2023-03-09T15:33:58.000",
    "request_status": "Pending",
    "responsible_agency": "Department of Sanitation",
    "final_address": "1638 Spain St",
    "address_councildis": "D",
    "status": "Pending",
    "rowid": "981653",
    "final_x": "3685932.03042",
    "final_y": "538565.376201",
    "longitude": "-90.05382717552689",
    "latitude": "29.97473271474159",
    "geocoded_column": {
      "latitude": "29.97473271474159",
      "longitude": "-90.05382717552689"
    }
  },
  {
    "service_request": "2023-981652",
    "request_type": "Trash/Recycling",
    "request_reason": "Request a Large Item Pick Up",
    "date_created": "2023-03-09T15:33:28.000",
    "date_modified": "2023-03-09T15:33:28.000",
    "request_status": "Pending",
    "responsible_agency": "Department of Sanitation",
    "final_address": "2510 St Thomas St",
    "address_councildis": "B",
    "status": "Assigned to Contractor",
    "contractor": "Richards Disposal",
    "rowid": "981652",
    "final_x": "3678743.30254",
    "final_y": "519707.874232",
    "longitude": "-90.07718387228466",
    "latitude": "29.923099655685863",
    "geocoded_column": {
      "latitude": "29.923099655685863",
      "longitude": "-90.07718387228466"
    }
  },
  {
    "service_request": "2023-981651",
    "request_type": "Traffic Signals/Signs/Striping/Streetlights",
    "request_reason": "Street Light Outage/Malfunction",
    "date_created": "2023-03-09T15:32:30.000",
    "date_modified": "2023-03-09T15:32:31.000",
    "request_status": "Pending",
    "responsible_agency": "Department of Public Works",
    "final_address": "FELICIANA ST & N ROBERTSON AVE",
    "address_councildis": "D",
    "status": "Assigned to Contractor",
    "contractor": "Legacy Professional Services",
    "rowid": "981651",
    "final_x": "3689109.75",
    "final_y": "537559.11",
    "longitude": "-90.04382694219672",
    "latitude": "29.97186788573524",
    "geocoded_column": {
      "latitude": "29.97186788573524",
      "longitude": "-90.04382694219672"
    }
  },
  {
    "service_request": "2023-981650",
    "request_type": "Trash/Recycling",
    "request_reason": "Order Trash Cart",
    "date_created": "2023-03-09T15:31:34.000",
    "date_modified": "2023-03-09T15:31:34.000",
    "request_status": "Pending",
    "responsible_agency": "Department of Sanitation",
    "final_address": "1638 Spain St",
    "address_councildis": "D",
    "status": "Assigned to Contractor",
    "contractor": "IV Waste",
    "rowid": "981650",
    "final_x": "3685932.03042",
    "final_y": "538565.376201",
    "longitude": "-90.05382717552689",
    "latitude": "29.97473271474159",
    "geocoded_column": {
      "latitude": "29.97473271474159",
      "longitude": "-90.05382717552689"
    }
  },
  {
    "service_request": "2023-981649",
    "request_type": "Roads/Drainage",
    "request_reason": "Pothole",
    "date_created": "2023-03-09T15:31:31.000",
    "date_modified": "2023-03-09T15:31:32.000",
    "request_status": "Pending",
    "responsible_agency": "Department of Public Works",
    "final_address": "1711 Third St",
    "address_councildis": "B",
    "status": "Pending",
    "rowid": "981649",
    "final_x": "3676196.6795",
    "final_y": "523305.193147",
    "longitude": "-90.08509888759495",
    "latitude": "29.933067634725678",
    "geocoded_column": {
      "latitude": "29.933067634725678",
      "longitude": "-90.08509888759495"
    }
  },
  {
    "service_request": "2023-981648",
    "request_type": "Property Maintenance",
    "request_reason": "Property Maintenance",
    "date_created": "2023-03-09T15:30:30.000",
    "date_modified": "2023-03-09T15:30:30.000",
    "request_status": "Pending",
    "responsible_agency": "Department of Code Enforcement",
    "final_address": "1562 N Prieur St A",
    "address_councildis": "D",
    "status": "Pending",
    "rowid": "981648",
    "final_x": "3681238.17512",
    "final_y": "538247.176009",
    "longitude": "-90.06866262058591",
    "latitude": "29.974001060082063",
    "geocoded_column": {
      "latitude": "29.974001060082063",
      "longitude": "-90.06866262058591"
    }
  },
  {
    "service_request": "2023-981647",
    "request_type": "Trash/Recycling",
    "request_reason": "Order Trash Cart",
    "date_created": "2023-03-09T15:30:30.000",
    "date_modified": "2023-03-09T15:30:31.000",
    "request_status": "Pending",
    "responsible_agency": "Department of Sanitation",
    "final_address": "532 Arabella St",
    "address_councildis": "A",
    "status": "Assigned to Contractor",
    "contractor": "Richards Disposal",
    "rowid": "981647",
    "final_x": "3665636.7929",
    "final_y": "518221.247478",
    "longitude": "-90.11860599598886",
    "latitude": "29.91940047274998",
    "geocoded_column": {
      "latitude": "29.91940047274998",
      "longitude": "-90.11860599598886"
    }
  },
  {
    "service_request": "2023-981646",
    "request_type": "Trash/Recycling",
    "request_reason": "Order Recycling Cart",
    "date_created": "2023-03-09T15:29:52.000",
    "date_modified": "2023-03-09T15:29:53.000",
    "request_status": "Pending",
    "responsible_agency": "Department of Sanitation",
    "final_address": "530 Arabella St",
    "address_councildis": "A",
    "status": "Pending",
    "rowid": "981646",
    "final_x": "3665632.09389",
    "final_y": "518210.674166",
    "longitude": "-90.11862118227238",
    "latitude": "29.919371536423906",
    "geocoded_column": {
      "latitude": "29.919371536423906",
      "longitude": "-90.11862118227238"
    }
  },
  {
    "service_request": "2023-981645",
    "request_type": "Trash/Recycling",
    "request_reason": "Missed Trash Pick-Up",
    "date_created": "2023-03-09T15:29:39.000",
    "date_modified": "2023-03-09T15:29:40.000",
    "request_status": "Pending",
    "responsible_agency": "Department of Sanitation",
    "final_address": "1535 Washington Ave",
    "address_councildis": "B",
    "status": "Assigned to Contractor",
    "contractor": "Richards Disposal",
    "rowid": "981645",
    "final_x": "3676098.77",
    "final_y": "522395.988154",
    "longitude": "-90.085439240755",
    "latitude": "29.930570549579887",
    "geocoded_column": {
      "latitude": "29.930570549579887",
      "longitude": "-90.085439240755"
    }
  },
  {
    "service_request": "2023-981644",
    "request_type": "Trash/Recycling",
    "request_reason": "Order Trash Cart",
    "date_created": "2023-03-09T15:29:25.000",
    "date_modified": "2023-03-09T15:29:27.000",
    "request_status": "Pending",
    "responsible_agency": "Department of Sanitation",
    "final_address": "530 Arabella St",
    "address_councildis": "A",
    "status": "Assigned to Contractor",
    "contractor": "Richards Disposal",
    "rowid": "981644",
    "final_x": "3665632.09389",
    "final_y": "518210.674166",
    "longitude": "-90.11862118227238",
    "latitude": "29.919371536423906",
    "geocoded_column": {
      "latitude": "29.919371536423906",
      "longitude": "-90.11862118227238"
    }
  },
  {
    "service_request": "2023-981643",
    "request_type": "Trash/Recycling",
    "request_reason": "Missed Trash Pick-Up",
    "date_created": "2023-03-09T15:29:23.000",
    "date_modified": "2023-03-09T15:29:24.000",
    "request_status": "Pending",
    "responsible_agency": "Department of Sanitation",
    "final_address": "4826 Good Dr",
    "address_councildis": "E",
    "status": "Assigned to Contractor",
    "contractor": "Waste Pro",
    "rowid": "981643",
    "final_x": "3714684.13899",
    "final_y": "557136.326298",
    "longitude": "-89.96232010898431",
    "latitude": "30.024881532115884",
    "geocoded_column": {
      "latitude": "30.024881532115884",
      "longitude": "-89.96232010898431"
    }
  },
  {
    "service_request": "2023-981642",
    "request_type": "Trash/Recycling",
    "request_reason": "Request a Large Item Pick Up",
    "date_created": "2023-03-09T15:25:00.000",
    "date_modified": "2023-03-09T15:25:01.000",
    "request_status": "Pending",
    "responsible_agency": "Department of Sanitation",
    "final_address": "222 Crystal St",
    "address_councildis": "D",
    "status": "Assigned to Contractor",
    "contractor": "IV Waste",
    "rowid": "981642",
    "final_x": "3667294.95764",
    "final_y": "556031.157465",
    "longitude": "-90.11209998672624",
    "latitude": "30.023316658913576",
    "geocoded_column": {
      "latitude": "30.023316658913576",
      "longitude": "-90.11209998672624"
    }
  },
  {
    "service_request": "2023-981641",
    "request_type": "Trash/Recycling",
    "request_reason": "Missed Trash Pick-Up",
    "date_created": "2023-03-09T15:24:37.000",
    "date_modified": "2023-03-09T15:26:05.000",
    "request_status": "Pending",
    "responsible_agency": "Department of Sanitation",
    "final_address": "258 Vallette St",
    "address_councildis": "C",
    "status": "Assigned to Contractor",
    "contractor": "Richards Disposal",
    "rowid": "981641",
    "final_x": "3687627.54166",
    "final_y": "530975.421826",
    "longitude": "-90.04874107927037",
    "latitude": "29.95381081079949",
    "geocoded_column": {
      "latitude": "29.95381081079949",
      "longitude": "-90.04874107927037"
    }
  },
  {
    "service_request": "2023-981640",
    "request_type": "Trash/Recycling",
    "request_reason": "Missed Trash Pick-Up",
    "date_created": "2023-03-09T15:18:07.000",
    "date_modified": "2023-03-09T15:26:15.000",
    "case_close_date": "2023-03-09T09:26:15.000",
    "request_status": "Closed",
    "responsible_agency": "Department of Sanitation",
    "final_address": "1642 Lesseps St",
    "address_councildis": "D",
    "status": "Assigned to Contractor",
    "contractor": "IV Waste",
    "contractor_action": "Completed",
    "rowid": "981640",
    "final_x": "3693215.15881",
    "final_y": "537281.093256",
    "longitude": "-90.03087144866902",
    "latitude": "29.97097576178191",
    "geocoded_column": {
      "latitude": "29.97097576178191",
      "longitude": "-90.03087144866902"
    }
  },
  {
    "service_request": "2023-981638",
    "request_type": "Trash/Recycling",
    "request_reason": "Repair Trash Cart",
    "date_created": "2023-03-09T15:17:03.000",
    "date_modified": "2023-03-09T15:17:04.000",
    "request_status": "Pending",
    "responsible_agency": "Department of Sanitation",
    "final_address": "151 Cherokee St",
    "address_councildis": "A",
    "status": "Assigned to Contractor",
    "contractor": "Richards Disposal",
    "rowid": "981638",
    "final_x": "3660959.9088",
    "final_y": "524033.18918",
    "longitude": "-90.13317650124645",
    "latitude": "29.93551700153994",
    "geocoded_column": {
      "latitude": "29.93551700153994",
      "longitude": "-90.13317650124645"
    }
  },
  {
    "service_request": "2023-981637",
    "request_type": "Trash/Recycling",
    "request_reason": "MIssed Recycling Pick-Up",
    "date_created": "2023-03-09T15:16:50.000",
    "date_modified": "2023-03-09T15:16:51.000",
    "request_status": "Pending",
    "responsible_agency": "Department of Sanitation",
    "final_address": "1321 Terry St",
    "address_councildis": "C",
    "status": "Assigned to Contractor",
    "contractor": "Richards Disposal",
    "rowid": "981637",
    "final_x": "3696905.81213",
    "final_y": "526351.740158",
    "longitude": "-90.01961168337353",
    "latitude": "29.940808024794965",
    "geocoded_column": {
      "latitude": "29.940808024794965",
      "longitude": "-90.01961168337353"
    }
  },
  {
    "service_request": "2023-981636",
    "request_type": "Trash/Recycling",
    "request_reason": "Request a Large Item Pick Up",
    "date_created": "2023-03-09T15:15:32.000",
    "date_modified": "2023-03-09T15:15:33.000",
    "request_status": "Pending",
    "responsible_agency": "Department of Sanitation",
    "final_address": "8654 Pontchartrain Blvd",
    "address_councildis": "A",
    "status": "Assigned to Contractor",
    "contractor": "IV Waste",
    "rowid": "981636",
    "final_x": "3666538.7961",
    "final_y": "555950.754137",
    "longitude": "-90.11449200781983",
    "latitude": "30.023117716340924",
    "geocoded_column": {
      "latitude": "30.023117716340924",
      "longitude": "-90.11449200781983"
    }
  },
  {
    "service_request": "2023-981635",
    "request_type": "Trash/Recycling",
    "request_reason": "Dead Animal Pick Up",
    "date_created": "2023-03-09T15:14:32.000",
    "date_modified": "2023-03-09T15:23:48.000",
    "request_status": "Pending",
    "responsible_agency": "Department of Sanitation",
    "final_address": "300 Warrington Dr, New Orleans, Louisiana, 70122",
    "address_councildis": "D",
    "status": "Assigned to Contractor",
    "contractor": "IV Waste",
    "rowid": "981635",
    "final_x": "3682114.80124",
    "final_y": "547477.287633",
    "longitude": "-90.06557151504566",
    "latitude": "29.999353985241356",
    "geocoded_column": {
      "latitude": "29.999353985241356",
      "longitude": "-90.06557151504566"
    }
  },
  {
    "service_request": "2023-981634",
    "request_type": "Trash/Recycling",
    "request_reason": "Order Trash Cart",
    "date_created": "2023-03-09T15:13:17.000",
    "date_modified": "2023-03-09T15:13:17.000",
    "request_status": "Pending",
    "responsible_agency": "Department of Sanitation",
    "final_address": "2159 Sere St",
    "address_councildis": "D",
    "status": "Assigned to Contractor",
    "contractor": "IV Waste",
    "rowid": "981634",
    "final_x": "3683992.0781",
    "final_y": "545944.742736",
    "longitude": "-90.05969496620278",
    "latitude": "29.995082790860277",
    "geocoded_column": {
      "latitude": "29.995082790860277",
      "longitude": "-90.05969496620278"
    }
  },
  {
    "service_request": "2023-981633",
    "request_type": "Trash/Recycling",
    "request_reason": "Missed Trash Pick-Up",
    "date_created": "2023-03-09T15:12:14.000",
    "date_modified": "2023-03-09T15:12:15.000",
    "request_status": "Pending",
    "responsible_agency": "Department of Sanitation",
    "final_address": "1442 St Maurice Ave",
    "address_councildis": "E",
    "status": "Assigned to Contractor",
    "contractor": "Waste Pro",
    "rowid": "981633",
    "final_x": "3700338.47268",
    "final_y": "534532.696069",
    "longitude": "-90.00847560467865",
    "latitude": "29.96319409662935",
    "geocoded_column": {
      "latitude": "29.96319409662935",
      "longitude": "-90.00847560467865"
    }
  },
  {
    "service_request": "2023-981632",
    "request_type": "Trash/Recycling",
    "request_reason": "Order Trash Cart",
    "date_created": "2023-03-09T15:12:08.000",
    "date_modified": "2023-03-09T15:12:09.000",
    "request_status": "Pending",
    "responsible_agency": "Department of Sanitation",
    "final_address": "2157 Sere St",
    "address_councildis": "D",
    "status": "Assigned to Contractor",
    "contractor": "IV Waste",
    "rowid": "981632",
    "final_x": "3683980.24617",
    "final_y": "545943.069072",
    "longitude": "-90.05973240071317",
    "latitude": "29.995078550498032",
    "geocoded_column": {
      "latitude": "29.995078550498032",
      "longitude": "-90.05973240071317"
    }
  },
  {
    "service_request": "2023-981631",
    "request_type": "Abandoned Vehicles",
    "request_reason": "Abandoned/Junk Vehicles",
    "date_created": "2023-03-09T15:11:28.000",
    "date_modified": "2023-03-09T15:11:29.000",
    "request_status": "Pending",
    "responsible_agency": "Department of Public Works",
    "final_address": "212 West Robert E Lee Blvd",
    "address_councildis": "A",
    "status": "Pending",
    "rowid": "981631",
    "final_x": "3666006.05229",
    "final_y": "554820.81212",
    "longitude": "-90.11621329298762",
    "latitude": "30.02002634626465",
    "geocoded_column": {
      "latitude": "30.02002634626465",
      "longitude": "-90.11621329298762"
    }
  },
  {
    "service_request": "2023-981630",
    "request_type": "Trash/Recycling",
    "request_reason": "Order Recycling Cart",
    "date_created": "2023-03-09T15:10:46.000",
    "date_modified": "2023-03-09T15:10:46.000",
    "request_status": "Pending",
    "responsible_agency": "Department of Sanitation",
    "final_address": "1619 Baronne St",
    "address_councildis": "B",
    "status": "Pending",
    "rowid": "981630",
    "final_x": "3678137.23336",
    "final_y": "525632.473597",
    "longitude": "-90.0788922581242",
    "latitude": "29.939408620451598",
    "geocoded_column": {
      "latitude": "29.939408620451598",
      "longitude": "-90.0788922581242"
    }
  },
  {
    "service_request": "2023-981629",
    "request_type": "Trash/Recycling",
    "request_reason": "Repair Recycling Cart",
    "date_created": "2023-03-09T15:05:14.000",
    "date_modified": "2023-03-09T15:05:14.000",
    "request_status": "Pending",
    "responsible_agency": "Department of Sanitation",
    "final_address": "3305 Chestnut St",
    "address_councildis": "B",
    "status": "Pending",
    "rowid": "981629",
    "final_x": "3675028.4395",
    "final_y": "520477.706232",
    "longitude": "-90.08888388819318",
    "latitude": "29.925327903238923",
    "geocoded_column": {
      "latitude": "29.925327903238923",
      "longitude": "-90.08888388819318"
    }
  },
  {
    "service_request": "2023-981628",
    "request_type": "Trash/Recycling",
    "request_reason": "Request a Large Item Pick Up",
    "date_created": "2023-03-09T15:02:52.000",
    "date_modified": "2023-03-09T15:02:53.000",
    "request_status": "Pending",
    "responsible_agency": "Department of Sanitation",
    "final_address": "4214 Dauphine St",
    "address_councildis": "C",
    "status": "Assigned to Contractor",
    "contractor": "IV Waste",
    "rowid": "981628",
    "final_x": "3692218.83344",
    "final_y": "533950.161861",
    "longitude": "-90.03413723489696",
    "latitude": "29.961847976798374",
    "geocoded_column": {
      "latitude": "29.961847976798374",
      "longitude": "-90.03413723489696"
    }
  },
  {
    "service_request": "2023-981626",
    "request_type": "Roads/Drainage",
    "request_reason": "Pothole",
    "date_created": "2023-03-09T14:59:55.000",
    "date_modified": "2023-03-09T14:59:56.000",
    "request_status": "Pending",
    "responsible_agency": "Department of Public Works",
    "final_address": "POYDRAS ST & S LIBERTY ST",
    "address_councildis": "B",
    "status": "Pending",
    "rowid": "981626",
    "final_x": "3678472.8",
    "final_y": "529978.28",
    "longitude": "-90.07768247858237",
    "latitude": "29.951348036339446",
    "geocoded_column": {
      "latitude": "29.951348036339446",
      "longitude": "-90.07768247858237"
    }
  },
  {
    "service_request": "2023-981625",
    "request_type": "Trash/Recycling",
    "request_reason": "Order Trash Cart",
    "date_created": "2023-03-09T14:59:46.000",
    "date_modified": "2023-03-09T14:59:47.000",
    "request_status": "Pending",
    "responsible_agency": "Department of Sanitation",
    "final_address": "2223 Willow St",
    "address_councildis": "B",
    "status": "Assigned to Contractor",
    "contractor": "Richards Disposal",
    "rowid": "981625",
    "final_x": "3674648.35067",
    "final_y": "527239.633727",
    "longitude": "-90.08985206886562",
    "latitude": "29.943932347313513",
    "geocoded_column": {
      "latitude": "29.943932347313513",
      "longitude": "-90.08985206886562"
    }
  },
  {
    "service_request": "2023-981624",
    "request_type": "Trash/Recycling",
    "request_reason": "Order Trash Cart",
    "date_created": "2023-03-09T14:59:23.000",
    "date_modified": "2023-03-09T14:59:24.000",
    "request_status": "Pending",
    "responsible_agency": "Department of Sanitation",
    "final_address": "2221 Willow St",
    "address_councildis": "B",
    "status": "Assigned to Contractor",
    "contractor": "Richards Disposal",
    "rowid": "981624",
    "final_x": "3674655.36705",
    "final_y": "527245.361215",
    "longitude": "-90.08982971995525",
    "latitude": "29.94394788665196",
    "geocoded_column": {
      "latitude": "29.94394788665196",
      "longitude": "-90.08982971995525"
    }
  },
  {
    "service_request": "2023-981623",
    "request_type": "Trash/Recycling",
    "request_reason": "Request a Large Item Pick Up",
    "date_created": "2023-03-09T14:48:29.000",
    "date_modified": "2023-03-09T14:48:30.000",
    "request_status": "Pending",
    "responsible_agency": "Department of Sanitation",
    "final_address": "7744 St Charles Ave",
    "address_councildis": "A",
    "status": "Assigned to Contractor",
    "contractor": "Richards Disposal",
    "rowid": "981623",
    "final_x": "3661392.67366",
    "final_y": "525997.454014",
    "longitude": "-90.13174522285735",
    "latitude": "29.940905637962846",
    "geocoded_column": {
      "latitude": "29.940905637962846",
      "longitude": "-90.13174522285735"
    }
  },