[
  {
    "service_request": "2025-1238854",
    "request_type": "Health Related Request",
    "request_reason": "Noise Ordinance Complaint",
    "date_created": "2025-11-08T23:30:57.000",
    "date_modified": "2025-11-08T23:31:00.000",
    "request_status": "Pending",
    "responsible_agency": "Health Department",
    "final_address": "2323 Robert St Apt A",
    "address_councildis": "B",
    "status": "Pending",
    "rowid": "1238854",
    "final_x": "3668857.65121",
    "final_y": "524165.402364",
    "longitude": "-90.10823872631822",
    "latitude": "29.93565072628257",
    "geocoded_column": {
      "latitude": "29.93565072628257",
      "longitude": "-90.10823872631822"
    }
  },
  {
    "service_request": "2025-1238853",
    "request_type": "Health Related Request",
    "request_reason": "Noise Ordinance Complaint",
    "date_created": "2025-11-08T23:08:43.000",
    "date_modified": "2025-11-08T23:08:44.000",
    "request_status": "Pending",
    "responsible_agency": "Health Department",
    "final_address": "7139 S Claiborne Ave, New Orleans, Louisiana, 70125",
    "address_councildis": "A",
    "status": "Pending",
    "rowid": "1238853",
    "final_x": "3666478.76743",
    "final_y": "529720.806785",
    "longitude": "-90.11556252470896",
    "latitude": "29.950996020138128",
    "geocoded_column": {
      "latitude": "29.950996020138128",
      "longitude": "-90.11556252470896"
    }
  },
  {
    "service_request": "2025-1238852",
    "request_type": "Trash/Recycling",
    "request_reason": "Request a Large Item Pick Up",
    "date_created": "2025-11-08T23:01:54.000",
    "date_modified": "2025-11-08T23:01:56.000",
    "request_status": "Pending",
    "responsible_agency": "Department of Sanitation",
    "final_address": "10121 Plainfield Dr",
    "address_councildis": "E",
    "status": "Assigned to Contractor",
    "contractor": "Waste Pro",
    "rowid": "1238852",
    "final_x": "3710113.82373",
    "final_y": "562700.160736",
    "longitude": "-89.97655324672668",
    "latitude": "30.040329443209004",
    "geocoded_column": {
      "latitude": "30.040329443209004",
      "longitude": "-89.97655324672668"
    }
  },
  {
    "service_request": "2025-1238851",
    "request_type": "Trash/Recycling",
    "request_reason": "Order Second Trash Cart",
    "date_created": "2025-11-08T22:59:51.000",
    "date_modified": "2025-11-08T22:59:53.000",
    "request_status": "Pending",
    "responsible_agency": "Department of Sanitation",
    "final_address": "2040 Beck St",
    "address_councildis": "C",
    "status": "Assigned to Contractor",
    "contractor": "Richards Disposal",
    "rowid": "1238851",
    "final_x": "3700521.55767",
    "final_y": "523670.875835",
    "longitude": "-90.00829409274711",
    "latitude": "29.93332209945119",
    "geocoded_column": {
      "latitude": "29.93332209945119",
      "longitude": "-90.00829409274711"
    }
  },
  {
    "service_request": "2025-1238850",
    "request_type": "Mosquito, Termite & Rodent Control",
    "request_reason": "Non-Rodent Complaint (Possums & Snakes)",
    "date_created": "2025-11-08T22:58:48.000",
    "date_modified": "2025-11-08T22:58:51.000",
    "request_status": "Pending",
    "responsible_agency": "Mosquito, Termite & Rodent Control Board",
    "final_address": "6560 Catina St",
    "address_councildis": "A",
    "status": "Pending",
    "rowid": "1238850",
    "final_x": "3666941.50938",
    "final_y": "551387.277333",
    "longitude": "-90.11337304089754",
    "latitude": "30.010557977619083",
    "geocoded_column": {
      "latitude": "30.010557977619083",
      "longitude": "-90.11337304089754"
    }
  },
  {
    "service_request": "2025-1238849",
    "request_type": "Abandoned Vehicles",
    "request_reason": "Vehicle Blocking Your Driveway",
    "date_created": "2025-11-08T21:37:30.000",
    "date_modified": "2025-11-08T21:37:32.000",
    "request_status": "Pending",
    "responsible_agency": "Department of Public Works",
    "final_address": "Frenchmen St, New Orleans, Louisiana, 70122 N Villere St, New Orleans, Louisiana, 70112",
    "status": "Pending",
    "rowid": "1238849",
    "longitude": "0.0",
    "latitude": "0.0",
    "geocoded_column": {
      "latitude": "0.0",
      "longitude": "0.0"
    }
  },
  {
    "service_request": "2025-1238848",
    "request_type": "Streetlights",
    "request_reason": "Streetlight Outage/Malfunction",
    "date_created": "2025-11-08T19:54:34.000",
    "date_modified": "2025-11-08T19:54:38.000",
    "request_status": "Pending",
    "responsible_agency": "Department of Public Works",
    "final_address": "4270 San Remo St",
    "address_councildis": "E",
    "status": "Pending",
    "rowid": "1238848",
    "final_x": "3760576.11299",
    "final_y": "573019.578857",
    "longitude": "-89.81664855788192",
    "latitude": "30.066963664531116",
    "geocoded_column": {
      "latitude": "30.066963664531116",
      "longitude": "-89.81664855788192"
    }
  },
  {
    "service_request": "2025-1238847",
    "request_type": "Streetlights",
    "request_reason": "Streetlight Outage/Malfunction",
    "date_created": "2025-11-08T19:41:01.000",
    "date_modified": "2025-11-08T19:41:04.000",
    "request_status": "Pending",
    "responsible_agency": "Department of Public Works",
    "final_address": "6522 Marshal Foch St",
    "address_councildis": "A",
    "status": "Pending",
    "rowid": "1238847",
    "final_x": "3670063.49377",
    "final_y": "550793.702805",
    "longitude": "-90.10352959662768",
    "latitude": "30.008834090597144",
    "geocoded_column": {
      "latitude": "30.008834090597144",
      "longitude": "-90.10352959662768"
    }
  },
  {
    "service_request": "2025-1238846",
    "request_type": "Streetlights",
    "request_reason": "Streetlight Outage/Malfunction",
    "date_created": "2025-11-08T19:39:21.000",
    "date_modified": "2025-11-08T19:39:23.000",
    "request_status": "Pending",
    "responsible_agency": "Department of Public Works",
    "final_address": "6522 Marshal Foch St",
    "address_councildis": "A",
    "status": "Pending",
    "rowid": "1238846",
    "final_x": "3670063.49377",
    "final_y": "550793.702805",
    "longitude": "-90.10352959662768",
    "latitude": "30.008834090597144",
    "geocoded_column": {
      "latitude": "30.008834090597144",
      "longitude": "-90.10352959662768"
    }
  },
  {
    "service_request": "2025-1238845",
    "request_type": "Trash/Recycling",
    "request_reason": "Request a Large Item Pick Up",
    "date_created": "2025-11-08T19:16:38.000",
    "date_modified": "2025-11-08T19:16:41.000",
    "request_status": "Pending",
    "responsible_agency": "Department of Sanitation",
    "final_address": "722 Austerlitz St",
    "address_councildis": "B",
    "status": "Assigned to Contractor",
    "contractor": "IV Waste",
    "rowid": "1238845",
    "final_x": "3672880.05908",
    "final_y": "518405.496566",
    "longitude": "-90.09573631409013",
    "latitude": "29.91969397173766",
    "geocoded_column": {
      "latitude": "29.91969397173766",
      "longitude": "-90.09573631409013"
    }
  },
  {
    "service_request": "2025-1238844",
    "request_type": "Streetlights",
    "request_reason": "Streetlight Outage/Malfunction",
    "date_created": "2025-11-08T17:54:06.000",
    "date_modified": "2025-11-08T17:54:08.000",
    "request_status": "Pending",
    "responsible_agency": "Department of Public Works",
    "final_address": "6119 Vicksburg St",
    "address_councildis": "A",
    "status": "Pending",
    "rowid": "1238844",
    "final_x": "3669008.16596",
    "final_y": "548096.770066",
    "longitude": "-90.10695492792757",
    "latitude": "30.001449568260885",
    "geocoded_column": {
      "latitude": "30.001449568260885",
      "longitude": "-90.10695492792757"
    }
  },
  {
    "service_request": "2025-1238843",
    "request_type": "Property Maintenance",
    "request_reason": "Property Maintenance",
    "date_created": "2025-11-08T17:37:23.000",
    "date_modified": "2025-11-08T17:37:24.000",
    "request_status": "Pending",
    "responsible_agency": "Department of Code Enforcement",
    "final_address": "4503 Bonita Dr",
    "address_councildis": "E",
    "status": "Pending",
    "rowid": "1238843",
    "final_x": "3704685.00842",
    "final_y": "553711.262359",
    "longitude": "-89.99404197749689",
    "latitude": "30.015789104683943",
    "geocoded_column": {
      "latitude": "30.015789104683943",
      "longitude": "-89.99404197749689"
    }
  },
  {
    "service_request": "2025-1238841",
    "request_type": "Drainage",
    "request_reason": "Illegal Dumping (Sewer Odor)",
    "date_created": "2025-11-08T17:15:05.000",
    "date_modified": "2025-11-08T17:15:07.000",
    "request_status": "Pending",
    "responsible_agency": "Sewerage & Water Board",
    "final_address": "8511 Hickory St",
    "address_councildis": "A",
    "status": "Pending",
    "rowid": "1238841",
    "final_x": "3662272.42669",
    "final_y": "530983.628418",
    "longitude": "-90.1288021858109",
    "latitude": "29.954590623248265",
    "geocoded_column": {
      "latitude": "29.954590623248265",
      "longitude": "-90.1288021858109"
    }
  },
  {
    "service_request": "2025-1238840",
    "request_type": "Trash/Recycling",
    "request_reason": "Replace Trash Cart",
    "date_created": "2025-11-08T16:38:58.000",
    "date_modified": "2025-11-08T16:39:01.000",
    "request_status": "Pending",
    "responsible_agency": "Department of Sanitation",
    "final_address": "2542 Bienville Ave",
    "address_councildis": "B",
    "status": "Assigned to Contractor",
    "contractor": "IV Waste",
    "rowid": "1238840",
    "final_x": "3676287.86984",
    "final_y": "535281.941254",
    "longitude": "-90.0843988897498",
    "latitude": "29.965996977742776",
    "geocoded_column": {
      "latitude": "29.965996977742776",
      "longitude": "-90.0843988897498"
    }
  },
  {
    "service_request": "2025-1238839",
    "request_type": "Trash/Recycling",
    "request_reason": "Dead Animal Pick Up",
    "date_created": "2025-11-08T16:27:54.000",
    "date_modified": "2025-11-08T16:27:56.000",
    "request_status": "Pending",
    "responsible_agency": "Department of Sanitation",
    "final_address": "FLEUR DE LIS DR & 40TH ST",
    "address_councildis": "A",
    "status": "Assigned to Contractor",
    "contractor": "IV Waste",
    "rowid": "1238839",
    "final_x": "3665506.1",
    "final_y": "553336.58",
    "longitude": "-90.11784273796289",
    "latitude": "30.015959822282355",
    "geocoded_column": {
      "latitude": "30.015959822282355",
      "longitude": "-90.11784273796289"
    }
  },
  {
    "service_request": "2025-1238838",
    "request_type": "Trash/Recycling",
    "request_reason": "Start Trash Service",
    "date_created": "2025-11-08T16:26:56.000",
    "date_modified": "2025-11-08T16:26:59.000",
    "request_status": "Pending",
    "responsible_agency": "Department of Sanitation",
    "final_address": "2501 Delery St",
    "address_councildis": "E",
    "status": "Assigned to Contractor",
    "contractor": "Waste Pro",
    "rowid": "1238838",
    "final_x": "3702543.88772",
    "final_y": "537932.615945",
    "longitude": "-90.00138640818791",
    "latitude": "29.97247234604057",
    "geocoded_column": {
      "latitude": "29.97247234604057",
      "longitude": "-90.00138640818791"
    }
  },
  {
    "service_request": "2025-1238837",
    "request_type": "General Services",
    "request_reason": "General Service Request",
    "date_created": "2025-11-08T16:18:20.000",
    "date_modified": "2025-11-08T16:18:21.000",
    "request_status": "Pending",
    "responsible_agency": "Orleans Parish Communication District",
    "final_address": "4022 Annunciation St",
    "address_councildis": "B",
    "status": "Pending",
    "rowid": "1238837",
    "final_x": "3672438.8619",
    "final_y": "517836.677942",
    "longitude": "-90.09714832960026",
    "latitude": "29.9181429970783",
    "geocoded_column": {
      "latitude": "29.9181429970783",
      "longitude": "-90.09714832960026"
    }
  },
  {
    "service_request": "2025-1238836",
    "request_type": "Abandoned Vehicles",
    "request_reason": "Abandoned/Junk Vehicles",
    "date_created": "2025-11-08T16:18:09.000",
    "date_modified": "2025-11-08T16:18:11.000",
    "request_status": "Pending",
    "responsible_agency": "Department of Public Works",
    "final_address": "5510 Press Dr",
    "address_councildis": "D",
    "status": "Pending",
    "rowid": "1238836",
    "final_x": "3689189.60009",
    "final_y": "553545.489879",
    "longitude": "-90.04300622616472",
    "latitude": "30.01582218873976",
    "geocoded_column": {
      "latitude": "30.01582218873976",
      "longitude": "-90.04300622616472"
    }
  },
  {
    "service_request": "2025-1238835",
    "request_type": "Trash/Recycling",
    "request_reason": "Request a Large Item Pick Up",
    "date_created": "2025-11-08T16:16:20.000",
    "date_modified": "2025-11-08T16:16:22.000",
    "request_status": "Pending",
    "responsible_agency": "Department of Sanitation",
    "final_address": "1736 General Ogden St",
    "address_councildis": "A",
    "status": "Assigned to Contractor",
    "contractor": "IV Waste",
    "rowid": "1238835",
    "final_x": "3661207.46323",
    "final_y": "531813.879427",
    "longitude": "-90.1321374616744",
    "latitude": "29.956904285537327",
    "geocoded_column": {
      "latitude": "29.956904285537327",
      "longitude": "-90.1321374616744"
    }
  },
  {
    "service_request": "2025-1238834",
    "request_type": "Trash/Recycling",
    "request_reason": "Missed Trash Pick-Up",
    "date_created": "2025-11-08T15:58:52.000",
    "date_modified": "2025-11-08T15:58:55.000",
    "request_status": "Pending",
    "responsible_agency": "Department of Sanitation",
    "final_address": "6102 Morrison rd",
    "address_councildis": "D",
    "status": "Assigned to Contractor",
    "contractor": "Waste Pro",
    "rowid": "1238834",
    "final_x": "3695965.9112",
    "final_y": "557557.563995",
    "longitude": "-90.02145111219285",
    "latitude": "30.02664231510327",
    "geocoded_column": {
      "latitude": "30.02664231510327",
      "longitude": "-90.02145111219285"
    }
  },
  {
    "service_request": "2025-1238833",
    "request_type": "Trash/Recycling",
    "request_reason": "Request a Large Item Pick Up",
    "date_created": "2025-11-08T15:02:59.000",
    "date_modified": "2025-11-08T15:03:02.000",
    "request_status": "Pending",
    "responsible_agency": "Department of Sanitation",
    "final_address": "7021 Yorktown Dr",
    "address_councildis": "E",
    "status": "Assigned to Contractor",
    "contractor": "Waste Pro",
    "rowid": "1238833",
    "final_x": "3706226.61015",
    "final_y": "560528.951262",
    "longitude": "-89.98891851514233",
    "latitude": "30.03448546108901",
    "geocoded_column": {
      "latitude": "30.03448546108901",
      "longitude": "-89.98891851514233"
    }
  },
  {
    "service_request": "2025-1238832",
    "request_type": "Trash/Recycling",
    "request_reason": "Repair Trash Cart",
    "date_created": "2025-11-08T14:57:35.000",
    "date_modified": "2025-11-08T14:57:37.000",
    "request_status": "Pending",
    "responsible_agency": "Department of Sanitation",
    "final_address": "6222 Curie St",
    "address_councildis": "D",
    "status": "Assigned to Contractor",
    "contractor": "IV Waste",
    "rowid": "1238832",
    "final_x": "3682432.32239",
    "final_y": "555984.082009",
    "longitude": "-90.06427082677494",
    "latitude": "30.022734922838247",
    "geocoded_column": {
      "latitude": "30.022734922838247",
      "longitude": "-90.06427082677494"
    }
  },
  {
    "service_request": "2025-1238831",
    "request_type": "Trash/Recycling",
    "request_reason": "Request a Large Item Pick Up",
    "date_created": "2025-11-08T14:21:25.000",
    "date_modified": "2025-11-08T14:21:28.000",
    "request_status": "Pending",
    "responsible_agency": "Department of Sanitation",
    "final_address": "4530 Eden St",
    "address_councildis": "B",
    "status": "Assigned to Contractor",
    "contractor": "IV Waste",
    "rowid": "1238831",
    "final_x": "3669486.22503",
    "final_y": "530886.020162",
    "longitude": "-90.10602704980334",
    "latitude": "29.954111745737343",
    "geocoded_column": {
      "latitude": "29.954111745737343",
      "longitude": "-90.10602704980334"
    }
  },
  {
    "service_request": "2025-1238830",
    "request_type": "Trash/Recycling",
    "request_reason": "Replace Trash Cart",
    "date_created": "2025-11-08T13:53:08.000",
    "date_modified": "2025-11-08T13:53:10.000",
    "request_status": "Pending",
    "responsible_agency": "Department of Sanitation",
    "final_address": "5747 St Bernard Ave",
    "address_councildis": "D",
    "status": "Assigned to Contractor",
    "contractor": "IV Waste",
    "rowid": "1238830",
    "final_x": "3676992.79419",
    "final_y": "553698.931991",
    "longitude": "-90.08153737262893",
    "latitude": "30.01661611647324",
    "geocoded_column": {
      "latitude": "30.01661611647324",
      "longitude": "-90.08153737262893"
    }
  },
  {
    "service_request": "2025-1238829",
    "request_type": "Trash/Recycling",
    "request_reason": "Request a Large Item Pick Up",
    "date_created": "2025-11-08T13:26:11.000",
    "date_modified": "2025-11-08T13:26:13.000",
    "request_status": "Pending",
    "responsible_agency": "Department of Sanitation",
    "final_address": "1509 Fats Domino Ave",
    "address_councildis": "E",
    "status": "Assigned to Contractor",
    "contractor": "Waste Pro",
    "rowid": "1238829",
    "final_x": "3698578.21936",
    "final_y": "535342.786374",
    "longitude": "-90.01400479131456",
    "latitude": "29.965477400932706",
    "geocoded_column": {
      "latitude": "29.965477400932706",
      "longitude": "-90.01400479131456"
    }
  },
  {
    "service_request": "2025-1238828",
    "request_type": "Streetlights",
    "request_reason": "Streetlight Outage/Malfunction",
    "date_created": "2025-11-08T13:08:01.000",
    "date_modified": "2025-11-08T13:08:03.000",
    "request_status": "Pending",
    "responsible_agency": "Department of Public Works",
    "final_address": "2030 Allen St",
    "address_councildis": "D",
    "status": "Pending",
    "rowid": "1238828",
    "final_x": "3682456.41474",
    "final_y": "539697.947594",
    "longitude": "-90.06476442276629",
    "latitude": "29.97795314971941",
    "geocoded_column": {
      "latitude": "29.97795314971941",
      "longitude": "-90.06476442276629"
    }
  },
  {
    "service_request": "2025-1238827",
    "request_type": "Abandoned Vehicles",
    "request_reason": "Abandoned/Junk Vehicles",
    "date_created": "2025-11-08T13:01:49.000",
    "date_modified": "2025-11-08T13:01:53.000",
    "request_status": "Pending",
    "responsible_agency": "Department of Public Works",
    "final_address": "2759 Dumaine St",
    "address_councildis": "A",
    "status": "Pending",
    "rowid": "1238827",
    "final_x": "3676762.51457",
    "final_y": "537876.907401",
    "longitude": "-90.08281053878025",
    "latitude": "29.973118016883944",
    "geocoded_column": {
      "latitude": "29.973118016883944",
      "longitude": "-90.08281053878025"
    }
  },
  {
    "service_request": "2025-1238826",
    "request_type": "Trash/Recycling",
    "request_reason": "Request a Large Item Pick Up",
    "date_created": "2025-11-08T12:44:04.000",
    "date_modified": "2025-11-08T12:44:09.000",
    "request_status": "Pending",
    "responsible_agency": "Department of Sanitation",
    "final_address": "1142 Deslonde St",
    "address_councildis": "E",
    "status": "Assigned to Contractor",
    "contractor": "Waste Pro",
    "rowid": "1238826",
    "final_x": "3695434.24848",
    "final_y": "534702.571526",
    "longitude": "-90.02395636573084",
    "latitude": "29.963816199717886",
    "geocoded_column": {
      "latitude": "29.963816199717886",
      "longitude": "-90.02395636573084"
    }
  },
  {
    "service_request": "2025-1238825",
    "request_type": "Trash/Recycling",
    "request_reason": "Request a Large Item Pick Up",
    "date_created": "2025-11-08T12:42:22.000",
    "date_modified": "2025-11-08T12:42:26.000",
    "request_status": "Pending",
    "responsible_agency": "Department of Sanitation",
    "final_address": "350 W Kenilworth St",
    "address_councildis": "A",
    "status": "Assigned to Contractor",
    "contractor": "IV Waste",
    "rowid": "1238825",
    "final_x": "3664623.02893",
    "final_y": "546310.122192",
    "longitude": "-90.1208677746519",
    "latitude": "29.996665220895068",
    "geocoded_column": {
      "latitude": "29.996665220895068",
      "longitude": "-90.1208677746519"
    }
  },
  {
    "service_request": "2025-1238824",
    "request_type": "Trash/Recycling",
    "request_reason": "Order Recycling Cart",
    "date_created": "2025-11-08T12:35:52.000",
    "date_modified": "2025-11-08T12:35:54.000",
    "request_status": "Pending",
    "responsible_agency": "Department of Sanitation",
    "final_address": "1637 Harmony St",
    "address_councildis": "B",
    "status": "Pending",
    "rowid": "1238824",
    "final_x": "3674738.63982",
    "final_y": "522134.910074",
    "longitude": "-90.08974192040276",
    "latitude": "29.929893329461326",
    "geocoded_column": {
      "latitude": "29.929893329461326",
      "longitude": "-90.08974192040276"
    }
  },
  {
    "service_request": "2025-1238823",
    "request_type": "Trash/Recycling",
    "request_reason": "Return Trash Cart",
    "date_created": "2025-11-08T12:34:15.000",
    "date_modified": "2025-11-08T12:34:18.000",
    "request_status": "Pending",
    "responsible_agency": "Department of Sanitation",
    "final_address": "1637 Harmony St",
    "address_councildis": "B",
    "status": "Assigned to Contractor",
    "contractor": "IV Waste",
    "rowid": "1238823",
    "final_x": "3674738.63982",
    "final_y": "522134.910074",
    "longitude": "-90.08974192040276",
    "latitude": "29.929893329461326",
    "geocoded_column": {
      "latitude": "29.929893329461326",
      "longitude": "-90.08974192040276"
    }
  },
  {
    "service_request": "2025-1238822",
    "request_type": "Trash/Recycling",
    "request_reason": "Request a Large Item Pick Up",
    "date_created": "2025-11-08T12:26:17.000",
    "date_modified": "2025-11-08T12:26:19.000",
    "request_status": "Pending",
    "responsible_agency": "Department of Sanitation",
    "final_address": "4509 Good Dr",
    "address_councildis": "E",
    "status": "Assigned to Contractor",
    "contractor": "Waste Pro",
    "rowid": "1238822",
    "final_x": "3714965.76984",
    "final_y": "555707.195289",
    "longitude": "-89.96148427663829",
    "latitude": "30.020942719283052",
    "geocoded_column": {
      "latitude": "30.020942719283052",
      "longitude": "-89.96148427663829"
    }
  },
  {
    "service_request": "2025-1238821",
    "request_type": "Trash/Recycling",
    "request_reason": "Request a Large Item Pick Up",
    "date_created": "2025-11-08T11:48:46.000",
    "date_modified": "2025-11-08T11:48:48.000",
    "request_status": "Pending",
    "responsible_agency": "Department of Sanitation",
    "final_address": "7725 Lehigh St",
    "address_councildis": "E",
    "status": "Assigned to Contractor",
    "contractor": "Waste Pro",
    "rowid": "1238821",
    "final_x": "3710246.60651",
    "final_y": "566250.497315",
    "longitude": "-89.97600070250944",
    "latitude": "30.0500871184133",
    "geocoded_column": {
      "latitude": "30.0500871184133",
      "longitude": "-89.97600070250944"
    }
  },
  {
    "service_request": "2025-1238820",
    "request_type": "Trash/Recycling",
    "request_reason": "Request a Large Item Pick Up",
    "date_created": "2025-11-08T11:46:55.000",
    "date_modified": "2025-11-08T11:46:57.000",
    "request_status": "Pending",
    "responsible_agency": "Department of Sanitation",
    "final_address": "3766 Preston Pl",
    "address_councildis": "C",
    "status": "Assigned to Contractor",
    "contractor": "Richards Disposal",
    "rowid": "1238820",
    "final_x": "3708294.67755",
    "final_y": "517092.210165",
    "longitude": "-89.98399962158388",
    "latitude": "29.914983625950814",
    "geocoded_column": {
      "latitude": "29.914983625950814",
      "longitude": "-89.98399962158388"
    }
  },
  {
    "service_request": "2025-1238819",
    "request_type": "Roads and Streets",
    "request_reason": "Street Flooding",
    "date_created": "2025-11-08T11:43:54.000",
    "date_modified": "2025-11-08T11:43:56.000",
    "request_status": "Pending",
    "responsible_agency": "Sewerage & Water Board",
    "final_address": "2333 Milan St, New Orleans, Louisiana, 70115",
    "address_councildis": "B",
    "status": "Pending",
    "rowid": "1238819",
    "final_x": "3671369.33883",
    "final_y": "523697.234683",
    "longitude": "-90.10032518394948",
    "latitude": "29.9342893373476",
    "geocoded_column": {
      "latitude": "29.9342893373476",
      "longitude": "-90.10032518394948"
    }
  },
  {
    "service_request": "2025-1238818",
    "request_type": "Trash/Recycling",
    "request_reason": "Request a Large Item Pick Up",
    "date_created": "2025-11-08T11:42:44.000",
    "date_modified": "2025-11-08T11:42:46.000",
    "request_status": "Pending",
    "responsible_agency": "Department of Sanitation",
    "final_address": "3365 Belfort St",
    "address_councildis": "A",
    "status": "Assigned to Contractor",
    "contractor": "IV Waste",
    "rowid": "1238818",
    "final_x": "3677023.03394",
    "final_y": "542610.182733",
    "longitude": "-90.08182449489911",
    "latitude": "29.986125071382386",
    "geocoded_column": {
      "latitude": "29.986125071382386",
      "longitude": "-90.08182449489911"
    }
  },
  {
    "service_request": "2025-1238817",
    "request_type": "Mosquito, Termite & Rodent Control",
    "request_reason": "Rodent Complaint (Mice & Rats)",
    "date_created": "2025-11-08T11:29:37.000",
    "date_modified": "2025-11-08T11:29:39.000",
    "request_status": "Pending",
    "responsible_agency": "Mosquito, Termite & Rodent Control Board",
    "final_address": "1738 Louisiana Ave",
    "address_councildis": "B",
    "status": "Pending",
    "rowid": "1238817",
    "final_x": "3673823.76513",
    "final_y": "522127.897722",
    "longitude": "-90.09263026865555",
    "latitude": "29.92990131817358",
    "geocoded_column": {
      "latitude": "29.92990131817358",
      "longitude": "-90.09263026865555"
    }
  },
  {
    "service_request": "2025-1238816",
    "request_type": "General Services",
    "request_reason": "General Service Request",
    "date_created": "2025-11-08T11:21:47.000",
    "date_modified": "2025-11-08T11:21:48.000",
    "request_status": "Pending",
    "responsible_agency": "Orleans Parish Communication District",
    "final_address": "1738 Louisiana Ave",
    "address_councildis": "B",
    "status": "Pending",
    "rowid": "1238816",
    "final_x": "3673823.76513",
    "final_y": "522127.897722",
    "longitude": "-90.09263026865555",
    "latitude": "29.92990131817358",
    "geocoded_column": {
      "latitude": "29.92990131817358",
      "longitude": "-90.09263026865555"
    }
  },
  {
    "service_request": "2025-1238815",
    "request_type": "Street and Traffic Signs",
    "request_reason": "Stop Sign Missing or Damaged",
    "date_created": "2025-11-08T11:17:22.000",
    "date_modified": "2025-11-08T11:17:24.000",
    "request_status": "Pending",
    "responsible_agency": "Department of Public Works",
    "final_address": "3745 Willow St",
    "address_councildis": "B",
    "status": "Pending",
    "rowid": "1238815",
    "final_x": "3671628.51399",
    "final_y": "525600.933501",
    "longitude": "-90.09944225666504",
    "latitude": "29.939516221256575",
    "geocoded_column": {
      "latitude": "29.939516221256575",
      "longitude": "-90.09944225666504"
    }
  },
  {
    "service_request": "2025-1238814",
    "request_type": "Trash/Recycling",
    "request_reason": "Request a Large Item Pick Up",
    "date_created": "2025-11-08T11:03:18.000",
    "date_modified": "2025-11-08T11:53:56.000",
    "request_status": "Pending",
    "responsible_agency": "Department of Sanitation",
    "final_address": "1509 Fats Domino Ave",
    "address_councildis": "E",
    "status": "Assigned to Contractor",
    "contractor": "Waste Pro",
    "rowid": "1238814",
    "final_x": "3698578.21936",
    "final_y": "535342.786374",
    "longitude": "-90.01400479131456",
    "latitude": "29.965477400932706",
    "geocoded_column": {
      "latitude": "29.965477400932706",
      "longitude": "-90.01400479131456"
    }
  },
  {
    "service_request": "2025-1238813",
    "request_type": "Trash/Recycling",
    "request_reason": "Request a Large Item Pick Up",
    "date_created": "2025-11-08T10:56:00.000",
    "date_modified": "2025-11-08T10:56:02.000",
    "request_status": "Pending",
    "responsible_agency": "Department of Sanitation",
    "final_address": "5232 Mandeville St",
    "address_councildis": "D",
    "status": "Assigned to Contractor",
    "contractor": "IV Waste",
    "rowid": "1238813",
    "final_x": "3684500.53257",
    "final_y": "552322.419414",
    "longitude": "-90.05786456019798",
    "latitude": "30.012603548803582",
    "geocoded_column": {
      "latitude": "30.012603548803582",
      "longitude": "-90.05786456019798"
    }
  },
  {
    "service_request": "2025-1238812",
    "request_type": "Roads and Streets",
    "request_reason": "Street Subsidence (Sinking)",
    "date_created": "2025-11-08T10:53:41.000",
    "date_modified": "2025-11-08T10:53:43.000",
    "request_status": "Pending",
    "responsible_agency": "Sewerage & Water Board",
    "final_address": "8326 Sycamore St",
    "address_councildis": "A",
    "status": "Pending",
    "rowid": "1238812",
    "final_x": "3663589.35232",
    "final_y": "531586.495491",
    "longitude": "-90.12462374665762",
    "latitude": "29.956210180599268",
    "geocoded_column": {
      "latitude": "29.956210180599268",
      "longitude": "-90.12462374665762"
    }
  },
  {
    "service_request": "2025-1238811",
    "request_type": "Abandoned Vehicles",
    "request_reason": "Abandoned/Junk Vehicles",
    "date_created": "2025-11-08T10:45:31.000",
    "date_modified": "2025-11-08T10:45:33.000",
    "request_status": "Pending",
    "responsible_agency": "Department of Public Works",
    "final_address": "711 Montegut St",
    "address_councildis": "C",
    "status": "Pending",
    "rowid": "1238811",
    "final_x": "3688114.99823",
    "final_y": "534743.46279",
    "longitude": "-90.04706833704297",
    "latitude": "29.964156584241206",
    "geocoded_column": {
      "latitude": "29.964156584241206",
      "longitude": "-90.04706833704297"
    }
  },
  {
    "service_request": "2025-1238810",
    "request_type": "Trash/Recycling",
    "request_reason": "Request a Large Item Pick Up",
    "date_created": "2025-11-08T10:45:08.000",
    "date_modified": "2025-11-08T10:45:10.000",
    "request_status": "Pending",
    "responsible_agency": "Department of Sanitation",
    "final_address": "13701 N Lemans St",
    "address_councildis": "E",
    "status": "Assigned to Contractor",
    "contractor": "Waste Pro",
    "rowid": "1238810",
    "final_x": "3726491.63552",
    "final_y": "563617.842145",
    "longitude": "-89.92475914794163",
    "latitude": "30.042309287252316",
    "geocoded_column": {
      "latitude": "30.042309287252316",
      "longitude": "-89.92475914794163"
    }
  },
  {
    "service_request": "2025-1238809",
    "request_type": "Drainage",
    "request_reason": "Ditch and Culvert Maintenance",
    "date_created": "2025-11-08T10:37:53.000",
    "date_modified": "2025-11-08T10:37:55.000",
    "request_status": "Pending",
    "responsible_agency": "Department of Public Works",
    "final_address": "8329 Pritchard Pl",
    "address_councildis": "A",
    "status": "Pending",
    "rowid": "1238809",
    "final_x": "3665364.90036",
    "final_y": "533567.160005",
    "longitude": "-90.11895085816175",
    "latitude": "29.961604740226623",
    "geocoded_column": {
      "latitude": "29.961604740226623",
      "longitude": "-90.11895085816175"
    }
  },
  {
    "service_request": "2025-1238808",
    "request_type": "Streetlights",
    "request_reason": "Streetlight Outage/Malfunction",
    "date_created": "2025-11-08T10:34:46.000",
    "date_modified": "2025-11-08T10:34:47.000",
    "request_status": "Pending",
    "responsible_agency": "Department of Public Works",
    "final_address": "8322 Pritchard Pl",
    "address_councildis": "A",
    "status": "Pending",
    "rowid": "1238808",
    "final_x": "3665366.15943",
    "final_y": "533465.432836",
    "longitude": "-90.1189502867511",
    "latitude": "29.961324987202875",
    "geocoded_column": {
      "latitude": "29.961324987202875",
      "longitude": "-90.1189502867511"
    }
  },
  {
    "service_request": "2025-1238806",
    "request_type": "Trash/Recycling",
    "request_reason": "Order Trash Cart",
    "date_created": "2025-11-08T10:06:07.000",
    "date_modified": "2025-11-08T10:06:10.000",
    "request_status": "Pending",
    "responsible_agency": "Department of Sanitation",
    "final_address": "811 France St",
    "address_councildis": "C",
    "status": "Assigned to Contractor",
    "contractor": "IV Waste",
    "rowid": "1238806",
    "final_x": "3692162.02109",
    "final_y": "534109.768453",
    "longitude": "-90.03431092464032",
    "latitude": "29.962288610053424",
    "geocoded_column": {
      "latitude": "29.962288610053424",
      "longitude": "-90.03431092464032"
    }
  },
  {
    "service_request": "2025-1238805",
    "request_type": "Trash/Recycling",
    "request_reason": "Replace Trash Cart",
    "date_created": "2025-11-08T09:59:39.000",
    "date_modified": "2025-11-08T09:59:41.000",
    "request_status": "Pending",
    "responsible_agency": "Department of Sanitation",
    "final_address": "15 Rosa Park",
    "address_councildis": "A",
    "status": "Assigned to Contractor",
    "contractor": "IV Waste",
    "rowid": "1238805",
    "final_x": "3666303.02637",
    "final_y": "522746.25561",
    "longitude": "-90.11635132322613",
    "latitude": "29.93182337986355",
    "geocoded_column": {
      "latitude": "29.93182337986355",
      "longitude": "-90.11635132322613"
    }
  },
  {
    "service_request": "2025-1238804",
    "request_type": "Trash/Recycling",
    "request_reason": "Request a Large Item Pick Up",
    "date_created": "2025-11-08T09:45:04.000",
    "date_modified": "2025-11-08T09:45:06.000",
    "request_status": "Pending",
    "responsible_agency": "Department of Sanitation",
    "final_address": "4714 Mark Twain Dr",
    "address_councildis": "D",
    "status": "Assigned to Contractor",
    "contractor": "IV Waste",
    "rowid": "1238804",
    "final_x": "3691341.02134",
    "final_y": "551125.923285",
    "longitude": "-90.03629526356926",
    "latitude": "30.00910248621918",
    "geocoded_column": {
      "latitude": "30.00910248621918",
      "longitude": "-90.03629526356926"
    }
  },
  {
    "service_request": "2025-1238803",
    "request_type": "Trash/Recycling",
    "request_reason": "Request a Large Item Pick Up",
    "date_created": "2025-11-08T09:40:56.000",
    "date_modified": "2025-11-08T09:40:57.000",
    "request_status": "Pending",
    "responsible_agency": "Department of Sanitation",
    "final_address": "7708 Woodbine Dr",
    "address_councildis": "E",
    "status": "Assigned to Contractor",
    "contractor": "Waste Pro",
    "rowid": "1238803",
    "final_x": "3701815.91549",
    "final_y": "561577.244639",
    "longitude": "-90.00281836829033",
    "latitude": "30.037509416136853",
    "geocoded_column": {
      "latitude": "30.037509416136853",
      "longitude": "-90.00281836829033"
    }
  },
  {
    "service_request": "2025-1238802",
    "request_type": "Trash/Recycling",
    "request_reason": "Request a Large Item Pick Up",
    "date_created": "2025-11-08T08:56:54.000",
    "date_modified": "2025-11-08T08:56:56.000",
    "request_status": "Pending",
    "responsible_agency": "Department of Sanitation",
    "final_address": "338 Verret St",
    "address_councildis": "C",
    "status": "Assigned to Contractor",
    "contractor": "Richards Disposal",
    "rowid": "1238802",
    "final_x": "3686949.71164",
    "final_y": "530451.66509",
    "longitude": "-90.05089989071537",
    "latitude": "29.95239153683198",
    "geocoded_column": {
      "latitude": "29.95239153683198",
      "longitude": "-90.05089989071537"
    }
  },
  {
    "service_request": "2025-1238801",
    "request_type": "Streetlights",
    "request_reason": "Streetlight Outage/Malfunction",
    "date_created": "2025-11-08T08:36:22.000",
    "date_modified": "2025-11-08T08:36:24.000",
    "request_status": "Pending",
    "responsible_agency": "Department of Public Works",
    "final_address": "1304 Lowerline St",
    "address_councildis": "A",
    "status": "Pending",
    "rowid": "1238801",
    "final_x": "3663852.6544",
    "final_y": "527191.300863",
    "longitude": "-90.12393880712274",
    "latitude": "29.94411717352941",
    "geocoded_column": {
      "latitude": "29.94411717352941",
      "longitude": "-90.12393880712274"
    }
  },
  {
    "service_request": "2025-1238800",
    "request_type": "Traffic Signals",
    "request_reason": "Traffic Signal Malfunctioning or Damaged",
    "date_created": "2025-11-08T08:29:43.000",
    "date_modified": "2025-11-08T08:29:46.000",
    "request_status": "Pending",
    "responsible_agency": "Department of Public Works",
    "final_address": "1200 Canal St",
    "address_councildis": "B",
    "status": "Pending",
    "rowid": "1238800",
    "final_x": "3679661.38056",
    "final_y": "531734.515203",
    "longitude": "-90.07386857354199",
    "latitude": "29.956141223983263",
    "geocoded_column": {
      "latitude": "29.956141223983263",
      "longitude": "-90.07386857354199"
    }
  },
  {
    "service_request": "2025-1238799",
    "request_type": "Abandoned Vehicles",
    "request_reason": "Abandoned/Junk Vehicles",
    "date_created": "2025-11-08T08:05:47.000",
    "date_modified": "2025-11-08T08:05:49.000",
    "request_status": "Pending",
    "responsible_agency": "Department of Public Works",
    "final_address": "4023 Tchoupitoulas St",
    "address_councildis": "B",
    "status": "Pending",
    "rowid": "1238799",
    "final_x": "3672456.92334",
    "final_y": "517628.933814",
    "longitude": "-90.09709839396619",
    "latitude": "29.917571230941423",
    "geocoded_column": {
      "latitude": "29.917571230941423",
      "longitude": "-90.09709839396619"
    }
  },
  {
    "service_request": "2025-1238798",
    "request_type": "Trash/Recycling",
    "request_reason": "Request a Large Item Pick Up",
    "date_created": "2025-11-08T07:54:25.000",
    "date_modified": "2025-11-08T07:54:27.000",
    "request_status": "Pending",
    "responsible_agency": "Department of Sanitation",
    "final_address": "210 E Hubbell Rd",
    "address_councildis": "C",
    "status": "Assigned to Contractor",
    "contractor": "Richards Disposal",
    "rowid": "1238798",
    "final_x": "3689374.24835",
    "final_y": "531096.855106",
    "longitude": "-90.0432214016974",
    "latitude": "29.954090750454178",
    "geocoded_column": {
      "latitude": "29.954090750454178",
      "longitude": "-90.0432214016974"
    }
  },
  {
    "service_request": "2025-1238797",
    "request_type": "Trash/Recycling",
    "request_reason": "Request a Large Item Pick Up",
    "date_created": "2025-11-08T07:53:39.000",
    "date_modified": "2025-11-08T07:53:42.000",
    "request_status": "Pending",
    "responsible_agency": "Department of Sanitation",
    "final_address": "6346 Colbert St",
    "address_councildis": "A",
    "status": "Assigned to Contractor",
    "contractor": "IV Waste",
    "rowid": "1238797",
    "final_x": "3667567.64941",
    "final_y": "549838.963924",
    "longitude": "-90.11144698148043",
    "latitude": "30.00628231106051",
    "geocoded_column": {
      "latitude": "30.00628231106051",
      "longitude": "-90.11144698148043"
    }
  },
  {
    "service_request": "2025-1238796",
    "request_type": "Streetlights",
    "request_reason": "Streetlight Outage/Malfunction",
    "date_created": "2025-11-08T07:52:18.000",
    "date_modified": "2025-11-08T07:52:22.000",
    "request_status": "Pending",
    "responsible_agency": "Department of Public Works",
    "final_address": "3137 Maurepas St",
    "address_councildis": "A",
    "status": "Pending",
    "rowid": "1238796",
    "final_x": "3676301.03169",
    "final_y": "540779.027979",
    "longitude": "-90.0841680745776",
    "latitude": "29.981111692728444",
    "geocoded_column": {
      "latitude": "29.981111692728444",
      "longitude": "-90.0841680745776"
    }
  },
  {
    "service_request": "2025-1238795",
    "request_type": "Mosquito, Termite & Rodent Control",
    "request_reason": "Rodent Complaint (Mice & Rats)",
    "date_created": "2025-11-08T07:33:52.000",
    "date_modified": "2025-11-08T07:33:54.000",
    "request_status": "Pending",
    "responsible_agency": "Mosquito, Termite & Rodent Control Board",
    "final_address": "1711 General Pershing St",
    "address_councildis": "B",
    "status": "Pending",
    "rowid": "1238795",
    "final_x": "3671234.73172",
    "final_y": "521385.613689",
    "longitude": "-90.10082863220536",
    "latitude": "29.92793710496676",
    "geocoded_column": {
      "latitude": "29.92793710496676",
      "longitude": "-90.10082863220536"
    }
  },
  {
    "service_request": "2025-1238794",
    "request_type": "Trash/Recycling",
    "request_reason": "Replace Trash Cart",
    "date_created": "2025-11-08T07:30:49.000",
    "date_modified": "2025-11-08T07:30:52.000",
    "request_status": "Pending",
    "responsible_agency": "Department of Sanitation",
    "final_address": "1711 General Pershing St",
    "address_councildis": "B",
    "status": "Assigned to Contractor",
    "contractor": "IV Waste",
    "rowid": "1238794",
    "final_x": "3671234.73172",
    "final_y": "521385.613689",
    "longitude": "-90.10082863220536",
    "latitude": "29.92793710496676",
    "geocoded_column": {
      "latitude": "29.92793710496676",
      "longitude": "-90.10082863220536"
    }
  },
  {
    "service_request": "2025-1238793",
    "request_type": "Streetlights",
    "request_reason": "Streetlight Outage/Malfunction",
    "date_created": "2025-11-08T05:59:16.000",
    "date_modified": "2025-11-08T05:59:18.000",
    "request_status": "Pending",
    "responsible_agency": "Department of Public Works",
    "final_address": "2226 Fourth St",
    "address_councildis": "B",
    "status": "Pending",
    "rowid": "1238793",
    "final_x": "3674852.52968",
    "final_y": "524657.323452",
    "longitude": "-90.0892959366329",
    "latitude": "29.936825746486512",
    "geocoded_column": {
      "latitude": "29.936825746486512",
      "longitude": "-90.0892959366329"
    }
  },
  {
    "service_request": "2025-1238792",
    "request_type": "Property Maintenance",
    "request_reason": "Property Maintenance",
    "date_created": "2025-11-08T01:17:37.000",
    "date_modified": "2025-11-08T01:17:39.000",
    "request_status": "Pending",
    "responsible_agency": "Department of Code Enforcement",
    "final_address": "3650 Franklin Ave Apt 1A",
    "address_councildis": "D",
    "status": "Pending",
    "rowid": "1238792",
    "final_x": "3687036.22748",
    "final_y": "546506.303441",
    "longitude": "-90.0500589803815",
    "latitude": "29.996533490575633",
    "geocoded_column": {
      "latitude": "29.996533490575633",
      "longitude": "-90.0500589803815"
    }
  },
  {
    "service_request": "2025-1238791",
    "request_type": "Roads and Streets",
    "request_reason": "Pothole",
    "date_created": "2025-11-08T01:13:18.000",
    "date_modified": "2025-11-08T01:13:20.000",
    "request_status": "Pending",
    "responsible_agency": "Department of Public Works",
    "final_address": "2736 Jefferson Ave",
    "address_councildis": "A",
    "status": "Pending",
    "rowid": "1238791",
    "final_x": "3668160.47591",
    "final_y": "525608.107709",
    "longitude": "-90.1103911132468",
    "latitude": "29.939638179848625",
    "geocoded_column": {
      "latitude": "29.939638179848625",
      "longitude": "-90.1103911132468"
    }
  },
  {
    "service_request": "2025-1238790",
    "request_type": "Health Related Request",
    "request_reason": "Noise Ordinance Complaint",
    "date_created": "2025-11-07T23:03:25.000",
    "date_modified": "2025-11-07T23:03:26.000",
    "request_status": "Pending",
    "responsible_agency": "Health Department",
    "final_address": "905 Toulouse",
    "address_councildis": "A",
    "status": "Pending",
    "rowid": "1238790",
    "final_x": "3672833.87041",
    "final_y": "539324.734602",
    "longitude": "-90.09516858748749",
    "latitude": "29.977216358287198",
    "geocoded_column": {
      "latitude": "29.977216358287198",
      "longitude": "-90.09516858748749"
    }
  },
  {
    "service_request": "2025-1238789",
    "request_type": "Streetlights",
    "request_reason": "Streetlight Outage/Malfunction",
    "date_created": "2025-11-07T21:48:23.000",
    "date_modified": "2025-11-07T21:48:25.000",
    "request_status": "Pending",
    "responsible_agency": "Department of Public Works",
    "final_address": "2424 Marengo St",
    "address_councildis": "B",
    "status": "Pending",
    "rowid": "1238789",
    "final_x": "3671602.6955",
    "final_y": "524005.061756",
    "longitude": "-90.09957801885793",
    "latitude": "29.93512885559905",
    "geocoded_column": {
      "latitude": "29.93512885559905",
      "longitude": "-90.09957801885793"
    }
  },
  {
    "service_request": "2025-1238788",
    "request_type": "Street and Traffic Signs",
    "request_reason": "Street Name Sign Damaged or Missing",
    "date_created": "2025-11-07T21:19:30.000",
    "date_modified": "2025-11-07T21:19:32.000",
    "request_status": "Pending",
    "responsible_agency": "Department of Public Works",
    "final_address": "LA SALLE ST & NAPOLEON AVE",
    "address_councildis": "B",
    "status": "Pending",
    "rowid": "1238788",
    "final_x": "3670531.4",
    "final_y": "523696.08",
    "longitude": "-90.10297057690987",
    "latitude": "29.934310929091513",
    "geocoded_column": {
      "latitude": "29.934310929091513",
      "longitude": "-90.10297057690987"
    }
  },
  {
    "service_request": "2025-1238787",
    "request_type": "Street and Traffic Signs",
    "request_reason": "Street Name Sign Damaged or Missing",
    "date_created": "2025-11-07T21:18:50.000",
    "date_modified": "2025-11-07T21:18:51.000",
    "request_status": "Pending",
    "responsible_agency": "Department of Public Works",
    "final_address": "PHILIP ST & S CLAIBORNE AVE",
    "address_councildis": "B",
    "status": "Pending",
    "rowid": "1238787",
    "final_x": "3674426.5",
    "final_y": "527470.48",
    "longitude": "-90.09054460811814",
    "latitude": "29.94457371673237",
    "geocoded_column": {
      "latitude": "29.94457371673237",
      "longitude": "-90.09054460811814"
    }
  },
  {
    "service_request": "2025-1238786",
    "request_type": "Street and Traffic Signs",
    "request_reason": "Street Name Sign Damaged or Missing",
    "date_created": "2025-11-07T21:18:13.000",
    "date_modified": "2025-11-07T21:18:16.000",
    "request_status": "Pending",
    "responsible_agency": "Department of Public Works",
    "final_address": "GENERAL TAYLOR & S CLAIBORNE AVE",
    "address_councildis": "B",
    "status": "Pending",
    "rowid": "1238786",
    "final_x": "3671494.0",
    "final_y": "525908.58",
    "longitude": "-90.09985648070885",
    "latitude": "29.9403661313847",
    "geocoded_column": {
      "latitude": "29.9403661313847",
      "longitude": "-90.09985648070885"
    }
  },
  {
    "service_request": "2025-1238785",
    "request_type": "Street and Traffic Signs",
    "request_reason": "Street Name Sign Damaged or Missing",
    "date_created": "2025-11-07T21:13:41.000",
    "date_modified": "2025-11-07T21:13:44.000",
    "request_status": "Pending",
    "responsible_agency": "Department of Public Works",
    "final_address": "LA SALLE ST & NAPOLEON AVE",
    "address_councildis": "B",
    "status": "Pending",
    "rowid": "1238785",
    "final_x": "3670531.4",
    "final_y": "523696.08",
    "longitude": "-90.10297057690987",
    "latitude": "29.934310929091513",
    "geocoded_column": {
      "latitude": "29.934310929091513",
      "longitude": "-90.10297057690987"
    }
  },
  {
    "service_request": "2025-1238784",
    "request_type": "Street and Traffic Signs",
    "request_reason": "Street Name Sign Damaged or Missing",
    "date_created": "2025-11-07T21:12:28.000",
    "date_modified": "2025-11-07T21:12:30.000",
    "request_status": "Pending",
    "responsible_agency": "Department of Public Works",
    "final_address": "NAPOLEON AVE & DANNEEL ST",
    "address_councildis": "B",
    "status": "Pending",
    "rowid": "1238784",
    "final_x": "3670751.1",
    "final_y": "522298.68",
    "longitude": "-90.10232438346941",
    "latitude": "29.930462039992946",
    "geocoded_column": {
      "latitude": "29.930462039992946",
      "longitude": "-90.10232438346941"
    }
  },
  {
    "service_request": "2025-1238783",
    "request_type": "Street and Traffic Signs",
    "request_reason": "Street Name Sign Damaged or Missing",
    "date_created": "2025-11-07T21:10:09.000",
    "date_modified": "2025-11-07T21:10:12.000",
    "request_status": "Pending",
    "responsible_agency": "Department of Public Works",
    "final_address": "NAPOLEON AVE & PITT ST",
    "address_councildis": "B",
    "status": "Pending",
    "rowid": "1238783",
    "final_x": "3670838.7",
    "final_y": "520572.38",
    "longitude": "-90.10210640062188",
    "latitude": "29.925712679533472",
    "geocoded_column": {
      "latitude": "29.925712679533472",
      "longitude": "-90.10210640062188"
    }
  },
  {
    "service_request": "2025-1238782",
    "request_type": "Street and Traffic Signs",
    "request_reason": "Street Name Sign Damaged or Missing",
    "date_created": "2025-11-07T21:09:25.000",
    "date_modified": "2025-11-07T21:09:26.000",
    "request_status": "Pending",
    "responsible_agency": "Department of Public Works",
    "final_address": "NAPOLEON AVE & PERRIER ST",
    "address_councildis": "B",
    "status": "Pending",
    "rowid": "1238782",
    "final_x": "3670890.3",
    "final_y": "520067.98",
    "longitude": "-90.10196062554645",
    "latitude": "29.924324215792385",
    "geocoded_column": {
      "latitude": "29.924324215792385",
      "longitude": "-90.10196062554645"
    }
  },
  {
    "service_request": "2025-1238781",
    "request_type": "Street and Traffic Signs",
    "request_reason": "Street Name Sign Damaged or Missing",
    "date_created": "2025-11-07T21:08:32.000",
    "date_modified": "2025-11-07T21:08:34.000",
    "request_status": "Pending",
    "responsible_agency": "Department of Public Works",
    "final_address": "CHESTNUT ST & NAPOLEON AVE",
    "address_councildis": "B",
    "status": "Pending",
    "rowid": "1238781",
    "final_x": "3670949.6",
    "final_y": "519519.28",
    "longitude": "-90.10179205153771",
    "latitude": "29.922813713184695",
    "geocoded_column": {
      "latitude": "29.922813713184695",
      "longitude": "-90.10179205153771"
    }
  },
  {
    "service_request": "2025-1238780",
    "request_type": "Street and Traffic Signs",
    "request_reason": "Street Name Sign Damaged or Missing",
    "date_created": "2025-11-07T21:04:48.000",
    "date_modified": "2025-11-07T21:04:50.000",
    "request_status": "Pending",
    "responsible_agency": "Department of Public Works",
    "final_address": "COLISEUM ST & NAPOLEON AVE",
    "address_councildis": "B",
    "status": "Pending",
    "rowid": "1238780",
    "final_x": "3670993.7",
    "final_y": "519834.18",
    "longitude": "-90.10164215994958",
    "latitude": "29.92367828451682",
    "geocoded_column": {
      "latitude": "29.92367828451682",
      "longitude": "-90.10164215994958"
    }
  },
  {
    "service_request": "2025-1238779",
    "request_type": "Street and Traffic Signs",
    "request_reason": "Street Name Sign Damaged or Missing",
    "date_created": "2025-11-07T21:03:40.000",
    "date_modified": "2025-11-07T21:03:41.000",
    "request_status": "Pending",
    "responsible_agency": "Department of Public Works",
    "final_address": "NAPOLEON AVE & CONSTANCE ST",
    "address_councildis": "B",
    "status": "Pending",
    "rowid": "1238779",
    "final_x": "3671136.6",
    "final_y": "518426.78",
    "longitude": "-90.10123884666558",
    "latitude": "29.919804157710498",
    "geocoded_column": {
      "latitude": "29.919804157710498",
      "longitude": "-90.10123884666558"
    }
  },
  {
    "service_request": "2025-1238778",
    "request_type": "Street and Traffic Signs",
    "request_reason": "Street Name Sign Damaged or Missing",
    "date_created": "2025-11-07T20:39:22.000",
    "date_modified": "2025-11-07T20:39:24.000",
    "request_status": "Pending",
    "responsible_agency": "Department of Public Works",
    "final_address": "ST CHARLES AVE & CALLIOPE ST",
    "address_councildis": "B",
    "status": "Pending",
    "rowid": "1238778",
    "final_x": "3679819.05",
    "final_y": "526554.96",
    "longitude": "-90.07355052352129",
    "latitude": "29.941894417235446",
    "geocoded_column": {
      "latitude": "29.941894417235446",
      "longitude": "-90.07355052352129"
    }
  },
  {
    "service_request": "2025-1238777",
    "request_type": "Abandoned Vehicles",
    "request_reason": "Abandoned/Junk Vehicles",
    "date_created": "2025-11-07T20:34:18.000",
    "date_modified": "2025-11-07T20:34:20.000",
    "request_status": "Pending",
    "responsible_agency": "Department of Public Works",
    "final_address": "4023 Tchoupitoulas St",
    "address_councildis": "B",
    "status": "Pending",
    "rowid": "1238777",
    "final_x": "3672456.92334",
    "final_y": "517628.933814",
    "longitude": "-90.09709839396619",
    "latitude": "29.917571230941423",
    "geocoded_column": {
      "latitude": "29.917571230941423",
      "longitude": "-90.09709839396619"
    }
  },
  {
    "service_request": "2025-1238776",
    "request_type": "Trash/Recycling",
    "request_reason": "Request a Large Item Pick Up",
    "date_created": "2025-11-07T20:08:52.000",
    "date_modified": "2025-11-07T20:08:55.000",
    "request_status": "Pending",
    "responsible_agency": "Department of Sanitation",
    "final_address": "7181 Queensway Dr",
    "address_councildis": "E",
    "status": "Assigned to Contractor",
    "contractor": "Waste Pro",
    "rowid": "1238776",
    "final_x": "3718812.91641",
    "final_y": "570029.592358",
    "longitude": "-89.94878173238463",
    "latitude": "30.06019626705867",
    "geocoded_column": {
      "latitude": "30.06019626705867",
      "longitude": "-89.94878173238463"
    }
  },
  {
    "service_request": "2025-1238775",
    "request_type": "General Services",
    "request_reason": "General Service Request",
    "date_created": "2025-11-07T19:38:16.000",
    "date_modified": "2025-11-07T19:38:17.000",
    "request_status": "Pending",
    "responsible_agency": "Orleans Parish Communication District",
    "final_address": "822 Franklin Ave",
    "address_councildis": "C",
    "status": "Pending",
    "rowid": "1238775",
    "final_x": "3686856.16738",
    "final_y": "535553.168582",
    "longitude": "-90.05101499192216",
    "latitude": "29.966421789313486",
    "geocoded_column": {
      "latitude": "29.966421789313486",
      "longitude": "-90.05101499192216"
    }
  },
  {
    "service_request": "2025-1238774",
    "request_type": "Streetlights",
    "request_reason": "Streetlight Outage/Malfunction",
    "date_created": "2025-11-07T19:15:14.000",
    "date_modified": "2025-11-07T19:15:17.000",
    "request_status": "Pending",
    "responsible_agency": "Department of Public Works",
    "final_address": "0 BLK Bob and Betty Turner Ln",
    "address_councildis": "A",
    "status": "Pending",
    "rowid": "1238774",
    "final_x": "3672644.78197",
    "final_y": "542711.05577",
    "longitude": "-90.09565026820282",
    "latitude": "29.986533199699725",
    "geocoded_column": {
      "latitude": "29.986533199699725",
      "longitude": "-90.09565026820282"
    }
  },
  {
    "service_request": "2025-1238773",
    "request_type": "Streetlights",
    "request_reason": "Streetlight Outage/Malfunction",
    "date_created": "2025-11-07T18:42:19.000",
    "date_modified": "2025-11-07T18:42:20.000",
    "request_status": "Pending",
    "responsible_agency": "Department of Public Works",
    "final_address": "5500 BLK Woodlawn Pl",
    "address_councildis": "A",
    "status": "Pending",
    "rowid": "1238773",
    "final_x": "3667453.95344",
    "final_y": "544309.613596",
    "longitude": "-90.1119923727863",
    "latitude": "29.991081837782026",
    "geocoded_column": {
      "latitude": "29.991081837782026",
      "longitude": "-90.1119923727863"
    }
  },
  {
    "service_request": "2025-1238772",
    "request_type": "Streetlights",
    "request_reason": "Streetlight Outage/Malfunction",
    "date_created": "2025-11-07T18:41:13.000",
    "date_modified": "2025-11-07T18:41:15.000",
    "request_status": "Pending",
    "responsible_agency": "Department of Public Works",
    "final_address": "5600 BLK Woodlawn Pl",
    "address_councildis": "A",
    "status": "Pending",
    "rowid": "1238772",
    "final_x": "3667514.41559",
    "final_y": "544948.322621",
    "longitude": "-90.11177987785585",
    "latitude": "29.992836296912536",
    "geocoded_column": {
      "latitude": "29.992836296912536",
      "longitude": "-90.11177987785585"
    }
  },
  {
    "service_request": "2025-1238771",
    "request_type": "Streetlights",
    "request_reason": "Streetlight Outage/Malfunction",
    "date_created": "2025-11-07T18:39:15.000",
    "date_modified": "2025-11-07T18:39:16.000",
    "request_status": "Pending",
    "responsible_agency": "Department of Public Works",
    "final_address": "5624 Hawthorne Pl",
    "address_councildis": "A",
    "status": "Pending",
    "rowid": "1238771",
    "final_x": "3667757.44481",
    "final_y": "544857.784591",
    "longitude": "-90.11101524004481",
    "latitude": "29.992580222102728",
    "geocoded_column": {
      "latitude": "29.992580222102728",
      "longitude": "-90.11101524004481"
    }
  },
  {
    "service_request": "2025-1238770",
    "request_type": "Streetlights",
    "request_reason": "Streetlight Outage/Malfunction",
    "date_created": "2025-11-07T18:37:58.000",
    "date_modified": "2025-11-07T18:37:59.000",
    "request_status": "Pending",
    "responsible_agency": "Department of Public Works",
    "final_address": "5600 BLK Hawthorne Pl",
    "address_councildis": "A",
    "status": "Pending",
    "rowid": "1238770",
    "final_x": "3667863.40538",
    "final_y": "544998.176195",
    "longitude": "-90.11067579719038",
    "latitude": "29.992963142465367",
    "geocoded_column": {
      "latitude": "29.992963142465367",
      "longitude": "-90.11067579719038"
    }
  },
  {
    "service_request": "2025-1238769",
    "request_type": "Trash/Recycling",
    "request_reason": "Request a Large Item Pick Up",
    "date_created": "2025-11-07T18:34:09.000",
    "date_modified": "2025-11-07T18:34:11.000",
    "request_status": "Pending",
    "responsible_agency": "Department of Sanitation",
    "final_address": "3306 Freret St",
    "address_councildis": "B",
    "status": "Assigned to Contractor",
    "contractor": "IV Waste",
    "rowid": "1238769",
    "final_x": "3673216.20398",
    "final_y": "524581.798204",
    "longitude": "-90.09446448474058",
    "latitude": "29.936666824652583",
    "geocoded_column": {
      "latitude": "29.936666824652583",
      "longitude": "-90.09446448474058"
    }
  },
  {
    "service_request": "2025-1238768",
    "request_type": "Streetlights",
    "request_reason": "Streetlight Knocked Down/Leaning",
    "date_created": "2025-11-07T18:10:40.000",
    "date_modified": "2025-11-07T18:10:43.000",
    "request_status": "Pending",
    "responsible_agency": "Department of Public Works",
    "final_address": "5418 Hawthorne Pl",
    "address_councildis": "A",
    "status": "Pending",
    "rowid": "1238768",
    "final_x": "3667707.25473",
    "final_y": "543202.813134",
    "longitude": "-90.11122953864897",
    "latitude": "29.988031087971297",
    "geocoded_column": {
      "latitude": "29.988031087971297",
      "longitude": "-90.11122953864897"
    }
  },
  {
    "service_request": "2025-1238767",
    "request_type": "Roads and Streets",
    "request_reason": "Pothole",
    "date_created": "2025-11-07T18:06:33.000",
    "date_modified": "2025-11-07T18:06:35.000",
    "request_status": "Pending",
    "responsible_agency": "Department of Public Works",
    "final_address": "13125 Wales St",
    "address_councildis": "E",
    "status": "Pending",
    "rowid": "1238767",
    "final_x": "3715976.23493",
    "final_y": "570804.825447",
    "longitude": "-89.95771883524901",
    "latitude": "30.06242177823964",
    "geocoded_column": {
      "latitude": "30.06242177823964",
      "longitude": "-89.95771883524901"
    }
  },
  {
    "service_request": "2025-1238766",
    "request_type": "Trash/Recycling",
    "request_reason": "Replace Trash Cart",
    "date_created": "2025-11-07T17:12:36.000",
    "date_modified": "2025-11-07T17:12:38.000",
    "request_status": "Pending",
    "responsible_agency": "Department of Sanitation",
    "final_address": "500 BLK N Saint Patrick St",
    "address_councildis": "A",
    "status": "Assigned to Contractor",
    "contractor": "IV Waste",
    "rowid": "1238766",
    "final_x": "3670106.19453",
    "final_y": "541144.239678",
    "longitude": "-90.10372183690193",
    "latitude": "29.98230014290744",
    "geocoded_column": {
      "latitude": "29.98230014290744",
      "longitude": "-90.10372183690193"
    }
  },
  {
    "service_request": "2025-1238765",
    "request_type": "Trash/Recycling",
    "request_reason": "Request a Large Item Pick Up",
    "date_created": "2025-11-07T17:09:15.000",
    "date_modified": "2025-11-07T17:09:16.000",
    "request_status": "Pending",
    "responsible_agency": "Department of Sanitation",
    "final_address": "500 BLK N Saint Patrick St",
    "address_councildis": "A",
    "status": "Assigned to Contractor",
    "contractor": "IV Waste",
    "rowid": "1238765",
    "final_x": "3670106.19453",
    "final_y": "541144.239678",
    "longitude": "-90.10372183690193",
    "latitude": "29.98230014290744",
    "geocoded_column": {
      "latitude": "29.98230014290744",
      "longitude": "-90.10372183690193"
    }
  },
  {
    "service_request": "2025-1238764",
    "request_type": "Trash/Recycling",
    "request_reason": "Replace Trash Cart",
    "date_created": "2025-11-07T17:08:44.000",
    "date_modified": "2025-11-07T17:08:46.000",
    "request_status": "Pending",
    "responsible_agency": "Department of Sanitation",
    "final_address": "6416 Catina St",
    "address_councildis": "A",
    "status": "Assigned to Contractor",
    "contractor": "IV Waste",
    "rowid": "1238764",
    "final_x": "3666859.55738",
    "final_y": "550516.544148",
    "longitude": "-90.11366124202901",
    "latitude": "30.00816616406159",
    "geocoded_column": {
      "latitude": "30.00816616406159",
      "longitude": "-90.11366124202901"
    }
  },
  {
    "service_request": "2025-1238763",
    "request_type": "Trash/Recycling",
    "request_reason": "Request a Large Item Pick Up",
    "date_created": "2025-11-07T16:59:57.000",
    "date_modified": "2025-11-07T16:59:59.000",
    "request_status": "Pending",
    "responsible_agency": "Department of Sanitation",
    "final_address": "6319 Brunswick Ct",
    "address_councildis": "C",
    "status": "Assigned to Contractor",
    "contractor": "Richards Disposal",
    "rowid": "1238763",
    "final_x": "3707390.49668",
    "final_y": "516982.792757",
    "longitude": "-89.98685757376693",
    "latitude": "29.91471201233464",
    "geocoded_column": {
      "latitude": "29.91471201233464",
      "longitude": "-89.98685757376693"
    }
  },
  {
    "service_request": "2025-1238762",
    "request_type": "Trash/Recycling",
    "request_reason": "Request a Large Item Pick Up",
    "date_created": "2025-11-07T16:54:08.000",
    "date_modified": "2025-11-07T16:54:20.000",
    "request_status": "Pending",
    "responsible_agency": "Department of Sanitation",
    "final_address": "6901 Boston Dr",
    "address_councildis": "E",
    "status": "Assigned to Contractor",
    "contractor": "Waste Pro",
    "rowid": "1238762",
    "final_x": "3706705.71838",
    "final_y": "560183.444445",
    "longitude": "-89.98741730347822",
    "latitude": "30.033519987947063",
    "geocoded_column": {
      "latitude": "30.033519987947063",
      "longitude": "-89.98741730347822"
    }
  },
  {
    "service_request": "2025-1238761",
    "request_type": "Trash/Recycling",
    "request_reason": "MIssed Recycling Pick-Up",
    "date_created": "2025-11-07T16:52:59.000",
    "date_modified": "2025-11-08T06:28:19.000",
    "case_close_date": "2025-11-08T00:28:17.000",
    "request_status": "Closed",
    "responsible_agency": "Department of Sanitation",
    "final_address": "1932 Alvar St",
    "address_councildis": "D",
    "status": "Invalid Request",
    "contractor": "IV Waste",
    "contractor_action": "Invalid",
    "rowid": "1238761",
    "final_x": "3692264.14409",
    "final_y": "538661.118793",
    "longitude": "-90.03382543670124",
    "latitude": "29.974800031726417",
    "geocoded_column": {
      "latitude": "29.974800031726417",
      "longitude": "-90.03382543670124"
    }
  },
  {
    "service_request": "2025-1238760",
    "request_type": "Trash/Recycling",
    "request_reason": "Repair Recycling Cart",
    "date_created": "2025-11-07T16:44:35.000",
    "date_modified": "2025-11-07T16:44:40.000",
    "request_status": "Pending",
    "responsible_agency": "Department of Sanitation",
    "final_address": "1918 Peniston St",
    "address_councildis": "B",
    "status": "Pending",
    "rowid": "1238760",
    "final_x": "3672560.56315",
    "final_y": "522283.87385",
    "longitude": "-90.09661267642079",
    "latitude": "29.93036775133458",
    "geocoded_column": {
      "latitude": "29.93036775133458",
      "longitude": "-90.09661267642079"
    }
  },
  {
    "service_request": "2025-1238759",
    "request_type": "Trash/Recycling",
    "request_reason": "Request a Large Item Pick Up",
    "date_created": "2025-11-07T16:43:15.000",
    "date_modified": "2025-11-07T16:43:18.000",
    "request_status": "Pending",
    "responsible_agency": "Department of Sanitation",
    "final_address": "1515 N Rocheblave St",
    "address_councildis": "D",
    "status": "Assigned to Contractor",
    "contractor": "IV Waste",
    "rowid": "1238759",
    "final_x": "3679564.91746",
    "final_y": "539067.04801",
    "longitude": "-90.07391868515039",
    "latitude": "29.976306099190207",
    "geocoded_column": {
      "latitude": "29.976306099190207",
      "longitude": "-90.07391868515039"
    }
  },
  {
    "service_request": "2025-1238758",
    "request_type": "General Services",
    "request_reason": "General Service Request",
    "date_created": "2025-11-07T16:36:01.000",
    "date_modified": "2025-11-07T16:36:03.000",
    "request_status": "Pending",
    "responsible_agency": "Orleans Parish Communication District",
    "final_address": "837 Gravier St",
    "address_councildis": "B",
    "status": "Pending",
    "rowid": "1238758",
    "final_x": "3680198.11157",
    "final_y": "530387.572482",
    "longitude": "-90.07222057043303",
    "latitude": "29.952421353456415",
    "geocoded_column": {
      "latitude": "29.952421353456415",
      "longitude": "-90.07222057043303"
    }
  },
  {
    "service_request": "2025-1238757",
    "request_type": "Trash/Recycling",
    "request_reason": "MIssed Recycling Pick-Up",
    "date_created": "2025-11-07T16:30:42.000",
    "date_modified": "2025-11-08T06:33:55.000",
    "case_close_date": "2025-11-08T00:33:53.000",
    "request_status": "Closed",
    "responsible_agency": "Department of Sanitation",
    "final_address": "1740 Congress St",
    "address_councildis": "D",
    "status": "Invalid Request",
    "contractor": "IV Waste",
    "contractor_action": "Invalid",
    "rowid": "1238757",
    "final_x": "3691315.85827",
    "final_y": "538159.854217",
    "longitude": "-90.03683826268941",
    "latitude": "29.973451269248866",
    "geocoded_column": {
      "latitude": "29.973451269248866",
      "longitude": "-90.03683826268941"
    }
  },
  {
    "service_request": "2025-1238756",
    "request_type": "Trash/Recycling",
    "request_reason": "Request a Large Item Pick Up",
    "date_created": "2025-11-07T16:28:48.000",
    "date_modified": "2025-11-07T16:28:51.000",
    "request_status": "Pending",
    "responsible_agency": "Department of Sanitation",
    "final_address": "6959 E Hermes St",
    "address_councildis": "D",
    "status": "Assigned to Contractor",
    "contractor": "Waste Pro",
    "rowid": "1238756",
    "final_x": "3697493.53322",
    "final_y": "557088.222298",
    "longitude": "-90.0166410599207",
    "latitude": "30.02530362552556",
    "geocoded_column": {
      "latitude": "30.02530362552556",
      "longitude": "-90.0166410599207"
    }
  },
  {
    "service_request": "2025-1238755",
    "request_type": "Trash/Recycling",
    "request_reason": "Request a Large Item Pick Up",
    "date_created": "2025-11-07T16:25:07.000",
    "date_modified": "2025-11-07T16:25:09.000",
    "request_status": "Pending",
    "responsible_agency": "Department of Sanitation",
    "final_address": "14056 Curran Rd",
    "address_councildis": "E",
    "status": "Assigned to Contractor",
    "contractor": "Waste Pro",
    "rowid": "1238755",
    "final_x": "3718923.64165",
    "final_y": "572496.101609",
    "longitude": "-89.94833750167587",
    "latitude": "30.066974456594508",
    "geocoded_column": {
      "latitude": "30.066974456594508",
      "longitude": "-89.94833750167587"
    }
  },
  {
    "service_request": "2025-1238754",
    "request_type": "Roads and Streets",
    "request_reason": "Abandoned Service Cut",
    "date_created": "2025-11-07T16:20:25.000",
    "date_modified": "2025-11-07T16:20:26.000",
    "request_status": "Pending",
    "responsible_agency": "Department of Public Works",
    "final_address": "2731 Bruxelles St",
    "address_councildis": "D",
    "status": "Pending",
    "rowid": "1238754",
    "final_x": "3680366.56802",
    "final_y": "542502.816333",
    "longitude": "-90.07126731586574",
    "latitude": "29.985729013979594",
    "geocoded_column": {
      "latitude": "29.985729013979594",
      "longitude": "-90.07126731586574"
    }
  },
  {
    "service_request": "2025-1238753",
    "request_type": "Trash/Recycling",
    "request_reason": "Order Recycling Cart",
    "date_created": "2025-11-07T16:16:47.000",
    "date_modified": "2025-11-07T16:16:51.000",
    "request_status": "Pending",
    "responsible_agency": "Department of Sanitation",
    "final_address": "3429 Clara St",
    "address_councildis": "B",
    "status": "Pending",
    "rowid": "1238753",
    "final_x": "3672185.92756",
    "final_y": "525469.763965",
    "longitude": "-90.0976868891885",
    "latitude": "29.9391390311065",
    "geocoded_column": {
      "latitude": "29.9391390311065",
      "longitude": "-90.0976868891885"
    }
  },
  {
    "service_request": "2025-1238752",
    "request_type": "Healthy Homes",
    "request_reason": "Healthy Homes",
    "date_created": "2025-11-07T16:14:48.000",
    "date_modified": "2025-11-07T16:14:49.000",
    "request_status": "Pending",
    "responsible_agency": "Department of Code Enforcement",
    "final_address": "1832 Elysian Fields Ave",
    "address_councildis": "D",
    "status": "Pending",
    "rowid": "1238752",
    "final_x": "3684672.18965",
    "final_y": "539141.628362",
    "longitude": "-90.05778579975185",
    "latitude": "29.9763558288399",
    "geocoded_column": {
      "latitude": "29.9763558288399",
      "longitude": "-90.05778579975185"
    }
  },
  {
    "service_request": "2025-1238751",
    "request_type": "Property Maintenance",
    "request_reason": "Property Maintenance",
    "date_created": "2025-11-07T16:11:40.000",
    "date_modified": "2025-11-07T16:11:42.000",
    "request_status": "Pending",
    "responsible_agency": "Department of Code Enforcement",
    "final_address": "3943 St Bernard Ave",
    "address_councildis": "D",
    "status": "Pending",
    "rowid": "1238751",
    "final_x": "3677726.85333",
    "final_y": "546769.549009",
    "longitude": "-90.07945763832696",
    "latitude": "29.997540715093457",
    "geocoded_column": {
      "latitude": "29.997540715093457",
      "longitude": "-90.07945763832696"
    }
  },
  {
    "service_request": "2025-1238750",
    "request_type": "Trash/Recycling",
    "request_reason": "Order Trash Cart",
    "date_created": "2025-11-07T16:07:23.000",
    "date_modified": "2025-11-07T16:07:25.000",
    "request_status": "Pending",
    "responsible_agency": "Department of Sanitation",
    "final_address": "7800 S Coronet Ct Apt D",
    "address_councildis": "E",
    "status": "Assigned to Contractor",
    "contractor": "Waste Pro",
    "rowid": "1238750",
    "final_x": "3702979.29028",
    "final_y": "557180.295387",
    "longitude": "-89.99930363038942",
    "latitude": "30.025382321245743",
    "geocoded_column": {
      "latitude": "30.025382321245743",
      "longitude": "-89.99930363038942"
    }
  },
  {
    "service_request": "2025-1238749",
    "request_type": "Trash/Recycling",
    "request_reason": "Order Trash Cart",
    "date_created": "2025-11-07T16:06:27.000",
    "date_modified": "2025-11-07T16:06:29.000",
    "request_status": "Pending",
    "responsible_agency": "Department of Sanitation",
    "final_address": "7800 S Coronet Ct Apt C",
    "address_councildis": "E",
    "status": "Assigned to Contractor",
    "contractor": "Waste Pro",
    "rowid": "1238749",
    "final_x": "3702976.51249",
    "final_y": "557196.267611",
    "longitude": "-89.99931182014782",
    "latitude": "30.025426327612738",
    "geocoded_column": {
      "latitude": "30.025426327612738",
      "longitude": "-89.99931182014782"
    }
  },
  {
    "service_request": "2025-1238748",
    "request_type": "Property Maintenance",
    "request_reason": "Property Maintenance",
    "date_created": "2025-11-07T16:00:57.000",
    "date_modified": "2025-11-07T16:00:59.000",
    "request_status": "Pending",
    "responsible_agency": "Department of Code Enforcement",
    "final_address": "1481 N Prieur St",
    "address_councildis": "D",
    "status": "Pending",
    "rowid": "1238748",
    "final_x": "3680786.72527",
    "final_y": "537836.658889",
    "longitude": "-90.07010269366204",
    "latitude": "29.97288597275933",
    "geocoded_column": {
      "latitude": "29.97288597275933",
      "longitude": "-90.07010269366204"
    }
  },
  {
    "service_request": "2025-1238747",
    "request_type": "Trash/Recycling",
    "request_reason": "Order Trash Cart",
    "date_created": "2025-11-07T15:51:05.000",
    "date_modified": "2025-11-07T15:51:08.000",
    "request_status": "Pending",
    "responsible_agency": "Department of Sanitation",
    "final_address": "1349 Terry St",
    "address_councildis": "C",
    "status": "Assigned to Contractor",
    "contractor": "Richards Disposal",
    "rowid": "1238747",
    "final_x": "3696925.68861",
    "final_y": "526124.577726",
    "longitude": "-90.01955715321216",
    "latitude": "29.940182780210588",
    "geocoded_column": {
      "latitude": "29.940182780210588",
      "longitude": "-90.01955715321216"
    }
  },
  {
    "service_request": "2025-1238746",
    "request_type": "Streetlights",
    "request_reason": "Streetlight Outage/Malfunction",
    "date_created": "2025-11-07T15:43:45.000",
    "date_modified": "2025-11-07T15:43:46.000",
    "request_status": "Pending",
    "responsible_agency": "Department of Public Works",
    "final_address": "1300 BLK Elysian Fields Ave",
    "address_councildis": "C",
    "status": "Pending",
    "rowid": "1238746",
    "final_x": "3684992.91049",
    "final_y": "537227.739309",
    "longitude": "-90.05684020750058",
    "latitude": "29.971083481290428",
    "geocoded_column": {
      "latitude": "29.971083481290428",
      "longitude": "-90.05684020750058"
    }
  },
  {
    "service_request": "2025-1238745",
    "request_type": "Trash/Recycling",
    "request_reason": "MIssed Recycling Pick-Up",
    "date_created": "2025-11-07T15:38:41.000",
    "date_modified": "2025-11-08T06:03:40.000",
    "case_close_date": "2025-11-08T00:03:39.000",
    "request_status": "Closed",
    "responsible_agency": "Department of Sanitation",
    "final_address": "1216 Congress St",
    "address_councildis": "C",
    "status": "Invalid Request",
    "contractor": "IV Waste",
    "contractor_action": "Invalid",
    "rowid": "1238745",
    "final_x": "3690804.41398",
    "final_y": "536071.464007",
    "longitude": "-90.03852803465213",
    "latitude": "29.967724835065372",
    "geocoded_column": {
      "latitude": "29.967724835065372",
      "longitude": "-90.03852803465213"
    }
  },
  {
    "service_request": "2025-1238744",
    "request_type": "Street and Traffic Signs",
    "request_reason": "Disabled Parking Sign Missing or Damaged",
    "date_created": "2025-11-07T15:35:14.000",
    "date_modified": "2025-11-07T15:35:16.000",
    "request_status": "Pending",
    "responsible_agency": "Department of Public Works",
    "final_address": "2845 Louisiana Ave",
    "address_councildis": "B",
    "status": "Pending",
    "rowid": "1238744",
    "final_x": "3672411.85479",
    "final_y": "525845.948861",
    "longitude": "-90.0969607928179",
    "latitude": "29.940166716007273",
    "geocoded_column": {
      "latitude": "29.940166716007273",
      "longitude": "-90.0969607928179"
    }
  },
  {
    "service_request": "2025-1238743",
    "request_type": "Trash/Recycling",
    "request_reason": "Repair Trash Cart",
    "date_created": "2025-11-07T15:33:51.000",
    "date_modified": "2025-11-07T15:33:53.000",
    "request_status": "Pending",
    "responsible_agency": "Department of Sanitation",
    "final_address": "1230 Cambronne St",
    "address_councildis": "A",
    "status": "Assigned to Contractor",
    "contractor": "IV Waste",
    "rowid": "1238743",
    "final_x": "3661309.4553",
    "final_y": "529315.098305",
    "longitude": "-90.1318981332652",
    "latitude": "29.950030501336318",
    "geocoded_column": {
      "latitude": "29.950030501336318",
      "longitude": "-90.1318981332652"
    }
  },
  {
    "service_request": "2025-1238742",
    "request_type": "Trash/Recycling",
    "request_reason": "Request a Large Item Pick Up",
    "date_created": "2025-11-07T15:30:46.000",
    "date_modified": "2025-11-07T15:30:48.000",
    "request_status": "Pending",
    "responsible_agency": "Department of Sanitation",
    "final_address": "8435 Beechwood Ct",
    "address_councildis": "E",
    "status": "Assigned to Contractor",
    "contractor": "Waste Pro",
    "rowid": "1238742",
    "final_x": "3704283.58398",
    "final_y": "560734.398622",
    "longitude": "-89.9950511212978",
    "latitude": "30.035112902296873",
    "geocoded_column": {
      "latitude": "30.035112902296873",
      "longitude": "-89.9950511212978"
    }
  },
  {
    "service_request": "2025-1238741",
    "request_type": "Trash/Recycling",
    "request_reason": "Repair Trash Cart",
    "date_created": "2025-11-07T15:28:28.000",
    "date_modified": "2025-11-07T15:28:29.000",
    "request_status": "Pending",
    "responsible_agency": "Department of Sanitation",
    "final_address": "3943 Hollygrove St",
    "address_councildis": "A",
    "status": "Assigned to Contractor",
    "contractor": "Richards Disposal",
    "rowid": "1238741",
    "final_x": "3666348.21287",
    "final_y": "537789.083144",
    "longitude": "-90.115704035141",
    "latitude": "29.973184938535354",
    "geocoded_column": {
      "latitude": "29.973184938535354",
      "longitude": "-90.115704035141"
    }
  },
  {
    "service_request": "2025-1238740",
    "request_type": "Trash/Recycling",
    "request_reason": "Replace Trash Cart",
    "date_created": "2025-11-07T15:28:13.000",
    "date_modified": "2025-11-07T15:28:14.000",
    "request_status": "Pending",
    "responsible_agency": "Department of Sanitation",
    "final_address": "5700 Abbey Dr",
    "address_councildis": "C",
    "status": "Assigned to Contractor",
    "contractor": "Richards Disposal",
    "rowid": "1238740",
    "final_x": "3704668.88836",
    "final_y": "521214.254905",
    "longitude": "-89.9952918914073",
    "latitude": "29.926434726749168",
    "geocoded_column": {
      "latitude": "29.926434726749168",
      "longitude": "-89.9952918914073"
    }
  },
  {
    "service_request": "2025-1238739",
    "request_type": "Abandoned Vehicles",
    "request_reason": "Abandoned/Junk Vehicles",
    "date_created": "2025-11-07T15:20:59.000",
    "date_modified": "2025-11-07T15:21:01.000",
    "request_status": "Pending",
    "responsible_agency": "Department of Public Works",
    "final_address": "1913 Seventh St Apt 5",
    "address_councildis": "B",
    "status": "Pending",
    "rowid": "1238739",
    "final_x": "3674628.73544",
    "final_y": "523174.249979",
    "longitude": "-90.09005327001364",
    "latitude": "29.932754456432875",
    "geocoded_column": {
      "latitude": "29.932754456432875",
      "longitude": "-90.09005327001364"
    }
  },
  {
    "service_request": "2025-1238738",
    "request_type": "Trash/Recycling",
    "request_reason": "Request a Large Item Pick Up",
    "date_created": "2025-11-07T15:20:22.000",
    "date_modified": "2025-11-07T15:20:24.000",
    "request_status": "Pending",
    "responsible_agency": "Department of Sanitation",
    "final_address": "2413 State St",
    "address_councildis": "A",
    "status": "Assigned to Contractor",
    "contractor": "IV Waste",
    "rowid": "1238738",
    "final_x": "3666789.1497",
    "final_y": "525449.843837",
    "longitude": "-90.11472590958984",
    "latitude": "29.939243177974493",
    "geocoded_column": {
      "latitude": "29.939243177974493",
      "longitude": "-90.11472590958984"
    }
  },
  {
    "service_request": "2025-1238737",
    "request_type": "Trash/Recycling",
    "request_reason": "Request a Large Item Pick Up",
    "date_created": "2025-11-07T15:17:54.000",
    "date_modified": "2025-11-07T15:17:55.000",
    "request_status": "Pending",
    "responsible_agency": "Department of Sanitation",
    "final_address": "5136 Westgrove Park",
    "address_councildis": "C",
    "status": "Assigned to Contractor",
    "contractor": "Richards Disposal",
    "rowid": "1238737",
    "final_x": "3703290.92164",
    "final_y": "510953.604783",
    "longitude": "-90.00001860826917",
    "latitude": "29.898265621942947",
    "geocoded_column": {
      "latitude": "29.898265621942947",
      "longitude": "-90.00001860826917"
    }
  },
  {
    "service_request": "2025-1238736",
    "request_type": "Trash/Recycling",
    "request_reason": "Dead Animal Pick Up",
    "date_created": "2025-11-07T15:12:57.000",
    "date_modified": "2025-11-07T15:12:59.000",
    "request_status": "Pending",
    "responsible_agency": "Department of Sanitation",
    "final_address": "4627 Babylon St",
    "address_councildis": "D",
    "status": "Assigned to Contractor",
    "contractor": "Waste Pro",
    "rowid": "1238736",
    "final_x": "3696729.20746",
    "final_y": "553753.217815",
    "longitude": "-90.01917706247153",
    "latitude": "30.01615775438378",
    "geocoded_column": {
      "latitude": "30.01615775438378",
      "longitude": "-90.01917706247153"
    }
  },
  {
    "service_request": "2025-1238735",
    "request_type": "Trash/Recycling",
    "request_reason": "Order Recycling Cart",
    "date_created": "2025-11-07T15:12:14.000",
    "date_modified": "2025-11-07T15:12:15.000",
    "request_status": "Pending",
    "responsible_agency": "Department of Sanitation",
    "final_address": "2340 Annette St",
    "address_councildis": "D",
    "status": "Pending",
    "rowid": "1238735",
    "final_x": "3682729.17756",
    "final_y": "540906.465803",
    "longitude": "-90.06386065550835",
    "latitude": "29.98126784613711",
    "geocoded_column": {
      "latitude": "29.98126784613711",
      "longitude": "-90.06386065550835"
    }
  },
  {
    "service_request": "2025-1238734",
    "request_type": "Trash/Recycling",
    "request_reason": "Request a Large Item Pick Up",
    "date_created": "2025-11-07T15:11:26.000",
    "date_modified": "2025-11-07T15:11:28.000",
    "request_status": "Pending",
    "responsible_agency": "Department of Sanitation",
    "final_address": "1119 Mazant St",
    "address_councildis": "C",
    "status": "Assigned to Contractor",
    "contractor": "IV Waste",
    "rowid": "1238734",
    "final_x": "3692207.09321",
    "final_y": "535435.389638",
    "longitude": "-90.03412112971083",
    "latitude": "29.96593219727761",
    "geocoded_column": {
      "latitude": "29.96593219727761",
      "longitude": "-90.03412112971083"
    }
  },
  {
    "service_request": "2025-1238733",
    "request_type": "Trash/Recycling",
    "request_reason": "Request a Large Item Pick Up",
    "date_created": "2025-11-07T15:11:03.000",
    "date_modified": "2025-11-07T15:11:04.000",
    "request_status": "Pending",
    "responsible_agency": "Department of Sanitation",
    "final_address": "3730 Toledano St",
    "address_councildis": "B",
    "status": "Assigned to Contractor",
    "contractor": "IV Waste",
    "rowid": "1238733",
    "final_x": "3671392.02254",
    "final_y": "529008.193152",
    "longitude": "-90.1000731148503",
    "latitude": "29.94889207326688",
    "geocoded_column": {
      "latitude": "29.94889207326688",
      "longitude": "-90.1000731148503"
    }
  },
  {
    "service_request": "2025-1238732",
    "request_type": "Trash/Recycling",
    "request_reason": "Request a Large Item Pick Up",
    "date_created": "2025-11-07T15:10:58.000",
    "date_modified": "2025-11-07T15:11:00.000",
    "request_status": "Pending",
    "responsible_agency": "Department of Sanitation",
    "final_address": "1225 St Anthony St",
    "address_councildis": "C",
    "status": "Assigned to Contractor",
    "contractor": "IV Waste",
    "rowid": "1238732",
    "final_x": "3683536.16201",
    "final_y": "536392.691591",
    "longitude": "-90.06147007954661",
    "latitude": "29.968831931773853",
    "geocoded_column": {
      "latitude": "29.968831931773853",
      "longitude": "-90.06147007954661"
    }
  },
  {
    "service_request": "2025-1238731",
    "request_type": "Trash/Recycling",
    "request_reason": "Request a Large Item Pick Up",
    "date_created": "2025-11-07T15:10:31.000",
    "date_modified": "2025-11-07T15:10:33.000",
    "request_status": "Pending",
    "responsible_agency": "Department of Sanitation",
    "final_address": "2770 Orchid St",
    "address_councildis": "A",
    "status": "Assigned to Contractor",
    "contractor": "IV Waste",
    "rowid": "1238731",
    "final_x": "3677288.15739",
    "final_y": "538723.256969",
    "longitude": "-90.08112124317319",
    "latitude": "29.97542940368747",
    "geocoded_column": {
      "latitude": "29.97542940368747",
      "longitude": "-90.08112124317319"
    }
  },
  {
    "service_request": "2025-1238730",
    "request_type": "Trash/Recycling",
    "request_reason": "Request a Large Item Pick Up",
    "date_created": "2025-11-07T15:09:34.000",
    "date_modified": "2025-11-07T15:09:36.000",
    "request_status": "Pending",
    "responsible_agency": "Department of Sanitation",
    "final_address": "6229 Wales St",
    "address_councildis": "E",
    "status": "Assigned to Contractor",
    "contractor": "Waste Pro",
    "rowid": "1238730",
    "final_x": "3695932.1633",
    "final_y": "559770.324829",
    "longitude": "-90.02147770015947",
    "latitude": "30.03272762416908",
    "geocoded_column": {
      "latitude": "30.03272762416908",
      "longitude": "-90.02147770015947"
    }
  },
  {
    "service_request": "2025-1238729",
    "request_type": "Trash/Recycling",
    "request_reason": "MIssed Recycling Pick-Up",
    "date_created": "2025-11-07T14:58:22.000",
    "date_modified": "2025-11-07T16:18:47.000",
    "case_close_date": "2025-11-07T10:18:46.000",
    "request_status": "Closed",
    "responsible_agency": "Department of Sanitation",
    "final_address": "1423 Jackson Ave",
    "address_councildis": "B",
    "status": "Invalid Request",
    "contractor": "IV Waste",
    "contractor_action": "Invalid",
    "rowid": "1238729",
    "final_x": "3678172.36232",
    "final_y": "523074.648123",
    "longitude": "-90.07886976055788",
    "latitude": "29.93237438429335",
    "geocoded_column": {
      "latitude": "29.93237438429335",
      "longitude": "-90.07886976055788"
    }
  },
  {
    "service_request": "2025-1238728",
    "request_type": "Roads and Streets",
    "request_reason": "Pothole",
    "date_created": "2025-11-07T14:58:08.000",
    "date_modified": "2025-11-07T14:58:09.000",
    "request_status": "Pending",
    "responsible_agency": "Department of Public Works",
    "final_address": "2100 BLK Piety St",
    "address_councildis": "D",
    "status": "Pending",
    "rowid": "1238728",
    "final_x": "3690824.29384",
    "final_y": "539741.807771",
    "longitude": "-90.03833425493335",
    "latitude": "29.977816364411183",
    "geocoded_column": {
      "latitude": "29.977816364411183",
      "longitude": "-90.03833425493335"
    }
  },
  {
    "service_request": "2025-1238727",
    "request_type": "Trash/Recycling",
    "request_reason": "Order Recycling Cart",
    "date_created": "2025-11-07T14:57:48.000",
    "date_modified": "2025-11-07T14:57:50.000",
    "request_status": "Pending",
    "responsible_agency": "Department of Sanitation",
    "final_address": "1735 Delachaise St Apt 2A",
    "address_councildis": "B",
    "status": "Pending",
    "rowid": "1238727",
    "final_x": "3673607.49684",
    "final_y": "522027.253818",
    "longitude": "-90.09331643037814",
    "latitude": "29.92963101715997",
    "geocoded_column": {
      "latitude": "29.92963101715997",
      "longitude": "-90.09331643037814"
    }
  },
  {
    "service_request": "2025-1238726",
    "request_type": "Trash/Recycling",
    "request_reason": "Request a Large Item Pick Up",
    "date_created": "2025-11-07T14:53:25.000",
    "date_modified": "2025-11-07T14:53:27.000",
    "request_status": "Pending",
    "responsible_agency": "Department of Sanitation",
    "final_address": "3000 Dumaine St",
    "address_councildis": "A",
    "status": "Assigned to Contractor",
    "contractor": "IV Waste",
    "rowid": "1238726",
    "final_x": "3676073.10158",
    "final_y": "538227.305737",
    "longitude": "-90.08497578691512",
    "latitude": "29.974102162911016",
    "geocoded_column": {
      "latitude": "29.974102162911016",
      "longitude": "-90.08497578691512"
    }
  },
  {
    "service_request": "2025-1238725",
    "request_type": "Trash/Recycling",
    "request_reason": "Request a Large Item Pick Up",
    "date_created": "2025-11-07T14:50:59.000",
    "date_modified": "2025-11-07T14:51:02.000",
    "request_status": "Pending",
    "responsible_agency": "Department of Sanitation",
    "final_address": "2731 Bruxelles St",
    "address_councildis": "D",
    "status": "Assigned to Contractor",
    "contractor": "IV Waste",
    "rowid": "1238725",
    "final_x": "3680366.56802",
    "final_y": "542502.816333",
    "longitude": "-90.07126731586574",
    "latitude": "29.985729013979594",
    "geocoded_column": {
      "latitude": "29.985729013979594",
      "longitude": "-90.07126731586574"
    }
  },
  {
    "service_request": "2025-1238724",
    "request_type": "Trash/Recycling",
    "request_reason": "Illegal Dumping",
    "date_created": "2025-11-07T14:49:28.000",
    "date_modified": "2025-11-07T14:49:29.000",
    "request_status": "Pending",
    "responsible_agency": "Department of Sanitation",
    "final_address": "ALMONASTER AVE & JOURDAN RD OVERPASS",
    "address_councildis": "E",
    "status": "Pending",
    "rowid": "1238724",
    "final_x": "3695728.16",
    "final_y": "549654.04",
    "longitude": "-90.02248808285128",
    "latitude": "30.00491807720669",
    "geocoded_column": {
      "latitude": "30.00491807720669",
      "longitude": "-90.02248808285128"
    }
  },
  {
    "service_request": "2025-1238723",
    "request_type": "Trash/Recycling",
    "request_reason": "Illegal Dumping",
    "date_created": "2025-11-07T14:46:39.000",
    "date_modified": "2025-11-07T14:46:42.000",
    "request_status": "Pending",
    "responsible_agency": "Department of Sanitation",
    "final_address": "ALMONASTER AVE & OLD GENTILLY RD & ALMONASTER AV OVERPASS",
    "address_councildis": "E",
    "status": "Pending",
    "rowid": "1238723",
    "final_x": "3720018.5",
    "final_y": "552867.38",
    "longitude": "-89.94562798116542",
    "latitude": "30.012967055385598",
    "geocoded_column": {
      "latitude": "30.012967055385598",
      "longitude": "-89.94562798116542"
    }
  },
  {
    "service_request": "2025-1238722",
    "request_type": "Trash/Recycling",
    "request_reason": "Illegal Dumping",
    "date_created": "2025-11-07T14:44:54.000",
    "date_modified": "2025-11-07T14:44:56.000",
    "request_status": "Pending",
    "responsible_agency": "Department of Sanitation",
    "final_address": "ALMONASTER AVE & READ BLVD",
    "address_councildis": "E",
    "status": "Pending",
    "rowid": "1238722",
    "final_x": "3713187.8",
    "final_y": "551727.58",
    "longitude": "-89.9672520022753",
    "latitude": "30.010058744473188",
    "geocoded_column": {
      "latitude": "30.010058744473188",
      "longitude": "-89.9672520022753"
    }
  },
  {
    "service_request": "2025-1238721",
    "request_type": "Trash/Recycling",
    "request_reason": "Request a Large Item Pick Up",
    "date_created": "2025-11-07T14:44:47.000",
    "date_modified": "2025-11-07T14:44:49.000",
    "request_status": "Pending",
    "responsible_agency": "Department of Sanitation",
    "final_address": "8930 Curran Rd",
    "address_councildis": "E",
    "status": "Assigned to Contractor",
    "contractor": "Waste Pro",
    "rowid": "1238721",
    "final_x": "3705170.7107",
    "final_y": "563001.315808",
    "longitude": "-89.99216383071187",
    "latitude": "30.04131751203086",
    "geocoded_column": {
      "latitude": "30.04131751203086",
      "longitude": "-89.99216383071187"
    }
  },
  {
    "service_request": "2025-1238720",
    "request_type": "Property Maintenance",
    "request_reason": "Property Maintenance",
    "date_created": "2025-11-07T14:43:14.000",
    "date_modified": "2025-11-07T14:44:52.000",
    "request_status": "Pending",
    "responsible_agency": "Department of Code Enforcement",
    "final_address": "943 Lamanche St",
    "address_councildis": "E",
    "status": "Pending",
    "rowid": "1238720",
    "final_x": "3698268.724",
    "final_y": "533189.99706",
    "longitude": "-90.01506037281939",
    "latitude": "29.959567791882876",
    "geocoded_column": {
      "latitude": "29.959567791882876",
      "longitude": "-90.01506037281939"
    }
  },
  {
    "service_request": "2025-1238719",
    "request_type": "Abandoned Vehicles",
    "request_reason": "Abandoned/Junk Vehicles",
    "date_created": "2025-11-07T14:38:16.000",
    "date_modified": "2025-11-07T14:38:18.000",
    "request_status": "Pending",
    "responsible_agency": "Department of Public Works",
    "final_address": "840 Newton St",
    "address_councildis": "C",
    "status": "Pending",
    "rowid": "1238719",
    "final_x": "3688088.86902",
    "final_y": "528001.359167",
    "longitude": "-90.04738979293647",
    "latitude": "29.945618927875717",
    "geocoded_column": {
      "latitude": "29.945618927875717",
      "longitude": "-90.04738979293647"
    }
  },
  {
    "service_request": "2025-1238718",
    "request_type": "Trash/Recycling",
    "request_reason": "Missed Trash Pick-Up",
    "date_created": "2025-11-07T14:38:06.000",
    "date_modified": "2025-11-07T14:57:47.000",
    "case_close_date": "2025-11-07T08:57:46.000",
    "request_status": "Closed",
    "responsible_agency": "Department of Sanitation",
    "final_address": "4117 Burgundy St",
    "address_councildis": "C",
    "status": "Invalid Request",
    "contractor": "IV Waste",
    "contractor_action": "Invalid",
    "rowid": "1238718",
    "final_x": "3692096.69526",
    "final_y": "534499.063109",
    "longitude": "-90.03450327859274",
    "latitude": "29.963361069958896",
    "geocoded_column": {
      "latitude": "29.963361069958896",
      "longitude": "-90.03450327859274"
    }
  },
  {
    "service_request": "2025-1238717",
    "request_type": "Trash/Recycling",
    "request_reason": "Missed Trash Pick-Up",
    "date_created": "2025-11-07T14:37:26.000",
    "date_modified": "2025-11-07T14:43:01.000",
    "case_close_date": "2025-11-07T08:43:00.000",
    "request_status": "Closed",
    "responsible_agency": "Department of Sanitation",
    "final_address": "4117 Burgundy St",
    "address_councildis": "C",
    "status": "Duplicate Request",
    "contractor": "IV Waste",
    "contractor_action": "Duplicate",
    "rowid": "1238717",
    "final_x": "3692096.69526",
    "final_y": "534499.063109",
    "longitude": "-90.03450327859274",
    "latitude": "29.963361069958896",
    "geocoded_column": {
      "latitude": "29.963361069958896",
      "longitude": "-90.03450327859274"
    }
  },
  {
    "service_request": "2025-1238716",
    "request_type": "Trash/Recycling",
    "request_reason": "Repair Trash Cart",
    "date_created": "2025-11-07T14:32:37.000",
    "date_modified": "2025-11-07T14:32:40.000",
    "request_status": "Pending",
    "responsible_agency": "Department of Sanitation",
    "final_address": "2406 Constance St",
    "address_councildis": "B",
    "status": "Assigned to Contractor",
    "contractor": "IV Waste",
    "rowid": "1238716",
    "final_x": "3678238.08821",
    "final_y": "521114.795257",
    "longitude": "-90.07873001339779",
    "latitude": "29.926983450563764",
    "geocoded_column": {
      "latitude": "29.926983450563764",
      "longitude": "-90.07873001339779"
    }
  },
  {
    "service_request": "2025-1238714",
    "request_type": "Trash/Recycling",
    "request_reason": "Request a Large Item Pick Up",
    "date_created": "2025-11-07T14:26:28.000",
    "date_modified": "2025-11-07T14:26:31.000",
    "request_status": "Pending",
    "responsible_agency": "Department of Sanitation",
    "final_address": "3600 Rue Renee",
    "address_councildis": "C",
    "status": "Assigned to Contractor",
    "contractor": "Richards Disposal",
    "rowid": "1238714",
    "final_x": "3705315.26219",
    "final_y": "517072.421429",
    "longitude": "-89.9934043785556",
    "latitude": "29.91502535079253",
    "geocoded_column": {
      "latitude": "29.91502535079253",
      "longitude": "-89.9934043785556"
    }
  },