[
  {
    "service_request": "2025-1229140",
    "request_type": "Trash/Recycling",
    "request_reason": "MIssed Recycling Pick-Up",
    "date_created": "2025-09-25T22:52:21.000",
    "date_modified": "2025-09-25T22:52:23.000",
    "request_status": "Pending",
    "responsible_agency": "Department of Sanitation",
    "final_address": "918 Milan St",
    "address_councildis": "B",
    "status": "Assigned to Contractor",
    "contractor": "IV Waste",
    "rowid": "1229140",
    "final_x": "3671751.84961",
    "final_y": "519023.853111",
    "longitude": "-90.09927650251174",
    "latitude": "29.921427713606043",
    "geocoded_column": {
      "latitude": "29.921427713606043",
      "longitude": "-90.09927650251174"
    }
  },
  {
    "service_request": "2025-1229139",
    "request_type": "Trash/Recycling",
    "request_reason": "Request a Large Item Pick Up",
    "date_created": "2025-09-25T22:36:56.000",
    "date_modified": "2025-09-25T22:36:58.000",
    "request_status": "Pending",
    "responsible_agency": "Department of Sanitation",
    "final_address": "4532 Marais St",
    "address_councildis": "D",
    "status": "Assigned to Contractor",
    "contractor": "IV Waste",
    "rowid": "1229139",
    "final_x": "3693664.95325",
    "final_y": "535127.238086",
    "longitude": "-90.02952834458507",
    "latitude": "29.96503935715986",
    "geocoded_column": {
      "latitude": "29.96503935715986",
      "longitude": "-90.02952834458507"
    }
  },
  {
    "service_request": "2025-1229138",
    "request_type": "Trash/Recycling",
    "request_reason": "Replace Trash Cart",
    "date_created": "2025-09-25T22:05:26.000",
    "date_modified": "2025-09-25T22:05:28.000",
    "request_status": "Pending",
    "responsible_agency": "Department of Sanitation",
    "final_address": "2428 Amelia St",
    "address_councildis": "B",
    "status": "Assigned to Contractor",
    "contractor": "IV Waste",
    "rowid": "1229138",
    "final_x": "3672355.39527",
    "final_y": "524144.14438",
    "longitude": "-90.09719700726566",
    "latitude": "29.93548898155597",
    "geocoded_column": {
      "latitude": "29.93548898155597",
      "longitude": "-90.09719700726566"
    }
  },
  {
    "service_request": "2025-1229137",
    "request_type": "Trash/Recycling",
    "request_reason": "Request a Large Item Pick Up",
    "date_created": "2025-09-25T21:49:19.000",
    "date_modified": "2025-09-25T21:49:22.000",
    "request_status": "Pending",
    "responsible_agency": "Department of Sanitation",
    "final_address": "4708 Lafon Dr",
    "address_councildis": "E",
    "status": "Assigned to Contractor",
    "contractor": "Waste Pro",
    "rowid": "1229137",
    "final_x": "3701097.90634",
    "final_y": "553967.754456",
    "longitude": "-90.00536613232342",
    "latitude": "30.016609156535495",
    "geocoded_column": {
      "latitude": "30.016609156535495",
      "longitude": "-90.00536613232342"
    }
  },
  {
    "service_request": "2025-1229136",
    "request_type": "Roads and Streets",
    "request_reason": "Sidewalk Damaged or Missing",
    "date_created": "2025-09-25T21:16:00.000",
    "date_modified": "2025-09-25T21:16:03.000",
    "request_status": "Pending",
    "responsible_agency": "Department of Public Works",
    "final_address": "3033 Tchoupitoulas St",
    "address_councildis": "B",
    "status": "Pending",
    "rowid": "1229136",
    "final_x": "3677328.93851",
    "final_y": "518438.238518",
    "longitude": "-90.08169225587028",
    "latitude": "29.919651126199884",
    "geocoded_column": {
      "latitude": "29.919651126199884",
      "longitude": "-90.08169225587028"
    }
  },
  {
    "service_request": "2025-1229135",
    "request_type": "Trash/Recycling",
    "request_reason": "Repair Trash Cart",
    "date_created": "2025-09-25T21:00:39.000",
    "date_modified": "2025-09-25T21:00:41.000",
    "request_status": "Pending",
    "responsible_agency": "Department of Sanitation",
    "final_address": "1806 Palmer Ave",
    "address_councildis": "A",
    "status": "Assigned to Contractor",
    "contractor": "IV Waste",
    "rowid": "1229135",
    "final_x": "3665472.28493",
    "final_y": "523735.156603",
    "longitude": "-90.11894080787121",
    "latitude": "29.934566778288115",
    "geocoded_column": {
      "latitude": "29.934566778288115",
      "longitude": "-90.11894080787121"
    }
  },
  {
    "service_request": "2025-1229134",
    "request_type": "Streetlights",
    "request_reason": "Streetlight Outage/Malfunction",
    "date_created": "2025-09-25T20:58:55.000",
    "date_modified": "2025-09-25T20:58:57.000",
    "request_status": "Pending",
    "responsible_agency": "Department of Public Works",
    "final_address": "1806 Palmer Ave",
    "address_councildis": "A",
    "status": "Pending",
    "rowid": "1229134",
    "final_x": "3665472.28493",
    "final_y": "523735.156603",
    "longitude": "-90.11894080787121",
    "latitude": "29.934566778288115",
    "geocoded_column": {
      "latitude": "29.934566778288115",
      "longitude": "-90.11894080787121"
    }
  },
  {
    "service_request": "2025-1229133",
    "request_type": "Trash/Recycling",
    "request_reason": "Order Recycling Cart",
    "date_created": "2025-09-25T20:52:53.000",
    "date_modified": "2025-09-25T20:52:57.000",
    "request_status": "Pending",
    "responsible_agency": "Department of Sanitation",
    "final_address": "2508 Laurel St",
    "address_councildis": "B",
    "status": "Pending",
    "rowid": "1229133",
    "final_x": "3678159.3924",
    "final_y": "520636.29932",
    "longitude": "-90.07899497065162",
    "latitude": "29.925670111515423",
    "geocoded_column": {
      "latitude": "29.925670111515423",
      "longitude": "-90.07899497065162"
    }
  },
  {
    "service_request": "2025-1229132",
    "request_type": "Parks & Parkways",
    "request_reason": "Park Maintenance/Clean Up",
    "date_created": "2025-09-25T20:41:24.000",
    "date_modified": "2025-09-25T20:41:26.000",
    "request_status": "Pending",
    "responsible_agency": "Department of Parks & Parkway",
    "final_address": "100 BLK S Cortez St",
    "address_councildis": "A",
    "status": "Pending",
    "rowid": "1229132",
    "final_x": "3671935.38083",
    "final_y": "537418.125083",
    "longitude": "-90.0980712342412",
    "latitude": "29.97200049317213",
    "geocoded_column": {
      "latitude": "29.97200049317213",
      "longitude": "-90.0980712342412"
    }
  },
  {
    "service_request": "2025-1229131",
    "request_type": "Abandoned Vehicles",
    "request_reason": "Abandoned/Junk Vehicles",
    "date_created": "2025-09-25T19:54:10.000",
    "date_modified": "2025-09-25T19:54:12.000",
    "request_status": "Pending",
    "responsible_agency": "Department of Public Works",
    "final_address": "1515 S Carrollton Ave",
    "address_councildis": "A",
    "status": "Pending",
    "rowid": "1229131",
    "final_x": "3662870.27117",
    "final_y": "529118.659648",
    "longitude": "-90.12697641489757",
    "latitude": "29.949445266350885",
    "geocoded_column": {
      "latitude": "29.949445266350885",
      "longitude": "-90.12697641489757"
    }
  },
  {
    "service_request": "2025-1229130",
    "request_type": "Trash/Recycling",
    "request_reason": "Return Trash Cart",
    "date_created": "2025-09-25T19:44:15.000",
    "date_modified": "2025-09-25T19:44:17.000",
    "request_status": "Pending",
    "responsible_agency": "Department of Sanitation",
    "final_address": "6430 Woodland Hwy",
    "address_councildis": "C",
    "status": "Assigned to Contractor",
    "contractor": "Richards Disposal",
    "rowid": "1229130",
    "final_x": "3707483.95736",
    "final_y": "514262.103539",
    "longitude": "-89.98666350699344",
    "latitude": "29.907228036216736",
    "geocoded_column": {
      "latitude": "29.907228036216736",
      "longitude": "-89.98666350699344"
    }
  },
  {
    "service_request": "2025-1229129",
    "request_type": "Trash/Recycling",
    "request_reason": "Request a Large Item Pick Up",
    "date_created": "2025-09-25T19:01:57.000",
    "date_modified": "2025-09-25T19:01:59.000",
    "request_status": "Pending",
    "responsible_agency": "Department of Sanitation",
    "final_address": "6222 Curie St",
    "address_councildis": "D",
    "status": "Assigned to Contractor",
    "contractor": "IV Waste",
    "rowid": "1229129",
    "final_x": "3682432.32239",
    "final_y": "555984.082009",
    "longitude": "-90.06427082677494",
    "latitude": "30.022734922838247",
    "geocoded_column": {
      "latitude": "30.022734922838247",
      "longitude": "-90.06427082677494"
    }
  },
  {
    "service_request": "2025-1229128",
    "request_type": "Trash/Recycling",
    "request_reason": "Order Recycling Cart",
    "date_created": "2025-09-25T18:58:07.000",
    "date_modified": "2025-09-25T18:58:10.000",
    "request_status": "Pending",
    "responsible_agency": "Department of Sanitation",
    "final_address": "9 Richmond Pl",
    "address_councildis": "A",
    "status": "Pending",
    "rowid": "1229128",
    "final_x": "3666589.7913",
    "final_y": "523656.067195",
    "longitude": "-90.11541550568799",
    "latitude": "29.93431669420583",
    "geocoded_column": {
      "latitude": "29.93431669420583",
      "longitude": "-90.11541550568799"
    }
  },
  {
    "service_request": "2025-1229127",
    "request_type": "Trash/Recycling",
    "request_reason": "Order Trash Cart",
    "date_created": "2025-09-25T18:44:16.000",
    "date_modified": "2025-09-25T18:44:18.000",
    "request_status": "Pending",
    "responsible_agency": "Department of Sanitation",
    "final_address": "4123 S Saratoga St",
    "address_councildis": "B",
    "status": "Assigned to Contractor",
    "contractor": "IV Waste",
    "rowid": "1229127",
    "final_x": "3671573.82619",
    "final_y": "522774.359546",
    "longitude": "-90.09971098910938",
    "latitude": "29.931745676272435",
    "geocoded_column": {
      "latitude": "29.931745676272435",
      "longitude": "-90.09971098910938"
    }
  },
  {
    "service_request": "2025-1229126",
    "request_type": "Abandoned Vehicles",
    "request_reason": "Abandoned/Junk Vehicles",
    "date_created": "2025-09-25T18:35:24.000",
    "date_modified": "2025-09-25T18:35:26.000",
    "request_status": "Pending",
    "responsible_agency": "Department of Public Works",
    "final_address": "524 Florida Blvd",
    "address_councildis": "A",
    "status": "Pending",
    "rowid": "1229126",
    "final_x": "3667759.23981",
    "final_y": "545339.469584",
    "longitude": "-90.11099333857253",
    "latitude": "29.993904638043094",
    "geocoded_column": {
      "latitude": "29.993904638043094",
      "longitude": "-90.11099333857253"
    }
  },
  {
    "service_request": "2025-1229125",
    "request_type": "Trash/Recycling",
    "request_reason": "Missed Trash Pick-Up",
    "date_created": "2025-09-25T18:33:22.000",
    "date_modified": "2025-09-25T18:33:24.000",
    "request_status": "Pending",
    "responsible_agency": "Department of Sanitation",
    "final_address": "719 Amelia St",
    "address_councildis": "B",
    "status": "Assigned to Contractor",
    "contractor": "IV Waste",
    "rowid": "1229125",
    "final_x": "3673991.65684",
    "final_y": "517913.063606",
    "longitude": "-90.09224437768499",
    "latitude": "29.918306878632688",
    "geocoded_column": {
      "latitude": "29.918306878632688",
      "longitude": "-90.09224437768499"
    }
  },
  {
    "service_request": "2025-1229124",
    "request_type": "Trash/Recycling",
    "request_reason": "Order Recycling Cart",
    "date_created": "2025-09-25T18:27:12.000",
    "date_modified": "2025-09-25T18:27:14.000",
    "request_status": "Pending",
    "responsible_agency": "Department of Sanitation",
    "final_address": "420 Delery St",
    "address_councildis": "E",
    "status": "Pending",
    "rowid": "1229124",
    "final_x": "3699517.16925",
    "final_y": "530761.234626",
    "longitude": "-90.01120659014201",
    "latitude": "29.952850003967722",
    "geocoded_column": {
      "latitude": "29.952850003967722",
      "longitude": "-90.01120659014201"
    }
  },
  {
    "service_request": "2025-1229123",
    "request_type": "Abandoned Vehicles",
    "request_reason": "Abandoned/Junk Vehicles",
    "date_created": "2025-09-25T18:12:22.000",
    "date_modified": "2025-09-25T18:12:24.000",
    "request_status": "Pending",
    "responsible_agency": "Department of Public Works",
    "final_address": "3000 BLK Baudin St",
    "address_councildis": "B",
    "status": "Pending",
    "rowid": "1229123",
    "final_x": "3673237.33426",
    "final_y": "534691.093135",
    "longitude": "-90.09405259404147",
    "latitude": "29.964463417532883",
    "geocoded_column": {
      "latitude": "29.964463417532883",
      "longitude": "-90.09405259404147"
    }
  },
  {
    "service_request": "2025-1229122",
    "request_type": "Trash/Recycling",
    "request_reason": "Request a Large Item Pick Up",
    "date_created": "2025-09-25T18:08:31.000",
    "date_modified": "2025-09-25T18:08:33.000",
    "request_status": "Pending",
    "responsible_agency": "Department of Sanitation",
    "final_address": "3016 Cleveland Ave",
    "address_councildis": "B",
    "status": "Assigned to Contractor",
    "contractor": "IV Waste",
    "rowid": "1229122",
    "final_x": "3673944.32046",
    "final_y": "535598.345606",
    "longitude": "-90.09178893874027",
    "latitude": "29.966937012374398",
    "geocoded_column": {
      "latitude": "29.966937012374398",
      "longitude": "-90.09178893874027"
    }
  },
  {
    "service_request": "2025-1229121",
    "request_type": "Trash/Recycling",
    "request_reason": "Missed Trash Pick-Up",
    "date_created": "2025-09-25T17:56:48.000",
    "date_modified": "2025-09-25T17:56:51.000",
    "request_status": "Pending",
    "responsible_agency": "Department of Sanitation",
    "final_address": "4220 Iris St",
    "address_councildis": "D",
    "status": "Assigned to Contractor",
    "contractor": "IV Waste",
    "rowid": "1229121",
    "final_x": "3686194.17378",
    "final_y": "548470.887314",
    "longitude": "-90.05264960767205",
    "latitude": "30.001961291440026",
    "geocoded_column": {
      "latitude": "30.001961291440026",
      "longitude": "-90.05264960767205"
    }
  },
  {
    "service_request": "2025-1229120",
    "request_type": "Trash/Recycling",
    "request_reason": "Missed Trash Pick-Up",
    "date_created": "2025-09-25T17:53:34.000",
    "date_modified": "2025-09-25T17:53:36.000",
    "request_status": "Pending",
    "responsible_agency": "Department of Sanitation",
    "final_address": "3014 Cleveland Ave, New Orleans, Louisiana, 70119",
    "status": "Assigned to Contractor",
    "rowid": "1229120",
    "longitude": "0.0",
    "latitude": "0.0",
    "geocoded_column": {
      "latitude": "0.0",
      "longitude": "0.0"
    }
  },
  {
    "service_request": "2025-1229119",
    "request_type": "Trash/Recycling",
    "request_reason": "Request a Large Item Pick Up",
    "date_created": "2025-09-25T17:47:12.000",
    "date_modified": "2025-09-25T17:47:14.000",
    "request_status": "Pending",
    "responsible_agency": "Department of Sanitation",
    "final_address": "616 Lang St",
    "address_councildis": "C",
    "status": "Assigned to Contractor",
    "contractor": "Richards Disposal",
    "rowid": "1229119",
    "final_x": "3702110.01924",
    "final_y": "520575.940536",
    "longitude": "-90.00339285604116",
    "latitude": "29.924761497370465",
    "geocoded_column": {
      "latitude": "29.924761497370465",
      "longitude": "-90.00339285604116"
    }
  },
  {
    "service_request": "2025-1229118",
    "request_type": "Roads and Streets",
    "request_reason": "Push-up/Pavement Expansion",
    "date_created": "2025-09-25T17:42:38.000",
    "date_modified": "2025-09-25T17:42:40.000",
    "request_status": "Pending",
    "responsible_agency": "Department of Public Works",
    "final_address": "2705 Ursulines Ave",
    "address_councildis": "A",
    "status": "Pending",
    "rowid": "1229118",
    "final_x": "3677424.92744",
    "final_y": "538394.337737",
    "longitude": "-90.0807006424292",
    "latitude": "29.97452087819016",
    "geocoded_column": {
      "latitude": "29.97452087819016",
      "longitude": "-90.0807006424292"
    }
  },
  {
    "service_request": "2025-1229117",
    "request_type": "Parks & Parkways",
    "request_reason": "Request Tree Service (Right of Way/Public Property)",
    "date_created": "2025-09-25T17:41:08.000",
    "date_modified": "2025-09-25T17:41:10.000",
    "request_status": "Pending",
    "responsible_agency": "Department of Parks & Parkway",
    "final_address": "1300 St Anthony St",
    "address_councildis": "C",
    "status": "Pending",
    "rowid": "1229117",
    "final_x": "3683415.31829",
    "final_y": "536582.977863",
    "longitude": "-90.06184504269403",
    "latitude": "29.969358840870264",
    "geocoded_column": {
      "latitude": "29.969358840870264",
      "longitude": "-90.06184504269403"
    }
  },
  {
    "service_request": "2025-1229116",
    "request_type": "Roads and Streets",
    "request_reason": "Push-up/Pavement Expansion",
    "date_created": "2025-09-25T17:40:59.000",
    "date_modified": "2025-09-25T17:41:01.000",
    "request_status": "Pending",
    "responsible_agency": "Department of Public Works",
    "final_address": "2501 Ursulines Ave",
    "address_councildis": "D",
    "status": "Pending",
    "rowid": "1229116",
    "final_x": "3678440.84168",
    "final_y": "537587.67444",
    "longitude": "-90.07752006015615",
    "latitude": "29.972272254514152",
    "geocoded_column": {
      "latitude": "29.972272254514152",
      "longitude": "-90.07752006015615"
    }
  },
  {
    "service_request": "2025-1229115",
    "request_type": "Roads and Streets",
    "request_reason": "Push-up/Pavement Expansion",
    "date_created": "2025-09-25T17:39:08.000",
    "date_modified": "2025-09-25T17:39:11.000",
    "request_status": "Pending",
    "responsible_agency": "Department of Public Works",
    "final_address": "1903 Ursulines Ave",
    "address_councildis": "D",
    "status": "Pending",
    "rowid": "1229115",
    "final_x": "3680096.89051",
    "final_y": "536302.076039",
    "longitude": "-90.07233465832638",
    "latitude": "29.968687290931094",
    "geocoded_column": {
      "latitude": "29.968687290931094",
      "longitude": "-90.07233465832638"
    }
  },
  {
    "service_request": "2025-1229114",
    "request_type": "Trash/Recycling",
    "request_reason": "Replace Trash Cart",
    "date_created": "2025-09-25T17:36:01.000",
    "date_modified": "2025-09-25T17:36:02.000",
    "request_status": "Pending",
    "responsible_agency": "Department of Sanitation",
    "final_address": "1221 N Roman St",
    "address_councildis": "D",
    "status": "Assigned to Contractor",
    "contractor": "IV Waste",
    "rowid": "1229114",
    "final_x": "3680390.75912",
    "final_y": "536676.690887",
    "longitude": "-90.07139357548606",
    "latitude": "29.969708457350045",
    "geocoded_column": {
      "latitude": "29.969708457350045",
      "longitude": "-90.07139357548606"
    }
  },
  {
    "service_request": "2025-1229113",
    "request_type": "Trash/Recycling",
    "request_reason": "Request a Large Item Pick Up",
    "date_created": "2025-09-25T17:28:13.000",
    "date_modified": "2025-09-25T17:28:16.000",
    "request_status": "Pending",
    "responsible_agency": "Department of Sanitation",
    "final_address": "6943 E Hermes St",
    "address_councildis": "D",
    "status": "Assigned to Contractor",
    "contractor": "Waste Pro",
    "rowid": "1229113",
    "final_x": "3697532.76298",
    "final_y": "556967.60041",
    "longitude": "-90.01652148063187",
    "latitude": "30.024970721784683",
    "geocoded_column": {
      "latitude": "30.024970721784683",
      "longitude": "-90.01652148063187"
    }
  },
  {
    "service_request": "2025-1229112",
    "request_type": "Drainage",
    "request_reason": "Drainage Manhole Cover Missing or Damaged",
    "date_created": "2025-09-25T17:24:01.000",
    "date_modified": "2025-09-25T17:24:04.000",
    "request_status": "Pending",
    "responsible_agency": "Sewerage & Water Board",
    "final_address": "5275 Basinview Dr",
    "address_councildis": "E",
    "status": "Pending",
    "rowid": "1229112",
    "final_x": "3699147.33968",
    "final_y": "556867.61033",
    "longitude": "-90.01142335366374",
    "latitude": "30.024644669459086",
    "geocoded_column": {
      "latitude": "30.024644669459086",
      "longitude": "-90.01142335366374"
    }
  },
  {
    "service_request": "2025-1229111",
    "request_type": "Drainage",
    "request_reason": "Catch Basin Not Draining",
    "date_created": "2025-09-25T17:19:21.000",
    "date_modified": "2025-09-25T17:19:24.000",
    "request_status": "Pending",
    "responsible_agency": "Sewerage & Water Board",
    "final_address": "5248 Basinview Dr",
    "address_councildis": "E",
    "status": "Pending",
    "rowid": "1229111",
    "final_x": "3698953.16375",
    "final_y": "556944.197594",
    "longitude": "-90.01203412211787",
    "latitude": "30.024861413228912",
    "geocoded_column": {
      "latitude": "30.024861413228912",
      "longitude": "-90.01203412211787"
    }
  },
  {
    "service_request": "2025-1229110",
    "request_type": "Trash/Recycling",
    "request_reason": "Repair Recycling Cart",
    "date_created": "2025-09-25T17:13:55.000",
    "date_modified": "2025-09-25T17:13:56.000",
    "request_status": "Pending",
    "responsible_agency": "Department of Sanitation",
    "final_address": "320 Webster St",
    "address_councildis": "A",
    "status": "Pending",
    "rowid": "1229110",
    "final_x": "3663499.59079",
    "final_y": "517974.064182",
    "longitude": "-90.12536032749213",
    "latitude": "29.918782921753767",
    "geocoded_column": {
      "latitude": "29.918782921753767",
      "longitude": "-90.12536032749213"
    }
  },
  {
    "service_request": "2025-1229109",
    "request_type": "Trash/Recycling",
    "request_reason": "Replace Recycling Cart",
    "date_created": "2025-09-25T17:13:54.000",
    "date_modified": "2025-09-25T17:13:56.000",
    "request_status": "Pending",
    "responsible_agency": "Department of Sanitation",
    "final_address": "5006 N Galvez St",
    "address_councildis": "E",
    "status": "Pending",
    "rowid": "1229109",
    "final_x": "3697065.836",
    "final_y": "537903.945161",
    "longitude": "-90.01868800928291",
    "latitude": "29.972567466573878",
    "geocoded_column": {
      "latitude": "29.972567466573878",
      "longitude": "-90.01868800928291"
    }
  },
  {
    "service_request": "2025-1229108",
    "request_type": "Street and Traffic Signs",
    "request_reason": "Traffic or Parking Sign Damaged or Missing",
    "date_created": "2025-09-25T17:05:09.000",
    "date_modified": "2025-09-25T17:05:10.000",
    "request_status": "Pending",
    "responsible_agency": "Department of Public Works",
    "final_address": "5515 S Claiborne Ave",
    "address_councildis": "A",
    "status": "Pending",
    "rowid": "1229108",
    "final_x": "3668064.63623",
    "final_y": "526705.128958",
    "longitude": "-90.11065673638228",
    "latitude": "29.942657446615286",
    "geocoded_column": {
      "latitude": "29.942657446615286",
      "longitude": "-90.11065673638228"
    }
  },
  {
    "service_request": "2025-1229107",
    "request_type": "Roads and Streets",
    "request_reason": "Curb Damage",
    "date_created": "2025-09-25T17:02:04.000",
    "date_modified": "2025-09-25T17:02:05.000",
    "request_status": "Pending",
    "responsible_agency": "Department of Public Works",
    "final_address": "4100 S Tonti St",
    "address_councildis": "B",
    "status": "Pending",
    "rowid": "1229107",
    "final_x": "3670908.46254",
    "final_y": "528189.918464",
    "longitude": "-90.10162769853903",
    "latitude": "29.946656387632267",
    "geocoded_column": {
      "latitude": "29.946656387632267",
      "longitude": "-90.10162769853903"
    }
  },
  {
    "service_request": "2025-1229106",
    "request_type": "Roads and Streets",
    "request_reason": "Pothole",
    "date_created": "2025-09-25T17:00:33.000",
    "date_modified": "2025-09-25T17:00:35.000",
    "request_status": "Pending",
    "responsible_agency": "Department of Public Works",
    "final_address": "3701 Napoleon Ave",
    "address_councildis": "B",
    "status": "Pending",
    "rowid": "1229106",
    "final_x": "3670212.17415",
    "final_y": "528205.00416",
    "longitude": "-90.10382562664194",
    "latitude": "29.94671843033207",
    "geocoded_column": {
      "latitude": "29.94671843033207",
      "longitude": "-90.10382562664194"
    }
  },
  {
    "service_request": "2025-1229105",
    "request_type": "Streetlights",
    "request_reason": "Streetlight Outage/Malfunction",
    "date_created": "2025-09-25T16:55:33.000",
    "date_modified": "2025-09-25T16:55:40.000",
    "request_status": "Pending",
    "responsible_agency": "Department of Public Works",
    "final_address": "8220 Forshey St",
    "address_councildis": "A",
    "status": "Pending",
    "rowid": "1229105",
    "final_x": "3666563.35969",
    "final_y": "534254.479429",
    "longitude": "-90.11514323437696",
    "latitude": "29.96345966290499",
    "geocoded_column": {
      "latitude": "29.96345966290499",
      "longitude": "-90.11514323437696"
    }
  },
  {
    "service_request": "2025-1229104",
    "request_type": "Trash/Recycling",
    "request_reason": "Request a Large Item Pick Up",
    "date_created": "2025-09-25T16:54:22.000",
    "date_modified": "2025-09-25T16:54:24.000",
    "request_status": "Pending",
    "responsible_agency": "Department of Sanitation",
    "final_address": "2215 Baronne St",
    "address_councildis": "B",
    "status": "Assigned to Contractor",
    "contractor": "IV Waste",
    "rowid": "1229104",
    "final_x": "3676863.87387",
    "final_y": "524438.52998",
    "longitude": "-90.08295355703329",
    "latitude": "29.93616393804509",
    "geocoded_column": {
      "latitude": "29.93616393804509",
      "longitude": "-90.08295355703329"
    }
  },
  {
    "service_request": "2025-1229103",
    "request_type": "Trash/Recycling",
    "request_reason": "Request a Large Item Pick Up",
    "date_created": "2025-09-25T16:52:45.000",
    "date_modified": "2025-09-25T16:52:47.000",
    "request_status": "Pending",
    "responsible_agency": "Department of Sanitation",
    "final_address": "724 Adams St",
    "address_councildis": "A",
    "status": "Assigned to Contractor",
    "contractor": "IV Waste",
    "rowid": "1229103",
    "final_x": "3662000.77856",
    "final_y": "526270.183166",
    "longitude": "-90.12981627349617",
    "latitude": "29.941638008045324",
    "geocoded_column": {
      "latitude": "29.941638008045324",
      "longitude": "-90.12981627349617"
    }
  },
  {
    "service_request": "2025-1229102",
    "request_type": "Trash/Recycling",
    "request_reason": "Request a Large Item Pick Up",
    "date_created": "2025-09-25T16:50:54.000",
    "date_modified": "2025-09-25T16:50:56.000",
    "request_status": "Pending",
    "responsible_agency": "Department of Sanitation",
    "final_address": "7041 Mayo Rd",
    "address_councildis": "E",
    "status": "Assigned to Contractor",
    "contractor": "Waste Pro",
    "rowid": "1229102",
    "final_x": "3701677.21252",
    "final_y": "558947.826524",
    "longitude": "-90.00335314884884",
    "latitude": "30.03028396705292",
    "geocoded_column": {
      "latitude": "30.03028396705292",
      "longitude": "-90.00335314884884"
    }
  },
  {
    "service_request": "2025-1229101",
    "request_type": "Trash/Recycling",
    "request_reason": "Request a Large Item Pick Up",
    "date_created": "2025-09-25T16:47:18.000",
    "date_modified": "2025-09-25T16:47:20.000",
    "request_status": "Pending",
    "responsible_agency": "Department of Sanitation",
    "final_address": "5523 Elysian Fields Ave",
    "address_councildis": "D",
    "status": "Assigned to Contractor",
    "contractor": "IV Waste",
    "rowid": "1229101",
    "final_x": "3683774.55516",
    "final_y": "553319.454039",
    "longitude": "-90.06012324245323",
    "latitude": "30.015367230287595",
    "geocoded_column": {
      "latitude": "30.015367230287595",
      "longitude": "-90.06012324245323"
    }
  },
  {
    "service_request": "2025-1229100",
    "request_type": "Parks & Parkways",
    "request_reason": "Request Tree Service (Right of Way/Public Property)",
    "date_created": "2025-09-25T16:43:19.000",
    "date_modified": "2025-09-25T16:43:21.000",
    "request_status": "Pending",
    "responsible_agency": "Department of Parks & Parkway",
    "final_address": "496 Audubon St",
    "address_councildis": "A",
    "status": "Pending",
    "rowid": "1229100",
    "final_x": "3662600.97293",
    "final_y": "523715.815163",
    "longitude": "-90.12800616307855",
    "latitude": "29.934596958320732",
    "geocoded_column": {
      "latitude": "29.934596958320732",
      "longitude": "-90.12800616307855"
    }
  },
  {
    "service_request": "2025-1229099",
    "request_type": "Trash/Recycling",
    "request_reason": "Repair Recycling Cart",
    "date_created": "2025-09-25T16:42:48.000",
    "date_modified": "2025-09-25T16:42:50.000",
    "request_status": "Pending",
    "responsible_agency": "Department of Sanitation",
    "final_address": "5417 S Robertson St",
    "address_councildis": "A",
    "status": "Pending",
    "rowid": "1229099",
    "final_x": "3667829.48455",
    "final_y": "524409.479356",
    "longitude": "-90.1114764551779",
    "latitude": "29.936352046385107",
    "geocoded_column": {
      "latitude": "29.936352046385107",
      "longitude": "-90.1114764551779"
    }
  },
  {
    "service_request": "2025-1229098",
    "request_type": "Street and Traffic Signs",
    "request_reason": "Traffic or Parking Sign Damaged or Missing",
    "date_created": "2025-09-25T16:38:54.000",
    "date_modified": "2025-09-25T16:38:56.000",
    "request_status": "Pending",
    "responsible_agency": "Department of Public Works",
    "final_address": "4190 S Carrollton Ave",
    "address_councildis": "A",
    "status": "Pending",
    "rowid": "1229098",
    "final_x": "3669499.03726",
    "final_y": "536531.238087",
    "longitude": "-90.10579563120794",
    "latitude": "29.969633845403756",
    "geocoded_column": {
      "latitude": "29.969633845403756",
      "longitude": "-90.10579563120794"
    }
  },
  {
    "service_request": "2025-1229097",
    "request_type": "Trash/Recycling",
    "request_reason": "Repair Trash Cart",
    "date_created": "2025-09-25T16:38:39.000",
    "date_modified": "2025-09-25T16:38:40.000",
    "request_status": "Pending",
    "responsible_agency": "Department of Sanitation",
    "final_address": "1508 Fats Domino Ave",
    "address_councildis": "E",
    "status": "Assigned to Contractor",
    "contractor": "Waste Pro",
    "rowid": "1229097",
    "final_x": "3698347.30775",
    "final_y": "535349.94599",
    "longitude": "-90.01473373545299",
    "latitude": "29.965504395889788",
    "geocoded_column": {
      "latitude": "29.965504395889788",
      "longitude": "-90.01473373545299"
    }
  },
  {
    "service_request": "2025-1229096",
    "request_type": "Abandoned Vehicles",
    "request_reason": "Abandoned/Junk Vehicles",
    "date_created": "2025-09-25T16:37:27.000",
    "date_modified": "2025-09-25T16:38:08.000",
    "request_status": "Pending",
    "responsible_agency": "Department of Public Works",
    "final_address": "7900 BLK Fig St",
    "address_councildis": "B",
    "status": "Pending",
    "rowid": "1229096",
    "final_x": "3666754.55195",
    "final_y": "532725.17187",
    "longitude": "-90.11459083419786",
    "latitude": "29.959248980137897",
    "geocoded_column": {
      "latitude": "29.959248980137897",
      "longitude": "-90.11459083419786"
    }
  },
  {
    "service_request": "2025-1229095",
    "request_type": "Trash/Recycling",
    "request_reason": "Repair Trash Cart",
    "date_created": "2025-09-25T16:35:00.000",
    "date_modified": "2025-09-25T16:35:02.000",
    "request_status": "Pending",
    "responsible_agency": "Department of Sanitation",
    "final_address": "4512 Lynhuber Dr",
    "address_councildis": "D",
    "status": "Assigned to Contractor",
    "contractor": "Waste Pro",
    "rowid": "1229095",
    "final_x": "3698075.18435",
    "final_y": "553065.535127",
    "longitude": "-90.01494939146147",
    "latitude": "30.01422437215257",
    "geocoded_column": {
      "latitude": "30.01422437215257",
      "longitude": "-90.01494939146147"
    }
  },
  {
    "service_request": "2025-1229094",
    "request_type": "Trash/Recycling",
    "request_reason": "Request a Large Item Pick Up",
    "date_created": "2025-09-25T16:33:46.000",
    "date_modified": "2025-09-25T16:33:48.000",
    "request_status": "Pending",
    "responsible_agency": "Department of Sanitation",
    "final_address": "5541 New England Dr",
    "address_councildis": "E",
    "status": "Assigned to Contractor",
    "contractor": "Waste Pro",
    "rowid": "1229094",
    "final_x": "3723772.15807",
    "final_y": "563819.609761",
    "longitude": "-89.93334584153907",
    "latitude": "30.04295570498817",
    "geocoded_column": {
      "latitude": "30.04295570498817",
      "longitude": "-89.93334584153907"
    }
  },
  {
    "service_request": "2025-1229093",
    "request_type": "Trash/Recycling",
    "request_reason": "Request a Large Item Pick Up",
    "date_created": "2025-09-25T16:32:35.000",
    "date_modified": "2025-09-25T16:32:37.000",
    "request_status": "Pending",
    "responsible_agency": "Department of Sanitation",
    "final_address": "3460 Annunciation St",
    "address_councildis": "B",
    "status": "Assigned to Contractor",
    "contractor": "IV Waste",
    "rowid": "1229093",
    "final_x": "3674964.01089",
    "final_y": "518374.860662",
    "longitude": "-90.08915934618129",
    "latitude": "29.919547677765323",
    "geocoded_column": {
      "latitude": "29.919547677765323",
      "longitude": "-90.08915934618129"
    }
  },
  {
    "service_request": "2025-1229092",
    "request_type": "General Services",
    "request_reason": "General Service Request",
    "date_created": "2025-09-25T16:29:24.000",
    "date_modified": "2025-09-25T16:32:01.000",
    "case_close_date": "2025-09-25T11:32:01.000",
    "request_status": "Closed",
    "responsible_agency": "Orleans Parish Communication District",
    "final_address": "8100 BLK Zimpel St",
    "address_councildis": "A",
    "status": "Question Answered.",
    "rowid": "1229092",
    "final_x": "3661610.34538",
    "final_y": "528220.698596",
    "longitude": "-90.13098433733195",
    "latitude": "29.947012574230968",
    "geocoded_column": {
      "latitude": "29.947012574230968",
      "longitude": "-90.13098433733195"
    }
  },
  {
    "service_request": "2025-1229091",
    "request_type": "Abandoned Vehicles",
    "request_reason": "Abandoned/Junk Vehicles",
    "date_created": "2025-09-25T16:28:49.000",
    "date_modified": "2025-09-25T16:28:51.000",
    "request_status": "Pending",
    "responsible_agency": "Department of Public Works",
    "final_address": "3400 BLK Frenchmen St",
    "address_councildis": "D",
    "status": "Pending",
    "rowid": "1229091",
    "final_x": "3683865.19162",
    "final_y": "545294.283215",
    "longitude": "-90.06011861784312",
    "latitude": "29.99329813653049",
    "geocoded_column": {
      "latitude": "29.99329813653049",
      "longitude": "-90.06011861784312"
    }
  },
  {
    "service_request": "2025-1229090",
    "request_type": "Trash/Recycling",
    "request_reason": "Order Trash Cart",
    "date_created": "2025-09-25T16:21:06.000",
    "date_modified": "2025-09-25T16:21:24.000",
    "request_status": "Pending",
    "responsible_agency": "Department of Sanitation",
    "final_address": "1210 Dublin St",
    "address_councildis": "A",
    "status": "Assigned to Contractor",
    "contractor": "IV Waste",
    "rowid": "1229090",
    "final_x": "3661761.7728",
    "final_y": "528723.585408",
    "longitude": "-90.13048955431027",
    "latitude": "29.94839098206921",
    "geocoded_column": {
      "latitude": "29.94839098206921",
      "longitude": "-90.13048955431027"
    }
  },
  {
    "service_request": "2025-1229089",
    "request_type": "Streetlights",
    "request_reason": "Streetlight Outage/Malfunction",
    "date_created": "2025-09-25T16:19:34.000",
    "date_modified": "2025-09-25T16:19:36.000",
    "request_status": "Pending",
    "responsible_agency": "Department of Public Works",
    "final_address": "3003 Orleans Ave",
    "address_councildis": "A",
    "status": "Pending",
    "rowid": "1229089",
    "final_x": "3675784.17934",
    "final_y": "537834.002889",
    "longitude": "-90.08590179307893",
    "latitude": "29.97302936633055",
    "geocoded_column": {
      "latitude": "29.97302936633055",
      "longitude": "-90.08590179307893"
    }
  },
  {
    "service_request": "2025-1229088",
    "request_type": "Roads and Streets",
    "request_reason": "Push-up/Pavement Expansion",
    "date_created": "2025-09-25T16:16:48.000",
    "date_modified": "2025-09-25T16:16:50.000",
    "request_status": "Pending",
    "responsible_agency": "Department of Public Works",
    "final_address": "800 BLK S Norman C Francis Pkwy",
    "address_councildis": "B",
    "status": "Pending",
    "rowid": "1229088",
    "final_x": "3671038.44102",
    "final_y": "533683.121726",
    "longitude": "-90.10103078095389",
    "latitude": "29.961757041650134",
    "geocoded_column": {
      "latitude": "29.961757041650134",
      "longitude": "-90.10103078095389"
    }
  },
  {
    "service_request": "2025-1229087",
    "request_type": "Trash/Recycling",
    "request_reason": "Repair Trash Cart",
    "date_created": "2025-09-25T16:16:05.000",
    "date_modified": "2025-09-25T16:16:06.000",
    "request_status": "Pending",
    "responsible_agency": "Department of Sanitation",
    "final_address": "1331 Farragut St",
    "address_councildis": "C",
    "status": "Assigned to Contractor",
    "contractor": "Richards Disposal",
    "rowid": "1229087",
    "final_x": "3692296.10883",
    "final_y": "526310.482046",
    "longitude": "-90.03416674283028",
    "latitude": "29.94083909632192",
    "geocoded_column": {
      "latitude": "29.94083909632192",
      "longitude": "-90.03416674283028"
    }
  },
  {
    "service_request": "2025-1229086",
    "request_type": "Trash/Recycling",
    "request_reason": "Request a Large Item Pick Up",
    "date_created": "2025-09-25T16:11:11.000",
    "date_modified": "2025-09-25T16:11:13.000",
    "request_status": "Pending",
    "responsible_agency": "Department of Sanitation",
    "final_address": "3633 Octavia St",
    "address_councildis": "A",
    "status": "Assigned to Contractor",
    "contractor": "IV Waste",
    "rowid": "1229086",
    "final_x": "3668716.73735",
    "final_y": "528904.409088",
    "longitude": "-90.10852367237463",
    "latitude": "29.948685603470977",
    "geocoded_column": {
      "latitude": "29.948685603470977",
      "longitude": "-90.10852367237463"
    }
  },
  {
    "service_request": "2025-1229085",
    "request_type": "Trash/Recycling",
    "request_reason": "Order Second Trash Cart",
    "date_created": "2025-09-25T16:08:28.000",
    "date_modified": "2025-09-25T16:08:30.000",
    "request_status": "Pending",
    "responsible_agency": "Department of Sanitation",
    "final_address": "3633 Octavia St",
    "address_councildis": "A",
    "status": "Assigned to Contractor",
    "contractor": "IV Waste",
    "rowid": "1229085",
    "final_x": "3668716.73735",
    "final_y": "528904.409088",
    "longitude": "-90.10852367237463",
    "latitude": "29.948685603470977",
    "geocoded_column": {
      "latitude": "29.948685603470977",
      "longitude": "-90.10852367237463"
    }
  },
  {
    "service_request": "2025-1229084",
    "request_type": "Streetlights",
    "request_reason": "Streetlight Outage/Malfunction",
    "date_created": "2025-09-25T16:08:22.000",
    "date_modified": "2025-09-25T16:08:24.000",
    "request_status": "Pending",
    "responsible_agency": "Department of Public Works",
    "final_address": "40 Kings Canyon Dr",
    "address_councildis": "C",
    "status": "Pending",
    "rowid": "1229084",
    "final_x": "3700298.37175",
    "final_y": "515832.156916",
    "longitude": "-90.00928462234275",
    "latitude": "29.911775405968513",
    "geocoded_column": {
      "latitude": "29.911775405968513",
      "longitude": "-90.00928462234275"
    }
  },
  {
    "service_request": "2025-1229083",
    "request_type": "Trash/Recycling",
    "request_reason": "Request a Large Item Pick Up",
    "date_created": "2025-09-25T16:05:23.000",
    "date_modified": "2025-09-25T16:05:25.000",
    "request_status": "Pending",
    "responsible_agency": "Department of Sanitation",
    "final_address": "4729 Pineda St",
    "address_councildis": "D",
    "status": "Assigned to Contractor",
    "contractor": "IV Waste",
    "rowid": "1229083",
    "final_x": "3691167.61654",
    "final_y": "552668.163862",
    "longitude": "-90.0367879728155",
    "latitude": "30.013348473281265",
    "geocoded_column": {
      "latitude": "30.013348473281265",
      "longitude": "-90.0367879728155"
    }
  },
  {
    "service_request": "2025-1229082",
    "request_type": "Mosquito, Termite & Rodent Control",
    "request_reason": "Rodent Complaint (Mice & Rats)",
    "date_created": "2025-09-25T16:04:39.000",
    "date_modified": "2025-09-25T16:21:37.000",
    "request_status": "Pending",
    "responsible_agency": "Mosquito, Termite & Rodent Control Board",
    "final_address": "7050 Bullard Ave",
    "address_councildis": "E",
    "status": "Pending",
    "rowid": "1229082",
    "final_x": "3714292.99256",
    "final_y": "565669.229858",
    "longitude": "-89.96323365942158",
    "latitude": "30.048356453091134",
    "geocoded_column": {
      "latitude": "30.048356453091134",
      "longitude": "-89.96323365942158"
    }
  },
  {
    "service_request": "2025-1229081",
    "request_type": "Trash/Recycling",
    "request_reason": "Request a Large Item Pick Up",
    "date_created": "2025-09-25T16:03:14.000",
    "date_modified": "2025-09-25T16:03:15.000",
    "request_status": "Pending",
    "responsible_agency": "Department of Sanitation",
    "final_address": "5351 Carlisle Ct",
    "address_councildis": "C",
    "status": "Assigned to Contractor",
    "contractor": "Richards Disposal",
    "rowid": "1229081",
    "final_x": "3703676.42193",
    "final_y": "516527.345845",
    "longitude": "-89.99859714952036",
    "latitude": "29.913579173884372",
    "geocoded_column": {
      "latitude": "29.913579173884372",
      "longitude": "-89.99859714952036"
    }
  },
  {
    "service_request": "2025-1229080",
    "request_type": "Trash/Recycling",
    "request_reason": "Request a Large Item Pick Up",
    "date_created": "2025-09-25T16:02:55.000",
    "date_modified": "2025-09-25T16:02:57.000",
    "request_status": "Pending",
    "responsible_agency": "Department of Sanitation",
    "final_address": "3509 Calhoun St",
    "address_councildis": "A",
    "status": "Assigned to Contractor",
    "contractor": "IV Waste",
    "rowid": "1229080",
    "final_x": "3667776.49089",
    "final_y": "529475.711489",
    "longitude": "-90.11147320443119",
    "latitude": "29.950284101061143",
    "geocoded_column": {
      "latitude": "29.950284101061143",
      "longitude": "-90.11147320443119"
    }
  },
  {
    "service_request": "2025-1229079",
    "request_type": "General Services",
    "request_reason": "General Service Request",
    "date_created": "2025-09-25T15:56:10.000",
    "date_modified": "2025-09-25T15:56:12.000",
    "request_status": "Pending",
    "responsible_agency": "Orleans Parish Communication District",
    "final_address": "1119 N Rocheblave St",
    "address_councildis": "D",
    "status": "Pending",
    "rowid": "1229079",
    "final_x": "3678534.09077",
    "final_y": "537712.99828",
    "longitude": "-90.07722122470184",
    "latitude": "29.972614041616474",
    "geocoded_column": {
      "latitude": "29.972614041616474",
      "longitude": "-90.07722122470184"
    }
  },
  {
    "service_request": "2025-1229078",
    "request_type": "Trash/Recycling",
    "request_reason": "Request a Large Item Pick Up",
    "date_created": "2025-09-25T15:52:56.000",
    "date_modified": "2025-09-25T15:52:57.000",
    "request_status": "Pending",
    "responsible_agency": "Department of Sanitation",
    "final_address": "5250 St Roch Ave",
    "address_councildis": "D",
    "status": "Assigned to Contractor",
    "contractor": "IV Waste",
    "rowid": "1229078",
    "final_x": "3685051.12457",
    "final_y": "552451.950806",
    "longitude": "-90.05612043488037",
    "latitude": "30.01294284932225",
    "geocoded_column": {
      "latitude": "30.01294284932225",
      "longitude": "-90.05612043488037"
    }
  },
  {
    "service_request": "2025-1229077",
    "request_type": "Trash/Recycling",
    "request_reason": "Start Trash Service",
    "date_created": "2025-09-25T15:51:06.000",
    "date_modified": "2025-09-25T15:51:08.000",
    "request_status": "Pending",
    "responsible_agency": "Department of Sanitation",
    "final_address": "820 Eliza St",
    "address_councildis": "C",
    "status": "Assigned to Contractor",
    "contractor": "Richards Disposal",
    "rowid": "1229077",
    "final_x": "3688048.01609",
    "final_y": "529945.498561",
    "longitude": "-90.04744989375659",
    "latitude": "29.95096590717645",
    "geocoded_column": {
      "latitude": "29.95096590717645",
      "longitude": "-90.04744989375659"
    }
  },
  {
    "service_request": "2025-1229076",
    "request_type": "Trash/Recycling",
    "request_reason": "Order Recycling Cart",
    "date_created": "2025-09-25T15:49:27.000",
    "date_modified": "2025-09-25T15:49:29.000",
    "request_status": "Pending",
    "responsible_agency": "Department of Sanitation",
    "final_address": "2522 Eagle St",
    "address_councildis": "A",
    "status": "Pending",
    "rowid": "1229076",
    "final_x": "3663386.46067",
    "final_y": "533673.168645",
    "longitude": "-90.12519494044874",
    "latitude": "29.96195373563238",
    "geocoded_column": {
      "latitude": "29.96195373563238",
      "longitude": "-90.12519494044874"
    }
  },
  {
    "service_request": "2025-1229075",
    "request_type": "Trash/Recycling",
    "request_reason": "MIssed Recycling Pick-Up",
    "date_created": "2025-09-25T15:47:08.000",
    "date_modified": "2025-09-25T15:47:10.000",
    "request_status": "Pending",
    "responsible_agency": "Department of Sanitation",
    "final_address": "6740 Louis Xiv St",
    "address_councildis": "A",
    "status": "Assigned to Contractor",
    "contractor": "IV Waste",
    "rowid": "1229075",
    "final_x": "3668447.1867",
    "final_y": "552418.569174",
    "longitude": "-90.10858118775042",
    "latitude": "30.01334950314485",
    "geocoded_column": {
      "latitude": "30.01334950314485",
      "longitude": "-90.10858118775042"
    }
  },
  {
    "service_request": "2025-1229074",
    "request_type": "Trash/Recycling",
    "request_reason": "Request a Large Item Pick Up",
    "date_created": "2025-09-25T15:45:49.000",
    "date_modified": "2025-09-25T15:45:51.000",
    "request_status": "Pending",
    "responsible_agency": "Department of Sanitation",
    "final_address": "301 N Peters St",
    "address_councildis": "C",
    "status": "Assigned to Contractor",
    "contractor": "IV Waste",
    "rowid": "1229074",
    "final_x": "3682420.31522",
    "final_y": "530780.516226",
    "longitude": "-90.06519014285749",
    "latitude": "29.95343437837939",
    "geocoded_column": {
      "latitude": "29.95343437837939",
      "longitude": "-90.06519014285749"
    }
  },
  {
    "service_request": "2025-1229073",
    "request_type": "Trash/Recycling",
    "request_reason": "Request a Large Item Pick Up",
    "date_created": "2025-09-25T15:45:13.000",
    "date_modified": "2025-09-25T15:45:16.000",
    "request_status": "Pending",
    "responsible_agency": "Department of Sanitation",
    "final_address": "5250 St Roch Ave",
    "address_councildis": "D",
    "status": "Assigned to Contractor",
    "contractor": "IV Waste",
    "rowid": "1229073",
    "final_x": "3685051.12457",
    "final_y": "552451.950806",
    "longitude": "-90.05612043488037",
    "latitude": "30.01294284932225",
    "geocoded_column": {
      "latitude": "30.01294284932225",
      "longitude": "-90.05612043488037"
    }
  },
  {
    "service_request": "2025-1229072",
    "request_type": "Trash/Recycling",
    "request_reason": "Request a Large Item Pick Up",
    "date_created": "2025-09-25T15:44:30.000",
    "date_modified": "2025-09-25T15:55:39.000",
    "request_status": "Pending",
    "responsible_agency": "Department of Sanitation",
    "final_address": "4715 Annunciation St",
    "address_councildis": "B",
    "status": "Assigned to Contractor",
    "contractor": "IV Waste",
    "rowid": "1229072",
    "final_x": "3669853.73703",
    "final_y": "517656.46111",
    "longitude": "-90.10531428813903",
    "latitude": "29.917723891767142",
    "geocoded_column": {
      "latitude": "29.917723891767142",
      "longitude": "-90.10531428813903"
    }
  },
  {
    "service_request": "2025-1229071",
    "request_type": "Trash/Recycling",
    "request_reason": "Return Recycling Cart",
    "date_created": "2025-09-25T15:41:41.000",
    "date_modified": "2025-09-25T15:41:43.000",
    "request_status": "Pending",
    "responsible_agency": "Department of Sanitation",
    "final_address": "3510 Rue Delphine",
    "address_councildis": "C",
    "status": "Pending",
    "rowid": "1229071",
    "final_x": "3703104.47633",
    "final_y": "517781.247094",
    "longitude": "-90.00035633548376",
    "latitude": "29.917045279159883",
    "geocoded_column": {
      "latitude": "29.917045279159883",
      "longitude": "-90.00035633548376"
    }
  },
  {
    "service_request": "2025-1229070",
    "request_type": "Traffic Signals",
    "request_reason": "Traffic Signal Malfunctioning or Damaged",
    "date_created": "2025-09-25T15:39:03.000",
    "date_modified": "2025-09-25T15:39:05.000",
    "request_status": "Pending",
    "responsible_agency": "Department of Public Works",
    "final_address": "CANAL BLVD & I 610 E ONRAMP",
    "address_councildis": "A",
    "status": "Pending",
    "rowid": "1229070",
    "final_x": "3668397.0",
    "final_y": "545652.38",
    "longitude": "-90.10896817789578",
    "latitude": "29.994746311751182",
    "geocoded_column": {
      "latitude": "29.994746311751182",
      "longitude": "-90.10896817789578"
    }
  },
  {
    "service_request": "2025-1229069",
    "request_type": "Trash/Recycling",
    "request_reason": "Request a Large Item Pick Up",
    "date_created": "2025-09-25T15:35:38.000",
    "date_modified": "2025-09-25T15:35:40.000",
    "request_status": "Pending",
    "responsible_agency": "Department of Sanitation",
    "final_address": "10210 Heritage Dr",
    "address_councildis": "E",
    "status": "Assigned to Contractor",
    "contractor": "Waste Pro",
    "rowid": "1229069",
    "final_x": "3709429.56523",
    "final_y": "564156.674273",
    "longitude": "-89.97866128680653",
    "latitude": "30.044356533499435",
    "geocoded_column": {
      "latitude": "30.044356533499435",
      "longitude": "-89.97866128680653"
    }
  },
  {
    "service_request": "2025-1229068",
    "request_type": "Property Maintenance",
    "request_reason": "Property Maintenance",
    "date_created": "2025-09-25T15:32:37.000",
    "date_modified": "2025-09-25T15:32:39.000",
    "request_status": "Pending",
    "responsible_agency": "Department of Code Enforcement",
    "final_address": "2841 S Liberty St",
    "address_councildis": "B",
    "status": "Pending",
    "rowid": "1229068",
    "final_x": "3674237.20993",
    "final_y": "524442.807804",
    "longitude": "-90.09124587553121",
    "latitude": "29.936254253261087",
    "geocoded_column": {
      "latitude": "29.936254253261087",
      "longitude": "-90.09124587553121"
    }
  },
  {
    "service_request": "2025-1229067",
    "request_type": "Streetlights",
    "request_reason": "Streetlight Outage/Malfunction",
    "date_created": "2025-09-25T15:25:52.000",
    "date_modified": "2025-09-25T15:25:53.000",
    "request_status": "Pending",
    "responsible_agency": "Department of Public Works",
    "final_address": "439 S Clark St",
    "address_councildis": "B",
    "status": "Pending",
    "rowid": "1229067",
    "final_x": "3671881.6114",
    "final_y": "535777.049799",
    "longitude": "-90.09829690950497",
    "latitude": "29.967489682396238",
    "geocoded_column": {
      "latitude": "29.967489682396238",
      "longitude": "-90.09829690950497"
    }
  },
  {
    "service_request": "2025-1229066",
    "request_type": "Trash/Recycling",
    "request_reason": "Illegal Dumping",
    "date_created": "2025-09-25T15:22:44.000",
    "date_modified": "2025-09-25T15:22:47.000",
    "request_status": "Pending",
    "responsible_agency": "Department of Sanitation",
    "final_address": "120 City Park Ave",
    "address_councildis": "A",
    "status": "Pending",
    "rowid": "1229066",
    "final_x": "3667696.7346",
    "final_y": "540843.778059",
    "longitude": "-90.11134223468176",
    "latitude": "29.981544850479576",
    "geocoded_column": {
      "latitude": "29.981544850479576",
      "longitude": "-90.11134223468176"
    }
  },
  {
    "service_request": "2025-1229065",
    "request_type": "Trash/Recycling",
    "request_reason": "MIssed Recycling Pick-Up",
    "date_created": "2025-09-25T15:21:49.000",
    "date_modified": "2025-09-25T16:31:32.000",
    "request_status": "Pending",
    "responsible_agency": "Department of Sanitation",
    "final_address": "2240 Frenchmen St",
    "address_councildis": "D",
    "status": "Assigned to Contractor",
    "contractor": "IV Waste",
    "rowid": "1229065",
    "final_x": "3684203.73257",
    "final_y": "540654.539595",
    "longitude": "-90.05921219388814",
    "latitude": "29.980530135378046",
    "geocoded_column": {
      "latitude": "29.980530135378046",
      "longitude": "-90.05921219388814"
    }
  },
  {
    "service_request": "2025-1229064",
    "request_type": "Streetlights",
    "request_reason": "Streetlight Outage/Malfunction",
    "date_created": "2025-09-25T15:21:30.000",
    "date_modified": "2025-09-25T15:21:31.000",
    "request_status": "Pending",
    "responsible_agency": "Department of Public Works",
    "final_address": "7622 Mercier St",
    "address_councildis": "E",
    "status": "Pending",
    "rowid": "1229064",
    "final_x": "3711544.96888",
    "final_y": "566287.612835",
    "longitude": "-89.9718957000577",
    "latitude": "30.050146817897772",
    "geocoded_column": {
      "latitude": "30.050146817897772",
      "longitude": "-89.9718957000577"
    }
  },
  {
    "service_request": "2025-1229063",
    "request_type": "Trash/Recycling",
    "request_reason": "Repair Trash Cart",
    "date_created": "2025-09-25T15:18:30.000",
    "date_modified": "2025-09-25T15:18:32.000",
    "request_status": "Pending",
    "responsible_agency": "Department of Sanitation",
    "final_address": "2318 Octavia St",
    "address_councildis": "A",
    "status": "Assigned to Contractor",
    "contractor": "IV Waste",
    "rowid": "1229063",
    "final_x": "3667580.05274",
    "final_y": "524234.120956",
    "longitude": "-90.11226982225595",
    "latitude": "29.93587717817263",
    "geocoded_column": {
      "latitude": "29.93587717817263",
      "longitude": "-90.11226982225595"
    }
  },
  {
    "service_request": "2025-1229062",
    "request_type": "Trash/Recycling",
    "request_reason": "Request a Large Item Pick Up",
    "date_created": "2025-09-25T15:13:17.000",
    "date_modified": "2025-09-25T15:13:19.000",
    "request_status": "Pending",
    "responsible_agency": "Department of Sanitation",
    "final_address": "2524 Magazine St",
    "address_councildis": "B",
    "status": "Assigned to Contractor",
    "contractor": "IV Waste",
    "rowid": "1229062",
    "final_x": "3677664.61947",
    "final_y": "521152.921401",
    "longitude": "-90.08053898892129",
    "latitude": "29.927105537862456",
    "geocoded_column": {
      "latitude": "29.927105537862456",
      "longitude": "-90.08053898892129"
    }
  },
  {
    "service_request": "2025-1229061",
    "request_type": "Trash/Recycling",
    "request_reason": "Repair Trash Cart",
    "date_created": "2025-09-25T15:08:56.000",
    "date_modified": "2025-09-25T15:08:58.000",
    "request_status": "Pending",
    "responsible_agency": "Department of Sanitation",
    "final_address": "4583 Feliciana Dr",
    "address_councildis": "D",
    "status": "Assigned to Contractor",
    "contractor": "IV Waste",
    "rowid": "1229061",
    "final_x": "3690252.88291",
    "final_y": "550697.161428",
    "longitude": "-90.03974834055155",
    "latitude": "30.00795737191403",
    "geocoded_column": {
      "latitude": "30.00795737191403",
      "longitude": "-90.03974834055155"
    }
  },
  {
    "service_request": "2025-1229060",
    "request_type": "Trash/Recycling",
    "request_reason": "Request a Large Item Pick Up",
    "date_created": "2025-09-25T15:07:56.000",
    "date_modified": "2025-09-25T15:07:58.000",
    "request_status": "Pending",
    "responsible_agency": "Department of Sanitation",
    "final_address": "4583 Feliciana Dr",
    "address_councildis": "D",
    "status": "Assigned to Contractor",
    "contractor": "IV Waste",
    "rowid": "1229060",
    "final_x": "3690252.88291",
    "final_y": "550697.161428",
    "longitude": "-90.03974834055155",
    "latitude": "30.00795737191403",
    "geocoded_column": {
      "latitude": "30.00795737191403",
      "longitude": "-90.03974834055155"
    }
  },
  {
    "service_request": "2025-1229059",
    "request_type": "Property Maintenance",
    "request_reason": "Property Maintenance",
    "date_created": "2025-09-25T15:07:48.000",
    "date_modified": "2025-09-25T15:07:50.000",
    "request_status": "Pending",
    "responsible_agency": "Department of Code Enforcement",
    "final_address": "934 Desire St",
    "address_councildis": "C",
    "status": "Pending",
    "rowid": "1229059",
    "final_x": "3690018.37027",
    "final_y": "535188.149254",
    "longitude": "-90.04104183421296",
    "latitude": "29.96532042909405",
    "geocoded_column": {
      "latitude": "29.96532042909405",
      "longitude": "-90.04104183421296"
    }
  },
  {
    "service_request": "2025-1229058",
    "request_type": "Trash/Recycling",
    "request_reason": "Missed Trash Pick-Up",
    "date_created": "2025-09-25T15:00:09.000",
    "date_modified": "2025-09-25T16:48:58.000",
    "case_close_date": "2025-09-25T11:48:56.000",
    "request_status": "Closed",
    "responsible_agency": "Department of Sanitation",
    "final_address": "801 Carondelet St",
    "address_councildis": "B",
    "status": "Invalid Request",
    "contractor": "IV Waste",
    "contractor_action": "Invalid Request",
    "rowid": "1229058",
    "final_x": "3679948.12296",
    "final_y": "528079.049279",
    "longitude": "-90.07309009028124",
    "latitude": "29.946081251945472",
    "geocoded_column": {
      "latitude": "29.946081251945472",
      "longitude": "-90.07309009028124"
    }
  },
  {
    "service_request": "2025-1229057",
    "request_type": "Safety & Permits",
    "request_reason": "Licenses & Permits",
    "date_created": "2025-09-25T14:58:47.000",
    "date_modified": "2025-09-25T14:58:51.000",
    "request_status": "Pending",
    "responsible_agency": "Safety and Permits",
    "final_address": "7347 Martin Dr",
    "address_councildis": "E",
    "status": "Pending",
    "rowid": "1229057",
    "final_x": "3698672.05693",
    "final_y": "559253.25814",
    "longitude": "-90.01283828459121",
    "latitude": "30.031219353487483",
    "geocoded_column": {
      "latitude": "30.031219353487483",
      "longitude": "-90.01283828459121"
    }
  },
  {
    "service_request": "2025-1229056",
    "request_type": "Trash/Recycling",
    "request_reason": "Request a Large Item Pick Up",
    "date_created": "2025-09-25T14:56:47.000",
    "date_modified": "2025-09-25T14:56:49.000",
    "request_status": "Pending",
    "responsible_agency": "Department of Sanitation",
    "final_address": "6409 Bertha Dr",
    "address_councildis": "D",
    "status": "Assigned to Contractor",
    "contractor": "IV Waste",
    "rowid": "1229056",
    "final_x": "3678038.88264",
    "final_y": "556814.342298",
    "longitude": "-90.0781243474933",
    "latitude": "30.02515089887317",
    "geocoded_column": {
      "latitude": "30.02515089887317",
      "longitude": "-90.0781243474933"
    }
  },
  {
    "service_request": "2025-1229055",
    "request_type": "Trash/Recycling",
    "request_reason": "Repair Trash Cart",
    "date_created": "2025-09-25T14:56:04.000",
    "date_modified": "2025-09-25T14:56:06.000",
    "request_status": "Pending",
    "responsible_agency": "Department of Sanitation",
    "final_address": "6329 Dwyer Rd",
    "address_councildis": "D",
    "status": "Assigned to Contractor",
    "contractor": "Waste Pro",
    "rowid": "1229055",
    "final_x": "3697681.95555",
    "final_y": "555239.427225",
    "longitude": "-90.01611283359381",
    "latitude": "30.020214187951225",
    "geocoded_column": {
      "latitude": "30.020214187951225",
      "longitude": "-90.01611283359381"
    }
  },
  {
    "service_request": "2025-1229054",
    "request_type": "Trash/Recycling",
    "request_reason": "Request a Large Item Pick Up",
    "date_created": "2025-09-25T14:55:23.000",
    "date_modified": "2025-09-25T14:55:26.000",
    "request_status": "Pending",
    "responsible_agency": "Department of Sanitation",
    "final_address": "7806 Star St",
    "address_councildis": "E",
    "status": "Assigned to Contractor",
    "contractor": "Waste Pro",
    "rowid": "1229054",
    "final_x": "3720694.01465",
    "final_y": "574376.571499",
    "longitude": "-89.94266897793668",
    "latitude": "30.072085996833444",
    "geocoded_column": {
      "latitude": "30.072085996833444",
      "longitude": "-89.94266897793668"
    }
  },
  {
    "service_request": "2025-1229053",
    "request_type": "Property Maintenance",
    "request_reason": "Property Maintenance",
    "date_created": "2025-09-25T14:50:22.000",
    "date_modified": "2025-09-25T14:50:23.000",
    "request_status": "Pending",
    "responsible_agency": "Department of Code Enforcement",
    "final_address": "12400 Lincoln Beach Blvd",
    "address_councildis": "E",
    "status": "Pending",
    "rowid": "1229053",
    "final_x": "3713548.00773",
    "final_y": "569689.869094",
    "longitude": "-89.9654365171989",
    "latitude": "30.059436039507588",
    "geocoded_column": {
      "latitude": "30.059436039507588",
      "longitude": "-89.9654365171989"
    }
  },
  {
    "service_request": "2025-1229052",
    "request_type": "Trash/Recycling",
    "request_reason": "Repair Trash Cart",
    "date_created": "2025-09-25T14:38:05.000",
    "date_modified": "2025-09-25T14:38:07.000",
    "request_status": "Pending",
    "responsible_agency": "Department of Sanitation",
    "final_address": "2633 Acacia St",
    "address_councildis": "D",
    "status": "Assigned to Contractor",
    "contractor": "IV Waste",
    "rowid": "1229052",
    "final_x": "3687404.59791",
    "final_y": "546422.158417",
    "longitude": "-90.04889830320688",
    "latitude": "29.996290773196716",
    "geocoded_column": {
      "latitude": "29.996290773196716",
      "longitude": "-90.04889830320688"
    }
  },
  {
    "service_request": "2025-1229051",
    "request_type": "Streetlights",
    "request_reason": "Streetlight Outage/Malfunction",
    "date_created": "2025-09-25T14:36:49.000",
    "date_modified": "2025-09-25T14:36:51.000",
    "request_status": "Pending",
    "responsible_agency": "Department of Public Works",
    "final_address": "4013 Vendome Pl",
    "address_councildis": "B",
    "status": "Pending",
    "rowid": "1229051",
    "final_x": "3668771.36295",
    "final_y": "529921.453633",
    "longitude": "-90.10831686426158",
    "latitude": "29.951480538212987",
    "geocoded_column": {
      "latitude": "29.951480538212987",
      "longitude": "-90.10831686426158"
    }
  },
  {
    "service_request": "2025-1229050",
    "request_type": "Abandoned Vehicles",
    "request_reason": "Abandoned/Junk Vehicles",
    "date_created": "2025-09-25T14:30:20.000",
    "date_modified": "2025-09-25T14:30:22.000",
    "request_status": "Pending",
    "responsible_agency": "Department of Public Works",
    "final_address": "10200 Almonaster Ave",
    "address_councildis": "E",
    "status": "Pending",
    "rowid": "1229050",
    "final_x": "3713684.56383",
    "final_y": "551626.395989",
    "longitude": "-89.96568637555853",
    "latitude": "30.00976423388402",
    "geocoded_column": {
      "latitude": "30.00976423388402",
      "longitude": "-89.96568637555853"
    }
  },
  {
    "service_request": "2025-1229049",
    "request_type": "Abandoned Vehicles",
    "request_reason": "Abandoned/Junk Vehicles",
    "date_created": "2025-09-25T14:28:49.000",
    "date_modified": "2025-09-25T14:28:51.000",
    "request_status": "Pending",
    "responsible_agency": "Department of Public Works",
    "final_address": "4337 St Bernard Ave",
    "address_councildis": "D",
    "status": "Pending",
    "rowid": "1229049",
    "final_x": "3676923.74453",
    "final_y": "548592.974355",
    "longitude": "-90.08193172926634",
    "latitude": "30.002578631041153",
    "geocoded_column": {
      "latitude": "30.002578631041153",
      "longitude": "-90.08193172926634"
    }
  },
  {
    "service_request": "2025-1229048",
    "request_type": "Property Maintenance",
    "request_reason": "Property Maintenance",
    "date_created": "2025-09-25T14:23:31.000",
    "date_modified": "2025-09-25T14:23:32.000",
    "request_status": "Pending",
    "responsible_agency": "Department of Code Enforcement",
    "final_address": "4442 Kennon Ave",
    "address_councildis": "D",
    "status": "Pending",
    "rowid": "1229048",
    "final_x": "3677375.18024",
    "final_y": "548795.448979",
    "longitude": "-90.08049859050448",
    "latitude": "30.00312180028803",
    "geocoded_column": {
      "latitude": "30.00312180028803",
      "longitude": "-90.08049859050448"
    }
  },
  {
    "service_request": "2025-1229047",
    "request_type": "Trash/Recycling",
    "request_reason": "Missed Trash Pick-Up",
    "date_created": "2025-09-25T14:19:12.000",
    "date_modified": "2025-09-25T14:56:54.000",
    "case_close_date": "2025-09-25T09:56:52.000",
    "request_status": "Closed",
    "responsible_agency": "Department of Sanitation",
    "final_address": "2339 N Johnson St",
    "address_councildis": "D",
    "status": "Invalid Request",
    "contractor": "IV Waste",
    "contractor_action": "Invalid",
    "rowid": "1229047",
    "final_x": "3686036.86812",
    "final_y": "539811.763658",
    "longitude": "-90.0534521038891",
    "latitude": "29.978156623262326",
    "geocoded_column": {
      "latitude": "29.978156623262326",
      "longitude": "-90.0534521038891"
    }
  },
  {
    "service_request": "2025-1229046",
    "request_type": "Streetlights",
    "request_reason": "Streetlight Outage/Malfunction",
    "date_created": "2025-09-25T14:15:01.000",
    "date_modified": "2025-09-25T14:15:03.000",
    "request_status": "Pending",
    "responsible_agency": "Department of Public Works",
    "final_address": "5200 BLK N Prieur St",
    "address_councildis": "E",
    "status": "Pending",
    "rowid": "1229046",
    "final_x": "3697502.64269",
    "final_y": "537078.574909",
    "longitude": "-90.01733844032988",
    "latitude": "29.970284207353615",
    "geocoded_column": {
      "latitude": "29.970284207353615",
      "longitude": "-90.01733844032988"
    }
  },
  {
    "service_request": "2025-1229045",
    "request_type": "Trash/Recycling",
    "request_reason": "Repair Trash Cart",
    "date_created": "2025-09-25T14:14:38.000",
    "date_modified": "2025-09-25T14:14:40.000",
    "request_status": "Pending",
    "responsible_agency": "Department of Sanitation",
    "final_address": "1127 Octavia St",
    "address_councildis": "A",
    "status": "Assigned to Contractor",
    "contractor": "IV Waste",
    "rowid": "1229045",
    "final_x": "3666760.63681",
    "final_y": "520087.331512",
    "longitude": "-90.11499594181214",
    "latitude": "29.924498809034915",
    "geocoded_column": {
      "latitude": "29.924498809034915",
      "longitude": "-90.11499594181214"
    }
  },
  {
    "service_request": "2025-1229044",
    "request_type": "Trash/Recycling",
    "request_reason": "Repair Recycling Cart",
    "date_created": "2025-09-25T14:13:55.000",
    "date_modified": "2025-09-25T14:13:57.000",
    "request_status": "Pending",
    "responsible_agency": "Department of Sanitation",
    "final_address": "1127 Octavia St",
    "address_councildis": "A",
    "status": "Pending",
    "rowid": "1229044",
    "final_x": "3666760.63681",
    "final_y": "520087.331512",
    "longitude": "-90.11499594181214",
    "latitude": "29.924498809034915",
    "geocoded_column": {
      "latitude": "29.924498809034915",
      "longitude": "-90.11499594181214"
    }
  },
  {
    "service_request": "2025-1229043",
    "request_type": "Streetlights",
    "request_reason": "Streetlight Outage/Malfunction",
    "date_created": "2025-09-25T14:13:36.000",
    "date_modified": "2025-09-25T14:13:38.000",
    "request_status": "Pending",
    "responsible_agency": "Department of Public Works",
    "final_address": "1902 Egania St",
    "address_councildis": "E",
    "status": "Pending",
    "rowid": "1229043",
    "final_x": "3697611.12227",
    "final_y": "537099.47796",
    "longitude": "-90.01699509369776",
    "latitude": "29.97033825705124",
    "geocoded_column": {
      "latitude": "29.97033825705124",
      "longitude": "-90.01699509369776"
    }
  },
  {
    "service_request": "2025-1229042",
    "request_type": "Trash/Recycling",
    "request_reason": "MIssed Recycling Pick-Up",
    "date_created": "2025-09-25T14:05:04.000",
    "date_modified": "2025-09-25T14:05:06.000",
    "request_status": "Pending",
    "responsible_agency": "Department of Sanitation",
    "final_address": "4618 Francis Dr",
    "address_councildis": "D",
    "status": "Assigned to Contractor",
    "contractor": "Waste Pro",
    "rowid": "1229042",
    "final_x": "3698262.26301",
    "final_y": "553671.819991",
    "longitude": "-90.01433626980649",
    "latitude": "30.015885506616158",
    "geocoded_column": {
      "latitude": "30.015885506616158",
      "longitude": "-90.01433626980649"
    }
  },
  {
    "service_request": "2025-1229041",
    "request_type": "Trash/Recycling",
    "request_reason": "Order Recycling Cart",
    "date_created": "2025-09-25T14:03:29.000",
    "date_modified": "2025-09-25T14:03:31.000",
    "request_status": "Pending",
    "responsible_agency": "Department of Sanitation",
    "final_address": "1933 Rosary Dr",
    "address_councildis": "D",
    "status": "Pending",
    "rowid": "1229041",
    "final_x": "3681761.0246",
    "final_y": "555154.315993",
    "longitude": "-90.06642095999676",
    "latitude": "30.020473796509645",
    "geocoded_column": {
      "latitude": "30.020473796509645",
      "longitude": "-90.06642095999676"
    }
  },
  {
    "service_request": "2025-1229040",
    "request_type": "Property Maintenance",
    "request_reason": "Property Maintenance",
    "date_created": "2025-09-25T13:58:15.000",
    "date_modified": "2025-09-25T13:59:13.000",
    "request_status": "Pending",
    "responsible_agency": "Department of Code Enforcement",
    "final_address": "6321 N Villere St",
    "address_councildis": "E",
    "status": "Pending",
    "rowid": "1229040",
    "final_x": "3700717.3137",
    "final_y": "534077.369157",
    "longitude": "-90.00729591674227",
    "latitude": "29.96193006105709",
    "geocoded_column": {
      "latitude": "29.96193006105709",
      "longitude": "-90.00729591674227"
    }
  },
  {
    "service_request": "2025-1229039",
    "request_type": "Trash/Recycling",
    "request_reason": "Order Trash Cart",
    "date_created": "2025-09-25T13:58:08.000",
    "date_modified": "2025-09-25T13:58:09.000",
    "request_status": "Pending",
    "responsible_agency": "Department of Sanitation",
    "final_address": "2425 Valmont St",
    "address_councildis": "B",
    "status": "Assigned to Contractor",
    "contractor": "IV Waste",
    "rowid": "1229039",
    "final_x": "3668356.17678",
    "final_y": "524491.989948",
    "longitude": "-90.10981088287633",
    "latitude": "29.93656347042132",
    "geocoded_column": {
      "latitude": "29.93656347042132",
      "longitude": "-90.10981088287633"
    }
  },
  {
    "service_request": "2025-1229038",
    "request_type": "Trash/Recycling",
    "request_reason": "Missed Trash Pick-Up",
    "date_created": "2025-09-25T13:57:32.000",
    "date_modified": "2025-09-25T16:14:23.000",
    "case_close_date": "2025-09-25T11:14:22.000",
    "request_status": "Closed",
    "responsible_agency": "Department of Sanitation",
    "final_address": "2111 General Pershing St",
    "address_councildis": "B",
    "status": "Invalid Request",
    "contractor": "IV Waste",
    "contractor_action": "Invalid",
    "rowid": "1229038",
    "final_x": "3671103.30286",
    "final_y": "522813.378363",
    "longitude": "-90.10119505789855",
    "latitude": "29.931866886097605",
    "geocoded_column": {
      "latitude": "29.931866886097605",
      "longitude": "-90.10119505789855"
    }
  },
  {
    "service_request": "2025-1229037",
    "request_type": "Street and Traffic Signs",
    "request_reason": "Additional Signage Request",
    "date_created": "2025-09-25T13:56:44.000",
    "date_modified": "2025-09-25T13:56:45.000",
    "request_status": "Pending",
    "responsible_agency": "Department of Public Works",
    "final_address": "MILAN ST & CHESTNUT ST",
    "address_councildis": "B",
    "status": "Pending",
    "rowid": "1229037",
    "final_x": "3671734.5",
    "final_y": "519598.08",
    "longitude": "-90.09931174699572",
    "latitude": "29.923007168303876",
    "geocoded_column": {
      "latitude": "29.923007168303876",
      "longitude": "-90.09931174699572"
    }
  },
  {
    "service_request": "2025-1229036",
    "request_type": "Trash/Recycling",
    "request_reason": "Replace Trash Cart",
    "date_created": "2025-09-25T13:53:26.000",
    "date_modified": "2025-09-25T13:53:28.000",
    "request_status": "Pending",
    "responsible_agency": "Department of Sanitation",
    "final_address": "1933 Clouet St",
    "address_councildis": "D",
    "status": "Assigned to Contractor",
    "contractor": "IV Waste",
    "rowid": "1229036",
    "final_x": "3689842.71888",
    "final_y": "539246.24481",
    "longitude": "-90.04145204489593",
    "latitude": "29.976484208769886",
    "geocoded_column": {
      "latitude": "29.976484208769886",
      "longitude": "-90.04145204489593"
    }
  },
  {
    "service_request": "2025-1229035",
    "request_type": "Trash/Recycling",
    "request_reason": "Replace Trash Cart",
    "date_created": "2025-09-25T13:52:14.000",
    "date_modified": "2025-09-25T13:52:17.000",
    "request_status": "Pending",
    "responsible_agency": "Department of Sanitation",
    "final_address": "4615 Carondelet St",
    "address_councildis": "B",
    "status": "Assigned to Contractor",
    "contractor": "IV Waste",
    "rowid": "1229035",
    "final_x": "3669947.06862",
    "final_y": "521197.136697",
    "longitude": "-90.10489987598285",
    "latitude": "29.927456875091504",
    "geocoded_column": {
      "latitude": "29.927456875091504",
      "longitude": "-90.10489987598285"
    }
  },
  {
    "service_request": "2025-1229034",
    "request_type": "Property Maintenance",
    "request_reason": "Property Maintenance",
    "date_created": "2025-09-25T13:51:08.000",
    "date_modified": "2025-09-25T13:51:10.000",
    "request_status": "Pending",
    "responsible_agency": "Department of Code Enforcement",
    "final_address": "2412 Chippewa St",
    "address_councildis": "B",
    "status": "Pending",
    "rowid": "1229034",
    "final_x": "3678808.25275",
    "final_y": "520163.386808",
    "longitude": "-90.07696308365932",
    "latitude": "29.924350209180727",
    "geocoded_column": {
      "latitude": "29.924350209180727",
      "longitude": "-90.07696308365932"
    }
  },
  {
    "service_request": "2025-1229033",
    "request_type": "Trash/Recycling",
    "request_reason": "Repair Trash Cart",
    "date_created": "2025-09-25T13:49:35.000",
    "date_modified": "2025-09-25T13:49:37.000",
    "request_status": "Pending",
    "responsible_agency": "Department of Sanitation",
    "final_address": "10935 N Hardy St",
    "address_councildis": "E",
    "status": "Assigned to Contractor",
    "contractor": "Waste Pro",
    "rowid": "1229033",
    "final_x": "3712680.78834",
    "final_y": "562233.144735",
    "longitude": "-89.96845846684077",
    "latitude": "30.038961511604132",
    "geocoded_column": {
      "latitude": "30.038961511604132",
      "longitude": "-89.96845846684077"
    }
  },
  {
    "service_request": "2025-1229032",
    "request_type": "Trash/Recycling",
    "request_reason": "Illegal Dumping",
    "date_created": "2025-09-25T13:48:47.000",
    "date_modified": "2025-09-25T13:48:49.000",
    "request_status": "Pending",
    "responsible_agency": "Department of Sanitation",
    "final_address": "WRIGHT RD & I 10 W SERVICE RD",
    "address_councildis": "E",
    "status": "Pending",
    "rowid": "1229032",
    "final_x": "3712657.3",
    "final_y": "563329.08",
    "longitude": "-89.96849144171634",
    "latitude": "30.041975662492263",
    "geocoded_column": {
      "latitude": "30.041975662492263",
      "longitude": "-89.96849144171634"
    }
  },
  {
    "service_request": "2025-1229031",
    "request_type": "Property Maintenance",
    "request_reason": "Property Maintenance",
    "date_created": "2025-09-25T13:44:47.000",
    "date_modified": "2025-09-25T13:44:48.000",
    "request_status": "Pending",
    "responsible_agency": "Department of Code Enforcement",
    "final_address": "4516 S Robertson St",
    "address_councildis": "B",
    "status": "Pending",
    "rowid": "1229031",
    "final_x": "3669948.49806",
    "final_y": "524303.036476",
    "longitude": "-90.10479024132798",
    "latitude": "29.935997061313838",
    "geocoded_column": {
      "latitude": "29.935997061313838",
      "longitude": "-90.10479024132798"
    }
  },
  {
    "service_request": "2025-1229030",
    "request_type": "Trash/Recycling",
    "request_reason": "Request a Large Item Pick Up",
    "date_created": "2025-09-25T13:44:14.000",
    "date_modified": "2025-09-25T13:44:16.000",
    "request_status": "Pending",
    "responsible_agency": "Department of Sanitation",
    "final_address": "5710 Royal St",
    "address_councildis": "E",
    "status": "Assigned to Contractor",
    "contractor": "Waste Pro",
    "rowid": "1229030",
    "final_x": "3698053.02602",
    "final_y": "532115.197315",
    "longitude": "-90.01578051890543",
    "latitude": "29.956619295011468",
    "geocoded_column": {
      "latitude": "29.956619295011468",
      "longitude": "-90.01578051890543"
    }
  },
  {
    "service_request": "2025-1229029",
    "request_type": "Trash/Recycling",
    "request_reason": "Request a Large Item Pick Up",
    "date_created": "2025-09-25T13:37:06.000",
    "date_modified": "2025-09-25T13:37:09.000",
    "request_status": "Pending",
    "responsible_agency": "Department of Sanitation",
    "final_address": "3219 Martin Luther King, Jr. Blvd",
    "address_councildis": "B",
    "status": "Assigned to Contractor",
    "contractor": "IV Waste",
    "rowid": "1229029",
    "final_x": "3674315.8372",
    "final_y": "528701.025984",
    "longitude": "-90.09085187488368",
    "latitude": "29.947960612418697",
    "geocoded_column": {
      "latitude": "29.947960612418697",
      "longitude": "-90.09085187488368"
    }
  },
  {
    "service_request": "2025-1229028",
    "request_type": "Trash/Recycling",
    "request_reason": "Request a Large Item Pick Up",
    "date_created": "2025-09-25T13:35:28.000",
    "date_modified": "2025-09-25T13:35:29.000",
    "request_status": "Pending",
    "responsible_agency": "Department of Sanitation",
    "final_address": "6943 W Laverne St",
    "address_councildis": "D",
    "status": "Assigned to Contractor",
    "contractor": "Waste Pro",
    "rowid": "1229028",
    "final_x": "3696010.48099",
    "final_y": "556442.892314",
    "longitude": "-90.02135060664318",
    "latitude": "30.02357598859011",
    "geocoded_column": {
      "latitude": "30.02357598859011",
      "longitude": "-90.02135060664318"
    }
  },
  {
    "service_request": "2025-1229027",
    "request_type": "Trash/Recycling",
    "request_reason": "Request a Large Item Pick Up",
    "date_created": "2025-09-25T13:33:12.000",
    "date_modified": "2025-09-25T13:33:15.000",
    "request_status": "Pending",
    "responsible_agency": "Department of Sanitation",
    "final_address": "438 Eighth St",
    "address_councildis": "B",
    "status": "Assigned to Contractor",
    "contractor": "IV Waste",
    "rowid": "1229027",
    "final_x": "3677111.56936",
    "final_y": "518640.134839",
    "longitude": "-90.08237142583228",
    "latitude": "29.920212803041746",
    "geocoded_column": {
      "latitude": "29.920212803041746",
      "longitude": "-90.08237142583228"
    }
  },
  {
    "service_request": "2025-1229026",
    "request_type": "Trash/Recycling",
    "request_reason": "Request a Large Item Pick Up",
    "date_created": "2025-09-25T13:32:07.000",
    "date_modified": "2025-09-25T13:32:09.000",
    "request_status": "Pending",
    "responsible_agency": "Department of Sanitation",
    "final_address": "3118 N Prieur St",
    "address_councildis": "D",
    "status": "Assigned to Contractor",
    "contractor": "IV Waste",
    "rowid": "1229026",
    "final_x": "3689930.38153",
    "final_y": "538920.942218",
    "longitude": "-90.04118676636527",
    "latitude": "29.975587023960415",
    "geocoded_column": {
      "latitude": "29.975587023960415",
      "longitude": "-90.04118676636527"
    }
  },
  {
    "service_request": "2025-1229025",
    "request_type": "Trash/Recycling",
    "request_reason": "Request a Large Item Pick Up",
    "date_created": "2025-09-25T13:26:56.000",
    "date_modified": "2025-09-25T13:27:01.000",
    "request_status": "Pending",
    "responsible_agency": "Department of Sanitation",
    "final_address": "1925 St Claude Ave",
    "address_councildis": "C",
    "status": "Assigned to Contractor",
    "contractor": "IV Waste",
    "rowid": "1229025",
    "final_x": "3684089.76207",
    "final_y": "536253.110215",
    "longitude": "-90.05972667845357",
    "latitude": "29.968431223453315",
    "geocoded_column": {
      "latitude": "29.968431223453315",
      "longitude": "-90.05972667845357"
    }
  },
  {
    "service_request": "2025-1229024",
    "request_type": "Trash/Recycling",
    "request_reason": "Request a Large Item Pick Up",
    "date_created": "2025-09-25T13:19:11.000",
    "date_modified": "2025-09-25T13:19:13.000",
    "request_status": "Pending",
    "responsible_agency": "Department of Sanitation",
    "final_address": "2308 Third St",
    "address_councildis": "B",
    "status": "Assigned to Contractor",
    "contractor": "IV Waste",
    "rowid": "1229024",
    "final_x": "3674982.28558",
    "final_y": "525009.310525",
    "longitude": "-90.08887422152522",
    "latitude": "29.937789721634402",
    "geocoded_column": {
      "latitude": "29.937789721634402",
      "longitude": "-90.08887422152522"
    }
  },
  {
    "service_request": "2025-1229023",
    "request_type": "Trash/Recycling",
    "request_reason": "Order Second Trash Cart",
    "date_created": "2025-09-25T13:10:09.000",
    "date_modified": "2025-09-25T13:10:12.000",
    "request_status": "Pending",
    "responsible_agency": "Department of Sanitation",
    "final_address": "3325 Coliseum St",
    "address_councildis": "B",
    "status": "Assigned to Contractor",
    "contractor": "IV Waste",
    "rowid": "1229023",
    "final_x": "3674782.99259",
    "final_y": "520710.618745",
    "longitude": "-90.08965070783545",
    "latitude": "29.925975665064108",
    "geocoded_column": {
      "latitude": "29.925975665064108",
      "longitude": "-90.08965070783545"
    }
  },
  {
    "service_request": "2025-1229022",
    "request_type": "Trash/Recycling",
    "request_reason": "Order Recycling Cart",
    "date_created": "2025-09-25T13:08:41.000",
    "date_modified": "2025-09-25T13:08:43.000",
    "request_status": "Pending",
    "responsible_agency": "Department of Sanitation",
    "final_address": "3325 Coliseum St",
    "address_councildis": "B",
    "status": "Pending",
    "rowid": "1229022",
    "final_x": "3674782.99259",
    "final_y": "520710.618745",
    "longitude": "-90.08965070783545",
    "latitude": "29.925975665064108",
    "geocoded_column": {
      "latitude": "29.925975665064108",
      "longitude": "-90.08965070783545"
    }
  },
  {
    "service_request": "2025-1229021",
    "request_type": "Abandoned Vehicles",
    "request_reason": "Abandoned/Junk Vehicles",
    "date_created": "2025-09-25T13:00:18.000",
    "date_modified": "2025-09-25T13:13:45.000",
    "request_status": "Pending",
    "responsible_agency": "Department of Public Works",
    "final_address": "5700 BLK Clara St",
    "address_councildis": "A",
    "status": "Inspected",
    "rowid": "1229021",
    "final_x": "3667310.2595",
    "final_y": "525155.717521",
    "longitude": "-90.11309058350348",
    "latitude": "29.938419176010118",
    "geocoded_column": {
      "latitude": "29.938419176010118",
      "longitude": "-90.11309058350348"
    }
  },
  {
    "service_request": "2025-1229019",
    "request_type": "Trash/Recycling",
    "request_reason": "Order Recycling Cart",
    "date_created": "2025-09-25T12:58:28.000",
    "date_modified": "2025-09-25T12:58:29.000",
    "request_status": "Pending",
    "responsible_agency": "Department of Sanitation",
    "final_address": "2234 Cambronne St",
    "address_councildis": "A",
    "status": "Pending",
    "rowid": "1229019",
    "final_x": "3663708.40109",
    "final_y": "531958.816387",
    "longitude": "-90.12423542339685",
    "latitude": "29.95723048847513",
    "geocoded_column": {
      "latitude": "29.95723048847513",
      "longitude": "-90.12423542339685"
    }
  },
  {
    "service_request": "2025-1229018",
    "request_type": "Trash/Recycling",
    "request_reason": "Request a Large Item Pick Up",
    "date_created": "2025-09-25T12:58:04.000",
    "date_modified": "2025-09-25T12:58:06.000",
    "request_status": "Pending",
    "responsible_agency": "Department of Sanitation",
    "final_address": "7843 Sail St",
    "address_councildis": "E",
    "status": "Assigned to Contractor",
    "contractor": "Waste Pro",
    "rowid": "1229018",
    "final_x": "3720021.1271",
    "final_y": "574156.188266",
    "longitude": "-89.94480461470215",
    "latitude": "30.071502473894096",
    "geocoded_column": {
      "latitude": "30.071502473894096",
      "longitude": "-89.94480461470215"
    }
  },
  {
    "service_request": "2025-1229017",
    "request_type": "Trash/Recycling",
    "request_reason": "Order Recycling Cart",
    "date_created": "2025-09-25T12:56:54.000",
    "date_modified": "2025-09-25T12:56:55.000",
    "request_status": "Pending",
    "responsible_agency": "Department of Sanitation",
    "final_address": "2236 Cambronne St",
    "address_councildis": "A",
    "status": "Pending",
    "rowid": "1229017",
    "final_x": "3663725.32442",
    "final_y": "531978.411971",
    "longitude": "-90.12418133148161",
    "latitude": "29.957283878923032",
    "geocoded_column": {
      "latitude": "29.957283878923032",
      "longitude": "-90.12418133148161"
    }
  },
  {
    "service_request": "2025-1229016",
    "request_type": "Trash/Recycling",
    "request_reason": "Request a Large Item Pick Up",
    "date_created": "2025-09-25T12:55:43.000",
    "date_modified": "2025-09-25T12:55:44.000",
    "request_status": "Pending",
    "responsible_agency": "Department of Sanitation",
    "final_address": "3821 Cleveland Ave",
    "address_councildis": "A",
    "status": "Assigned to Contractor",
    "contractor": "IV Waste",
    "rowid": "1229016",
    "final_x": "3671672.4946",
    "final_y": "537420.227016",
    "longitude": "-90.09890140196076",
    "latitude": "29.97201406274497",
    "geocoded_column": {
      "latitude": "29.97201406274497",
      "longitude": "-90.09890140196076"
    }
  },
  {
    "service_request": "2025-1229015",
    "request_type": "Trash/Recycling",
    "request_reason": "Repair Trash Cart",
    "date_created": "2025-09-25T12:54:03.000",
    "date_modified": "2025-09-25T12:54:05.000",
    "request_status": "Pending",
    "responsible_agency": "Department of Sanitation",
    "final_address": "1625 Charlton Dr",
    "address_councildis": "D",
    "status": "Assigned to Contractor",
    "contractor": "IV Waste",
    "rowid": "1229015",
    "final_x": "3680419.4708",
    "final_y": "550883.597653",
    "longitude": "-90.07080854560083",
    "latitude": "30.008771585709134",
    "geocoded_column": {
      "latitude": "30.008771585709134",
      "longitude": "-90.07080854560083"
    }
  },
  {
    "service_request": "2025-1229014",
    "request_type": "Trash/Recycling",
    "request_reason": "Change Size of Trash Cart",
    "date_created": "2025-09-25T12:52:53.000",
    "date_modified": "2025-09-25T13:41:09.000",
    "request_status": "Pending",
    "responsible_agency": "Department of Sanitation",
    "final_address": "4000 BLK Saint Bernard Ave",
    "address_councildis": "D",
    "status": "Assigned to Contractor",
    "contractor": "Sanitation Dept. ",
    "rowid": "1229014",
    "final_x": "3677437.29141",
    "final_y": "546998.029479",
    "longitude": "-90.08036446403696",
    "latitude": "29.998177665242892",
    "geocoded_column": {
      "latitude": "29.998177665242892",
      "longitude": "-90.08036446403696"
    }
  },
  {
    "service_request": "2025-1229013",
    "request_type": "Trash/Recycling",
    "request_reason": "Request a Large Item Pick Up",
    "date_created": "2025-09-25T12:50:24.000",
    "date_modified": "2025-09-25T12:50:25.000",
    "request_status": "Pending",
    "responsible_agency": "Department of Sanitation",
    "final_address": "85 Fontainebleau Dr",
    "address_councildis": "A",
    "status": "Assigned to Contractor",
    "contractor": "IV Waste",
    "rowid": "1229013",
    "final_x": "3666954.32385",
    "final_y": "530824.753218",
    "longitude": "-90.11402385891815",
    "latitude": "29.954017607303598",
    "geocoded_column": {
      "latitude": "29.954017607303598",
      "longitude": "-90.11402385891815"
    }
  },
  {
    "service_request": "2025-1229012",
    "request_type": "Property Maintenance",
    "request_reason": "Property Maintenance",
    "date_created": "2025-09-25T12:47:17.000",
    "date_modified": "2025-09-25T13:32:27.000",
    "request_status": "Pending",
    "responsible_agency": "Department of Code Enforcement",
    "final_address": "1408 Tupelo St",
    "address_councildis": "E",
    "status": "Pending",
    "rowid": "1229012",
    "final_x": "3699864.9217",
    "final_y": "534484.246021",
    "longitude": "-90.00997278094418",
    "latitude": "29.96307592314959",
    "geocoded_column": {
      "latitude": "29.96307592314959",
      "longitude": "-90.00997278094418"
    }
  },
  {
    "service_request": "2025-1229011",
    "request_type": "Property Maintenance",
    "request_reason": "Property Maintenance",
    "date_created": "2025-09-25T12:42:44.000",
    "date_modified": "2025-09-25T12:42:46.000",
    "request_status": "Pending",
    "responsible_agency": "Department of Code Enforcement",
    "final_address": "1408 Tupelo St",
    "address_councildis": "E",
    "status": "Pending",
    "rowid": "1229011",
    "final_x": "3699864.9217",
    "final_y": "534484.246021",
    "longitude": "-90.00997278094418",
    "latitude": "29.96307592314959",
    "geocoded_column": {
      "latitude": "29.96307592314959",
      "longitude": "-90.00997278094418"
    }
  },
  {
    "service_request": "2025-1229010",
    "request_type": "Trash/Recycling",
    "request_reason": "Request a Large Item Pick Up",
    "date_created": "2025-09-25T12:38:03.000",
    "date_modified": "2025-09-25T12:38:05.000",
    "request_status": "Pending",
    "responsible_agency": "Department of Sanitation",
    "final_address": "1210 N Galvez St",
    "address_councildis": "D",
    "status": "Assigned to Contractor",
    "contractor": "IV Waste",
    "rowid": "1229010",
    "final_x": "3679571.14485",
    "final_y": "537208.9634",
    "longitude": "-90.07396351542292",
    "latitude": "29.9711968186182",
    "geocoded_column": {
      "latitude": "29.9711968186182",
      "longitude": "-90.07396351542292"
    }
  },
  {
    "service_request": "2025-1229009",
    "request_type": "Traffic Safety",
    "request_reason": "Request for Traffic Calming due to Speeding",
    "date_created": "2025-09-25T12:36:59.000",
    "date_modified": "2025-09-25T12:37:00.000",
    "request_status": "Pending",
    "responsible_agency": "Department of Public Works",
    "final_address": "800 BLK Olga St",
    "address_councildis": "A",
    "status": "Pending",
    "rowid": "1229009",
    "final_x": "3673332.28749",
    "final_y": "540071.039724",
    "longitude": "-90.09356891757686",
    "latitude": "29.979253624293346",
    "geocoded_column": {
      "latitude": "29.979253624293346",
      "longitude": "-90.09356891757686"
    }
  },
  {
    "service_request": "2025-1229008",
    "request_type": "Healthy Homes",
    "request_reason": "Healthy Homes",
    "date_created": "2025-09-25T12:35:32.000",
    "date_modified": "2025-09-25T12:35:33.000",
    "request_status": "Pending",
    "responsible_agency": "Department of Code Enforcement",
    "final_address": "8200 Palmetto St",
    "address_councildis": "A",
    "status": "Pending",
    "rowid": "1229008",
    "final_x": "3667690.19386",
    "final_y": "535456.130566",
    "longitude": "-90.11154433957769",
    "latitude": "29.96673081663645",
    "geocoded_column": {
      "latitude": "29.96673081663645",
      "longitude": "-90.11154433957769"
    }
  },
  {
    "service_request": "2025-1229007",
    "request_type": "Trash/Recycling",
    "request_reason": "Order Trash Cart",
    "date_created": "2025-09-25T12:31:29.000",
    "date_modified": "2025-09-25T12:31:31.000",
    "request_status": "Pending",
    "responsible_agency": "Department of Sanitation",
    "final_address": "5002 Burgundy St",
    "address_councildis": "E",
    "status": "Assigned to Contractor",
    "contractor": "Waste Pro",
    "rowid": "1229007",
    "final_x": "3695782.54294",
    "final_y": "533444.600004",
    "longitude": "-90.02290192287434",
    "latitude": "29.960346274762294",
    "geocoded_column": {
      "latitude": "29.960346274762294",
      "longitude": "-90.02290192287434"
    }
  },
  {
    "service_request": "2025-1229006",
    "request_type": "Street and Traffic Signs",
    "request_reason": "Traffic or Parking Sign Damaged or Missing",
    "date_created": "2025-09-25T12:31:28.000",
    "date_modified": "2025-09-25T12:31:31.000",
    "request_status": "Pending",
    "responsible_agency": "Department of Public Works",
    "final_address": "1426 Napoleon Ave",
    "address_councildis": "B",
    "status": "Pending",
    "rowid": "1229006",
    "final_x": "3670766.48654",
    "final_y": "520481.776056",
    "longitude": "-90.10233742991778",
    "latitude": "29.9254656810085",
    "geocoded_column": {
      "latitude": "29.9254656810085",
      "longitude": "-90.10233742991778"
    }
  },
  {
    "service_request": "2025-1229005",
    "request_type": "Trash/Recycling",
    "request_reason": "Missed Trash Pick-Up",
    "date_created": "2025-09-25T12:30:00.000",
    "date_modified": "2025-09-25T12:49:20.000",
    "case_close_date": "2025-09-25T07:49:19.000",
    "request_status": "Closed",
    "responsible_agency": "Department of Sanitation",
    "final_address": "5002 Burgundy St",
    "address_councildis": "E",
    "status": "Assigned to Contractor",
    "contractor": "Waste Pro",
    "contractor_action": "Invalid Pick-Up",
    "rowid": "1229005",
    "final_x": "3695782.54294",
    "final_y": "533444.600004",
    "longitude": "-90.02290192287434",
    "latitude": "29.960346274762294",
    "geocoded_column": {
      "latitude": "29.960346274762294",
      "longitude": "-90.02290192287434"
    }
  },
  {
    "service_request": "2025-1229004",
    "request_type": "Trash/Recycling",
    "request_reason": "Missed Trash Pick-Up",
    "date_created": "2025-09-25T12:29:29.000",
    "date_modified": "2025-09-25T13:02:34.000",
    "case_close_date": "2025-09-25T08:02:33.000",
    "request_status": "Closed",
    "responsible_agency": "Department of Sanitation",
    "final_address": "1523 Tupelo St",
    "address_councildis": "E",
    "status": "Assigned to Contractor",
    "contractor": "Waste Pro",
    "contractor_action": "Invalid Pick-Up",
    "rowid": "1229004",
    "final_x": "3700165.82557",
    "final_y": "534885.41159",
    "longitude": "-90.00900792727796",
    "latitude": "29.964169425691715",
    "geocoded_column": {
      "latitude": "29.964169425691715",
      "longitude": "-90.00900792727796"
    }
  },
  {
    "service_request": "2025-1229003",
    "request_type": "Trash/Recycling",
    "request_reason": "Request a Large Item Pick Up",
    "date_created": "2025-09-25T12:28:54.000",
    "date_modified": "2025-09-25T12:28:56.000",
    "request_status": "Pending",
    "responsible_agency": "Department of Sanitation",
    "final_address": "1433 St Mary St",
    "address_councildis": "B",
    "status": "Assigned to Contractor",
    "contractor": "IV Waste",
    "rowid": "1229003",
    "final_x": "3678922.87278",
    "final_y": "523768.787643",
    "longitude": "-90.0764764310626",
    "latitude": "29.93426042564486",
    "geocoded_column": {
      "latitude": "29.93426042564486",
      "longitude": "-90.0764764310626"
    }
  },
  {
    "service_request": "2025-1229002",
    "request_type": "Street and Traffic Signs",
    "request_reason": "Traffic or Parking Sign Damaged or Missing",
    "date_created": "2025-09-25T12:28:26.000",
    "date_modified": "2025-09-25T12:28:28.000",
    "request_status": "Pending",
    "responsible_agency": "Department of Public Works",
    "final_address": "1426 Napoleon Ave",
    "address_councildis": "B",
    "status": "Pending",
    "rowid": "1229002",
    "final_x": "3670766.48654",
    "final_y": "520481.776056",
    "longitude": "-90.10233742991778",
    "latitude": "29.9254656810085",
    "geocoded_column": {
      "latitude": "29.9254656810085",
      "longitude": "-90.10233742991778"
    }
  },