[
  {
    "service_request": "2022-900615",
    "request_type": "Roads/Drainage",
    "request_reason": "Debris in Roadway",
    "date_created": "2022-07-16T01:45:48.000",
    "date_modified": "2022-07-16T01:45:48.000",
    "request_status": "Pending",
    "responsible_agency": "Department of Public Works",
    "final_address": "8941 Morrison Rd",
    "address_councildis": "E",
    "status": "Pending",
    "rowid": "900615",
    "final_x": "3705851.86212",
    "final_y": "562095.004831",
    "longitude": "-89.99004474470532",
    "latitude": "30.038803575943405",
    "geocoded_column": {
      "latitude": "30.038803575943405",
      "longitude": "-89.99004474470532"
    }
  },
  {
    "service_request": "2022-900614",
    "request_type": "Trash/Recycling",
    "request_reason": "Replace Trash Cart",
    "date_created": "2022-07-15T23:55:24.000",
    "date_modified": "2022-07-15T23:55:25.000",
    "request_status": "Pending",
    "responsible_agency": "Department of Sanitation",
    "final_address": "3527 Palmyra St",
    "address_councildis": "B",
    "status": "Assigned to Contractor",
    "contractor": "Richards Disposal",
    "rowid": "900614",
    "final_x": "3672197.72257",
    "final_y": "536557.345223",
    "longitude": "-90.09727204004068",
    "latitude": "29.96962585989111",
    "geocoded_column": {
      "latitude": "29.96962585989111",
      "longitude": "-90.09727204004068"
    }
  },
  {
    "service_request": "2022-900613",
    "request_type": "Health Related Questions",
    "request_reason": "Noise Ordinance Complaint",
    "date_created": "2022-07-15T23:47:58.000",
    "date_modified": "2022-07-15T23:47:58.000",
    "request_status": "Pending",
    "responsible_agency": "Health Department",
    "final_address": "Dickory Ave, New Orleans, Louisiana, 70123",
    "status": "Pending",
    "rowid": "900613",
    "longitude": "0.0",
    "latitude": "0.0",
    "geocoded_column": {
      "latitude": "0.0",
      "longitude": "0.0"
    }
  },
  {
    "service_request": "2022-900612",
    "request_type": "Health Related Questions",
    "request_reason": "Noise Ordinance Complaint",
    "date_created": "2022-07-15T23:38:23.000",
    "date_modified": "2022-07-15T23:38:23.000",
    "request_status": "Pending",
    "responsible_agency": "Health Department",
    "final_address": "5723 Eads St. New Orleans, LA 70122",
    "address_councildis": "D",
    "status": "Pending",
    "rowid": "900612",
    "final_x": "3686889.31714",
    "final_y": "554345.936536",
    "longitude": "-90.05024574799342",
    "latitude": "30.01809414620427",
    "geocoded_column": {
      "latitude": "30.01809414620427",
      "longitude": "-90.05024574799342"
    }
  },
  {
    "service_request": "2022-900611",
    "request_type": "Traffic Signals/Signs/Striping/Streetlights",
    "request_reason": "Street Light Outage/Malfunction",
    "date_created": "2022-07-15T23:23:58.000",
    "date_modified": "2022-07-15T23:23:59.000",
    "request_status": "Pending",
    "responsible_agency": "Department of Public Works",
    "final_address": "5379 Pratt Dr",
    "address_councildis": "D",
    "status": "Pending",
    "contractor": "Royal Engineering",
    "rowid": "900611",
    "final_x": "3680489.99112",
    "final_y": "552277.243606",
    "longitude": "-90.07053722503704",
    "latitude": "30.0126014727302",
    "geocoded_column": {
      "latitude": "30.0126014727302",
      "longitude": "-90.07053722503704"
    }
  },
  {
    "service_request": "2022-900610",
    "request_type": "Trash/Recycling",
    "request_reason": "Missed Trash Pick-Up",
    "date_created": "2022-07-15T23:20:19.000",
    "date_modified": "2022-07-15T23:20:20.000",
    "request_status": "Pending",
    "responsible_agency": "Department of Sanitation",
    "final_address": "5379 Pratt Dr",
    "address_councildis": "D",
    "status": "Assigned to Contractor",
    "contractor": "Metro Disposal",
    "rowid": "900610",
    "final_x": "3680489.99112",
    "final_y": "552277.243606",
    "longitude": "-90.07053722503704",
    "latitude": "30.0126014727302",
    "geocoded_column": {
      "latitude": "30.0126014727302",
      "longitude": "-90.07053722503704"
    }
  },
  {
    "service_request": "2022-900609",
    "request_type": "Property Maintenance",
    "request_reason": "Property Maintenance",
    "date_created": "2022-07-15T23:17:23.000",
    "date_modified": "2022-07-15T23:17:23.000",
    "request_status": "Pending",
    "responsible_agency": "Department of Code Enforcement",
    "final_address": "1202 Behrman Ave",
    "address_councildis": "C",
    "status": "Pending",
    "rowid": "900609",
    "final_x": "3691450.7656",
    "final_y": "526963.908798",
    "longitude": "-90.0368122876555",
    "latitude": "29.942662123558023",
    "geocoded_column": {
      "latitude": "29.942662123558023",
      "longitude": "-90.0368122876555"
    }
  },
  {
    "service_request": "2022-900608",
    "request_type": "Roads/Drainage",
    "request_reason": "Street Flooding / Drainage",
    "date_created": "2022-07-15T22:27:14.000",
    "date_modified": "2022-07-15T22:27:14.000",
    "request_status": "Pending",
    "responsible_agency": "Department of Public Works",
    "final_address": "1500 Ursulines Ave",
    "address_councildis": "C",
    "status": "Pending",
    "rowid": "900608",
    "final_x": "3681159.40335",
    "final_y": "535358.626246",
    "longitude": "-90.06901205928978",
    "latitude": "29.96606093355777",
    "geocoded_column": {
      "latitude": "29.96606093355777",
      "longitude": "-90.06901205928978"
    }
  },
  {
    "service_request": "2022-900607",
    "request_type": "Abandoned Vehicles",
    "request_reason": "Vehicle Blocking Your Driveway",
    "date_created": "2022-07-15T21:42:20.000",
    "date_modified": "2022-07-15T21:42:20.000",
    "request_status": "Pending",
    "responsible_agency": "Department of Public Works",
    "final_address": "4027 Tchoupitoulas St",
    "address_councildis": "B",
    "status": "Pending",
    "rowid": "900607",
    "final_x": "3672429.29422",
    "final_y": "517626.287798",
    "longitude": "-90.09718569391603",
    "latitude": "29.917564774854082",
    "geocoded_column": {
      "latitude": "29.917564774854082",
      "longitude": "-90.09718569391603"
    }
  },
  {
    "service_request": "2022-900606",
    "request_type": "Traffic Signals/Signs/Striping/Streetlights",
    "request_reason": "Street Light Outage/Malfunction",
    "date_created": "2022-07-15T21:33:30.000",
    "date_modified": "2022-07-15T21:33:31.000",
    "request_status": "Pending",
    "responsible_agency": "Department of Public Works",
    "final_address": "2200 BLK Magic St",
    "address_councildis": "D",
    "status": "Pending",
    "contractor": "Royal Engineering",
    "rowid": "900606",
    "final_x": "3678073.39152",
    "final_y": "535625.479062",
    "longitude": "-90.07874838155675",
    "latitude": "29.96688795592884",
    "geocoded_column": {
      "latitude": "29.96688795592884",
      "longitude": "-90.07874838155675"
    }
  },
  {
    "service_request": "2022-900605",
    "request_type": "Trash/Recycling",
    "request_reason": "Illegal Dumping",
    "date_created": "2022-07-15T21:25:39.000",
    "date_modified": "2022-07-15T21:26:09.000",
    "request_status": "Pending",
    "responsible_agency": "Department of Sanitation",
    "final_address": "S GAYOSO ST & PALMYRA ST",
    "address_councildis": "B",
    "status": "Pending",
    "rowid": "900605",
    "final_x": "3673862.1",
    "final_y": "535229.98",
    "longitude": "-90.09206119338869",
    "latitude": "29.965926580448027",
    "geocoded_column": {
      "latitude": "29.965926580448027",
      "longitude": "-90.09206119338869"
    }
  },
  {
    "service_request": "2022-900604",
    "request_type": "Traffic Signals/Signs/Striping/Streetlights",
    "request_reason": "Street Light Outage/Malfunction",
    "date_created": "2022-07-15T21:23:10.000",
    "date_modified": "2022-07-15T21:23:11.000",
    "request_status": "Pending",
    "responsible_agency": "Department of Public Works",
    "final_address": "201 S Gayoso St",
    "address_councildis": "B",
    "status": "Pending",
    "contractor": "Royal Engineering",
    "rowid": "900604",
    "final_x": "3674008.52878",
    "final_y": "535506.597702",
    "longitude": "-90.09158930832939",
    "latitude": "29.96668282345407",
    "geocoded_column": {
      "latitude": "29.96668282345407",
      "longitude": "-90.09158930832939"
    }
  },
  {
    "service_request": "2022-900603",
    "request_type": "Property Maintenance",
    "request_reason": "Property Maintenance",
    "date_created": "2022-07-15T21:08:39.000",
    "date_modified": "2022-07-15T21:08:39.000",
    "request_status": "Pending",
    "responsible_agency": "Department of Code Enforcement",
    "final_address": "4751 Evangeline Dr",
    "address_councildis": "E",
    "status": "Pending",
    "rowid": "900603",
    "final_x": "3709166.68203",
    "final_y": "555862.183513",
    "longitude": "-89.9798017671515",
    "latitude": "30.021558505754737",
    "geocoded_column": {
      "latitude": "30.021558505754737",
      "longitude": "-89.9798017671515"
    }
  },
  {
    "service_request": "2022-900602",
    "request_type": "Trash/Recycling",
    "request_reason": "Missed Trash Pick-Up",
    "date_created": "2022-07-15T20:45:51.000",
    "date_modified": "2022-07-15T20:45:52.000",
    "request_status": "Pending",
    "responsible_agency": "Department of Sanitation",
    "final_address": "9TH ST & CONSTANCE ST",
    "address_councildis": "B",
    "status": "Assigned to Contractor",
    "contractor": "Richards Disposal",
    "rowid": "900602",
    "final_x": "3676064.6",
    "final_y": "519732.38",
    "longitude": "-90.08563867110117",
    "latitude": "29.923247513251106",
    "geocoded_column": {
      "latitude": "29.923247513251106",
      "longitude": "-90.08563867110117"
    }
  },
  {
    "service_request": "2022-900601",
    "request_type": "Trash/Recycling",
    "request_reason": "MIssed Recycling Pick-Up",
    "date_created": "2022-07-15T20:42:27.000",
    "date_modified": "2022-07-15T20:42:28.000",
    "request_status": "Pending",
    "responsible_agency": "Department of Sanitation",
    "final_address": "7432 Hurst St",
    "address_councildis": "A",
    "status": "Assigned to Contractor",
    "contractor": "Richards Disposal",
    "rowid": "900601",
    "final_x": "3661462.61306",
    "final_y": "524033.978172",
    "longitude": "-90.13158942548503",
    "latitude": "29.935504683472388",
    "geocoded_column": {
      "latitude": "29.935504683472388",
      "longitude": "-90.13158942548503"
    }
  },
  {
    "service_request": "2022-900600",
    "request_type": "Traffic Signals/Signs/Striping/Streetlights",
    "request_reason": "Traffic Sign Missing/Damaged",
    "date_created": "2022-07-15T20:39:36.000",
    "date_modified": "2022-07-15T20:39:36.000",
    "request_status": "Pending",
    "responsible_agency": "Department of Public Works",
    "final_address": "3900 Dublin St",
    "address_councildis": "A",
    "status": "Pending",
    "rowid": "900600",
    "final_x": "3667971.22266",
    "final_y": "535895.698247",
    "longitude": "-90.11064203636731",
    "latitude": "29.967931239067607",
    "geocoded_column": {
      "latitude": "29.967931239067607",
      "longitude": "-90.11064203636731"
    }
  },
  {
    "service_request": "2022-900599",
    "request_type": "Trash/Recycling",
    "request_reason": "Missed Trash Pick-Up",
    "date_created": "2022-07-15T20:32:55.000",
    "date_modified": "2022-07-15T20:32:55.000",
    "request_status": "Pending",
    "responsible_agency": "Department of Sanitation",
    "final_address": "4520 Jeanne Marie Pl",
    "address_councildis": "D",
    "status": "Assigned to Contractor",
    "contractor": "Metro Disposal",
    "rowid": "900599",
    "final_x": "3678406.29614",
    "final_y": "549245.198675",
    "longitude": "-90.07722556687507",
    "latitude": "30.004327412138554",
    "geocoded_column": {
      "latitude": "30.004327412138554",
      "longitude": "-90.07722556687507"
    }
  },
  {
    "service_request": "2022-900598",
    "request_type": "Trash/Recycling",
    "request_reason": "Request a Large Item Pick Up",
    "date_created": "2022-07-15T20:26:20.000",
    "date_modified": "2022-07-15T20:26:20.000",
    "request_status": "Pending",
    "responsible_agency": "Department of Sanitation",
    "final_address": "2127 Laurel St",
    "address_councildis": "B",
    "status": "Assigned to Contractor",
    "contractor": "Richards Disposal",
    "rowid": "900598",
    "final_x": "3679406.45365",
    "final_y": "521610.598073",
    "longitude": "-90.07502460262818",
    "latitude": "29.928311518837596",
    "geocoded_column": {
      "latitude": "29.928311518837596",
      "longitude": "-90.07502460262818"
    }
  },
  {
    "service_request": "2022-900597",
    "request_type": "Traffic Signals/Signs/Striping/Streetlights",
    "request_reason": "Traffic Sign Missing/Damaged",
    "date_created": "2022-07-15T20:25:18.000",
    "date_modified": "2022-07-15T20:25:18.000",
    "request_status": "Pending",
    "responsible_agency": "Department of Public Works",
    "final_address": "7901 Earhart Blvd HM",
    "address_councildis": "B",
    "status": "Pending",
    "rowid": "900597",
    "final_x": "3667229.32244",
    "final_y": "533119.446596",
    "longitude": "-90.1130783594016",
    "latitude": "29.96031921220578",
    "geocoded_column": {
      "latitude": "29.96031921220578",
      "longitude": "-90.1130783594016"
    }
  },
  {
    "service_request": "2022-900596",
    "request_type": "Trash/Recycling",
    "request_reason": "MIssed Recycling Pick-Up",
    "date_created": "2022-07-15T20:09:54.000",
    "date_modified": "2022-07-15T20:09:54.000",
    "request_status": "Pending",
    "responsible_agency": "Department of Sanitation",
    "final_address": "3108 College Ct",
    "address_councildis": "B",
    "status": "Assigned to Contractor",
    "contractor": "Richards Disposal",
    "rowid": "900596",
    "final_x": "3668438.72218",
    "final_y": "531824.666499",
    "longitude": "-90.10930299017294",
    "latitude": "29.956723524055274",
    "geocoded_column": {
      "latitude": "29.956723524055274",
      "longitude": "-90.10930299017294"
    }
  },
  {
    "service_request": "2022-900595",
    "request_type": "Trash/Recycling",
    "request_reason": "Replace Trash Cart",
    "date_created": "2022-07-15T20:07:38.000",
    "date_modified": "2022-07-15T20:07:39.000",
    "request_status": "Pending",
    "responsible_agency": "Department of Sanitation",
    "final_address": "2620 Mistletoe St",
    "address_councildis": "A",
    "status": "Assigned to Contractor",
    "contractor": "Richards Disposal",
    "rowid": "900595",
    "final_x": "3662586.15347",
    "final_y": "534878.157254",
    "longitude": "-90.12768216042367",
    "latitude": "29.965290238472935",
    "geocoded_column": {
      "latitude": "29.965290238472935",
      "longitude": "-90.12768216042367"
    }
  },
  {
    "service_request": "2022-900594",
    "request_type": "Trash/Recycling",
    "request_reason": "Missed Trash Pick-Up",
    "date_created": "2022-07-15T20:07:15.000",
    "date_modified": "2022-07-15T20:07:16.000",
    "request_status": "Pending",
    "responsible_agency": "Department of Sanitation",
    "final_address": "6118 Pratt Dr",
    "address_councildis": "D",
    "status": "Assigned to Contractor",
    "contractor": "Metro Disposal",
    "rowid": "900594",
    "final_x": "3680065.70267",
    "final_y": "555130.172569",
    "longitude": "-90.07177850250537",
    "latitude": "30.020458842571028",
    "geocoded_column": {
      "latitude": "30.020458842571028",
      "longitude": "-90.07177850250537"
    }
  },
  {
    "service_request": "2022-900593",
    "request_type": "Trash/Recycling",
    "request_reason": "Request a Large Item Pick Up",
    "date_created": "2022-07-15T20:00:44.000",
    "date_modified": "2022-07-15T20:00:45.000",
    "request_status": "Pending",
    "responsible_agency": "Department of Sanitation",
    "final_address": "2417 Chelsea Dr",
    "address_councildis": "C",
    "status": "Assigned to Contractor",
    "contractor": "Richards Disposal",
    "rowid": "900593",
    "final_x": "3704715.27524",
    "final_y": "522591.334714",
    "longitude": "-89.99509469257933",
    "latitude": "29.930219726167703",
    "geocoded_column": {
      "latitude": "29.930219726167703",
      "longitude": "-89.99509469257933"
    }
  },
  {
    "service_request": "2022-900592",
    "request_type": "Trash/Recycling",
    "request_reason": "Missed Trash Pick-Up",
    "date_created": "2022-07-15T19:15:41.000",
    "date_modified": "2022-07-15T19:15:42.000",
    "request_status": "Pending",
    "responsible_agency": "Department of Sanitation",
    "final_address": "719 Ninth St",
    "address_councildis": "B",
    "status": "Assigned to Contractor",
    "contractor": "Richards Disposal",
    "rowid": "900592",
    "final_x": "3676638.94773",
    "final_y": "518953.604919",
    "longitude": "-90.0838524787258",
    "latitude": "29.92108892410324",
    "geocoded_column": {
      "latitude": "29.92108892410324",
      "longitude": "-90.0838524787258"
    }
  },
  {
    "service_request": "2022-900591",
    "request_type": "Trash/Recycling",
    "request_reason": "Missed Trash Pick-Up",
    "date_created": "2022-07-15T19:14:50.000",
    "date_modified": "2022-07-15T19:14:51.000",
    "request_status": "Pending",
    "responsible_agency": "Department of Sanitation",
    "final_address": "719 Ninth St",
    "address_councildis": "B",
    "status": "Assigned to Contractor",
    "contractor": "Richards Disposal",
    "rowid": "900591",
    "final_x": "3676638.94773",
    "final_y": "518953.604919",
    "longitude": "-90.0838524787258",
    "latitude": "29.92108892410324",
    "geocoded_column": {
      "latitude": "29.92108892410324",
      "longitude": "-90.0838524787258"
    }
  },
  {
    "service_request": "2022-900590",
    "request_type": "Roads/Drainage",
    "request_reason": "Road Shoulder Repair",
    "date_created": "2022-07-15T19:12:25.000",
    "date_modified": "2022-07-15T19:12:25.000",
    "request_status": "Pending",
    "responsible_agency": "Department of Public Works",
    "final_address": "7111 Queensway Dr",
    "address_councildis": "E",
    "status": "Pending",
    "rowid": "900590",
    "final_x": "3719015.68345",
    "final_y": "569814.20407",
    "longitude": "-89.9481490331885",
    "latitude": "30.059597300651152",
    "geocoded_column": {
      "latitude": "30.059597300651152",
      "longitude": "-89.9481490331885"
    }
  },
  {
    "service_request": "2022-900589",
    "request_type": "Safety & Permits",
    "request_reason": "Licenses & Permits",
    "date_created": "2022-07-15T19:04:17.000",
    "date_modified": "2022-07-15T19:04:17.000",
    "request_status": "Pending",
    "responsible_agency": "Safety and Permits",
    "final_address": "2830 Annunciation St",
    "address_councildis": "B",
    "status": "Pending",
    "rowid": "900589",
    "final_x": "3677465.36789",
    "final_y": "519721.09932",
    "longitude": "-90.08121736614572",
    "latitude": "29.923174480395623",
    "geocoded_column": {
      "latitude": "29.923174480395623",
      "longitude": "-90.08121736614572"
    }
  },
  {
    "service_request": "2022-900588",
    "request_type": "Roads/Drainage",
    "request_reason": "Pothole",
    "date_created": "2022-07-15T18:34:18.000",
    "date_modified": "2022-07-15T18:34:18.000",
    "request_status": "Pending",
    "responsible_agency": "Department of Public Works",
    "final_address": "5000 Paris Ave",
    "address_councildis": "D",
    "status": "Pending",
    "rowid": "900588",
    "final_x": "3679104.59483",
    "final_y": "550779.476693",
    "longitude": "-90.07496628081512",
    "latitude": "30.008525060952465",
    "geocoded_column": {
      "latitude": "30.008525060952465",
      "longitude": "-90.07496628081512"
    }
  },
  {
    "service_request": "2022-900587",
    "request_type": "Roads/Drainage",
    "request_reason": "Street Flooding / Drainage",
    "date_created": "2022-07-15T18:33:30.000",
    "date_modified": "2022-07-15T18:33:30.000",
    "request_status": "Pending",
    "responsible_agency": "Department of Public Works",
    "final_address": "4123 Dreux Ave",
    "address_councildis": "D",
    "status": "Pending",
    "rowid": "900587",
    "final_x": "3689210.17219",
    "final_y": "552735.276182",
    "longitude": "-90.04297005563537",
    "latitude": "30.013593763665096",
    "geocoded_column": {
      "latitude": "30.013593763665096",
      "longitude": "-90.04297005563537"
    }
  },
  {
    "service_request": "2022-900586",
    "request_type": "Trash/Recycling",
    "request_reason": "Request a Large Item Pick Up",
    "date_created": "2022-07-15T18:29:54.000",
    "date_modified": "2022-07-15T18:29:55.000",
    "request_status": "Pending",
    "responsible_agency": "Department of Sanitation",
    "final_address": "2036 Prytania St Apt 1",
    "address_councildis": "B",
    "status": "Assigned to Contractor",
    "contractor": "Richards Disposal",
    "rowid": "900586",
    "final_x": "3678335.0212",
    "final_y": "523522.825979",
    "longitude": "-90.07834076487478",
    "latitude": "29.933601828802754",
    "geocoded_column": {
      "latitude": "29.933601828802754",
      "longitude": "-90.07834076487478"
    }
  },
  {
    "service_request": "2022-900585",
    "request_type": "Trash/Recycling",
    "request_reason": "Missed Trash Pick-Up",
    "date_created": "2022-07-15T18:28:19.000",
    "date_modified": "2022-07-15T18:28:20.000",
    "request_status": "Pending",
    "responsible_agency": "Department of Sanitation",
    "final_address": "5235 Paris Ave",
    "address_councildis": "D",
    "status": "Assigned to Contractor",
    "contractor": "Metro Disposal",
    "rowid": "900585",
    "final_x": "3679317.55867",
    "final_y": "551603.743829",
    "longitude": "-90.07426484566479",
    "latitude": "30.010785066939764",
    "geocoded_column": {
      "latitude": "30.010785066939764",
      "longitude": "-90.07426484566479"
    }
  },
  {
    "service_request": "2022-900584",
    "request_type": "Trash/Recycling",
    "request_reason": "Missed Trash Pick-Up",
    "date_created": "2022-07-15T18:27:23.000",
    "date_modified": "2022-07-15T18:27:24.000",
    "request_status": "Pending",
    "responsible_agency": "Department of Sanitation",
    "final_address": "5826 Clara St",
    "address_councildis": "A",
    "status": "Assigned to Contractor",
    "contractor": "Richards Disposal",
    "rowid": "900584",
    "final_x": "3666914.57978",
    "final_y": "525225.735933",
    "longitude": "-90.11433743670578",
    "latitude": "29.938623284611396",
    "geocoded_column": {
      "latitude": "29.938623284611396",
      "longitude": "-90.11433743670578"
    }
  },
  {
    "service_request": "2022-900583",
    "request_type": "Trash/Recycling",
    "request_reason": "Request a Large Item Pick Up",
    "date_created": "2022-07-15T18:26:28.000",
    "date_modified": "2022-07-15T18:26:29.000",
    "request_status": "Pending",
    "responsible_agency": "Department of Sanitation",
    "final_address": "6010 Brighton Pl",
    "address_councildis": "C",
    "status": "Assigned to Contractor",
    "contractor": "Richards Disposal",
    "rowid": "900583",
    "final_x": "3706164.49687",
    "final_y": "520150.501304",
    "longitude": "-89.99061006233049",
    "latitude": "29.92346166855914",
    "geocoded_column": {
      "latitude": "29.92346166855914",
      "longitude": "-89.99061006233049"
    }
  },
  {
    "service_request": "2022-900581",
    "request_type": "Property Maintenance",
    "request_reason": "Property Maintenance",
    "date_created": "2022-07-15T18:23:23.000",
    "date_modified": "2022-07-15T18:23:23.000",
    "request_status": "Pending",
    "responsible_agency": "Department of Code Enforcement",
    "final_address": "3201 Gentilly Blvd",
    "address_councildis": "D",
    "status": "Pending",
    "rowid": "900581",
    "final_x": "3684247.07145",
    "final_y": "547837.04661",
    "longitude": "-90.05882298250869",
    "latitude": "30.000278152616673",
    "geocoded_column": {
      "latitude": "30.000278152616673",
      "longitude": "-90.05882298250869"
    }
  },
  {
    "service_request": "2022-900580",
    "request_type": "Trash/Recycling",
    "request_reason": "Replace Trash Cart",
    "date_created": "2022-07-15T18:21:39.000",
    "date_modified": "2022-07-15T18:21:39.000",
    "request_status": "Pending",
    "responsible_agency": "Department of Sanitation",
    "final_address": "933 Picheloup Pl",
    "address_councildis": "A",
    "status": "Assigned to Contractor",
    "contractor": "Richards Disposal",
    "rowid": "900580",
    "final_x": "3673580.73819",
    "final_y": "540521.436619",
    "longitude": "-90.09276881031441",
    "latitude": "29.980484667816725",
    "geocoded_column": {
      "latitude": "29.980484667816725",
      "longitude": "-90.09276881031441"
    }
  },
  {
    "service_request": "2022-900579",
    "request_type": "Trash/Recycling",
    "request_reason": "Request a Large Item Pick Up",
    "date_created": "2022-07-15T18:06:35.000",
    "date_modified": "2022-07-15T18:06:36.000",
    "request_status": "Pending",
    "responsible_agency": "Department of Sanitation",
    "final_address": "1120 Aline St",
    "address_councildis": "B",
    "status": "Assigned to Contractor",
    "contractor": "Richards Disposal",
    "rowid": "900579",
    "final_x": "3674367.12769",
    "final_y": "519529.734327",
    "longitude": "-90.09100388912645",
    "latitude": "29.92274101754247",
    "geocoded_column": {
      "latitude": "29.92274101754247",
      "longitude": "-90.09100388912645"
    }
  },
  {
    "service_request": "2022-900578",
    "request_type": "Abandoned Vehicles",
    "request_reason": "Abandoned/Junk Vehicles",
    "date_created": "2022-07-15T17:52:51.000",
    "date_modified": "2022-07-15T17:52:51.000",
    "request_status": "Pending",
    "responsible_agency": "Department of Public Works",
    "final_address": "11100 Whiteside Rd",
    "address_councildis": "E",
    "status": "Pending",
    "rowid": "900578",
    "final_x": "3711732.61234",
    "final_y": "564842.264354",
    "longitude": "-89.9713569320874",
    "latitude": "30.046166562635666",
    "geocoded_column": {
      "latitude": "30.046166562635666",
      "longitude": "-89.9713569320874"
    }
  },
  {
    "service_request": "2022-900577",
    "request_type": "Trash/Recycling",
    "request_reason": "Request a Large Item Pick Up",
    "date_created": "2022-07-15T17:52:16.000",
    "date_modified": "2022-07-15T17:52:17.000",
    "request_status": "Pending",
    "responsible_agency": "Department of Sanitation",
    "final_address": "3269 Belfort St",
    "address_councildis": "A",
    "status": "Assigned to Contractor",
    "contractor": "Metro Disposal",
    "rowid": "900577",
    "final_x": "3677741.64302",
    "final_y": "542593.288845",
    "longitude": "-90.0795552724145",
    "latitude": "29.986057018076604",
    "geocoded_column": {
      "latitude": "29.986057018076604",
      "longitude": "-90.0795552724145"
    }
  },
  {
    "service_request": "2022-900576",
    "request_type": "Property Maintenance",
    "request_reason": "Property Maintenance",
    "date_created": "2022-07-15T17:41:21.000",
    "date_modified": "2022-07-15T17:41:21.000",
    "request_status": "Pending",
    "responsible_agency": "Department of Code Enforcement",
    "final_address": "3512 Roger Williams St",
    "address_councildis": "D",
    "status": "Pending",
    "rowid": "900576",
    "final_x": "3676194.86849",
    "final_y": "543899.026254",
    "longitude": "-90.08439597601358",
    "latitude": "29.989693788795105",
    "geocoded_column": {
      "latitude": "29.989693788795105",
      "longitude": "-90.08439597601358"
    }
  },
  {
    "service_request": "2022-900575",
    "request_type": "Trash/Recycling",
    "request_reason": "Return Recycling Cart",
    "date_created": "2022-07-15T17:39:02.000",
    "date_modified": "2022-07-15T17:39:02.000",
    "request_status": "Pending",
    "responsible_agency": "Department of Sanitation",
    "final_address": "2236 Dublin St",
    "address_councildis": "A",
    "status": "Pending",
    "rowid": "900575",
    "final_x": "3664234.64589",
    "final_y": "531455.995011",
    "longitude": "-90.12259047246525",
    "latitude": "29.955832613978846",
    "geocoded_column": {
      "latitude": "29.955832613978846",
      "longitude": "-90.12259047246525"
    }
  },
  {
    "service_request": "2022-900574",
    "request_type": "Traffic Signals/Signs/Striping/Streetlights",
    "request_reason": "Traffic Sign Missing/Damaged",
    "date_created": "2022-07-15T17:37:58.000",
    "date_modified": "2022-07-15T17:37:58.000",
    "request_status": "Pending",
    "responsible_agency": "Department of Public Works",
    "final_address": "3114 Urquhart St",
    "address_councildis": "C",
    "status": "Pending",
    "rowid": "900574",
    "final_x": "3689302.7382",
    "final_y": "536662.775111",
    "longitude": "-90.04324932798569",
    "latitude": "29.969397306666934",
    "geocoded_column": {
      "latitude": "29.969397306666934",
      "longitude": "-90.04324932798569"
    }
  },
  {
    "service_request": "2022-900573",
    "request_type": "Trash/Recycling",
    "request_reason": "Missed Trash Pick-Up",
    "date_created": "2022-07-15T17:36:08.000",
    "date_modified": "2022-07-15T17:36:09.000",
    "request_status": "Pending",
    "responsible_agency": "Department of Sanitation",
    "final_address": "1504 Westbrook Dr",
    "address_councildis": "D",
    "status": "Assigned to Contractor",
    "contractor": "Metro Disposal",
    "rowid": "900573",
    "final_x": "3678814.3252",
    "final_y": "549449.383443",
    "longitude": "-90.07592944850056",
    "latitude": "30.00487654210142",
    "geocoded_column": {
      "latitude": "30.00487654210142",
      "longitude": "-90.07592944850056"
    }
  },
  {
    "service_request": "2022-900572",
    "request_type": "Trash/Recycling",
    "request_reason": "Change Size of Trash Cart",
    "date_created": "2022-07-15T17:35:12.000",
    "date_modified": "2022-07-15T17:35:13.000",
    "request_status": "Pending",
    "responsible_agency": "Department of Sanitation",
    "final_address": "708 Constantinople St",
    "address_councildis": "B",
    "status": "Assigned to Contractor",
    "contractor": "Richards Disposal",
    "rowid": "900572",
    "final_x": "3672546.43803",
    "final_y": "518288.14431",
    "longitude": "-90.09679339098626",
    "latitude": "29.919381194287226",
    "geocoded_column": {
      "latitude": "29.919381194287226",
      "longitude": "-90.09679339098626"
    }
  },
  {
    "service_request": "2022-900571",
    "request_type": "Roads/Drainage",
    "request_reason": "Debris in Roadway",
    "date_created": "2022-07-15T17:32:05.000",
    "date_modified": "2022-07-15T17:32:05.000",
    "request_status": "Pending",
    "responsible_agency": "Department of Public Works",
    "final_address": "5510 St Anthony Ave",
    "address_councildis": "D",
    "status": "Pending",
    "rowid": "900571",
    "final_x": "3682040.39932",
    "final_y": "553169.683159",
    "longitude": "-90.06560760000761",
    "latitude": "30.015008284225814",
    "geocoded_column": {
      "latitude": "30.015008284225814",
      "longitude": "-90.06560760000761"
    }
  },
  {
    "service_request": "2022-900570",
    "request_type": "Roads/Drainage",
    "request_reason": "Ditch Issue",
    "date_created": "2022-07-15T17:29:28.000",
    "date_modified": "2022-07-15T17:29:28.000",
    "request_status": "Pending",
    "responsible_agency": "Department of Public Works",
    "final_address": "2401 Delery St",
    "address_councildis": "E",
    "status": "Pending",
    "rowid": "900570",
    "final_x": "3702373.29047",
    "final_y": "537602.60404",
    "longitude": "-90.00193729075002",
    "latitude": "29.971570384851205",
    "geocoded_column": {
      "latitude": "29.971570384851205",
      "longitude": "-90.00193729075002"
    }
  },
  {
    "service_request": "2022-900569",
    "request_type": "Traffic Signals/Signs/Striping/Streetlights",
    "request_reason": "Traffic Sign Missing/Damaged",
    "date_created": "2022-07-15T17:28:50.000",
    "date_modified": "2022-07-15T17:28:50.000",
    "request_status": "Pending",
    "responsible_agency": "Department of Public Works",
    "final_address": "3103 N Villere St",
    "address_councildis": "C",
    "status": "Pending",
    "rowid": "900569",
    "final_x": "3689377.15702",
    "final_y": "537116.060808",
    "longitude": "-90.04299818784764",
    "latitude": "29.970641378989026",
    "geocoded_column": {
      "latitude": "29.970641378989026",
      "longitude": "-90.04299818784764"
    }
  },
  {
    "service_request": "2022-900568",
    "request_type": "Trash/Recycling",
    "request_reason": "Order Recycling Cart",
    "date_created": "2022-07-15T17:25:36.000",
    "date_modified": "2022-07-15T17:25:36.000",
    "request_status": "Pending",
    "responsible_agency": "Department of Sanitation",
    "final_address": "4510 Read Blvd",
    "address_councildis": "E",
    "status": "Pending",
    "rowid": "900568",
    "final_x": "3712786.21221",
    "final_y": "554999.523673",
    "longitude": "-89.9683976140331",
    "latitude": "30.01906847059672",
    "geocoded_column": {
      "latitude": "30.01906847059672",
      "longitude": "-89.9683976140331"
    }
  },
  {
    "service_request": "2022-900567",
    "request_type": "Trash/Recycling",
    "request_reason": "Illegal Dumping",
    "date_created": "2022-07-15T17:22:48.000",
    "date_modified": "2022-07-15T17:22:48.000",
    "request_status": "Pending",
    "responsible_agency": "Department of Sanitation",
    "final_address": "5100 Clara St",
    "address_councildis": "B",
    "status": "Pending",
    "rowid": "900567",
    "final_x": "3668418.57364",
    "final_y": "524847.542012",
    "longitude": "-90.10960190482328",
    "latitude": "29.93753929215262",
    "geocoded_column": {
      "latitude": "29.93753929215262",
      "longitude": "-90.10960190482328"
    }
  },
  {
    "service_request": "2022-900566",
    "request_type": "Trash/Recycling",
    "request_reason": "MIssed Recycling Pick-Up",
    "date_created": "2022-07-15T17:20:18.000",
    "date_modified": "2022-07-15T17:20:19.000",
    "request_status": "Pending",
    "responsible_agency": "Department of Sanitation",
    "final_address": "5119 Clara St",
    "address_councildis": "B",
    "status": "Assigned to Contractor",
    "contractor": "Richards Disposal",
    "rowid": "900566",
    "final_x": "3668349.73562",
    "final_y": "524952.447549",
    "longitude": "-90.10981569563637",
    "latitude": "29.937829769954007",
    "geocoded_column": {
      "latitude": "29.937829769954007",
      "longitude": "-90.10981569563637"
    }
  },
  {
    "service_request": "2022-900565",
    "request_type": "Mosquito, Termite & Rodent Control",
    "request_reason": "Mosquito Complaint",
    "date_created": "2022-07-15T17:16:24.000",
    "date_modified": "2022-07-15T17:16:24.000",
    "request_status": "Pending",
    "responsible_agency": "Mosquito, Termite & Rodent Control Board",
    "final_address": "1226 S Carrollton Ave",
    "address_councildis": "A",
    "status": "Pending",
    "rowid": "900565",
    "final_x": "3662056.35386",
    "final_y": "528498.590336",
    "longitude": "-90.12956689806876",
    "latitude": "29.94776381145207",
    "geocoded_column": {
      "latitude": "29.94776381145207",
      "longitude": "-90.12956689806876"
    }
  },
  {
    "service_request": "2022-900564",
    "request_type": "Mosquito, Termite & Rodent Control",
    "request_reason": "Mosquito Complaint",
    "date_created": "2022-07-15T17:15:14.000",
    "date_modified": "2022-07-15T17:15:14.000",
    "request_status": "Pending",
    "responsible_agency": "Mosquito, Termite & Rodent Control Board",
    "final_address": "319 S Lopez St",
    "address_councildis": "B",
    "status": "Pending",
    "rowid": "900564",
    "final_x": "3673242.72532",
    "final_y": "535485.220038",
    "longitude": "-90.09400844551256",
    "latitude": "29.966646839253436",
    "geocoded_column": {
      "latitude": "29.966646839253436",
      "longitude": "-90.09400844551256"
    }
  },
  {
    "service_request": "2022-900563",
    "request_type": "Roads/Drainage",
    "request_reason": "Street Flooding / Drainage",
    "date_created": "2022-07-15T17:14:28.000",
    "date_modified": "2022-07-15T17:14:28.000",
    "request_status": "Pending",
    "responsible_agency": "Department of Public Works",
    "final_address": "1226 S Carrollton Ave",
    "address_councildis": "A",
    "status": "Pending",
    "rowid": "900563",
    "final_x": "3662056.35386",
    "final_y": "528498.590336",
    "longitude": "-90.12956689806876",
    "latitude": "29.94776381145207",
    "geocoded_column": {
      "latitude": "29.94776381145207",
      "longitude": "-90.12956689806876"
    }
  },
  {
    "service_request": "2022-900562",
    "request_type": "Trash/Recycling",
    "request_reason": "Return Recycling Cart",
    "date_created": "2022-07-15T17:10:33.000",
    "date_modified": "2022-07-15T17:10:34.000",
    "request_status": "Pending",
    "responsible_agency": "Department of Sanitation",
    "final_address": "1838 Octavia St",
    "address_councildis": "A",
    "status": "Pending",
    "rowid": "900562",
    "final_x": "3667187.14247",
    "final_y": "522656.13401",
    "longitude": "-90.11356328362578",
    "latitude": "29.93154972488452",
    "geocoded_column": {
      "latitude": "29.93154972488452",
      "longitude": "-90.11356328362578"
    }
  },
  {
    "service_request": "2022-900561",
    "request_type": "Trash/Recycling",
    "request_reason": "Illegal Dumping",
    "date_created": "2022-07-15T17:01:15.000",
    "date_modified": "2022-07-15T17:01:15.000",
    "request_status": "Pending",
    "responsible_agency": "Department of Sanitation",
    "final_address": "1601 Philip St",
    "address_councildis": "B",
    "status": "Pending",
    "rowid": "900561",
    "final_x": "3677023.13486",
    "final_y": "523461.089467",
    "longitude": "-90.08248445125298",
    "latitude": "29.933471517215892",
    "geocoded_column": {
      "latitude": "29.933471517215892",
      "longitude": "-90.08248445125298"
    }
  },
  {
    "service_request": "2022-900560",
    "request_type": "Roads/Drainage",
    "request_reason": "Catch Basin - Clogged",
    "date_created": "2022-07-15T17:01:08.000",
    "date_modified": "2022-07-15T17:01:08.000",
    "request_status": "Pending",
    "responsible_agency": "Department of Public Works",
    "final_address": "2810 Soniat St",
    "address_councildis": "B",
    "status": "Pending",
    "rowid": "900560",
    "final_x": "3668526.37166",
    "final_y": "525698.490493",
    "longitude": "-90.10923287769926",
    "latitude": "29.939875960371054",
    "geocoded_column": {
      "latitude": "29.939875960371054",
      "longitude": "-90.10923287769926"
    }
  },
  {
    "service_request": "2022-900559",
    "request_type": "Trash/Recycling",
    "request_reason": "MIssed Recycling Pick-Up",
    "date_created": "2022-07-15T16:53:56.000",
    "date_modified": "2022-07-15T16:53:57.000",
    "request_status": "Pending",
    "responsible_agency": "Department of Sanitation",
    "final_address": "321 N Johnson St",
    "address_councildis": "B",
    "status": "Assigned to Contractor",
    "contractor": "Richards Disposal",
    "rowid": "900559",
    "final_x": "3677789.99733",
    "final_y": "534512.566981",
    "longitude": "-90.07968179351673",
    "latitude": "29.963836354745148",
    "geocoded_column": {
      "latitude": "29.963836354745148",
      "longitude": "-90.07968179351673"
    }
  },
  {
    "service_request": "2022-900557",
    "request_type": "Trash/Recycling",
    "request_reason": "Missed Trash Pick-Up",
    "date_created": "2022-07-15T16:53:25.000",
    "date_modified": "2022-07-15T16:53:26.000",
    "request_status": "Pending",
    "responsible_agency": "Department of Sanitation",
    "final_address": "5383 Paris Ave",
    "address_councildis": "D",
    "status": "Assigned to Contractor",
    "contractor": "Metro Disposal",
    "rowid": "900557",
    "final_x": "3679268.778",
    "final_y": "552175.551254",
    "longitude": "-90.07439911414153",
    "latitude": "30.012358805234403",
    "geocoded_column": {
      "latitude": "30.012358805234403",
      "longitude": "-90.07439911414153"
    }
  },
  {
    "service_request": "2022-900556",
    "request_type": "Trash/Recycling",
    "request_reason": "Illegal Dumping",
    "date_created": "2022-07-15T16:51:05.000",
    "date_modified": "2022-07-15T16:51:06.000",
    "request_status": "Pending",
    "responsible_agency": "Department of Sanitation",
    "final_address": "441 S Bernadotte St",
    "address_councildis": "A",
    "status": "Pending",
    "rowid": "900556",
    "final_x": "3667831.74157",
    "final_y": "538846.950281",
    "longitude": "-90.11098309893528",
    "latitude": "29.97605028738086",
    "geocoded_column": {
      "latitude": "29.97605028738086",
      "longitude": "-90.11098309893528"
    }
  },
  {
    "service_request": "2022-900555",
    "request_type": "Trash/Recycling",
    "request_reason": "Missed Trash Pick-Up",
    "date_created": "2022-07-15T16:50:43.000",
    "date_modified": "2022-07-15T16:50:44.000",
    "request_status": "Pending",
    "responsible_agency": "Department of Sanitation",
    "final_address": "4329 St Bernard Ave",
    "address_councildis": "D",
    "status": "Assigned to Contractor",
    "contractor": "Metro Disposal",
    "rowid": "900555",
    "final_x": "3676931.59189",
    "final_y": "548492.05429",
    "longitude": "-90.08191042038688",
    "latitude": "30.002300900952623",
    "geocoded_column": {
      "latitude": "30.002300900952623",
      "longitude": "-90.08191042038688"
    }
  },
  {
    "service_request": "2022-900554",
    "request_type": "Trash/Recycling",
    "request_reason": "Missed Trash Pick-Up",
    "date_created": "2022-07-15T16:50:35.000",
    "date_modified": "2022-07-15T16:50:36.000",
    "request_status": "Pending",
    "responsible_agency": "Department of Sanitation",
    "final_address": "1452 Pressburg St",
    "address_councildis": "D",
    "status": "Assigned to Contractor",
    "contractor": "Metro Disposal",
    "rowid": "900554",
    "final_x": "3677904.59355",
    "final_y": "553901.682199",
    "longitude": "-90.07864945846532",
    "latitude": "30.017146185286805",
    "geocoded_column": {
      "latitude": "30.017146185286805",
      "longitude": "-90.07864945846532"
    }
  },
  {
    "service_request": "2022-900552",
    "request_type": "Mosquito, Termite & Rodent Control",
    "request_reason": "Mosquito Complaint",
    "date_created": "2022-07-15T16:43:08.000",
    "date_modified": "2022-07-15T16:43:08.000",
    "request_status": "Pending",
    "responsible_agency": "Mosquito, Termite & Rodent Control Board",
    "final_address": "100 Finland Pl",
    "address_councildis": "C",
    "status": "Pending",
    "rowid": "900552",
    "final_x": "3705692.30987",
    "final_y": "520839.658809",
    "longitude": "-89.99207510392958",
    "latitude": "29.92537181759368",
    "geocoded_column": {
      "latitude": "29.92537181759368",
      "longitude": "-89.99207510392958"
    }
  },
  {
    "service_request": "2022-900551",
    "request_type": "Mayor's Request",
    "request_reason": "Entergy Bill Payment Assistance",
    "date_created": "2022-07-15T16:42:49.000",
    "date_modified": "2022-07-15T16:42:49.000",
    "request_status": "Pending",
    "responsible_agency": "Executive Office of the Mayor",
    "status": "Pending",
    "rowid": "900551",
    "longitude": "0.0",
    "latitude": "0.0",
    "geocoded_column": {
      "latitude": "0.0",
      "longitude": "0.0"
    }
  },
  {
    "service_request": "2022-900550",
    "request_type": "Trash/Recycling",
    "request_reason": "Request a Large Item Pick Up",
    "date_created": "2022-07-15T16:31:03.000",
    "date_modified": "2022-07-15T16:31:04.000",
    "request_status": "Pending",
    "responsible_agency": "Department of Sanitation",
    "final_address": "1367 Magazine St",
    "address_councildis": "B",
    "status": "Assigned to Contractor",
    "contractor": "Richards Disposal",
    "rowid": "900550",
    "final_x": "3680363.67535",
    "final_y": "524695.77766",
    "longitude": "-90.07189564773527",
    "latitude": "29.936765807356302",
    "geocoded_column": {
      "latitude": "29.936765807356302",
      "longitude": "-90.07189564773527"
    }
  },
  {
    "service_request": "2022-900549",
    "request_type": "Safety & Permits",
    "request_reason": "Short term Rental (Enforcement)",
    "date_created": "2022-07-15T16:30:13.000",
    "date_modified": "2022-07-15T16:30:13.000",
    "request_status": "Pending",
    "responsible_agency": "Safety and Permits",
    "final_address": "5757 St Anthony Ave",
    "address_councildis": "D",
    "status": "Pending",
    "rowid": "900549",
    "final_x": "3682170.71976",
    "final_y": "554473.906648",
    "longitude": "-90.0651502428261",
    "latitude": "30.018590457994698",
    "geocoded_column": {
      "latitude": "30.018590457994698",
      "longitude": "-90.0651502428261"
    }
  },
  {
    "service_request": "2022-900548",
    "request_type": "Safety & Permits",
    "request_reason": "Short term Rental (Enforcement)",
    "date_created": "2022-07-15T16:27:16.000",
    "date_modified": "2022-07-15T16:27:16.000",
    "request_status": "Pending",
    "responsible_agency": "Safety and Permits",
    "final_address": "5507 Wickfield Dr",
    "address_councildis": "D",
    "status": "Pending",
    "rowid": "900548",
    "final_x": "3681194.35976",
    "final_y": "553041.587095",
    "longitude": "-90.06828514903415",
    "latitude": "30.014681776979575",
    "geocoded_column": {
      "latitude": "30.014681776979575",
      "longitude": "-90.06828514903415"
    }
  },
  {
    "service_request": "2022-900547",
    "request_type": "Safety & Permits",
    "request_reason": "Short term Rental (Enforcement)",
    "date_created": "2022-07-15T16:23:44.000",
    "date_modified": "2022-07-15T16:23:44.000",
    "request_status": "Pending",
    "responsible_agency": "Safety and Permits",
    "final_address": "5700 Elysian Fields Ave",
    "address_councildis": "D",
    "status": "Pending",
    "rowid": "900547",
    "final_x": "3683424.24661",
    "final_y": "553898.678551",
    "longitude": "-90.06120973558242",
    "latitude": "30.016970584250764",
    "geocoded_column": {
      "latitude": "30.016970584250764",
      "longitude": "-90.06120973558242"
    }
  },
  {
    "service_request": "2022-900546",
    "request_type": "Safety & Permits",
    "request_reason": "Short term Rental (Enforcement)",
    "date_created": "2022-07-15T16:22:19.000",
    "date_modified": "2022-07-15T16:22:19.000",
    "request_status": "Pending",
    "responsible_agency": "Safety and Permits",
    "final_address": "5700 Elysian Fields Ave",
    "address_councildis": "D",
    "status": "Pending",
    "rowid": "900546",
    "final_x": "3683424.24661",
    "final_y": "553898.678551",
    "longitude": "-90.06120973558242",
    "latitude": "30.016970584250764",
    "geocoded_column": {
      "latitude": "30.016970584250764",
      "longitude": "-90.06120973558242"
    }
  },
  {
    "service_request": "2022-900545",
    "request_type": "Trash/Recycling",
    "request_reason": "Missed Trash Pick-Up",
    "date_created": "2022-07-15T16:18:04.000",
    "date_modified": "2022-07-15T16:18:04.000",
    "request_status": "Pending",
    "responsible_agency": "Department of Sanitation",
    "final_address": "8205 Neron Pl",
    "address_councildis": "A",
    "status": "Assigned to Contractor",
    "contractor": "Richards Disposal",
    "rowid": "900545",
    "final_x": "3664214.43226",
    "final_y": "531598.190851",
    "longitude": "-90.12264955618208",
    "latitude": "29.956224193580095",
    "geocoded_column": {
      "latitude": "29.956224193580095",
      "longitude": "-90.12264955618208"
    }
  },
  {
    "service_request": "2022-900544",
    "request_type": "Traffic Signals/Signs/Striping/Streetlights",
    "request_reason": "Traffic Signal Malfunctioning/Damaged",
    "date_created": "2022-07-15T16:10:10.000",
    "date_modified": "2022-07-15T16:10:10.000",
    "request_status": "Pending",
    "responsible_agency": "Department of Public Works",
    "final_address": "1000 Howard Ave",
    "address_councildis": "B",
    "status": "Pending",
    "rowid": "900544",
    "final_x": "3678925.00597",
    "final_y": "527853.049919",
    "longitude": "-90.07632824868489",
    "latitude": "29.945490730449556",
    "geocoded_column": {
      "latitude": "29.945490730449556",
      "longitude": "-90.07632824868489"
    }
  },
  {
    "service_request": "2022-900543",
    "request_type": "Traffic Signals/Signs/Striping/Streetlights",
    "request_reason": "Street Light Outage/Malfunction",
    "date_created": "2022-07-15T16:07:22.000",
    "date_modified": "2022-07-15T16:07:22.000",
    "request_status": "Pending",
    "responsible_agency": "Department of Public Works",
    "final_address": "1725 Wagner St",
    "address_councildis": "C",
    "status": "Pending",
    "contractor": "Royal Engineering",
    "rowid": "900543",
    "final_x": "3690282.27548",
    "final_y": "524488.980156",
    "longitude": "-90.04058962884032",
    "latitude": "29.935893215229626",
    "geocoded_column": {
      "latitude": "29.935893215229626",
      "longitude": "-90.04058962884032"
    }
  },
  {
    "service_request": "2022-900542",
    "request_type": "Roads/Drainage",
    "request_reason": "Pothole",
    "date_created": "2022-07-15T16:05:25.000",
    "date_modified": "2022-07-15T16:05:26.000",
    "request_status": "Pending",
    "responsible_agency": "Department of Public Works",
    "final_address": "1725 Wagner St",
    "address_councildis": "C",
    "status": "Pending",
    "rowid": "900542",
    "final_x": "3690282.27548",
    "final_y": "524488.980156",
    "longitude": "-90.04058962884032",
    "latitude": "29.935893215229626",
    "geocoded_column": {
      "latitude": "29.935893215229626",
      "longitude": "-90.04058962884032"
    }
  },
  {
    "service_request": "2022-900541",
    "request_type": "Trash/Recycling",
    "request_reason": "Return Recycling Cart",
    "date_created": "2022-07-15T16:04:57.000",
    "date_modified": "2022-07-15T16:04:57.000",
    "request_status": "Pending",
    "responsible_agency": "Department of Sanitation",
    "final_address": "4317 Chestnut St",
    "address_councildis": "B",
    "status": "Pending",
    "rowid": "900541",
    "final_x": "3671210.7138",
    "final_y": "519584.750712",
    "longitude": "-90.10096559342306",
    "latitude": "29.922986017421486",
    "geocoded_column": {
      "latitude": "29.922986017421486",
      "longitude": "-90.10096559342306"
    }
  },
  {
    "service_request": "2022-900540",
    "request_type": "Property Maintenance",
    "request_reason": "Property Maintenance",
    "date_created": "2022-07-15T15:58:15.000",
    "date_modified": "2022-07-15T15:58:15.000",
    "request_status": "Pending",
    "responsible_agency": "Department of Code Enforcement",
    "final_address": "6802 Louisville St",
    "address_councildis": "A",
    "status": "Pending",
    "rowid": "900540",
    "final_x": "3668136.48109",
    "final_y": "552809.77615",
    "longitude": "-90.10954965566988",
    "latitude": "30.014434312659635",
    "geocoded_column": {
      "latitude": "30.014434312659635",
      "longitude": "-90.10954965566988"
    }
  },
  {
    "service_request": "2022-900539",
    "request_type": "Trash/Recycling",
    "request_reason": "Missed Trash Pick-Up",
    "date_created": "2022-07-15T15:56:28.000",
    "date_modified": "2022-07-15T15:56:28.000",
    "request_status": "Pending",
    "responsible_agency": "Department of Sanitation",
    "final_address": "5222 Cartier Ave",
    "address_councildis": "D",
    "status": "Assigned to Contractor",
    "contractor": "Metro Disposal",
    "rowid": "900539",
    "final_x": "3677604.80987",
    "final_y": "551318.515605",
    "longitude": "-90.07968594955076",
    "latitude": "30.010052428428278",
    "geocoded_column": {
      "latitude": "30.010052428428278",
      "longitude": "-90.07968594955076"
    }
  },
  {
    "service_request": "2022-900538",
    "request_type": "Trash/Recycling",
    "request_reason": "Return Trash Cart",
    "date_created": "2022-07-15T15:53:27.000",
    "date_modified": "2022-07-15T15:53:28.000",
    "request_status": "Pending",
    "responsible_agency": "Department of Sanitation",
    "final_address": "N DORGENOIS ST & ST ANN ST",
    "address_councildis": "D",
    "status": "Assigned to Contractor",
    "contractor": "Richards Disposal",
    "rowid": "900538",
    "final_x": "3677367.2",
    "final_y": "536882.08",
    "longitude": "-90.08093516204895",
    "latitude": "29.970364422109665",
    "geocoded_column": {
      "latitude": "29.970364422109665",
      "longitude": "-90.08093516204895"
    }
  },
  {
    "service_request": "2022-900537",
    "request_type": "Trash/Recycling",
    "request_reason": "Repair Trash Cart",
    "date_created": "2022-07-15T15:49:54.000",
    "date_modified": "2022-07-15T15:49:54.000",
    "request_status": "Pending",
    "responsible_agency": "Department of Sanitation",
    "final_address": "219 Alonzo St",
    "address_councildis": "A",
    "status": "Assigned to Contractor",
    "contractor": "Richards Disposal",
    "rowid": "900537",
    "final_x": "3664569.23437",
    "final_y": "517227.615477",
    "longitude": "-90.1220089136939",
    "latitude": "29.91669937027254",
    "geocoded_column": {
      "latitude": "29.91669937027254",
      "longitude": "-90.1220089136939"
    }
  },
  {
    "service_request": "2022-900536",
    "request_type": "Traffic Signals/Signs/Striping/Streetlights",
    "request_reason": "Street Light Outage/Malfunction",
    "date_created": "2022-07-15T15:49:16.000",
    "date_modified": "2022-07-15T15:49:17.000",
    "request_status": "Pending",
    "responsible_agency": "Department of Public Works",
    "final_address": "MAGAZINE ST & HENRY CLAY AVE",
    "address_councildis": "A",
    "status": "Pending",
    "contractor": "Royal Engineering",
    "rowid": "900536",
    "final_x": "3663792.1",
    "final_y": "519586.38",
    "longitude": "-90.1243833286967",
    "latitude": "29.923207804965596",
    "geocoded_column": {
      "latitude": "29.923207804965596",
      "longitude": "-90.1243833286967"
    }
  },
  {
    "service_request": "2022-900535",
    "request_type": "Traffic Signals/Signs/Striping/Streetlights",
    "request_reason": "Traffic Sign Missing/Damaged",
    "date_created": "2022-07-15T15:45:22.000",
    "date_modified": "2022-07-15T15:45:22.000",
    "request_status": "Pending",
    "responsible_agency": "Department of Public Works",
    "final_address": "WISNER BLVD & FILMORE AVE",
    "address_councildis": "A",
    "status": "Pending",
    "rowid": "900535",
    "final_x": "3675579.2",
    "final_y": "551717.58",
    "longitude": "-90.08607187783004",
    "latitude": "30.011210494966498",
    "geocoded_column": {
      "latitude": "30.011210494966498",
      "longitude": "-90.08607187783004"
    }
  },
  {
    "service_request": "2022-900534",
    "request_type": "Trash/Recycling",
    "request_reason": "MIssed Recycling Pick-Up",
    "date_created": "2022-07-15T15:45:22.000",
    "date_modified": "2022-07-15T15:45:22.000",
    "request_status": "Pending",
    "responsible_agency": "Department of Sanitation",
    "final_address": "2026 Philip St",
    "address_councildis": "B",
    "status": "Assigned to Contractor",
    "contractor": "Richards Disposal",
    "rowid": "900534",
    "final_x": "3676203.36949",
    "final_y": "524710.893308",
    "longitude": "-90.08502942247196",
    "latitude": "29.93693265010777",
    "geocoded_column": {
      "latitude": "29.93693265010777",
      "longitude": "-90.08502942247196"
    }
  },
  {
    "service_request": "2022-900533",
    "request_type": "Mosquito, Termite & Rodent Control",
    "request_reason": "Mosquito Complaint",
    "date_created": "2022-07-15T15:37:24.000",
    "date_modified": "2022-07-15T18:03:02.000",
    "case_close_date": "2022-07-15T13:03:02.000",
    "request_status": "Closed",
    "responsible_agency": "Mosquito, Termite & Rodent Control Board",
    "final_address": "1110 Felicity St",
    "address_councildis": "B",
    "status": "Resolved",
    "rowid": "900533",
    "final_x": "3679891.84559",
    "final_y": "523107.791995",
    "longitude": "-90.07344035988554",
    "latitude": "29.932413644850218",
    "geocoded_column": {
      "latitude": "29.932413644850218",
      "longitude": "-90.07344035988554"
    }
  },
  {
    "service_request": "2022-900532",
    "request_type": "Trash/Recycling",
    "request_reason": "Request a Large Item Pick Up",
    "date_created": "2022-07-15T15:31:37.000",
    "date_modified": "2022-07-15T15:31:37.000",
    "request_status": "Pending",
    "responsible_agency": "Department of Sanitation",
    "final_address": "2036 Gallier St",
    "address_councildis": "D",
    "status": "Assigned to Contractor",
    "contractor": "Metro Disposal",
    "rowid": "900532",
    "final_x": "3691325.08208",
    "final_y": "539338.392266",
    "longitude": "-90.03676701537982",
    "latitude": "29.976691543447334",
    "geocoded_column": {
      "latitude": "29.976691543447334",
      "longitude": "-90.03676701537982"
    }
  },
  {
    "service_request": "2022-900531",
    "request_type": "Trash/Recycling",
    "request_reason": "Order Trash Cart",
    "date_created": "2022-07-15T15:31:15.000",
    "date_modified": "2022-07-15T15:31:15.000",
    "request_status": "Pending",
    "responsible_agency": "Department of Sanitation",
    "final_address": "2036 Gallier St",
    "address_councildis": "D",
    "status": "Assigned to Contractor",
    "contractor": "Metro Disposal",
    "rowid": "900531",
    "final_x": "3691325.08208",
    "final_y": "539338.392266",
    "longitude": "-90.03676701537982",
    "latitude": "29.976691543447334",
    "geocoded_column": {
      "latitude": "29.976691543447334",
      "longitude": "-90.03676701537982"
    }
  },
  {
    "service_request": "2022-900530",
    "request_type": "Traffic Signals/Signs/Striping/Streetlights",
    "request_reason": "Request for Stop Sign",
    "date_created": "2022-07-15T15:28:13.000",
    "date_modified": "2022-07-15T15:28:13.000",
    "request_status": "Pending",
    "responsible_agency": "Department of Public Works",
    "final_address": "6000 Bellaire Dr",
    "address_councildis": "A",
    "status": "Pending",
    "rowid": "900530",
    "final_x": "3664107.93261",
    "final_y": "547637.218962",
    "longitude": "-90.12245063994243",
    "latitude": "30.000329259843717",
    "geocoded_column": {
      "latitude": "30.000329259843717",
      "longitude": "-90.12245063994243"
    }
  },
  {
    "service_request": "2022-900529",
    "request_type": "Property Maintenance",
    "request_reason": "Property Maintenance",
    "date_created": "2022-07-15T15:26:06.000",
    "date_modified": "2022-07-15T15:26:06.000",
    "request_status": "Pending",
    "responsible_agency": "Department of Code Enforcement",
    "final_address": "1300 Perdido St",
    "address_councildis": "B",
    "status": "Pending",
    "rowid": "900529",
    "final_x": "3678683.48347",
    "final_y": "530227.987073",
    "longitude": "-90.07700859883013",
    "latitude": "29.952028297123956",
    "geocoded_column": {
      "latitude": "29.952028297123956",
      "longitude": "-90.07700859883013"
    }
  },
  {
    "service_request": "2022-900528",
    "request_type": "Traffic Signals/Signs/Striping/Streetlights",
    "request_reason": "Street Light Knocked Down/Leaning",
    "date_created": "2022-07-15T15:25:15.000",
    "date_modified": "2022-07-15T15:25:16.000",
    "request_status": "Pending",
    "responsible_agency": "Department of Public Works",
    "final_address": "3216 Prytania St",
    "address_councildis": "B",
    "status": "Pending",
    "contractor": "Royal Engineering",
    "rowid": "900528",
    "final_x": "3675027.54472",
    "final_y": "521167.391929",
    "longitude": "-90.08886306753037",
    "latitude": "29.927224342945344",
    "geocoded_column": {
      "latitude": "29.927224342945344",
      "longitude": "-90.08886306753037"
    }
  },
  {
    "service_request": "2022-900527",
    "request_type": "Trash/Recycling",
    "request_reason": "Missed Trash Pick-Up",
    "date_created": "2022-07-15T15:25:01.000",
    "date_modified": "2022-07-15T15:25:01.000",
    "request_status": "Pending",
    "responsible_agency": "Department of Sanitation",
    "final_address": "4113 Jumonville St",
    "address_councildis": "D",
    "status": "Assigned to Contractor",
    "contractor": "Metro Disposal",
    "rowid": "900527",
    "final_x": "3678091.32667",
    "final_y": "547378.288081",
    "longitude": "-90.07828521464342",
    "latitude": "29.999203560728578",
    "geocoded_column": {
      "latitude": "29.999203560728578",
      "longitude": "-90.07828521464342"
    }
  },
  {
    "service_request": "2022-900526",
    "request_type": "Trash/Recycling",
    "request_reason": "Missed Trash Pick-Up",
    "date_created": "2022-07-15T15:13:26.000",
    "date_modified": "2022-07-15T15:13:27.000",
    "request_status": "Pending",
    "responsible_agency": "Department of Sanitation",
    "final_address": "2013 Burdette St",
    "address_councildis": "A",
    "status": "Assigned to Contractor",
    "contractor": "Richards Disposal",
    "rowid": "900526",
    "final_x": "3664808.34701",
    "final_y": "529757.073665",
    "longitude": "-90.12083568388132",
    "latitude": "29.951144450953368",
    "geocoded_column": {
      "latitude": "29.951144450953368",
      "longitude": "-90.12083568388132"
    }
  },
  {
    "service_request": "2022-900525",
    "request_type": "Abandoned Vehicles",
    "request_reason": "Abandoned/Junk Vehicles",
    "date_created": "2022-07-15T15:12:38.000",
    "date_modified": "2022-07-15T15:12:38.000",
    "request_status": "Pending",
    "responsible_agency": "Department of Public Works",
    "final_address": "1800 Jefferson Ave",
    "address_councildis": "A",
    "status": "Pending",
    "rowid": "900525",
    "final_x": "3667456.57025",
    "final_y": "522350.692922",
    "longitude": "-90.11272300045577",
    "latitude": "29.930701970033716",
    "geocoded_column": {
      "latitude": "29.930701970033716",
      "longitude": "-90.11272300045577"
    }
  },
  {
    "service_request": "2022-900524",
    "request_type": "Trash/Recycling",
    "request_reason": "Missed Trash Pick-Up",
    "date_created": "2022-07-15T15:12:38.000",
    "date_modified": "2022-07-15T15:12:38.000",
    "request_status": "Pending",
    "responsible_agency": "Department of Sanitation",
    "final_address": "2035 Gallier St",
    "address_councildis": "D",
    "status": "Assigned to Contractor",
    "contractor": "Metro Disposal",
    "rowid": "900524",
    "final_x": "3691415.32982",
    "final_y": "539277.12961",
    "longitude": "-90.03648417590144",
    "latitude": "29.976520284711015",
    "geocoded_column": {
      "latitude": "29.976520284711015",
      "longitude": "-90.03648417590144"
    }
  },
  {
    "service_request": "2022-900523",
    "request_type": "Traffic Signals/Signs/Striping/Streetlights",
    "request_reason": "Street Light Outage/Malfunction",
    "date_created": "2022-07-15T15:07:51.000",
    "date_modified": "2022-07-15T15:07:52.000",
    "request_status": "Pending",
    "responsible_agency": "Department of Public Works",
    "final_address": "7700 Alabama St",
    "address_councildis": "D",
    "status": "Pending",
    "contractor": "Royal Engineering",
    "rowid": "900523",
    "final_x": "3694767.87555",
    "final_y": "558742.218332",
    "longitude": "-90.02519402212589",
    "latitude": "30.029937324365008",
    "geocoded_column": {
      "latitude": "30.029937324365008",
      "longitude": "-90.02519402212589"
    }
  },
  {
    "service_request": "2022-900522",
    "request_type": "Trash/Recycling",
    "request_reason": "Replace Recycling Cart",
    "date_created": "2022-07-15T15:07:49.000",
    "date_modified": "2022-07-15T15:07:49.000",
    "request_status": "Pending",
    "responsible_agency": "Department of Sanitation",
    "final_address": "5500 Fontainebleau Dr",
    "address_councildis": "A",
    "status": "Pending",
    "rowid": "900522",
    "final_x": "3668764.19514",
    "final_y": "529637.707585",
    "longitude": "-90.108349074937",
    "latitude": "29.950700540049407",
    "geocoded_column": {
      "latitude": "29.950700540049407",
      "longitude": "-90.108349074937"
    }
  },
  {
    "service_request": "2022-900521",
    "request_type": "Mosquito, Termite & Rodent Control",
    "request_reason": "Non-Rodent Complaint (Mice, Possums, Snakes)",
    "date_created": "2022-07-15T15:04:21.000",
    "date_modified": "2022-07-15T15:04:21.000",
    "request_status": "Pending",
    "responsible_agency": "Mosquito, Termite & Rodent Control Board",
    "final_address": "206 Maumus Ave",
    "address_councildis": "C",
    "status": "Pending",
    "rowid": "900521",
    "final_x": "3706232.81566",
    "final_y": "516837.736437",
    "longitude": "-89.99051695491059",
    "latitude": "29.91435051302363",
    "geocoded_column": {
      "latitude": "29.91435051302363",
      "longitude": "-89.99051695491059"
    }
  },
  {
    "service_request": "2022-900520",
    "request_type": "Trash/Recycling",
    "request_reason": "Order Trash Cart",
    "date_created": "2022-07-15T14:57:29.000",
    "date_modified": "2022-07-15T14:57:29.000",
    "request_status": "Pending",
    "responsible_agency": "Department of Sanitation",
    "final_address": "2923 Palmyra St, New Orleans, Louisiana, 70119",
    "address_councildis": "B",
    "status": "Assigned to Contractor",
    "contractor": "Richards Disposal",
    "rowid": "900520",
    "final_x": "3674023.18235",
    "final_y": "535221.701062",
    "longitude": "-90.09155278270744",
    "latitude": "29.965899017068637",
    "geocoded_column": {
      "latitude": "29.965899017068637",
      "longitude": "-90.09155278270744"
    }
  },
  {
    "service_request": "2022-900519",
    "request_type": "Roads/Drainage",
    "request_reason": "Pothole",
    "date_created": "2022-07-15T14:53:25.000",
    "date_modified": "2022-07-15T14:53:25.000",
    "request_status": "Pending",
    "responsible_agency": "Department of Public Works",
    "final_address": "1701 Louisa St",
    "address_councildis": "D",
    "status": "Pending",
    "rowid": "900519",
    "final_x": "3690175.39612",
    "final_y": "538147.157961",
    "longitude": "-90.04044051984286",
    "latitude": "29.973451791527623",
    "geocoded_column": {
      "latitude": "29.973451791527623",
      "longitude": "-90.04044051984286"
    }
  },
  {
    "service_request": "2022-900518",
    "request_type": "Abandoned Vehicles",
    "request_reason": "Abandoned/Junk Vehicles",
    "date_created": "2022-07-15T14:52:38.000",
    "date_modified": "2022-07-15T14:52:38.000",
    "request_status": "Pending",
    "responsible_agency": "Department of Public Works",
    "final_address": "821 Milan St",
    "address_councildis": "B",
    "status": "Pending",
    "rowid": "900518",
    "final_x": "3671863.06222",
    "final_y": "518670.740151",
    "longitude": "-90.09893745987164",
    "latitude": "29.92045347150388",
    "geocoded_column": {
      "latitude": "29.92045347150388",
      "longitude": "-90.09893745987164"
    }
  },
  {
    "service_request": "2022-900517",
    "request_type": "Traffic Signals/Signs/Striping/Streetlights",
    "request_reason": "Street Name Sign Damaged or Missing",
    "date_created": "2022-07-15T14:52:10.000",
    "date_modified": "2022-07-15T14:52:10.000",
    "request_status": "Pending",
    "responsible_agency": "Department of Public Works",
    "final_address": "1701 Louisa St",
    "address_councildis": "D",
    "status": "Pending",
    "rowid": "900517",
    "final_x": "3690175.39612",
    "final_y": "538147.157961",
    "longitude": "-90.04044051984286",
    "latitude": "29.973451791527623",
    "geocoded_column": {
      "latitude": "29.973451791527623",
      "longitude": "-90.04044051984286"
    }
  },
  {
    "service_request": "2022-900516",
    "request_type": "Trash/Recycling",
    "request_reason": "Request a Large Item Pick Up",
    "date_created": "2022-07-15T14:50:29.000",
    "date_modified": "2022-07-15T14:50:30.000",
    "request_status": "Pending",
    "responsible_agency": "Department of Sanitation",
    "final_address": "2306 Third St",
    "address_councildis": "B",
    "status": "Assigned to Contractor",
    "contractor": "Richards Disposal",
    "rowid": "900516",
    "final_x": "3674990.65909",
    "final_y": "524995.578173",
    "longitude": "-90.08884825651748",
    "latitude": "29.93775171209423",
    "geocoded_column": {
      "latitude": "29.93775171209423",
      "longitude": "-90.08884825651748"
    }
  },
  {
    "service_request": "2022-900512",
    "request_type": "Roads/Drainage",
    "request_reason": "Damaged Sidewalk",
    "date_created": "2022-07-15T14:46:07.000",
    "date_modified": "2022-07-15T14:46:07.000",
    "request_status": "Pending",
    "responsible_agency": "Department of Public Works",
    "final_address": "845 Carondelet St",
    "address_councildis": "B",
    "status": "Pending",
    "rowid": "900512",
    "final_x": "3679871.06229",
    "final_y": "527775.854719",
    "longitude": "-90.07334392366833",
    "latitude": "29.9452498984131",
    "geocoded_column": {
      "latitude": "29.9452498984131",
      "longitude": "-90.07334392366833"
    }
  },
  {
    "service_request": "2022-900511",
    "request_type": "Trash/Recycling",
    "request_reason": "Missed Trash Pick-Up",
    "date_created": "2022-07-15T14:43:12.000",
    "date_modified": "2022-07-15T14:43:12.000",
    "case_close_date": "2021-09-27T19:00:00.000",
    "request_status": "Pending",
    "responsible_agency": "Department of Sanitation",
    "final_address": "1624 Sauvage St",
    "address_councildis": "A",
    "status": "Assigned to Contractor",
    "contractor": "Metro Disposal",
    "rowid": "900511",
    "final_x": "3677209.96526",
    "final_y": "540769.864587",
    "longitude": "-90.08129756728515",
    "latitude": "29.981059219064324",
    "geocoded_column": {
      "latitude": "29.981059219064324",
      "longitude": "-90.08129756728515"
    }
  },
  {
    "service_request": "2022-900510",
    "request_type": "Roads/Drainage",
    "request_reason": "Damaged Sidewalk",
    "date_created": "2022-07-15T14:42:36.000",
    "date_modified": "2022-07-15T14:42:36.000",
    "request_status": "Pending",
    "responsible_agency": "Department of Public Works",
    "final_address": "801 Carondelet St",
    "address_councildis": "B",
    "status": "Pending",
    "rowid": "900510",
    "final_x": "3679948.12296",
    "final_y": "528079.049279",
    "longitude": "-90.07309009028124",
    "latitude": "29.946081251945472",
    "geocoded_column": {
      "latitude": "29.946081251945472",
      "longitude": "-90.07309009028124"
    }
  },
  {
    "service_request": "2022-900509",
    "request_type": "Trash/Recycling",
    "request_reason": "Missed Trash Pick-Up",
    "date_created": "2022-07-15T14:40:49.000",
    "date_modified": "2022-07-15T14:40:50.000",
    "request_status": "Pending",
    "responsible_agency": "Department of Sanitation",
    "final_address": "410 Lowerline St",
    "address_councildis": "A",
    "status": "Assigned to Contractor",
    "contractor": "Richards Disposal",
    "rowid": "900509",
    "final_x": "3661666.96403",
    "final_y": "524041.37734",
    "longitude": "-90.13094403947427",
    "latitude": "29.93551913414109",
    "geocoded_column": {
      "latitude": "29.93551913414109",
      "longitude": "-90.13094403947427"
    }
  },
  {
    "service_request": "2022-900508",
    "request_type": "Trash/Recycling",
    "request_reason": "Missed Trash Pick-Up",
    "date_created": "2022-07-15T14:35:37.000",
    "date_modified": "2022-07-15T14:39:58.000",
    "request_status": "Pending",
    "responsible_agency": "Department of Sanitation",
    "final_address": "New Orleans,LA",
    "address_councildis": "A",
    "status": "Assigned to Contractor",
    "contractor": "Richards Disposal",
    "rowid": "900508",
    "final_x": "3661712.00333",
    "final_y": "524057.031804",
    "longitude": "-90.13080133064518",
    "latitude": "29.93556087934907",
    "geocoded_column": {
      "latitude": "29.93556087934907",
      "longitude": "-90.13080133064518"
    }
  },
  {
    "service_request": "2022-900507",
    "request_type": "Trash/Recycling",
    "request_reason": "Missed Trash Pick-Up",
    "date_created": "2022-07-15T14:32:24.000",
    "date_modified": "2022-07-15T14:32:25.000",
    "request_status": "Pending",
    "responsible_agency": "Department of Sanitation",
    "final_address": "2603 Jefferson Ave",
    "address_councildis": "B",
    "status": "Assigned to Contractor",
    "contractor": "Richards Disposal",
    "rowid": "900507",
    "final_x": "3668219.59975",
    "final_y": "524986.294333",
    "longitude": "-90.11022540584088",
    "latitude": "29.937926657971296",
    "geocoded_column": {
      "latitude": "29.937926657971296",
      "longitude": "-90.11022540584088"
    }
  },
  {
    "service_request": "2022-900505",
    "request_type": "Property Maintenance",
    "request_reason": "Property Maintenance",
    "date_created": "2022-07-15T14:29:41.000",
    "date_modified": "2022-07-15T14:29:41.000",
    "request_status": "Pending",
    "responsible_agency": "Department of Code Enforcement",
    "final_address": "4979 Western St",
    "address_councildis": "D",
    "status": "Pending",
    "rowid": "900505",
    "final_x": "3684129.04143",
    "final_y": "551328.903957",
    "longitude": "-90.0590731729094",
    "latitude": "30.00988310791313",
    "geocoded_column": {
      "latitude": "30.00988310791313",
      "longitude": "-90.0590731729094"
    }
  },
  {
    "service_request": "2022-900506",
    "request_type": "Property Maintenance",
    "request_reason": "Property Maintenance",
    "date_created": "2022-07-15T14:29:41.000",
    "date_modified": "2022-07-15T14:29:41.000",
    "request_status": "Pending",
    "responsible_agency": "Department of Code Enforcement",
    "final_address": "4979 Western St",
    "address_councildis": "D",
    "status": "Pending",
    "rowid": "900506",
    "final_x": "3684129.04143",
    "final_y": "551328.903957",
    "longitude": "-90.0590731729094",
    "latitude": "30.00988310791313",
    "geocoded_column": {
      "latitude": "30.00988310791313",
      "longitude": "-90.0590731729094"
    }
  },
  {
    "service_request": "2022-900504",
    "request_type": "Roads/Drainage",
    "request_reason": "Catch Basin - Clogged",
    "date_created": "2022-07-15T14:28:03.000",
    "date_modified": "2022-07-15T14:28:03.000",
    "request_status": "Pending",
    "responsible_agency": "Department of Public Works",
    "final_address": "8114 Green St",
    "address_councildis": "A",
    "status": "Pending",
    "rowid": "900504",
    "final_x": "3663034.22304",
    "final_y": "529705.332929",
    "longitude": "-90.1264392318921",
    "latitude": "29.951053681726464",
    "geocoded_column": {
      "latitude": "29.951053681726464",
      "longitude": "-90.1264392318921"
    }
  },
  {
    "service_request": "2022-900503",
    "request_type": "Abandoned Vehicles",
    "request_reason": "Abandoned/Junk Vehicles",
    "date_created": "2022-07-15T14:26:56.000",
    "date_modified": "2022-07-15T14:26:56.000",
    "request_status": "Pending",
    "responsible_agency": "Department of Public Works",
    "final_address": "400 Turquoise St",
    "address_councildis": "D",
    "status": "Pending",
    "rowid": "900503",
    "final_x": "3667823.75821",
    "final_y": "555363.532121",
    "longitude": "-90.11045159765511",
    "latitude": "30.021465419048646",
    "geocoded_column": {
      "latitude": "30.021465419048646",
      "longitude": "-90.11045159765511"
    }
  },
  {
    "service_request": "2022-900502",
    "request_type": "Trash/Recycling",
    "request_reason": "Missed Trash Pick-Up",
    "date_created": "2022-07-15T14:24:50.000",
    "date_modified": "2022-07-15T14:24:50.000",
    "request_status": "Pending",
    "responsible_agency": "Department of Sanitation",
    "final_address": "1031 Sixth St",
    "address_councildis": "B",
    "status": "Assigned to Contractor",
    "contractor": "Richards Disposal",
    "rowid": "900502",
    "final_x": "3676713.55835",
    "final_y": "520468.180728",
    "longitude": "-90.0835648216669",
    "latitude": "29.9252512808144",
    "geocoded_column": {
      "latitude": "29.9252512808144",
      "longitude": "-90.0835648216669"
    }
  },
  {
    "service_request": "2022-900501",
    "request_type": "Trash/Recycling",
    "request_reason": "Missed Trash Pick-Up",
    "date_created": "2022-07-15T14:23:04.000",
    "date_modified": "2022-07-15T14:23:05.000",
    "request_status": "Pending",
    "responsible_agency": "Department of Sanitation",
    "final_address": "1031 Sixth St",
    "address_councildis": "B",
    "status": "Assigned to Contractor",
    "contractor": "Richards Disposal",
    "rowid": "900501",
    "final_x": "3676713.55835",
    "final_y": "520468.180728",
    "longitude": "-90.0835648216669",
    "latitude": "29.9252512808144",
    "geocoded_column": {
      "latitude": "29.9252512808144",
      "longitude": "-90.0835648216669"
    }
  },
  {
    "service_request": "2022-900500",
    "request_type": "Trash/Recycling",
    "request_reason": "Replace Trash Cart",
    "date_created": "2022-07-15T14:15:56.000",
    "date_modified": "2022-07-15T14:15:56.000",
    "case_close_date": "2022-03-10T18:00:00.000",
    "request_status": "Pending",
    "responsible_agency": "Department of Sanitation",
    "final_address": "1215 Foucher St",
    "address_councildis": "B",
    "status": "Assigned to Contractor",
    "contractor": "Richards Disposal",
    "rowid": "900500",
    "final_x": "3674056.76168",
    "final_y": "519800.248184",
    "longitude": "-90.09197434230282",
    "latitude": "29.92349409287662",
    "geocoded_column": {
      "latitude": "29.92349409287662",
      "longitude": "-90.09197434230282"
    }
  },
  {
    "service_request": "2022-900499",
    "request_type": "Trash/Recycling",
    "request_reason": "Repair Recycling Cart",
    "date_created": "2022-07-15T14:15:37.000",
    "date_modified": "2022-07-15T14:15:37.000",
    "request_status": "Pending",
    "responsible_agency": "Department of Sanitation",
    "final_address": "5720 Kensington Blvd",
    "address_councildis": "E",
    "status": "Pending",
    "rowid": "900499",
    "final_x": "3713476.86245",
    "final_y": "560449.740766",
    "longitude": "-89.96600992902646",
    "latitude": "30.034031768145226",
    "geocoded_column": {
      "latitude": "30.034031768145226",
      "longitude": "-89.96600992902646"
    }
  },
  {
    "service_request": "2022-900498",
    "request_type": "Trash/Recycling",
    "request_reason": "Repair Trash Cart",
    "date_created": "2022-07-15T14:10:04.000",
    "date_modified": "2022-07-15T14:10:05.000",
    "request_status": "Pending",
    "responsible_agency": "Department of Sanitation",
    "final_address": "5720 Kensington Blvd",
    "address_councildis": "E",
    "status": "Assigned to Contractor",
    "contractor": "Metro Disposal",
    "rowid": "900498",
    "final_x": "3713476.86245",
    "final_y": "560449.740766",
    "longitude": "-89.96600992902646",
    "latitude": "30.034031768145226",
    "geocoded_column": {
      "latitude": "30.034031768145226",
      "longitude": "-89.96600992902646"
    }
  },
  {
    "service_request": "2022-900497",
    "request_type": "Safety & Permits",
    "request_reason": "Construction permit",
    "date_created": "2022-07-15T14:08:47.000",
    "date_modified": "2022-07-15T14:08:47.000",
    "request_status": "Pending",
    "responsible_agency": "Department of Code Enforcement",
    "final_address": "300 Olivier St",
    "address_councildis": "C",
    "status": "Pending",
    "rowid": "900497",
    "final_x": "3687292.59068",
    "final_y": "530718.617922",
    "longitude": "-90.04980779653853",
    "latitude": "29.953115009218696",
    "geocoded_column": {
      "latitude": "29.953115009218696",
      "longitude": "-90.04980779653853"
    }
  },
  {
    "service_request": "2022-900496",
    "request_type": "Property Maintenance",
    "request_reason": "Property Maintenance",
    "date_created": "2022-07-15T14:07:34.000",
    "date_modified": "2022-07-15T14:07:34.000",
    "request_status": "Pending",
    "responsible_agency": "Department of Code Enforcement",
    "final_address": "1665 n. Galvez",
    "status": "Pending",
    "rowid": "900496",
    "longitude": "0.0",
    "latitude": "0.0",
    "geocoded_column": {
      "latitude": "0.0",
      "longitude": "0.0"
    }
  },
  {
    "service_request": "2022-900495",
    "request_type": "Trash/Recycling",
    "request_reason": "Order Trash Cart",
    "date_created": "2022-07-15T14:06:15.000",
    "date_modified": "2022-07-15T14:06:16.000",
    "request_status": "Pending",
    "responsible_agency": "Department of Sanitation",
    "final_address": "1155 Eagle St",
    "address_councildis": "A",
    "status": "Assigned to Contractor",
    "contractor": "Richards Disposal",
    "rowid": "900495",
    "final_x": "3660102.93216",
    "final_y": "529810.155969",
    "longitude": "-90.13569137375498",
    "latitude": "29.951426481453346",
    "geocoded_column": {
      "latitude": "29.951426481453346",
      "longitude": "-90.13569137375498"
    }
  },
  {
    "service_request": "2022-900494",
    "request_type": "Property Maintenance",
    "request_reason": "Property Maintenance",
    "date_created": "2022-07-15T14:06:15.000",
    "date_modified": "2022-07-15T14:06:15.000",
    "request_status": "Pending",
    "responsible_agency": "Department of Code Enforcement",
    "final_address": "1663 N. Galvez",
    "address_councildis": "D",
    "status": "Pending",
    "rowid": "900494",
    "final_x": "3681050.86722",
    "final_y": "539364.594698",
    "longitude": "-90.06921524743264",
    "latitude": "29.977079257336154",
    "geocoded_column": {
      "latitude": "29.977079257336154",
      "longitude": "-90.06921524743264"
    }
  },
  {
    "service_request": "2022-900493",
    "request_type": "Trash/Recycling",
    "request_reason": "Dead Animal Pick Up",
    "date_created": "2022-07-15T14:03:16.000",
    "date_modified": "2022-07-15T14:04:38.000",
    "request_status": "Pending",
    "responsible_agency": "Department of Sanitation",
    "final_address": "2910 Kabel Dr, New Orleans, Louisiana, 70131",
    "address_councildis": "C",
    "status": "Assigned to Contractor",
    "contractor": "Richards Disposal",
    "rowid": "900493",
    "final_x": "3700762.21802",
    "final_y": "520498.62764",
    "longitude": "-90.00765021173764",
    "latitude": "29.92459185913795",
    "geocoded_column": {
      "latitude": "29.92459185913795",
      "longitude": "-90.00765021173764"
    }
  },
  {
    "service_request": "2022-900492",
    "request_type": "Abandoned Vehicles",
    "request_reason": "Abandoned/Junk Vehicles",
    "date_created": "2022-07-15T13:59:44.000",
    "date_modified": "2022-07-15T13:59:44.000",
    "request_status": "Pending",
    "responsible_agency": "Department of Public Works",
    "final_address": "5918 Elysian Fields Ave",
    "address_councildis": "D",
    "status": "Pending",
    "rowid": "900492",
    "final_x": "3683350.70594",
    "final_y": "554859.01212",
    "longitude": "-90.06140841202824",
    "latitude": "30.01961339448795",
    "geocoded_column": {
      "latitude": "30.01961339448795",
      "longitude": "-90.06140841202824"
    }
  },
  {
    "service_request": "2022-900491",
    "request_type": "Roads/Drainage",
    "request_reason": "Catch Basin - Clogged",
    "date_created": "2022-07-15T13:56:17.000",
    "date_modified": "2022-07-15T13:56:17.000",
    "request_status": "Pending",
    "responsible_agency": "Department of Public Works",
    "final_address": "5601 Eads St",
    "address_councildis": "D",
    "status": "Pending",
    "rowid": "900491",
    "final_x": "3686947.36988",
    "final_y": "553731.344983",
    "longitude": "-90.05008407116722",
    "latitude": "30.016402458623695",
    "geocoded_column": {
      "latitude": "30.016402458623695",
      "longitude": "-90.05008407116722"
    }
  },
  {
    "service_request": "2022-900490",
    "request_type": "Trash/Recycling",
    "request_reason": "Missed Trash Pick-Up",
    "date_created": "2022-07-15T13:54:41.000",
    "date_modified": "2022-07-15T13:54:41.000",
    "request_status": "Pending",
    "responsible_agency": "Department of Sanitation",
    "final_address": "2857 Annunciation St",
    "address_councildis": "B",
    "status": "Assigned to Contractor",
    "contractor": "Richards Disposal",
    "rowid": "900490",
    "final_x": "3677245.7764",
    "final_y": "519679.140728",
    "longitude": "-90.08191197942094",
    "latitude": "29.923065704093972",
    "geocoded_column": {
      "latitude": "29.923065704093972",
      "longitude": "-90.08191197942094"
    }
  },
  {
    "service_request": "2022-900489",
    "request_type": "Abandoned Vehicles",
    "request_reason": "Abandoned/Junk Vehicles",
    "date_created": "2022-07-15T13:52:55.000",
    "date_modified": "2022-07-15T13:52:55.000",
    "request_status": "Pending",
    "responsible_agency": "Department of Public Works",
    "final_address": "827 Adams St",
    "address_councildis": "A",
    "status": "Pending",
    "rowid": "900489",
    "final_x": "3662313.73607",
    "final_y": "526521.396542",
    "longitude": "-90.12881986118762",
    "latitude": "29.942319722694723",
    "geocoded_column": {
      "latitude": "29.942319722694723",
      "longitude": "-90.12881986118762"
    }
  },
  {
    "service_request": "2022-900488",
    "request_type": "Trash/Recycling",
    "request_reason": "MIssed Recycling Pick-Up",
    "date_created": "2022-07-15T13:52:34.000",
    "date_modified": "2022-07-15T13:52:35.000",
    "request_status": "Pending",
    "responsible_agency": "Department of Sanitation",
    "final_address": "1400 BLK Saint Mary St",
    "address_councildis": "B",
    "status": "Assigned to Contractor",
    "contractor": "Richards Disposal",
    "rowid": "900488",
    "final_x": "3678897.43449",
    "final_y": "523755.609757",
    "longitude": "-90.07655719524031",
    "latitude": "29.934224958007146",
    "geocoded_column": {
      "latitude": "29.934224958007146",
      "longitude": "-90.07655719524031"
    }
  },
  {
    "service_request": "2022-900487",
    "request_type": "Trash/Recycling",
    "request_reason": "Request a Large Item Pick Up",
    "date_created": "2022-07-15T13:52:08.000",
    "date_modified": "2022-07-15T13:52:08.000",
    "request_status": "Pending",
    "responsible_agency": "Department of Sanitation",
    "final_address": "3018 N Rocheblave St",
    "address_councildis": "D",
    "status": "Assigned to Contractor",
    "contractor": "Metro Disposal",
    "rowid": "900487",
    "final_x": "3689803.42928",
    "final_y": "540950.736587",
    "longitude": "-90.04151544182487",
    "latitude": "29.981172173549915",
    "geocoded_column": {
      "latitude": "29.981172173549915",
      "longitude": "-90.04151544182487"
    }
  },
  {
    "service_request": "2022-900486",
    "request_type": "Trash/Recycling",
    "request_reason": "Illegal Dumping",
    "date_created": "2022-07-15T13:50:15.000",
    "date_modified": "2022-07-15T13:50:15.000",
    "request_status": "Pending",
    "responsible_agency": "Department of Sanitation",
    "final_address": "823 Adams St",
    "address_councildis": "A",
    "status": "Pending",
    "rowid": "900486",
    "final_x": "3662261.98829",
    "final_y": "526454.78579",
    "longitude": "-90.12898545172816",
    "latitude": "29.942138059985744",
    "geocoded_column": {
      "latitude": "29.942138059985744",
      "longitude": "-90.12898545172816"
    }
  },
  {
    "service_request": "2022-900485",
    "request_type": "Trash/Recycling",
    "request_reason": "Illegal Dumping",
    "date_created": "2022-07-15T13:47:39.000",
    "date_modified": "2022-07-15T13:47:39.000",
    "request_status": "Pending",
    "responsible_agency": "Department of Sanitation",
    "final_address": "926 Adams St",
    "address_councildis": "A",
    "status": "Pending",
    "rowid": "900485",
    "final_x": "3662463.36455",
    "final_y": "526786.43827",
    "longitude": "-90.12833864838885",
    "latitude": "29.94304417716577",
    "geocoded_column": {
      "latitude": "29.94304417716577",
      "longitude": "-90.12833864838885"
    }
  },
  {
    "service_request": "2022-900483",
    "request_type": "Roads/Drainage",
    "request_reason": "Catch Basin - Clogged",
    "date_created": "2022-07-15T13:44:15.000",
    "date_modified": "2022-07-15T13:44:15.000",
    "request_status": "Pending",
    "responsible_agency": "Department of Public Works",
    "final_address": "818 Opelousas Ave",
    "address_councildis": "C",
    "status": "Pending",
    "rowid": "900483",
    "final_x": "3688001.69814",
    "final_y": "529190.373312",
    "longitude": "-90.04762289562579",
    "latitude": "29.94889100049254",
    "geocoded_column": {
      "latitude": "29.94889100049254",
      "longitude": "-90.04762289562579"
    }
  },
  {
    "service_request": "2022-900482",
    "request_type": "Trash/Recycling",
    "request_reason": "Replace Trash Cart",
    "date_created": "2022-07-15T13:43:36.000",
    "date_modified": "2022-07-15T13:43:38.000",
    "request_status": "Pending",
    "responsible_agency": "Department of Sanitation",
    "final_address": "7301 Downman Rd",
    "address_councildis": "D",
    "status": "Assigned to Contractor",
    "contractor": "Metro Disposal",
    "rowid": "900482",
    "final_x": "3695044.74544",
    "final_y": "557472.703579",
    "longitude": "-90.02436494613139",
    "latitude": "30.02643794800339",
    "geocoded_column": {
      "latitude": "30.02643794800339",
      "longitude": "-90.02436494613139"
    }
  },
  {
    "service_request": "2022-900481",
    "request_type": "Trash/Recycling",
    "request_reason": "Missed Trash Pick-Up",
    "date_created": "2022-07-15T13:42:55.000",
    "date_modified": "2022-07-15T13:42:56.000",
    "request_status": "Pending",
    "responsible_agency": "Department of Sanitation",
    "final_address": "922 Adams St",
    "address_councildis": "A",
    "status": "Assigned to Contractor",
    "contractor": "Richards Disposal",
    "rowid": "900481",
    "final_x": "3662443.70746",
    "final_y": "526768.232062",
    "longitude": "-90.12840131542436",
    "latitude": "29.942994684292536",
    "geocoded_column": {
      "latitude": "29.942994684292536",
      "longitude": "-90.12840131542436"
    }
  },
  {
    "service_request": "2022-900480",
    "request_type": "Trash/Recycling",
    "request_reason": "Replace Trash Cart",
    "date_created": "2022-07-15T13:42:39.000",
    "date_modified": "2022-07-15T13:42:41.000",
    "request_status": "Pending",
    "responsible_agency": "Department of Sanitation",
    "final_address": "7311 Downman Rd",
    "address_councildis": "D",
    "status": "Assigned to Contractor",
    "contractor": "Metro Disposal",
    "rowid": "900480",
    "final_x": "3695030.13987",
    "final_y": "557533.101915",
    "longitude": "-90.02440891769596",
    "latitude": "30.026604479243534",
    "geocoded_column": {
      "latitude": "30.026604479243534",
      "longitude": "-90.02440891769596"
    }
  },
  {
    "service_request": "2022-900479",
    "request_type": "Trash/Recycling",
    "request_reason": "Replace Trash Cart",
    "date_created": "2022-07-15T13:39:07.000",
    "date_modified": "2022-07-15T13:39:08.000",
    "request_status": "Pending",
    "responsible_agency": "Department of Sanitation",
    "final_address": "251 English Turn Dr",
    "address_councildis": "C",
    "status": "Assigned to Contractor",
    "contractor": "Richards Disposal",
    "rowid": "900479",
    "final_x": "3718208.08581",
    "final_y": "512460.231665",
    "longitude": "-89.95288587189728",
    "latitude": "29.901922607996948",
    "geocoded_column": {
      "latitude": "29.901922607996948",
      "longitude": "-89.95288587189728"
    }
  },
  {
    "service_request": "2022-900478",
    "request_type": "Roads/Drainage",
    "request_reason": "Catch Basin - Clogged",
    "date_created": "2022-07-15T13:38:05.000",
    "date_modified": "2022-07-15T13:38:05.000",
    "request_status": "Pending",
    "responsible_agency": "Department of Public Works",
    "final_address": "2357 Chippewa St",
    "address_councildis": "B",
    "status": "Pending",
    "rowid": "900478",
    "final_x": "3679015.95534",
    "final_y": "520404.059704",
    "longitude": "-90.07629910380341",
    "latitude": "29.925005717596164",
    "geocoded_column": {
      "latitude": "29.925005717596164",
      "longitude": "-90.07629910380341"
    }
  },
  {
    "service_request": "2022-900477",
    "request_type": "Trash/Recycling",
    "request_reason": "Request a Large Item Pick Up",
    "date_created": "2022-07-15T13:35:57.000",
    "date_modified": "2022-07-15T13:35:59.000",
    "request_status": "Pending",
    "responsible_agency": "Department of Sanitation",
    "final_address": "2149 Valentine Ct",
    "address_councildis": "C",
    "status": "Assigned to Contractor",
    "contractor": "Richards Disposal",
    "rowid": "900477",
    "final_x": "3699594.38653",
    "final_y": "523262.081403",
    "longitude": "-90.01123598697767",
    "latitude": "29.932227504815245",
    "geocoded_column": {
      "latitude": "29.932227504815245",
      "longitude": "-90.01123598697767"
    }
  },
  {
    "service_request": "2022-900476",
    "request_type": "Tax and Revenue",
    "request_reason": "Sales Tax Question",
    "date_created": "2022-07-15T13:34:14.000",
    "date_modified": "2022-07-15T13:34:14.000",
    "request_status": "Pending",
    "responsible_agency": "Bureau of Revenue",
    "status": "Pending",
    "rowid": "900476",
    "longitude": "0.0",
    "latitude": "0.0",
    "geocoded_column": {
      "latitude": "0.0",
      "longitude": "0.0"
    }
  },
  {
    "service_request": "2022-900475",
    "request_type": "Trash/Recycling",
    "request_reason": "Missed Trash Pick-Up",
    "date_created": "2022-07-15T13:32:34.000",
    "date_modified": "2022-07-15T13:32:34.000",
    "request_status": "Pending",
    "responsible_agency": "Department of Sanitation",
    "final_address": "2529 Lincoln Ct",
    "address_councildis": "D",
    "status": "Assigned to Contractor",
    "contractor": "Metro Disposal",
    "rowid": "900475",
    "final_x": "3682883.34952",
    "final_y": "541555.114508",
    "longitude": "-90.06335100387574",
    "latitude": "29.983046705070592",
    "geocoded_column": {
      "latitude": "29.983046705070592",
      "longitude": "-90.06335100387574"
    }
  },
  {
    "service_request": "2022-900474",
    "request_type": "Trash/Recycling",
    "request_reason": "Replace Trash Cart",
    "date_created": "2022-07-15T13:32:21.000",
    "date_modified": "2022-07-15T13:32:22.000",
    "request_status": "Pending",
    "responsible_agency": "Department of Sanitation",
    "final_address": "1108 Joseph St",
    "address_councildis": "A",
    "status": "Assigned to Contractor",
    "contractor": "Richards Disposal",
    "rowid": "900474",
    "final_x": "3666296.74445",
    "final_y": "519966.783288",
    "longitude": "-90.11646433881494",
    "latitude": "29.92418089383409",
    "geocoded_column": {
      "latitude": "29.92418089383409",
      "longitude": "-90.11646433881494"
    }
  },
  {
    "service_request": "2022-900473",
    "request_type": "Trash/Recycling",
    "request_reason": "Missed Trash Pick-Up",
    "date_created": "2022-07-15T13:32:00.000",
    "date_modified": "2022-07-15T13:32:01.000",
    "request_status": "Pending",
    "responsible_agency": "Department of Sanitation",
    "final_address": "917 N Tonti St",
    "address_councildis": "D",
    "status": "Assigned to Contractor",
    "contractor": "Richards Disposal",
    "rowid": "900473",
    "final_x": "3678297.5837",
    "final_y": "536851.094984",
    "longitude": "-90.07799797881918",
    "latitude": "29.970251229715007",
    "geocoded_column": {
      "latitude": "29.970251229715007",
      "longitude": "-90.07799797881918"
    }
  },
  {
    "service_request": "2022-900472",
    "request_type": "Trash/Recycling",
    "request_reason": "Request a Large Item Pick Up",
    "date_created": "2022-07-15T13:28:34.000",
    "date_modified": "2022-07-15T13:28:36.000",
    "request_status": "Pending",
    "responsible_agency": "Department of Sanitation",
    "final_address": "1130 Aline St",
    "address_councildis": "B",
    "status": "Assigned to Contractor",
    "contractor": "Richards Disposal",
    "rowid": "900472",
    "final_x": "3674325.6059",
    "final_y": "519646.382008",
    "longitude": "-90.09113096539924",
    "latitude": "29.923062999001697",
    "geocoded_column": {
      "latitude": "29.923062999001697",
      "longitude": "-90.09113096539924"
    }
  },
  {
    "service_request": "2022-900471",
    "request_type": "Trash/Recycling",
    "request_reason": "Request a Large Item Pick Up",
    "date_created": "2022-07-15T13:26:19.000",
    "date_modified": "2022-07-15T13:26:20.000",
    "request_status": "Pending",
    "responsible_agency": "Department of Sanitation",
    "final_address": "4809 Saint Anthony Ave, New Orleans, Louisiana, 70122",
    "status": "Assigned to Contractor",
    "rowid": "900471",
    "longitude": "0.0",
    "latitude": "0.0",
    "geocoded_column": {
      "latitude": "0.0",
      "longitude": "0.0"
    }
  },
  {
    "service_request": "2022-900470",
    "request_type": "Trash/Recycling",
    "request_reason": "Start Trash Service",
    "date_created": "2022-07-15T13:22:32.000",
    "date_modified": "2022-07-15T13:22:32.000",
    "request_status": "Pending",
    "responsible_agency": "Department of Sanitation",
    "final_address": "5211 S Derbigny St",
    "address_councildis": "B",
    "status": "Assigned to Contractor",
    "contractor": "Richards Disposal",
    "rowid": "900470",
    "final_x": "3668756.12577",
    "final_y": "526308.248574",
    "longitude": "-90.1084869298958",
    "latitude": "29.941545847170737",
    "geocoded_column": {
      "latitude": "29.941545847170737",
      "longitude": "-90.1084869298958"
    }
  },
  {
    "service_request": "2022-900469",
    "request_type": "Trash/Recycling",
    "request_reason": "Order Trash Cart",
    "date_created": "2022-07-15T13:22:15.000",
    "date_modified": "2022-07-15T13:22:16.000",
    "request_status": "Pending",
    "responsible_agency": "Department of Sanitation",
    "final_address": "5211 S Derbigny St",
    "address_councildis": "B",
    "status": "Assigned to Contractor",
    "contractor": "Richards Disposal",
    "rowid": "900469",
    "final_x": "3668756.12577",
    "final_y": "526308.248574",
    "longitude": "-90.1084869298958",
    "latitude": "29.941545847170737",
    "geocoded_column": {
      "latitude": "29.941545847170737",
      "longitude": "-90.1084869298958"
    }
  },