[
  {
    "service_request": "2022-926101",
    "request_type": "Trash/Recycling",
    "request_reason": "Illegal Dumping",
    "date_created": "2022-10-05T00:21:19.000",
    "date_modified": "2022-10-05T00:21:19.000",
    "request_status": "Pending",
    "responsible_agency": "Department of Sanitation",
    "final_address": "217 N Dorgenois St",
    "address_councildis": "B",
    "status": "Pending",
    "rowid": "926101",
    "final_x": "3676112.88155",
    "final_y": "535265.46375",
    "longitude": "-90.08495206534329",
    "latitude": "29.96595691351868",
    "geocoded_column": {
      "latitude": "29.96595691351868",
      "longitude": "-90.08495206534329"
    }
  },
  {
    "service_request": "2022-926100",
    "request_type": "Trash/Recycling",
    "request_reason": "Request a Large Item Pick Up",
    "date_created": "2022-10-04T23:53:05.000",
    "date_modified": "2022-10-04T23:53:06.000",
    "request_status": "Pending",
    "responsible_agency": "Department of Sanitation",
    "final_address": "3621 Rue Renee",
    "address_councildis": "C",
    "status": "Assigned to Contractor",
    "contractor": "Richards Disposal",
    "rowid": "926100",
    "final_x": "3705209.28055",
    "final_y": "516994.617269",
    "longitude": "-89.99374176305945",
    "latitude": "29.914814823499917",
    "geocoded_column": {
      "latitude": "29.914814823499917",
      "longitude": "-89.99374176305945"
    }
  },
  {
    "service_request": "2022-926099",
    "request_type": "Traffic Signals/Signs/Striping/Streetlights",
    "request_reason": "Street Light Outage/Malfunction",
    "date_created": "2022-10-04T23:06:32.000",
    "date_modified": "2022-10-04T23:06:33.000",
    "request_status": "Pending",
    "responsible_agency": "Department of Public Works",
    "final_address": "7500 Oak St",
    "address_councildis": "A",
    "status": "Pending",
    "contractor": "Legacy Professional Services",
    "rowid": "926099",
    "final_x": "3663490.46759",
    "final_y": "526942.982014",
    "longitude": "-90.12509060469823",
    "latitude": "29.943444882488304",
    "geocoded_column": {
      "latitude": "29.943444882488304",
      "longitude": "-90.12509060469823"
    }
  },
  {
    "service_request": "2022-926097",
    "request_type": "Traffic Signals/Signs/Striping/Streetlights",
    "request_reason": "Additional signage",
    "date_created": "2022-10-04T22:43:47.000",
    "date_modified": "2022-10-04T22:43:47.000",
    "request_status": "Pending",
    "responsible_agency": "Department of Public Works",
    "final_address": "4900 Wright Rd",
    "address_councildis": "E",
    "status": "Pending",
    "rowid": "926097",
    "final_x": "3716511.0686",
    "final_y": "557569.875291",
    "longitude": "-89.95653091701938",
    "latitude": "30.02601338724098",
    "geocoded_column": {
      "latitude": "30.02601338724098",
      "longitude": "-89.95653091701938"
    }
  },
  {
    "service_request": "2022-926096",
    "request_type": "Traffic Signals/Signs/Striping/Streetlights",
    "request_reason": "Traffic Sign Missing/Damaged",
    "date_created": "2022-10-04T22:35:25.000",
    "date_modified": "2022-10-04T22:35:25.000",
    "request_status": "Pending",
    "responsible_agency": "Department of Public Works",
    "final_address": "4674 Wright Rd",
    "address_councildis": "E",
    "status": "Pending",
    "rowid": "926096",
    "final_x": "3716605.09279",
    "final_y": "556648.027994",
    "longitude": "-89.95626882323849",
    "latitude": "30.023475567629692",
    "geocoded_column": {
      "latitude": "30.023475567629692",
      "longitude": "-89.95626882323849"
    }
  },
  {
    "service_request": "2022-926095",
    "request_type": "Traffic Signals/Signs/Striping/Streetlights",
    "request_reason": "Street Light Outage/Malfunction",
    "date_created": "2022-10-04T22:14:20.000",
    "date_modified": "2022-10-04T22:14:21.000",
    "request_status": "Pending",
    "responsible_agency": "Department of Public Works",
    "final_address": "801 Poland Ave",
    "address_councildis": "C",
    "status": "Pending",
    "contractor": "Legacy Professional Services",
    "rowid": "926095",
    "final_x": "3692819.70973",
    "final_y": "533886.479429",
    "longitude": "-90.03224205457565",
    "latitude": "29.961654125498093",
    "geocoded_column": {
      "latitude": "29.961654125498093",
      "longitude": "-90.03224205457565"
    }
  },
  {
    "service_request": "2022-926094",
    "request_type": "Trash/Recycling",
    "request_reason": "Missed Trash Pick-Up",
    "date_created": "2022-10-04T22:07:42.000",
    "date_modified": "2022-10-04T22:07:43.000",
    "request_status": "Pending",
    "responsible_agency": "Department of Sanitation",
    "final_address": "508 Filmore Ave",
    "address_councildis": "A",
    "status": "Assigned to Contractor",
    "contractor": "Metro Disposal",
    "rowid": "926094",
    "final_x": "3668262.96666",
    "final_y": "551998.912854",
    "longitude": "-90.10917739277946",
    "latitude": "30.01220100872681",
    "geocoded_column": {
      "latitude": "30.01220100872681",
      "longitude": "-90.10917739277946"
    }
  },
  {
    "service_request": "2022-926093",
    "request_type": "Trash/Recycling",
    "request_reason": "MIssed Recycling Pick-Up",
    "date_created": "2022-10-04T22:01:27.000",
    "date_modified": "2022-10-04T22:01:27.000",
    "request_status": "Pending",
    "responsible_agency": "Department of Sanitation",
    "final_address": "2126 Mediamolle Dr",
    "address_councildis": "C",
    "status": "Assigned to Contractor",
    "contractor": "Richards Disposal",
    "rowid": "926093",
    "final_x": "3699263.62359",
    "final_y": "523469.944699",
    "longitude": "-90.01227260179249",
    "latitude": "29.932809546757955",
    "geocoded_column": {
      "latitude": "29.932809546757955",
      "longitude": "-90.01227260179249"
    }
  },
  {
    "service_request": "2022-926092",
    "request_type": "Trash/Recycling",
    "request_reason": "Missed Trash Pick-Up",
    "date_created": "2022-10-04T21:54:11.000",
    "date_modified": "2022-10-04T21:54:12.000",
    "request_status": "Pending",
    "responsible_agency": "Department of Sanitation",
    "final_address": "1117 Robert St",
    "address_councildis": "B",
    "status": "Assigned to Contractor",
    "contractor": "Richards Disposal",
    "rowid": "926092",
    "final_x": "3668710.70138",
    "final_y": "519493.487799",
    "longitude": "-90.10886026485268",
    "latitude": "29.922808769872223",
    "geocoded_column": {
      "latitude": "29.922808769872223",
      "longitude": "-90.10886026485268"
    }
  },
  {
    "service_request": "2022-926091",
    "request_type": "Roads/Drainage",
    "request_reason": "WaterMain Break",
    "date_created": "2022-10-04T21:33:48.000",
    "date_modified": "2022-10-04T21:33:48.000",
    "request_status": "Closed",
    "responsible_agency": "Department of Public Works",
    "final_address": "1941 Ellen Park Pl",
    "address_councildis": "C",
    "status": "Invalid Case",
    "rowid": "926091",
    "final_x": "3702862.41847",
    "final_y": "523646.239099",
    "longitude": "-90.00090509810865",
    "latitude": "29.93317971743228",
    "geocoded_column": {
      "latitude": "29.93317971743228",
      "longitude": "-90.00090509810865"
    }
  },
  {
    "service_request": "2022-926090",
    "request_type": "Safety & Permits",
    "request_reason": "Safety & Permits Request (Cyber Incident Back Up)",
    "date_created": "2022-10-04T21:32:53.000",
    "date_modified": "2022-10-04T21:32:53.000",
    "request_status": "Pending",
    "responsible_agency": "Safety and Permits",
    "status": "Pending",
    "rowid": "926090",
    "longitude": "0.0",
    "latitude": "0.0",
    "geocoded_column": {
      "latitude": "0.0",
      "longitude": "0.0"
    }
  },
  {
    "service_request": "2022-926089",
    "request_type": "Trash/Recycling",
    "request_reason": "Missed Trash Pick-Up",
    "date_created": "2022-10-04T21:08:06.000",
    "date_modified": "2022-10-04T21:08:07.000",
    "request_status": "Pending",
    "responsible_agency": "Department of Sanitation",
    "final_address": "720 Lyons St",
    "address_councildis": "B",
    "status": "Assigned to Contractor",
    "contractor": "Richards Disposal",
    "rowid": "926089",
    "final_x": "3669236.32513",
    "final_y": "518035.45087",
    "longitude": "-90.10725032042382",
    "latitude": "29.918784174085456",
    "geocoded_column": {
      "latitude": "29.918784174085456",
      "longitude": "-90.10725032042382"
    }
  },
  {
    "service_request": "2022-926088",
    "request_type": "Traffic Signals/Signs/Striping/Streetlights",
    "request_reason": "Traffic Sign Missing/Damaged",
    "date_created": "2022-10-04T20:31:15.000",
    "date_modified": "2022-10-04T20:31:16.000",
    "request_status": "Pending",
    "responsible_agency": "Department of Public Works",
    "final_address": "ST CLAUDE AVE & ELYSIAN FIELDS AVE",
    "address_councildis": "C",
    "status": "Pending",
    "rowid": "926088",
    "final_x": "3684957.9",
    "final_y": "536360.38",
    "longitude": "-90.05698128744078",
    "latitude": "29.96869961706654",
    "geocoded_column": {
      "latitude": "29.96869961706654",
      "longitude": "-90.05698128744078"
    }
  },
  {
    "service_request": "2022-926087",
    "request_type": "Health Related Questions",
    "request_reason": "Noise Ordinance Complaint",
    "date_created": "2022-10-04T20:10:30.000",
    "date_modified": "2022-10-04T20:10:30.000",
    "request_status": "Pending",
    "responsible_agency": "Health Department",
    "final_address": "5010 S Robertson St",
    "address_councildis": "B",
    "status": "Pending",
    "rowid": "926087",
    "final_x": "3668654.35982",
    "final_y": "524225.60294",
    "longitude": "-90.10887849078452",
    "latitude": "29.93582223345129",
    "geocoded_column": {
      "latitude": "29.93582223345129",
      "longitude": "-90.10887849078452"
    }
  },
  {
    "service_request": "2022-926086",
    "request_type": "Property Maintenance",
    "request_reason": "Property Maintenance",
    "date_created": "2022-10-04T20:06:17.000",
    "date_modified": "2022-10-04T20:06:17.000",
    "request_status": "Pending",
    "responsible_agency": "Department of Code Enforcement",
    "final_address": "5204 Tullis Dr",
    "address_councildis": "C",
    "status": "Pending",
    "rowid": "926086",
    "final_x": "3702915.38385",
    "final_y": "512001.207408",
    "longitude": "-90.0011652964782",
    "latitude": "29.901158185921116",
    "geocoded_column": {
      "latitude": "29.901158185921116",
      "longitude": "-90.0011652964782"
    }
  },
  {
    "service_request": "2022-926085",
    "request_type": "Trash/Recycling",
    "request_reason": "Missed Trash Pick-Up",
    "date_created": "2022-10-04T19:59:44.000",
    "date_modified": "2022-10-04T19:59:45.000",
    "request_status": "Pending",
    "responsible_agency": "Department of Sanitation",
    "final_address": "1102 Robert St",
    "address_councildis": "B",
    "status": "Assigned to Contractor",
    "contractor": "Richards Disposal",
    "rowid": "926085",
    "final_x": "3668626.42612",
    "final_y": "519378.467511",
    "longitude": "-90.10913016852628",
    "latitude": "29.922494976519797",
    "geocoded_column": {
      "latitude": "29.922494976519797",
      "longitude": "-90.10913016852628"
    }
  },
  {
    "service_request": "2022-926084",
    "request_type": "Trash/Recycling",
    "request_reason": "Request a Large Item Pick Up",
    "date_created": "2022-10-04T19:44:47.000",
    "date_modified": "2022-10-04T19:44:48.000",
    "request_status": "Pending",
    "responsible_agency": "Department of Sanitation",
    "final_address": "4819 Touro St",
    "address_councildis": "D",
    "status": "Assigned to Contractor",
    "contractor": "Metro Disposal",
    "rowid": "926084",
    "final_x": "3683136.03183",
    "final_y": "550419.445332",
    "longitude": "-90.06224231954664",
    "latitude": "30.00741275285087",
    "geocoded_column": {
      "latitude": "30.00741275285087",
      "longitude": "-90.06224231954664"
    }
  },
  {
    "service_request": "2022-926083",
    "request_type": "Traffic Signals/Signs/Striping/Streetlights",
    "request_reason": "Street Light Outage/Malfunction",
    "date_created": "2022-10-04T19:36:37.000",
    "date_modified": "2022-10-04T19:36:38.000",
    "request_status": "Pending",
    "responsible_agency": "Department of Public Works",
    "final_address": "4141 Orleans Ave",
    "address_councildis": "A",
    "status": "Pending",
    "contractor": "Legacy Professional Services",
    "rowid": "926083",
    "final_x": "3672370.0779",
    "final_y": "540530.536843",
    "longitude": "-90.09659229465717",
    "latitude": "29.980545675684755",
    "geocoded_column": {
      "latitude": "29.980545675684755",
      "longitude": "-90.09659229465717"
    }
  },
  {
    "service_request": "2022-926082",
    "request_type": "Trash/Recycling",
    "request_reason": "Request a Large Item Pick Up",
    "date_created": "2022-10-04T19:35:41.000",
    "date_modified": "2022-10-04T19:35:41.000",
    "request_status": "Pending",
    "responsible_agency": "Department of Sanitation",
    "final_address": "1023 Foucher St",
    "address_councildis": "B",
    "status": "Assigned to Contractor",
    "contractor": "Richards Disposal",
    "rowid": "926082",
    "final_x": "3674264.92974",
    "final_y": "519143.618679",
    "longitude": "-90.09133969896322",
    "latitude": "29.92168236972631",
    "geocoded_column": {
      "latitude": "29.92168236972631",
      "longitude": "-90.09133969896322"
    }
  },
  {
    "service_request": "2022-926081",
    "request_type": "Trash/Recycling",
    "request_reason": "Request a Large Item Pick Up",
    "date_created": "2022-10-04T19:33:38.000",
    "date_modified": "2022-10-04T19:33:39.000",
    "request_status": "Pending",
    "responsible_agency": "Department of Sanitation",
    "final_address": "1118 Melpomene St",
    "address_councildis": "B",
    "status": "Assigned to Contractor",
    "contractor": "Richards Disposal",
    "rowid": "926081",
    "final_x": "3680271.22312",
    "final_y": "524899.19878",
    "longitude": "-90.07218045531863",
    "latitude": "29.937327946345647",
    "geocoded_column": {
      "latitude": "29.937327946345647",
      "longitude": "-90.07218045531863"
    }
  },
  {
    "service_request": "2022-926080",
    "request_type": "Trash/Recycling",
    "request_reason": "Missed Trash Pick-Up",
    "date_created": "2022-10-04T19:31:37.000",
    "date_modified": "2022-10-04T19:31:38.000",
    "request_status": "Pending",
    "responsible_agency": "Department of Sanitation",
    "final_address": "700 Block of Jefferson Ave, New Orleans, Louisiana, 70115",
    "status": "Assigned to Contractor",
    "rowid": "926080",
    "longitude": "0.0",
    "latitude": "0.0",
    "geocoded_column": {
      "latitude": "0.0",
      "longitude": "0.0"
    }
  },
  {
    "service_request": "2022-926079",
    "request_type": "Roads/Drainage",
    "request_reason": "Service Cut",
    "date_created": "2022-10-04T19:30:23.000",
    "date_modified": "2022-10-04T22:03:25.000",
    "case_close_date": "2022-10-04T17:03:25.000",
    "request_status": "Closed",
    "responsible_agency": "Department of Public Works",
    "final_address": "GARDENA DR & PERLITA ST",
    "address_councildis": "D",
    "status": "Duplicate Request",
    "rowid": "926079",
    "final_x": "3678567.1",
    "final_y": "551509.38",
    "longitude": "-90.07663910771143",
    "latitude": "30.01054825293088",
    "geocoded_column": {
      "latitude": "30.01054825293088",
      "longitude": "-90.07663910771143"
    }
  },
  {
    "service_request": "2022-926077",
    "request_type": "Trash/Recycling",
    "request_reason": "Repair Trash Cart",
    "date_created": "2022-10-04T18:57:49.000",
    "date_modified": "2022-10-04T18:57:50.000",
    "request_status": "Pending",
    "responsible_agency": "Department of Sanitation",
    "final_address": "1026 Bartholomew St",
    "address_councildis": "C",
    "status": "Assigned to Contractor",
    "contractor": "Metro Disposal",
    "rowid": "926077",
    "final_x": "3691716.73833",
    "final_y": "535089.254278",
    "longitude": "-90.03568202888471",
    "latitude": "29.96499572541909",
    "geocoded_column": {
      "latitude": "29.96499572541909",
      "longitude": "-90.03568202888471"
    }
  },
  {
    "service_request": "2022-926076",
    "request_type": "Trash/Recycling",
    "request_reason": "Replace Trash Cart",
    "date_created": "2022-10-04T18:55:10.000",
    "date_modified": "2022-10-04T18:55:11.000",
    "request_status": "Pending",
    "responsible_agency": "Department of Sanitation",
    "final_address": "1026 Bartholomew St, New Orleans, Louisiana, 70117",
    "address_councildis": "C",
    "status": "Assigned to Contractor",
    "contractor": "Metro Disposal",
    "rowid": "926076",
    "final_x": "3691716.73833",
    "final_y": "535089.254278",
    "longitude": "-90.03568202888471",
    "latitude": "29.96499572541909",
    "geocoded_column": {
      "latitude": "29.96499572541909",
      "longitude": "-90.03568202888471"
    }
  },
  {
    "service_request": "2022-926075",
    "request_type": "Abandoned Vehicles",
    "request_reason": "Abandoned/Junk Vehicles",
    "date_created": "2022-10-04T18:47:41.000",
    "date_modified": "2022-10-04T18:47:41.000",
    "request_status": "Pending",
    "responsible_agency": "Department of Public Works",
    "final_address": "6215 Royal St",
    "address_councildis": "E",
    "status": "Pending",
    "rowid": "926075",
    "final_x": "3699421.58487",
    "final_y": "531716.418435",
    "longitude": "-90.01147360778077",
    "latitude": "29.955479453648728",
    "geocoded_column": {
      "latitude": "29.955479453648728",
      "longitude": "-90.01147360778077"
    }
  },
  {
    "service_request": "2022-926074",
    "request_type": "Traffic Signals/Signs/Striping/Streetlights",
    "request_reason": "Street Light Outage/Malfunction",
    "date_created": "2022-10-04T18:35:36.000",
    "date_modified": "2022-10-04T18:35:37.000",
    "request_status": "Pending",
    "responsible_agency": "Department of Public Works",
    "final_address": "3523 General Taylor St",
    "address_councildis": "B",
    "status": "Pending",
    "contractor": "Legacy Professional Services",
    "rowid": "926074",
    "final_x": "3671070.16731",
    "final_y": "527844.025663",
    "longitude": "-90.10112888131528",
    "latitude": "29.94570051498493",
    "geocoded_column": {
      "latitude": "29.94570051498493",
      "longitude": "-90.10112888131528"
    }
  },
  {
    "service_request": "2022-926073",
    "request_type": "Trash/Recycling",
    "request_reason": "Illegal Dumping",
    "date_created": "2022-10-04T18:35:01.000",
    "date_modified": "2022-10-04T18:35:01.000",
    "request_status": "Pending",
    "responsible_agency": "Department of Sanitation",
    "final_address": "4226 Baudin St",
    "address_councildis": "A",
    "status": "Pending",
    "rowid": "926073",
    "final_x": "3669416.66721",
    "final_y": "537556.178056",
    "longitude": "-90.10602109377362",
    "latitude": "29.972454512902154",
    "geocoded_column": {
      "latitude": "29.972454512902154",
      "longitude": "-90.10602109377362"
    }
  },
  {
    "service_request": "2022-926072",
    "request_type": "Trash/Recycling",
    "request_reason": "Missed Trash Pick-Up",
    "date_created": "2022-10-04T18:23:41.000",
    "date_modified": "2022-10-04T18:23:41.000",
    "request_status": "Pending",
    "responsible_agency": "Department of Sanitation",
    "final_address": "1525 Dufossat St",
    "address_councildis": "B",
    "status": "Assigned to Contractor",
    "contractor": "Richards Disposal",
    "rowid": "926072",
    "final_x": "3668161.69364",
    "final_y": "520678.110521",
    "longitude": "-90.11055336688219",
    "latitude": "29.926082227758133",
    "geocoded_column": {
      "latitude": "29.926082227758133",
      "longitude": "-90.11055336688219"
    }
  },
  {
    "service_request": "2022-926071",
    "request_type": "Health Related Questions",
    "request_reason": "Noise Ordinance Complaint",
    "date_created": "2022-10-04T18:20:47.000",
    "date_modified": "2022-10-04T18:20:47.000",
    "request_status": "Pending",
    "responsible_agency": "Health Department",
    "final_address": "2840 General Taylor St",
    "address_councildis": "B",
    "status": "Pending",
    "rowid": "926071",
    "final_x": "3671536.4731",
    "final_y": "525514.405885",
    "longitude": "-90.09973578380698",
    "latitude": "29.93928102339429",
    "geocoded_column": {
      "latitude": "29.93928102339429",
      "longitude": "-90.09973578380698"
    }
  },
  {
    "service_request": "2022-926070",
    "request_type": "Property Maintenance",
    "request_reason": "Property Maintenance",
    "date_created": "2022-10-04T18:17:53.000",
    "date_modified": "2022-10-04T18:17:53.000",
    "request_status": "Pending",
    "responsible_agency": "Department of Code Enforcement",
    "final_address": "2830 General Taylor St",
    "address_councildis": "B",
    "status": "Pending",
    "rowid": "926070",
    "final_x": "3671556.20027",
    "final_y": "525456.855421",
    "longitude": "-90.09967545867782",
    "latitude": "29.939122194316305",
    "geocoded_column": {
      "latitude": "29.939122194316305",
      "longitude": "-90.09967545867782"
    }
  },
  {
    "service_request": "2022-926069",
    "request_type": "Trash/Recycling",
    "request_reason": "Repair Trash Cart",
    "date_created": "2022-10-04T18:01:48.000",
    "date_modified": "2022-10-04T18:01:49.000",
    "request_status": "Pending",
    "responsible_agency": "Department of Sanitation",
    "final_address": "1455 Moss St",
    "address_councildis": "A",
    "status": "Assigned to Contractor",
    "contractor": "Richards Disposal",
    "rowid": "926069",
    "final_x": "3674135.95195",
    "final_y": "541009.242827",
    "longitude": "-90.09099849891629",
    "latitude": "29.981809427347464",
    "geocoded_column": {
      "latitude": "29.981809427347464",
      "longitude": "-90.09099849891629"
    }
  },
  {
    "service_request": "2022-926068",
    "request_type": "Trash/Recycling",
    "request_reason": "Repair Recycling Cart",
    "date_created": "2022-10-04T18:00:10.000",
    "date_modified": "2022-10-04T18:00:10.000",
    "request_status": "Pending",
    "responsible_agency": "Department of Sanitation",
    "final_address": "1817 Monroe St",
    "address_councildis": "A",
    "status": "Pending",
    "rowid": "926068",
    "final_x": "3661923.70522",
    "final_y": "531441.382595",
    "longitude": "-90.12988813751123",
    "latitude": "29.955859374594084",
    "geocoded_column": {
      "latitude": "29.955859374594084",
      "longitude": "-90.12988813751123"
    }
  },
  {
    "service_request": "2022-926067",
    "request_type": "Trash/Recycling",
    "request_reason": "Order Trash Cart",
    "date_created": "2022-10-04T17:58:18.000",
    "date_modified": "2022-10-04T17:58:18.000",
    "request_status": "Pending",
    "responsible_agency": "Department of Sanitation",
    "final_address": "1817 Monroe St",
    "address_councildis": "A",
    "status": "Assigned to Contractor",
    "contractor": "Richards Disposal",
    "rowid": "926067",
    "final_x": "3661923.70522",
    "final_y": "531441.382595",
    "longitude": "-90.12988813751123",
    "latitude": "29.955859374594084",
    "geocoded_column": {
      "latitude": "29.955859374594084",
      "longitude": "-90.12988813751123"
    }
  },
  {
    "service_request": "2022-926066",
    "request_type": "Traffic Signals/Signs/Striping/Streetlights",
    "request_reason": "Street Light Outage/Malfunction",
    "date_created": "2022-10-04T17:55:56.000",
    "date_modified": "2022-10-04T17:57:39.000",
    "request_status": "Pending",
    "responsible_agency": "Department of Public Works",
    "final_address": "3804 Packard St",
    "address_councildis": "D",
    "status": "Pending",
    "contractor": "Legacy Professional Services",
    "rowid": "926066",
    "final_x": "3688685.44182",
    "final_y": "547292.428689",
    "longitude": "-90.04482130292163",
    "latitude": "29.99864416074798",
    "geocoded_column": {
      "latitude": "29.99864416074798",
      "longitude": "-90.04482130292163"
    }
  },
  {
    "service_request": "2022-926065",
    "request_type": "Trash/Recycling",
    "request_reason": "Missed Trash Pick-Up",
    "date_created": "2022-10-04T17:54:22.000",
    "date_modified": "2022-10-04T17:54:23.000",
    "request_status": "Pending",
    "responsible_agency": "Department of Sanitation",
    "final_address": "811 Leontine St",
    "address_councildis": "B",
    "status": "Assigned to Contractor",
    "contractor": "Richards Disposal",
    "rowid": "926065",
    "final_x": "3667171.83841",
    "final_y": "518418.213558",
    "longitude": "-90.11375399286145",
    "latitude": "29.919897231969262",
    "geocoded_column": {
      "latitude": "29.919897231969262",
      "longitude": "-90.11375399286145"
    }
  },
  {
    "service_request": "2022-926064",
    "request_type": "Trash/Recycling",
    "request_reason": "Missed Trash Pick-Up",
    "date_created": "2022-10-04T17:48:54.000",
    "date_modified": "2022-10-04T17:48:55.000",
    "request_status": "Pending",
    "responsible_agency": "Department of Sanitation",
    "final_address": "4729 Tchoupitoulas St",
    "address_councildis": "B",
    "status": "Assigned to Contractor",
    "contractor": "Richards Disposal",
    "rowid": "926064",
    "final_x": "3669823.41498",
    "final_y": "517353.586997",
    "longitude": "-90.1054202431157",
    "latitude": "29.91689197701536",
    "geocoded_column": {
      "latitude": "29.91689197701536",
      "longitude": "-90.1054202431157"
    }
  },
  {
    "service_request": "2022-926063",
    "request_type": "Trash/Recycling",
    "request_reason": "Request a Large Item Pick Up",
    "date_created": "2022-10-04T17:44:56.000",
    "date_modified": "2022-10-04T17:44:57.000",
    "request_status": "Pending",
    "responsible_agency": "Department of Sanitation",
    "final_address": "6473 Memphis St",
    "address_councildis": "A",
    "status": "Assigned to Contractor",
    "contractor": "Metro Disposal",
    "rowid": "926063",
    "final_x": "3669580.28852",
    "final_y": "550541.730324",
    "longitude": "-90.10506473845201",
    "latitude": "30.008155505808126",
    "geocoded_column": {
      "latitude": "30.008155505808126",
      "longitude": "-90.10506473845201"
    }
  },
  {
    "service_request": "2022-926062",
    "request_type": "Trash/Recycling",
    "request_reason": "MIssed Recycling Pick-Up",
    "date_created": "2022-10-04T17:44:32.000",
    "date_modified": "2022-10-04T17:44:32.000",
    "request_status": "Pending",
    "responsible_agency": "Department of Sanitation",
    "final_address": "2230 Ursulines Ave",
    "address_councildis": "D",
    "status": "Assigned to Contractor",
    "contractor": "Richards Disposal",
    "rowid": "926062",
    "final_x": "3679018.39304",
    "final_y": "536993.88084",
    "longitude": "-90.07571663656199",
    "latitude": "29.97062210844368",
    "geocoded_column": {
      "latitude": "29.97062210844368",
      "longitude": "-90.07571663656199"
    }
  },
  {
    "service_request": "2022-926061",
    "request_type": "Parks & Parkways",
    "request_reason": "Request Tree Service (Right of Way/Public Property)",
    "date_created": "2022-10-04T17:44:19.000",
    "date_modified": "2022-10-04T17:44:19.000",
    "request_status": "Pending",
    "responsible_agency": "Department of Parks & Parkway",
    "final_address": "338 Bermuda St",
    "address_councildis": "C",
    "status": "Pending",
    "rowid": "926061",
    "final_x": "3686497.07266",
    "final_y": "530538.740034",
    "longitude": "-90.05232604022464",
    "latitude": "29.952644885078094",
    "geocoded_column": {
      "latitude": "29.952644885078094",
      "longitude": "-90.05232604022464"
    }
  },
  {
    "service_request": "2022-926060",
    "request_type": "Trash/Recycling",
    "request_reason": "Missed Trash Pick-Up",
    "date_created": "2022-10-04T17:37:19.000",
    "date_modified": "2022-10-04T17:37:19.000",
    "request_status": "Pending",
    "responsible_agency": "Department of Sanitation",
    "final_address": "4834 St Charles Ave",
    "address_councildis": "B",
    "status": "Assigned to Contractor",
    "contractor": "Richards Disposal",
    "rowid": "926060",
    "final_x": "3669105.06145",
    "final_y": "520638.678904",
    "longitude": "-90.10757675132766",
    "latitude": "29.925946088319",
    "geocoded_column": {
      "latitude": "29.925946088319",
      "longitude": "-90.10757675132766"
    }
  },
  {
    "service_request": "2022-926059",
    "request_type": "Trash/Recycling",
    "request_reason": "Missed Trash Pick-Up",
    "date_created": "2022-10-04T17:36:28.000",
    "date_modified": "2022-10-04T17:36:29.000",
    "request_status": "Pending",
    "responsible_agency": "Department of Sanitation",
    "final_address": "6055 Milne Blvd",
    "address_councildis": "A",
    "status": "Assigned to Contractor",
    "contractor": "Metro Disposal",
    "rowid": "926059",
    "final_x": "3667145.1129",
    "final_y": "548008.742226",
    "longitude": "-90.11284347203514",
    "latitude": "30.00126221859402",
    "geocoded_column": {
      "latitude": "30.00126221859402",
      "longitude": "-90.11284347203514"
    }
  },
  {
    "service_request": "2022-926058",
    "request_type": "Roads/Drainage",
    "request_reason": "Pothole",
    "date_created": "2022-10-04T17:35:05.000",
    "date_modified": "2022-10-04T17:35:05.000",
    "request_status": "Pending",
    "responsible_agency": "Department of Public Works",
    "final_address": "12215 Willow Dr",
    "address_councildis": "C",
    "status": "Pending",
    "rowid": "926058",
    "final_x": "3728445.31136",
    "final_y": "511629.09272",
    "longitude": "-89.92061059342124",
    "latitude": "29.899294183446383",
    "geocoded_column": {
      "latitude": "29.899294183446383",
      "longitude": "-89.92061059342124"
    }
  },
  {
    "service_request": "2022-926057",
    "request_type": "Abandoned Vehicles",
    "request_reason": "Abandoned/Junk Vehicles",
    "date_created": "2022-10-04T17:33:29.000",
    "date_modified": "2022-10-04T17:33:29.000",
    "request_status": "Pending",
    "responsible_agency": "Department of Public Works",
    "final_address": "8213 Birch St",
    "address_councildis": "A",
    "status": "Pending",
    "rowid": "926057",
    "final_x": "3662592.33127",
    "final_y": "529761.864129",
    "longitude": "-90.12783263382545",
    "latitude": "29.951221914904238",
    "geocoded_column": {
      "latitude": "29.951221914904238",
      "longitude": "-90.12783263382545"
    }
  },
  {
    "service_request": "2022-926056",
    "request_type": "Trash/Recycling",
    "request_reason": "Missed Trash Pick-Up",
    "date_created": "2022-10-04T17:30:14.000",
    "date_modified": "2022-10-04T17:30:15.000",
    "request_status": "Pending",
    "responsible_agency": "Department of Sanitation",
    "final_address": "1114 Robert St",
    "address_councildis": "B",
    "status": "Assigned to Contractor",
    "contractor": "Richards Disposal",
    "rowid": "926056",
    "final_x": "3668626.83329",
    "final_y": "519464.867447",
    "longitude": "-90.10912596942437",
    "latitude": "29.92273253705028",
    "geocoded_column": {
      "latitude": "29.92273253705028",
      "longitude": "-90.10912596942437"
    }
  },
  {
    "service_request": "2022-926055",
    "request_type": "Abandoned Vehicles",
    "request_reason": "Abandoned/Junk Vehicles",
    "date_created": "2022-10-04T17:26:12.000",
    "date_modified": "2022-10-04T17:26:12.000",
    "request_status": "Pending",
    "responsible_agency": "Department of Public Works",
    "final_address": "3900 Dauphine St",
    "address_councildis": "C",
    "status": "Pending",
    "rowid": "926055",
    "final_x": "3691235.2038",
    "final_y": "534193.250053",
    "longitude": "-90.03723468637784",
    "latitude": "29.962547013855122",
    "geocoded_column": {
      "latitude": "29.962547013855122",
      "longitude": "-90.03723468637784"
    }
  },
  {
    "service_request": "2022-926054",
    "request_type": "Abandoned Vehicles",
    "request_reason": "Abandoned/Junk Vehicles",
    "date_created": "2022-10-04T17:22:56.000",
    "date_modified": "2022-10-04T17:27:47.000",
    "request_status": "Pending",
    "responsible_agency": "Department of Public Works",
    "final_address": "CLEVELAND AVE & S DORGENOIS ST",
    "address_councildis": "B",
    "status": "Pending",
    "rowid": "926054",
    "final_x": "3675550.7",
    "final_y": "534426.68",
    "longitude": "-90.08675623760125",
    "latitude": "29.96366737094667",
    "geocoded_column": {
      "latitude": "29.96366737094667",
      "longitude": "-90.08675623760125"
    }
  },
  {
    "service_request": "2022-926053",
    "request_type": "Trash/Recycling",
    "request_reason": "Missed Trash Pick-Up",
    "date_created": "2022-10-04T17:21:42.000",
    "date_modified": "2022-10-04T17:21:43.000",
    "request_status": "Pending",
    "responsible_agency": "Department of Sanitation",
    "final_address": "2234 Upperline St",
    "address_councildis": "B",
    "status": "Assigned to Contractor",
    "contractor": "Richards Disposal",
    "rowid": "926053",
    "final_x": "3669058.16033",
    "final_y": "523103.464955",
    "longitude": "-90.10764157652953",
    "latitude": "29.93272484293292",
    "geocoded_column": {
      "latitude": "29.93272484293292",
      "longitude": "-90.10764157652953"
    }
  },
  {
    "service_request": "2022-926052",
    "request_type": "Trash/Recycling",
    "request_reason": "Illegal Dumping",
    "date_created": "2022-10-04T17:16:35.000",
    "date_modified": "2022-10-04T17:16:35.000",
    "request_status": "Pending",
    "responsible_agency": "Department of Sanitation",
    "final_address": "1254 N Villere St",
    "address_councildis": "C",
    "status": "Pending",
    "rowid": "926052",
    "final_x": "3681741.05583",
    "final_y": "535987.455047",
    "longitude": "-90.0671532733442",
    "latitude": "29.967772336615024",
    "geocoded_column": {
      "latitude": "29.967772336615024",
      "longitude": "-90.0671532733442"
    }
  },
  {
    "service_request": "2022-926051",
    "request_type": "Trash/Recycling",
    "request_reason": "Order Recycling Cart",
    "date_created": "2022-10-04T17:13:31.000",
    "date_modified": "2022-10-04T17:13:31.000",
    "request_status": "Pending",
    "responsible_agency": "Department of Sanitation",
    "final_address": "916 Aline St",
    "address_councildis": "B",
    "status": "Pending",
    "rowid": "926051",
    "final_x": "3674611.5364",
    "final_y": "518829.808887",
    "longitude": "-90.09025635536365",
    "latitude": "29.920809158579647",
    "geocoded_column": {
      "latitude": "29.920809158579647",
      "longitude": "-90.09025635536365"
    }
  },
  {
    "service_request": "2022-926050",
    "request_type": "Roads/Drainage",
    "request_reason": "Road Shoulder Repair",
    "date_created": "2022-10-04T17:07:18.000",
    "date_modified": "2022-10-04T17:07:18.000",
    "request_status": "Pending",
    "responsible_agency": "Department of Public Works",
    "final_address": "5600 BLK Maple Ridge Dr",
    "address_councildis": "E",
    "status": "Pending",
    "rowid": "926050",
    "final_x": "3724437.37983",
    "final_y": "564234.838509",
    "longitude": "-89.9312274409383",
    "latitude": "30.044075047396788",
    "geocoded_column": {
      "latitude": "30.044075047396788",
      "longitude": "-89.9312274409383"
    }
  },
  {
    "service_request": "2022-926049",
    "request_type": "Trash/Recycling",
    "request_reason": "Missed Trash Pick-Up",
    "date_created": "2022-10-04T17:06:18.000",
    "date_modified": "2022-10-04T17:06:18.000",
    "request_status": "Pending",
    "responsible_agency": "Department of Sanitation",
    "final_address": "4516 S Miro St",
    "address_councildis": "B",
    "status": "Assigned to Contractor",
    "contractor": "Richards Disposal",
    "rowid": "926049",
    "final_x": "3669595.28154",
    "final_y": "527722.034239",
    "longitude": "-90.1057897220994",
    "latitude": "29.94540860700847",
    "geocoded_column": {
      "latitude": "29.94540860700847",
      "longitude": "-90.1057897220994"
    }
  },
  {
    "service_request": "2022-926048",
    "request_type": "Trash/Recycling",
    "request_reason": "Request a Large Item Pick Up",
    "date_created": "2022-10-04T17:05:42.000",
    "date_modified": "2022-10-04T17:05:43.000",
    "request_status": "Pending",
    "responsible_agency": "Department of Sanitation",
    "final_address": "7831 Butterfield Rd",
    "address_councildis": "E",
    "status": "Assigned to Contractor",
    "contractor": "Metro Disposal",
    "rowid": "926048",
    "final_x": "3699591.73482",
    "final_y": "561065.913246",
    "longitude": "-90.00986592618263",
    "latitude": "30.036174279062124",
    "geocoded_column": {
      "latitude": "30.036174279062124",
      "longitude": "-90.00986592618263"
    }
  },
  {
    "service_request": "2022-926047",
    "request_type": "Traffic Signals/Signs/Striping/Streetlights",
    "request_reason": "Street Light Outage/Malfunction",
    "date_created": "2022-10-04T17:05:35.000",
    "date_modified": "2022-10-04T17:05:36.000",
    "request_status": "Pending",
    "responsible_agency": "Department of Public Works",
    "final_address": "2020 St Ferdinand St",
    "address_councildis": "D",
    "status": "Pending",
    "contractor": "Legacy Professional Services",
    "rowid": "926047",
    "final_x": "3688587.66038",
    "final_y": "539879.467722",
    "longitude": "-90.04539341071765",
    "latitude": "29.978264196250286",
    "geocoded_column": {
      "latitude": "29.978264196250286",
      "longitude": "-90.04539341071765"
    }
  },
  {
    "service_request": "2022-926046",
    "request_type": "Trash/Recycling",
    "request_reason": "Request a Large Item Pick Up",
    "date_created": "2022-10-04T17:00:45.000",
    "date_modified": "2022-10-04T17:00:46.000",
    "request_status": "Pending",
    "responsible_agency": "Department of Sanitation",
    "final_address": "101 Finland Pl",
    "address_councildis": "C",
    "status": "Assigned to Contractor",
    "contractor": "Richards Disposal",
    "rowid": "926046",
    "final_x": "3705679.26775",
    "final_y": "520692.512185",
    "longitude": "-89.9921217104106",
    "latitude": "29.92496763545273",
    "geocoded_column": {
      "latitude": "29.92496763545273",
      "longitude": "-89.9921217104106"
    }
  },
  {
    "service_request": "2022-926045",
    "request_type": "Trash/Recycling",
    "request_reason": "MIssed Recycling Pick-Up",
    "date_created": "2022-10-04T16:59:49.000",
    "date_modified": "2022-10-04T16:59:50.000",
    "request_status": "Pending",
    "responsible_agency": "Department of Sanitation",
    "final_address": "311 S Salcedo St",
    "address_councildis": "B",
    "status": "Assigned to Contractor",
    "contractor": "Richards Disposal",
    "rowid": "926045",
    "final_x": "3673474.33288",
    "final_y": "535333.451462",
    "longitude": "-90.09328221616093",
    "latitude": "29.966222636739175",
    "geocoded_column": {
      "latitude": "29.966222636739175",
      "longitude": "-90.09328221616093"
    }
  },
  {
    "service_request": "2022-926044",
    "request_type": "Trash/Recycling",
    "request_reason": "Illegal Dumping",
    "date_created": "2022-10-04T16:59:48.000",
    "date_modified": "2022-10-04T17:03:56.000",
    "request_status": "Pending",
    "responsible_agency": "Department of Sanitation",
    "final_address": "4500 BLK N Claiborne Ave",
    "address_councildis": "D",
    "status": "Pending",
    "rowid": "926044",
    "final_x": "3693989.00634",
    "final_y": "536745.350838",
    "longitude": "-90.02844681674947",
    "latitude": "29.969478451299008",
    "geocoded_column": {
      "latitude": "29.969478451299008",
      "longitude": "-90.02844681674947"
    }
  },
  {
    "service_request": "2022-926043",
    "request_type": "Parks & Parkways",
    "request_reason": "Request Tree Service (Right of Way/Public Property)",
    "date_created": "2022-10-04T16:58:50.000",
    "date_modified": "2022-10-04T16:58:51.000",
    "request_status": "Pending",
    "responsible_agency": "Department of Parks & Parkway",
    "final_address": "1205 Elysian Fields Ave",
    "address_councildis": "C",
    "status": "Pending",
    "rowid": "926043",
    "final_x": "3685092.35637",
    "final_y": "536725.209799",
    "longitude": "-90.0565438289897",
    "latitude": "29.96969865338815",
    "geocoded_column": {
      "latitude": "29.96969865338815",
      "longitude": "-90.0565438289897"
    }
  },
  {
    "service_request": "2022-926042",
    "request_type": "Trash/Recycling",
    "request_reason": "Order Recycling Cart",
    "date_created": "2022-10-04T16:53:57.000",
    "date_modified": "2022-10-04T16:53:57.000",
    "request_status": "Pending",
    "responsible_agency": "Department of Sanitation",
    "final_address": "6005 Vermillion Blvd",
    "address_councildis": "D",
    "status": "Pending",
    "rowid": "926042",
    "final_x": "3683219.11503",
    "final_y": "554848.930904",
    "longitude": "-90.06182454883452",
    "latitude": "30.019589690598284",
    "geocoded_column": {
      "latitude": "30.019589690598284",
      "longitude": "-90.06182454883452"
    }
  },
  {
    "service_request": "2022-926041",
    "request_type": "Trash/Recycling",
    "request_reason": "Replace Trash Cart",
    "date_created": "2022-10-04T16:49:48.000",
    "date_modified": "2022-10-04T16:51:46.000",
    "request_status": "Pending",
    "responsible_agency": "Department of Sanitation",
    "final_address": "2113 Valence St, New Orleans, Louisiana, 70115",
    "address_councildis": "B",
    "status": "Assigned to Contractor",
    "contractor": "Richards Disposal",
    "rowid": "926041",
    "final_x": "3669645.5595",
    "final_y": "522676.366906",
    "longitude": "-90.10580164371216",
    "latitude": "29.93153317001814",
    "geocoded_column": {
      "latitude": "29.93153317001814",
      "longitude": "-90.10580164371216"
    }
  },
  {
    "service_request": "2022-926039",
    "request_type": "Roads/Drainage",
    "request_reason": "Pothole",
    "date_created": "2022-10-04T16:26:28.000",
    "date_modified": "2022-10-04T16:26:28.000",
    "request_status": "Pending",
    "responsible_agency": "Department of Public Works",
    "final_address": "408 New Orleans-Hammond Hwy",
    "address_councildis": "A",
    "status": "Pending",
    "rowid": "926039",
    "final_x": "3665456.1945",
    "final_y": "554564.878424",
    "longitude": "-90.11795925387712",
    "latitude": "30.019338666918507",
    "geocoded_column": {
      "latitude": "30.019338666918507",
      "longitude": "-90.11795925387712"
    }
  },
  {
    "service_request": "2022-926038",
    "request_type": "Abandoned Vehicles",
    "request_reason": "Abandoned/Junk Vehicles",
    "date_created": "2022-10-04T16:22:12.000",
    "date_modified": "2022-10-04T16:22:12.000",
    "request_status": "Pending",
    "responsible_agency": "Department of Public Works",
    "final_address": "1100 N Prieur St",
    "address_councildis": "D",
    "status": "Pending",
    "rowid": "926038",
    "final_x": "3679901.36463",
    "final_y": "536472.335559",
    "longitude": "-90.07294622573235",
    "latitude": "29.969161361383883",
    "geocoded_column": {
      "latitude": "29.969161361383883",
      "longitude": "-90.07294622573235"
    }
  },
  {
    "service_request": "2022-926037",
    "request_type": "Trash/Recycling",
    "request_reason": "Replace Trash Cart",
    "date_created": "2022-10-04T16:22:00.000",
    "date_modified": "2022-10-04T16:22:01.000",
    "request_status": "Pending",
    "responsible_agency": "Department of Sanitation",
    "final_address": "219 N Rendon St",
    "address_councildis": "B",
    "status": "Assigned to Contractor",
    "contractor": "Richards Disposal",
    "rowid": "926037",
    "final_x": "3673854.58651",
    "final_y": "536973.571336",
    "longitude": "-90.0920252710902",
    "latitude": "29.97072109155931",
    "geocoded_column": {
      "latitude": "29.97072109155931",
      "longitude": "-90.0920252710902"
    }
  },
  {
    "service_request": "2022-926036",
    "request_type": "Trash/Recycling",
    "request_reason": "Missed Trash Pick-Up",
    "date_created": "2022-10-04T16:21:38.000",
    "date_modified": "2022-10-04T16:21:39.000",
    "request_status": "Pending",
    "responsible_agency": "Department of Sanitation",
    "final_address": "2338 Governor Nicholls St",
    "address_councildis": "D",
    "status": "Assigned to Contractor",
    "contractor": "Richards Disposal",
    "rowid": "926036",
    "final_x": "3678895.19362",
    "final_y": "537516.957704",
    "longitude": "-90.07608758947717",
    "latitude": "29.9720641077998",
    "geocoded_column": {
      "latitude": "29.9720641077998",
      "longitude": "-90.07608758947717"
    }
  },
  {
    "service_request": "2022-926035",
    "request_type": "Trash/Recycling",
    "request_reason": "Replace Trash Cart",
    "date_created": "2022-10-04T16:15:46.000",
    "date_modified": "2022-10-04T16:15:47.000",
    "request_status": "Pending",
    "responsible_agency": "Department of Sanitation",
    "final_address": "1420 France St",
    "address_councildis": "D",
    "status": "Assigned to Contractor",
    "contractor": "Metro Disposal",
    "rowid": "926035",
    "final_x": "3692658.09302",
    "final_y": "536439.256775",
    "longitude": "-90.03266090617913",
    "latitude": "29.968678408883683",
    "geocoded_column": {
      "latitude": "29.968678408883683",
      "longitude": "-90.03266090617913"
    }
  },
  {
    "service_request": "2022-926034",
    "request_type": "Trash/Recycling",
    "request_reason": "Missed Trash Pick-Up",
    "date_created": "2022-10-04T16:10:33.000",
    "date_modified": "2022-10-04T16:10:34.000",
    "request_status": "Pending",
    "responsible_agency": "Department of Sanitation",
    "final_address": "7627 Michigan St",
    "address_councildis": "E",
    "status": "Assigned to Contractor",
    "contractor": "Metro Disposal",
    "rowid": "926034",
    "final_x": "3711827.42149",
    "final_y": "566511.171427",
    "longitude": "-89.97099457800468",
    "latitude": "30.05075228266892",
    "geocoded_column": {
      "latitude": "30.05075228266892",
      "longitude": "-89.97099457800468"
    }
  },
  {
    "service_request": "2022-926033",
    "request_type": "Roads/Drainage",
    "request_reason": "Pothole",
    "date_created": "2022-10-04T16:06:53.000",
    "date_modified": "2022-10-04T16:06:53.000",
    "request_status": "Pending",
    "responsible_agency": "Department of Public Works",
    "final_address": "5924 Prytania St",
    "address_councildis": "A",
    "status": "Pending",
    "rowid": "926033",
    "final_x": "3665376.0544",
    "final_y": "520678.843833",
    "longitude": "-90.11934683236012",
    "latitude": "29.926165689488833",
    "geocoded_column": {
      "latitude": "29.926165689488833",
      "longitude": "-90.11934683236012"
    }
  },
  {
    "service_request": "2022-926032",
    "request_type": "Trash/Recycling",
    "request_reason": "Request a Large Item Pick Up",
    "date_created": "2022-10-04T16:05:03.000",
    "date_modified": "2022-10-04T16:05:04.000",
    "request_status": "Pending",
    "responsible_agency": "Department of Sanitation",
    "final_address": "4521 St Peter St",
    "address_councildis": "A",
    "status": "Assigned to Contractor",
    "contractor": "Richards Disposal",
    "rowid": "926032",
    "final_x": "3670902.40244",
    "final_y": "541225.751564",
    "longitude": "-90.10120424889152",
    "latitude": "29.982500755241837",
    "geocoded_column": {
      "latitude": "29.982500755241837",
      "longitude": "-90.10120424889152"
    }
  },
  {
    "service_request": "2022-926031",
    "request_type": "Property Maintenance",
    "request_reason": "Property Maintenance",
    "date_created": "2022-10-04T16:04:35.000",
    "date_modified": "2022-10-04T16:04:35.000",
    "request_status": "Pending",
    "responsible_agency": "Department of Code Enforcement",
    "final_address": "2220 Short St",
    "address_councildis": "A",
    "status": "Pending",
    "rowid": "926031",
    "final_x": "3664746.11552",
    "final_y": "530824.815618",
    "longitude": "-90.12099651024916",
    "latitude": "29.954082205659414",
    "geocoded_column": {
      "latitude": "29.954082205659414",
      "longitude": "-90.12099651024916"
    }
  },
  {
    "service_request": "2022-926030",
    "request_type": "Roads/Drainage",
    "request_reason": "Leaking Hydrant",
    "date_created": "2022-10-04T16:03:29.000",
    "date_modified": "2022-10-04T16:03:30.000",
    "request_status": "Pending",
    "responsible_agency": "Department of Public Works",
    "final_address": "2400 Jefferson Ave",
    "address_councildis": "A",
    "status": "Pending",
    "rowid": "926030",
    "final_x": "3667900.43745",
    "final_y": "524404.418364",
    "longitude": "-90.11125262409287",
    "latitude": "29.93633604968693",
    "geocoded_column": {
      "latitude": "29.93633604968693",
      "longitude": "-90.11125262409287"
    }
  },
  {
    "service_request": "2022-926029",
    "request_type": "Trash/Recycling",
    "request_reason": "Request a Large Item Pick Up",
    "date_created": "2022-10-04T16:03:05.000",
    "date_modified": "2022-10-04T16:03:06.000",
    "request_status": "Pending",
    "responsible_agency": "Department of Sanitation",
    "final_address": "320 Pacific Ave",
    "address_councildis": "C",
    "status": "Assigned to Contractor",
    "contractor": "Richards Disposal",
    "rowid": "926029",
    "final_x": "3688574.69033",
    "final_y": "530541.082178",
    "longitude": "-90.045765794881",
    "latitude": "29.952587295252297",
    "geocoded_column": {
      "latitude": "29.952587295252297",
      "longitude": "-90.045765794881"
    }
  },
  {
    "service_request": "2022-926028",
    "request_type": "Trash/Recycling",
    "request_reason": "Illegal Dumping",
    "date_created": "2022-10-04T15:54:30.000",
    "date_modified": "2022-10-04T15:54:30.000",
    "request_status": "Pending",
    "responsible_agency": "Department of Sanitation",
    "final_address": "1944 N Johnson St",
    "address_councildis": "D",
    "status": "Pending",
    "rowid": "926028",
    "final_x": "3683298.78024",
    "final_y": "539466.42689",
    "longitude": "-90.06211205281622",
    "latitude": "29.97729087878426",
    "geocoded_column": {
      "latitude": "29.97729087878426",
      "longitude": "-90.06211205281622"
    }
  },
  {
    "service_request": "2022-926027",
    "request_type": "Roads/Drainage",
    "request_reason": "Pothole",
    "date_created": "2022-10-04T15:50:36.000",
    "date_modified": "2022-10-04T15:50:37.000",
    "request_status": "Pending",
    "responsible_agency": "Department of Public Works",
    "final_address": "900 Joseph St",
    "address_councildis": "A",
    "status": "Pending",
    "rowid": "926027",
    "final_x": "3666152.45812",
    "final_y": "519237.718135",
    "longitude": "-90.11694423295833",
    "latitude": "29.922180406542992",
    "geocoded_column": {
      "latitude": "29.922180406542992",
      "longitude": "-90.11694423295833"
    }
  },
  {
    "service_request": "2022-926026",
    "request_type": "Abandoned Vehicles",
    "request_reason": "Abandoned/Junk Vehicles",
    "date_created": "2022-10-04T15:50:10.000",
    "date_modified": "2022-10-04T15:50:10.000",
    "request_status": "Pending",
    "responsible_agency": "Department of Public Works",
    "final_address": "826 N Carrollton Ave",
    "address_councildis": "A",
    "status": "Pending",
    "rowid": "926026",
    "final_x": "3673024.91419",
    "final_y": "540287.529611",
    "longitude": "-90.09453233236253",
    "latitude": "29.97985803845287",
    "geocoded_column": {
      "latitude": "29.97985803845287",
      "longitude": "-90.09453233236253"
    }
  },
  {
    "service_request": "2022-926025",
    "request_type": "Traffic Signals/Signs/Striping/Streetlights",
    "request_reason": "Street Light Knocked Down/Leaning",
    "date_created": "2022-10-04T15:44:47.000",
    "date_modified": "2022-10-04T15:44:48.000",
    "request_status": "Pending",
    "responsible_agency": "Department of Public Works",
    "final_address": "FERN ST & DOMINICAN ST",
    "address_councildis": "A",
    "status": "Pending",
    "contractor": "Legacy Professional Services",
    "rowid": "926025",
    "final_x": "3660644.5",
    "final_y": "525767.88",
    "longitude": "-90.1341149391929",
    "latitude": "29.940295934094372",
    "geocoded_column": {
      "latitude": "29.940295934094372",
      "longitude": "-90.1341149391929"
    }
  },
  {
    "service_request": "2022-926024",
    "request_type": "Property Maintenance",
    "request_reason": "Property Maintenance",
    "date_created": "2022-10-04T15:44:43.000",
    "date_modified": "2022-10-04T15:44:43.000",
    "request_status": "Pending",
    "responsible_agency": "Department of Code Enforcement",
    "final_address": "4431 Macarthur Blvd",
    "address_councildis": "C",
    "status": "Pending",
    "rowid": "926024",
    "final_x": "3700270.09015",
    "final_y": "520176.40268",
    "longitude": "-90.00921543719888",
    "latitude": "29.923721497773414",
    "geocoded_column": {
      "latitude": "29.923721497773414",
      "longitude": "-90.00921543719888"
    }
  },
  {
    "service_request": "2022-926023",
    "request_type": "Roads/Drainage",
    "request_reason": "Catch Basin - Clogged",
    "date_created": "2022-10-04T15:43:40.000",
    "date_modified": "2022-10-04T15:43:41.000",
    "request_status": "Pending",
    "responsible_agency": "Department of Public Works",
    "final_address": "1886 Gentilly Blvd",
    "address_councildis": "D",
    "status": "Pending",
    "rowid": "926023",
    "final_x": "3679040.74082",
    "final_y": "542919.037645",
    "longitude": "-90.07544063725291",
    "latitude": "29.986913564009313",
    "geocoded_column": {
      "latitude": "29.986913564009313",
      "longitude": "-90.07544063725291"
    }
  },
  {
    "service_request": "2022-926022",
    "request_type": "Trash/Recycling",
    "request_reason": "Replace Recycling Cart",
    "date_created": "2022-10-04T15:40:45.000",
    "date_modified": "2022-10-04T15:40:45.000",
    "request_status": "Pending",
    "responsible_agency": "Department of Sanitation",
    "final_address": "1814 Lowerline St",
    "address_councildis": "A",
    "status": "Pending",
    "rowid": "926022",
    "final_x": "3664873.61159",
    "final_y": "528746.99904",
    "longitude": "-90.1206633632439",
    "latitude": "29.948365173147952",
    "geocoded_column": {
      "latitude": "29.948365173147952",
      "longitude": "-90.1206633632439"
    }
  },
  {
    "service_request": "2022-926021",
    "request_type": "Trash/Recycling",
    "request_reason": "Missed Trash Pick-Up",
    "date_created": "2022-10-04T15:35:43.000",
    "date_modified": "2022-10-04T15:35:43.000",
    "request_status": "Pending",
    "responsible_agency": "Department of Sanitation",
    "final_address": "2820 St Claude Ave",
    "address_councildis": "C",
    "status": "Assigned to Contractor",
    "contractor": "Metro Disposal",
    "rowid": "926021",
    "final_x": "3687888.37526",
    "final_y": "536223.685639",
    "longitude": "-90.04773154534784",
    "latitude": "29.968233674109356",
    "geocoded_column": {
      "latitude": "29.968233674109356",
      "longitude": "-90.04773154534784"
    }
  },
  {
    "service_request": "2022-926020",
    "request_type": "Trash/Recycling",
    "request_reason": "Request a Large Item Pick Up",
    "date_created": "2022-10-04T15:34:57.000",
    "date_modified": "2022-10-04T15:34:58.000",
    "request_status": "Pending",
    "responsible_agency": "Department of Sanitation",
    "final_address": "7721 Willow St",
    "address_councildis": "A",
    "status": "Assigned to Contractor",
    "contractor": "Richards Disposal",
    "rowid": "926020",
    "final_x": "3663413.77978",
    "final_y": "528054.478271",
    "longitude": "-90.1252957313476",
    "latitude": "29.946503364452695",
    "geocoded_column": {
      "latitude": "29.946503364452695",
      "longitude": "-90.1252957313476"
    }
  },
  {
    "service_request": "2022-926019",
    "request_type": "Parks & Parkways",
    "request_reason": "Request Tree Service (Right of Way/Public Property)",
    "date_created": "2022-10-04T15:33:05.000",
    "date_modified": "2022-10-04T15:33:06.000",
    "request_status": "Pending",
    "responsible_agency": "Department of Parks & Parkway",
    "final_address": "4110 Paris Ave",
    "address_councildis": "D",
    "status": "Pending",
    "rowid": "926019",
    "final_x": "3679431.9572",
    "final_y": "547443.194833",
    "longitude": "-90.07404787819175",
    "latitude": "29.999341587253426",
    "geocoded_column": {
      "latitude": "29.999341587253426",
      "longitude": "-90.07404787819175"
    }
  },
  {
    "service_request": "2022-926018",
    "request_type": "Trash/Recycling",
    "request_reason": "Order Trash Cart",
    "date_created": "2022-10-04T15:31:36.000",
    "date_modified": "2022-10-04T15:31:37.000",
    "request_status": "Pending",
    "responsible_agency": "Department of Sanitation",
    "final_address": "6038 Canal Blvd",
    "address_councildis": "A",
    "status": "Assigned to Contractor",
    "contractor": "Metro Disposal",
    "rowid": "926018",
    "final_x": "3668369.73844",
    "final_y": "547643.354258",
    "longitude": "-90.10898709262541",
    "latitude": "30.00022160481494",
    "geocoded_column": {
      "latitude": "30.00022160481494",
      "longitude": "-90.10898709262541"
    }
  },
  {
    "service_request": "2022-926017",
    "request_type": "Abandoned Vehicles",
    "request_reason": "Vehicle Blocking Your Driveway",
    "date_created": "2022-10-04T15:31:13.000",
    "date_modified": "2022-10-04T15:31:13.000",
    "request_status": "Pending",
    "responsible_agency": "Department of Public Works",
    "final_address": "4444 Macarthur Blvd",
    "address_councildis": "C",
    "status": "Pending",
    "rowid": "926017",
    "final_x": "3700237.10013",
    "final_y": "520362.145848",
    "longitude": "-90.00931279900492",
    "latitude": "29.924233275900974",
    "geocoded_column": {
      "latitude": "29.924233275900974",
      "longitude": "-90.00931279900492"
    }
  },
  {
    "service_request": "2022-926016",
    "request_type": "Roads/Drainage",
    "request_reason": "Street Subsidence (Sinking)",
    "date_created": "2022-10-04T15:14:46.000",
    "date_modified": "2022-10-04T15:14:47.000",
    "request_status": "Pending",
    "responsible_agency": "Department of Public Works",
    "final_address": "9900 Morrison Rd",
    "address_councildis": "E",
    "status": "Pending",
    "rowid": "926016",
    "final_x": "3708195.80843",
    "final_y": "563090.641824",
    "longitude": "-89.98260019889054",
    "latitude": "30.041465418044186",
    "geocoded_column": {
      "latitude": "30.041465418044186",
      "longitude": "-89.98260019889054"
    }
  },
  {
    "service_request": "2022-926015",
    "request_type": "Trash/Recycling",
    "request_reason": "Repair Trash Cart",
    "date_created": "2022-10-04T15:14:41.000",
    "date_modified": "2022-10-04T15:14:42.000",
    "request_status": "Pending",
    "responsible_agency": "Department of Sanitation",
    "final_address": "1901 Mirabeau Ave",
    "address_councildis": "D",
    "status": "Assigned to Contractor",
    "contractor": "Metro Disposal",
    "rowid": "926015",
    "final_x": "3681599.33333",
    "final_y": "550657.226516",
    "longitude": "-90.06708888063827",
    "latitude": "30.008113348304285",
    "geocoded_column": {
      "latitude": "30.008113348304285",
      "longitude": "-90.06708888063827"
    }
  },
  {
    "service_request": "2022-926014",
    "request_type": "Trash/Recycling",
    "request_reason": "Illegal Dumping",
    "date_created": "2022-10-04T15:13:52.000",
    "date_modified": "2022-10-04T15:13:53.000",
    "request_status": "Pending",
    "responsible_agency": "Department of Sanitation",
    "final_address": "N GALVEZ ST & PAUGER ST",
    "address_councildis": "D",
    "status": "Pending",
    "rowid": "926014",
    "final_x": "3683586.0",
    "final_y": "539903.78",
    "longitude": "-90.06118958370858",
    "latitude": "29.978484682084815",
    "geocoded_column": {
      "latitude": "29.978484682084815",
      "longitude": "-90.06118958370858"
    }
  },
  {
    "service_request": "2022-926013",
    "request_type": "Abandoned Vehicles",
    "request_reason": "Abandoned/Junk Vehicles",
    "date_created": "2022-10-04T15:10:59.000",
    "date_modified": "2022-10-04T15:10:59.000",
    "request_status": "Pending",
    "responsible_agency": "Department of Public Works",
    "final_address": "TOURO ST & N GALVEZ ST",
    "address_councildis": "D",
    "status": "Pending",
    "rowid": "926013",
    "final_x": "3683936.8",
    "final_y": "539927.48",
    "longitude": "-90.0600807982313",
    "latitude": "29.978539135109536",
    "geocoded_column": {
      "latitude": "29.978539135109536",
      "longitude": "-90.0600807982313"
    }
  },
  {
    "service_request": "2022-926012",
    "request_type": "Abandoned Vehicles",
    "request_reason": "Abandoned/Junk Vehicles",
    "date_created": "2022-10-04T15:07:53.000",
    "date_modified": "2022-10-04T15:10:48.000",
    "request_status": "Pending",
    "responsible_agency": "Department of Public Works",
    "final_address": "TOURO ST & N GALVEZ ST",
    "address_councildis": "D",
    "status": "Pending",
    "rowid": "926012",
    "final_x": "3683936.8",
    "final_y": "539927.48",
    "longitude": "-90.0600807982313",
    "latitude": "29.978539135109536",
    "geocoded_column": {
      "latitude": "29.978539135109536",
      "longitude": "-90.0600807982313"
    }
  },
  {
    "service_request": "2022-926011",
    "request_type": "Roads/Drainage",
    "request_reason": "Street Subsidence (Sinking)",
    "date_created": "2022-10-04T15:06:36.000",
    "date_modified": "2022-10-04T15:06:36.000",
    "request_status": "Pending",
    "responsible_agency": "Department of Public Works",
    "final_address": "3622 Bruxelles St",
    "address_councildis": "D",
    "status": "Reviewed",
    "rowid": "926011",
    "final_x": "3680037.50754",
    "final_y": "545753.597584",
    "longitude": "-90.07219367391752",
    "latitude": "29.994677480884192",
    "geocoded_column": {
      "latitude": "29.994677480884192",
      "longitude": "-90.07219367391752"
    }
  },
  {
    "service_request": "2022-926010",
    "request_type": "Property Maintenance",
    "request_reason": "Property Maintenance",
    "date_created": "2022-10-04T15:00:49.000",
    "date_modified": "2022-10-04T15:00:50.000",
    "request_status": "Pending",
    "responsible_agency": "Department of Code Enforcement",
    "final_address": "5445 St Ferdinand Dr",
    "address_councildis": "D",
    "status": "Pending",
    "rowid": "926010",
    "final_x": "3689069.08399",
    "final_y": "553449.520983",
    "longitude": "-90.04339041515362",
    "latitude": "30.015562040847826",
    "geocoded_column": {
      "latitude": "30.015562040847826",
      "longitude": "-90.04339041515362"
    }
  },
  {
    "service_request": "2022-926009",
    "request_type": "Trash/Recycling",
    "request_reason": "Repair Trash Cart",
    "date_created": "2022-10-04T14:59:00.000",
    "date_modified": "2022-10-04T14:59:01.000",
    "request_status": "Pending",
    "responsible_agency": "Department of Sanitation",
    "final_address": "2644 General Collins Ave",
    "address_councildis": "C",
    "status": "Assigned to Contractor",
    "contractor": "Richards Disposal",
    "rowid": "926009",
    "final_x": "3698433.80612",
    "final_y": "521346.475385",
    "longitude": "-90.01496938488393",
    "latitude": "29.926997016950835",
    "geocoded_column": {
      "latitude": "29.926997016950835",
      "longitude": "-90.01496938488393"
    }
  },
  {
    "service_request": "2022-926008",
    "request_type": "Parks & Parkways",
    "request_reason": "Tree Stump (removal, grind)",
    "date_created": "2022-10-04T14:56:05.000",
    "date_modified": "2022-10-04T14:56:05.000",
    "request_status": "Pending",
    "responsible_agency": "Department of Parks & Parkway",
    "final_address": "65 Spanish Fort Blvd",
    "address_councildis": "D",
    "status": "Pending",
    "rowid": "926008",
    "final_x": "3674035.3284",
    "final_y": "555459.895129",
    "longitude": "-90.09082138904503",
    "latitude": "30.021546640609827",
    "geocoded_column": {
      "latitude": "30.021546640609827",
      "longitude": "-90.09082138904503"
    }
  },
  {
    "service_request": "2022-926007",
    "request_type": "Trash/Recycling",
    "request_reason": "MIssed Recycling Pick-Up",
    "date_created": "2022-10-04T14:53:19.000",
    "date_modified": "2022-10-04T14:53:20.000",
    "request_status": "Pending",
    "responsible_agency": "Department of Sanitation",
    "final_address": "1831 Audubon St",
    "address_councildis": "A",
    "status": "Assigned to Contractor",
    "contractor": "Richards Disposal",
    "rowid": "926007",
    "final_x": "3665785.82298",
    "final_y": "528303.803392",
    "longitude": "-90.11779796714376",
    "latitude": "29.94711995113553",
    "geocoded_column": {
      "latitude": "29.94711995113553",
      "longitude": "-90.11779796714376"
    }
  },
  {
    "service_request": "2022-926006",
    "request_type": "Traffic Signals/Signs/Striping/Streetlights",
    "request_reason": "Street Light Outage/Malfunction",
    "date_created": "2022-10-04T14:52:28.000",
    "date_modified": "2022-10-04T14:52:29.000",
    "request_status": "Pending",
    "responsible_agency": "Department of Public Works",
    "final_address": "1669 N Roman St",
    "address_councildis": "D",
    "status": "Pending",
    "contractor": "Legacy Professional Services",
    "rowid": "926006",
    "final_x": "3682093.75925",
    "final_y": "538723.393161",
    "longitude": "-90.06594385988028",
    "latitude": "29.975284498879706",
    "geocoded_column": {
      "latitude": "29.975284498879706",
      "longitude": "-90.06594385988028"
    }
  },
  {
    "service_request": "2022-926005",
    "request_type": "Trash/Recycling",
    "request_reason": "Repair Trash Cart",
    "date_created": "2022-10-04T14:50:47.000",
    "date_modified": "2022-10-04T14:50:48.000",
    "request_status": "Pending",
    "responsible_agency": "Department of Sanitation",
    "final_address": "8216 Willow St",
    "address_councildis": "A",
    "status": "Assigned to Contractor",
    "contractor": "Richards Disposal",
    "rowid": "926005",
    "final_x": "3662036.70656",
    "final_y": "529203.755008",
    "longitude": "-90.1296055429916",
    "latitude": "29.9497033557418",
    "geocoded_column": {
      "latitude": "29.9497033557418",
      "longitude": "-90.1296055429916"
    }
  },
  {
    "service_request": "2022-926004",
    "request_type": "Roads/Drainage",
    "request_reason": "Street Subsidence (Sinking)",
    "date_created": "2022-10-04T14:44:41.000",
    "date_modified": "2022-10-04T14:44:41.000",
    "request_status": "Pending",
    "responsible_agency": "Department of Public Works",
    "final_address": "1428 Josephine St",
    "address_councildis": "B",
    "status": "Pending",
    "rowid": "926004",
    "final_x": "3678360.61998",
    "final_y": "523301.798331",
    "longitude": "-90.07826759372112",
    "latitude": "29.932993304345903",
    "geocoded_column": {
      "latitude": "29.932993304345903",
      "longitude": "-90.07826759372112"
    }
  },
  {
    "service_request": "2022-926003",
    "request_type": "Roads/Drainage",
    "request_reason": "Accessibility Ramps, Curbs and Sidewalk Repair",
    "date_created": "2022-10-04T14:33:41.000",
    "date_modified": "2022-10-04T14:33:42.000",
    "request_status": "Pending",
    "responsible_agency": "Department of Public Works",
    "final_address": "7710 Spruce St",
    "address_councildis": "A",
    "status": "Pending",
    "rowid": "926003",
    "final_x": "3664840.9017",
    "final_y": "529502.147649",
    "longitude": "-90.12074141015833",
    "latitude": "29.95044253965382",
    "geocoded_column": {
      "latitude": "29.95044253965382",
      "longitude": "-90.12074141015833"
    }
  },
  {
    "service_request": "2022-926002",
    "request_type": "Trash/Recycling",
    "request_reason": "Dead Animal Pick Up",
    "date_created": "2022-10-04T14:29:26.000",
    "date_modified": "2022-10-04T14:29:27.000",
    "request_status": "Pending",
    "responsible_agency": "Department of Sanitation",
    "final_address": "906 Sixth St",
    "address_councildis": "B",
    "status": "Assigned to Contractor",
    "contractor": "Richards Disposal",
    "rowid": "926002",
    "final_x": "3676956.70171",
    "final_y": "519984.880504",
    "longitude": "-90.08281394458378",
    "latitude": "29.923915067437903",
    "geocoded_column": {
      "latitude": "29.923915067437903",
      "longitude": "-90.08281394458378"
    }
  },
  {
    "service_request": "2022-926001",
    "request_type": "Trash/Recycling",
    "request_reason": "Replace Trash Cart",
    "date_created": "2022-10-04T14:22:41.000",
    "date_modified": "2022-10-04T14:22:42.000",
    "request_status": "Pending",
    "responsible_agency": "Department of Sanitation",
    "final_address": "904 St Ann St",
    "address_councildis": "C",
    "status": "Assigned to Contractor",
    "contractor": "Empire Services",
    "rowid": "926001",
    "final_x": "3682145.83426",
    "final_y": "533214.229316",
    "longitude": "-90.06597184006117",
    "latitude": "29.960134611639447",
    "geocoded_column": {
      "latitude": "29.960134611639447",
      "longitude": "-90.06597184006117"
    }
  },
  {
    "service_request": "2022-926000",
    "request_type": "Traffic Signals/Signs/Striping/Streetlights",
    "request_reason": "Street Light Outage/Malfunction",
    "date_created": "2022-10-04T14:21:51.000",
    "date_modified": "2022-10-04T14:21:51.000",
    "request_status": "Pending",
    "responsible_agency": "Department of Public Works",
    "final_address": "4900 BLK Magazine St",
    "address_councildis": "B",
    "status": "Pending",
    "contractor": "Legacy Professional Services",
    "rowid": "926000",
    "final_x": "3668818.20531",
    "final_y": "518584.737553",
    "longitude": "-90.10855157820977",
    "latitude": "29.920306834668178",
    "geocoded_column": {
      "latitude": "29.920306834668178",
      "longitude": "-90.10855157820977"
    }
  },
  {
    "service_request": "2022-925998",
    "request_type": "Roads/Drainage",
    "request_reason": "Street Subsidence (Sinking)",
    "date_created": "2022-10-04T14:17:21.000",
    "date_modified": "2022-10-04T14:44:58.000",
    "case_close_date": "2022-10-04T09:44:58.000",
    "request_status": "Closed",
    "responsible_agency": "Department of Public Works",
    "final_address": "4433 Danneel St",
    "address_councildis": "B",
    "status": "Duplicate Request",
    "rowid": "925998",
    "final_x": "3670368.19994",
    "final_y": "522328.07609",
    "longitude": "-90.10353214796731",
    "latitude": "29.93055417533511",
    "geocoded_column": {
      "latitude": "29.93055417533511",
      "longitude": "-90.10353214796731"
    }
  },
  {
    "service_request": "2022-925997",
    "request_type": "Trash/Recycling",
    "request_reason": "Request a Large Item Pick Up",
    "date_created": "2022-10-04T14:14:50.000",
    "date_modified": "2022-10-04T14:14:50.000",
    "request_status": "Pending",
    "responsible_agency": "Department of Sanitation",
    "final_address": "1312 Short St",
    "address_councildis": "A",
    "status": "Assigned to Contractor",
    "contractor": "Richards Disposal",
    "rowid": "925997",
    "final_x": "3662611.44378",
    "final_y": "528484.059968",
    "longitude": "-90.127814733839",
    "latitude": "29.947707811182493",
    "geocoded_column": {
      "latitude": "29.947707811182493",
      "longitude": "-90.127814733839"
    }
  },
  {
    "service_request": "2022-925996",
    "request_type": "Traffic Signals/Signs/Striping/Streetlights",
    "request_reason": "Street Light Outage/Malfunction",
    "date_created": "2022-10-04T14:14:35.000",
    "date_modified": "2022-10-04T14:14:35.000",
    "request_status": "Pending",
    "responsible_agency": "Department of Public Works",
    "final_address": "709 General Pershing St",
    "address_councildis": "B",
    "status": "Pending",
    "contractor": "Legacy Professional Services",
    "rowid": "925996",
    "final_x": "3671551.11617",
    "final_y": "518185.417974",
    "longitude": "-90.0999386195876",
    "latitude": "29.91912822644559",
    "geocoded_column": {
      "latitude": "29.91912822644559",
      "longitude": "-90.0999386195876"
    }
  },
  {
    "service_request": "2022-925995",
    "request_type": "Trash/Recycling",
    "request_reason": "Missed Trash Pick-Up",
    "date_created": "2022-10-04T14:13:05.000",
    "date_modified": "2022-10-04T14:13:06.000",
    "request_status": "Pending",
    "responsible_agency": "Department of Sanitation",
    "final_address": "600 General Taylor St",
    "address_councildis": "B",
    "status": "Assigned to Contractor",
    "contractor": "Richards Disposal",
    "rowid": "925995",
    "final_x": "3673313.97268",
    "final_y": "517991.197238",
    "longitude": "-90.09438080021016",
    "latitude": "29.9185418869298",
    "geocoded_column": {
      "latitude": "29.9185418869298",
      "longitude": "-90.09438080021016"
    }
  },
  {
    "service_request": "2022-925994",
    "request_type": "Traffic Signals/Signs/Striping/Streetlights",
    "request_reason": "Street Light Outage/Malfunction",
    "date_created": "2022-10-04T14:12:26.000",
    "date_modified": "2022-10-04T14:16:56.000",
    "request_status": "Pending",
    "responsible_agency": "Department of Public Works",
    "final_address": "New Orleans,LA",
    "address_councildis": "D",
    "status": "Pending",
    "contractor": "Legacy Professional Services",
    "rowid": "925994",
    "final_x": "3678866.6",
    "final_y": "557059.08",
    "longitude": "-90.07550039914094",
    "latitude": "30.025798880535827",
    "geocoded_column": {
      "latitude": "30.025798880535827",
      "longitude": "-90.07550039914094"
    }
  },
  {
    "service_request": "2022-925993",
    "request_type": "Roads/Drainage",
    "request_reason": "Pothole",
    "date_created": "2022-10-04T14:09:59.000",
    "date_modified": "2022-10-04T14:09:59.000",
    "request_status": "Pending",
    "responsible_agency": "Department of Public Works",
    "final_address": "2736 Palmer Ave",
    "address_councildis": "A",
    "status": "Pending",
    "rowid": "925993",
    "final_x": "3666776.47073",
    "final_y": "526803.19891",
    "longitude": "-90.11472049806277",
    "latitude": "29.942964840000126",
    "geocoded_column": {
      "latitude": "29.942964840000126",
      "longitude": "-90.11472049806277"
    }
  },
  {
    "service_request": "2022-925992",
    "request_type": "Abandoned Vehicles",
    "request_reason": "Abandoned/Junk Vehicles",
    "date_created": "2022-10-04T14:09:58.000",
    "date_modified": "2022-10-04T14:09:59.000",
    "request_status": "Pending",
    "responsible_agency": "Department of Public Works",
    "final_address": "600 BLK N Roman St",
    "address_councildis": "D",
    "status": "Pending",
    "rowid": "925992",
    "final_x": "3679117.38156",
    "final_y": "534942.736005",
    "longitude": "-90.07547512933192",
    "latitude": "29.964979173647727",
    "geocoded_column": {
      "latitude": "29.964979173647727",
      "longitude": "-90.07547512933192"
    }
  },
  {
    "service_request": "2022-925991",
    "request_type": "Trash/Recycling",
    "request_reason": "Dead Animal Pick Up",
    "date_created": "2022-10-04T14:08:44.000",
    "date_modified": "2022-10-04T14:12:19.000",
    "case_close_date": "2022-10-04T09:12:19.000",
    "request_status": "Closed",
    "responsible_agency": "Department of Sanitation",
    "final_address": "7830 Burthe St",
    "address_councildis": "A",
    "status": "Resolved",
    "contractor": "Richards Disposal",
    "rowid": "925991",
    "final_x": "3661854.79008",
    "final_y": "526996.797886",
    "longitude": "-90.1302531041883",
    "latitude": "29.943640182777088",
    "geocoded_column": {
      "latitude": "29.943640182777088",
      "longitude": "-90.1302531041883"
    }
  },
  {
    "service_request": "2022-925990",
    "request_type": "Trash/Recycling",
    "request_reason": "Missed Trash Pick-Up",
    "date_created": "2022-10-04T14:07:20.000",
    "date_modified": "2022-10-04T14:07:21.000",
    "request_status": "Pending",
    "responsible_agency": "Department of Sanitation",
    "final_address": "5222 Lakeview Ct",
    "address_councildis": "E",
    "status": "Assigned to Contractor",
    "contractor": "Metro Disposal",
    "rowid": "925990",
    "final_x": "3698975.10711",
    "final_y": "556696.252122",
    "longitude": "-90.01197381988146",
    "latitude": "30.024178962250556",
    "geocoded_column": {
      "latitude": "30.024178962250556",
      "longitude": "-90.01197381988146"
    }
  },
  {
    "service_request": "2022-925989",
    "request_type": "Abandoned Vehicles",
    "request_reason": "Abandoned/Junk Vehicles",
    "date_created": "2022-10-04T14:06:05.000",
    "date_modified": "2022-10-04T14:06:05.000",
    "request_status": "Pending",
    "responsible_agency": "Department of Public Works",
    "final_address": "1723 Dublin St",
    "address_councildis": "A",
    "status": "Pending",
    "rowid": "925989",
    "final_x": "3663042.06912",
    "final_y": "530016.177153",
    "longitude": "-90.12640411959335",
    "latitude": "29.951908175868383",
    "geocoded_column": {
      "latitude": "29.951908175868383",
      "longitude": "-90.12640411959335"
    }
  },
  {
    "service_request": "2022-925988",
    "request_type": "Trash/Recycling",
    "request_reason": "Missed Trash Pick-Up",
    "date_created": "2022-10-04T14:05:58.000",
    "date_modified": "2022-10-04T14:05:59.000",
    "request_status": "Pending",
    "responsible_agency": "Department of Sanitation",
    "final_address": "732 Pacific Ave",
    "address_councildis": "C",
    "status": "Assigned to Contractor",
    "contractor": "Richards Disposal",
    "rowid": "925988",
    "final_x": "3688510.70217",
    "final_y": "528792.5456",
    "longitude": "-90.04602986702261",
    "latitude": "29.94778139629566",
    "geocoded_column": {
      "latitude": "29.94778139629566",
      "longitude": "-90.04602986702261"
    }
  },
  {
    "service_request": "2022-925987",
    "request_type": "Trash/Recycling",
    "request_reason": "Request a Large Item Pick Up",
    "date_created": "2022-10-04T14:05:32.000",
    "date_modified": "2022-10-04T14:05:33.000",
    "request_status": "Pending",
    "responsible_agency": "Department of Sanitation",
    "final_address": "2115 New Orleans St",
    "address_councildis": "D",
    "status": "Assigned to Contractor",
    "contractor": "Metro Disposal",
    "rowid": "925987",
    "final_x": "3682128.87413",
    "final_y": "539935.640138",
    "longitude": "-90.06579060542812",
    "latitude": "29.978616688167563",
    "geocoded_column": {
      "latitude": "29.978616688167563",
      "longitude": "-90.06579060542812"
    }
  },
  {
    "service_request": "2022-925986",
    "request_type": "Abandoned Vehicles",
    "request_reason": "Abandoned/Junk Vehicles",
    "date_created": "2022-10-04T14:02:42.000",
    "date_modified": "2022-10-04T16:28:15.000",
    "request_status": "Pending",
    "responsible_agency": "Department of Public Works",
    "final_address": "4400 BLK Coliseum St",
    "address_councildis": "B",
    "status": "Pending",
    "rowid": "925986",
    "final_x": "3670734.38979",
    "final_y": "519800.063534",
    "longitude": "-90.10246186616638",
    "latitude": "29.923592136965574",
    "geocoded_column": {
      "latitude": "29.923592136965574",
      "longitude": "-90.10246186616638"
    }
  },
  {
    "service_request": "2022-925985",
    "request_type": "Trash/Recycling",
    "request_reason": "Replace Trash Cart",
    "date_created": "2022-10-04T14:01:02.000",
    "date_modified": "2022-10-04T14:01:03.000",
    "request_status": "Pending",
    "responsible_agency": "Department of Sanitation",
    "final_address": "7830 Burthe St",
    "address_councildis": "A",
    "status": "Assigned to Contractor",
    "contractor": "Richards Disposal",
    "rowid": "925985",
    "final_x": "3661854.79008",
    "final_y": "526996.797886",
    "longitude": "-90.1302531041883",
    "latitude": "29.943640182777088",
    "geocoded_column": {
      "latitude": "29.943640182777088",
      "longitude": "-90.1302531041883"
    }
  },
  {
    "service_request": "2022-925984",
    "request_type": "Trash/Recycling",
    "request_reason": "Missed Trash Pick-Up",
    "date_created": "2022-10-04T13:51:51.000",
    "date_modified": "2022-10-04T13:51:51.000",
    "request_status": "Pending",
    "responsible_agency": "Department of Sanitation",
    "final_address": "1124 Louisiana Ave",
    "address_councildis": "B",
    "status": "Assigned to Contractor",
    "contractor": "Richards Disposal",
    "rowid": "925984",
    "final_x": "3674849.87483",
    "final_y": "519789.802808",
    "longitude": "-90.089471134043",
    "latitude": "29.92344172164525",
    "geocoded_column": {
      "latitude": "29.92344172164525",
      "longitude": "-90.089471134043"
    }
  },
  {
    "service_request": "2022-925983",
    "request_type": "Trash/Recycling",
    "request_reason": "Illegal Dumping",
    "date_created": "2022-10-04T13:51:03.000",
    "date_modified": "2022-10-04T13:51:03.000",
    "request_status": "Pending",
    "responsible_agency": "Department of Sanitation",
    "final_address": "3400 Toledano St",
    "address_councildis": "B",
    "status": "Pending",
    "rowid": "925983",
    "final_x": "3671865.80353",
    "final_y": "527939.877951",
    "longitude": "-90.0986135285597",
    "latitude": "29.94594052711484",
    "geocoded_column": {
      "latitude": "29.94594052711484",
      "longitude": "-90.0986135285597"
    }
  },
  {
    "service_request": "2022-925982",
    "request_type": "Trash/Recycling",
    "request_reason": "Illegal Dumping",
    "date_created": "2022-10-04T13:50:22.000",
    "date_modified": "2022-10-04T13:50:22.000",
    "request_status": "Pending",
    "responsible_agency": "Department of Sanitation",
    "final_address": "2300 BLK S Derbigny St",
    "address_councildis": "B",
    "status": "Pending",
    "rowid": "925982",
    "final_x": "3674151.97056",
    "final_y": "527850.183589",
    "longitude": "-90.09139838592992",
    "latitude": "29.9456259611359",
    "geocoded_column": {
      "latitude": "29.9456259611359",
      "longitude": "-90.09139838592992"
    }
  },
  {
    "service_request": "2022-925981",
    "request_type": "Trash/Recycling",
    "request_reason": "Missed Trash Pick-Up",
    "date_created": "2022-10-04T13:49:07.000",
    "date_modified": "2022-10-04T13:49:52.000",
    "request_status": "Pending",
    "responsible_agency": "Department of Sanitation",
    "final_address": "7021 Memphis St",
    "address_councildis": "A",
    "status": "Assigned to Contractor",
    "contractor": "Metro Disposal",
    "rowid": "925981",
    "final_x": "3669899.5817",
    "final_y": "554102.137432",
    "longitude": "-90.10393530353683",
    "latitude": "30.017935953838",
    "geocoded_column": {
      "latitude": "30.017935953838",
      "longitude": "-90.10393530353683"
    }
  },
  {
    "service_request": "2022-925980",
    "request_type": "Trash/Recycling",
    "request_reason": "Replace Trash Cart",
    "date_created": "2022-10-04T13:46:25.000",
    "date_modified": "2022-10-04T13:46:26.000",
    "request_status": "Pending",
    "responsible_agency": "Department of Sanitation",
    "final_address": "4023 Vincennes Pl",
    "address_councildis": "B",
    "status": "Assigned to Contractor",
    "contractor": "Richards Disposal",
    "rowid": "925980",
    "final_x": "3668532.29934",
    "final_y": "530115.654465",
    "longitude": "-90.10906516146387",
    "latitude": "29.952021552506604",
    "geocoded_column": {
      "latitude": "29.952021552506604",
      "longitude": "-90.10906516146387"
    }
  },
  {
    "service_request": "2022-925979",
    "request_type": "Trash/Recycling",
    "request_reason": "Missed Trash Pick-Up",
    "date_created": "2022-10-04T13:45:59.000",
    "date_modified": "2022-10-04T13:46:00.000",
    "request_status": "Pending",
    "responsible_agency": "Department of Sanitation",
    "final_address": "5527 General Diaz St",
    "address_councildis": "A",
    "status": "Assigned to Contractor",
    "contractor": "Metro Disposal",
    "rowid": "925979",
    "final_x": "3669151.2162",
    "final_y": "543987.397134",
    "longitude": "-90.1066419965131",
    "latitude": "29.990145999943394",
    "geocoded_column": {
      "latitude": "29.990145999943394",
      "longitude": "-90.1066419965131"
    }
  },
  {
    "service_request": "2022-925978",
    "request_type": "Trash/Recycling",
    "request_reason": "Order Trash Cart",
    "date_created": "2022-10-04T13:45:26.000",
    "date_modified": "2022-10-04T13:45:26.000",
    "request_status": "Pending",
    "responsible_agency": "Department of Sanitation",
    "final_address": "1932 Ap Tureaud Ave",
    "address_councildis": "D",
    "status": "Assigned to Contractor",
    "contractor": "Metro Disposal",
    "rowid": "925978",
    "final_x": "3681657.0278",
    "final_y": "539365.763914",
    "longitude": "-90.0673007571682",
    "latitude": "29.97706407057423",
    "geocoded_column": {
      "latitude": "29.97706407057423",
      "longitude": "-90.0673007571682"
    }
  },
  {
    "service_request": "2022-925977",
    "request_type": "Traffic Signals/Signs/Striping/Streetlights",
    "request_reason": "Street Light Outage/Malfunction",
    "date_created": "2022-10-04T13:44:07.000",
    "date_modified": "2022-10-04T13:44:08.000",
    "request_status": "Pending",
    "responsible_agency": "Department of Public Works",
    "final_address": "2138 Farragut St",
    "address_councildis": "C",
    "status": "Pending",
    "contractor": "Legacy Professional Services",
    "rowid": "925977",
    "final_x": "3692244.78595",
    "final_y": "523097.063675",
    "longitude": "-90.03444378172593",
    "latitude": "29.932004891634442",
    "geocoded_column": {
      "latitude": "29.932004891634442",
      "longitude": "-90.03444378172593"
    }
  },
  {
    "service_request": "2022-925976",
    "request_type": "Trash/Recycling",
    "request_reason": "Missed Trash Pick-Up",
    "date_created": "2022-10-04T13:43:41.000",
    "date_modified": "2022-10-04T13:43:42.000",
    "request_status": "Pending",
    "responsible_agency": "Department of Sanitation",
    "final_address": "2121 Marengo St",
    "address_councildis": "B",
    "status": "Assigned to Contractor",
    "contractor": "Richards Disposal",
    "rowid": "925976",
    "final_x": "3671814.04327",
    "final_y": "522957.524603",
    "longitude": "-90.09894641970993",
    "latitude": "29.932242207755312",
    "geocoded_column": {
      "latitude": "29.932242207755312",
      "longitude": "-90.09894641970993"
    }
  },
  {
    "service_request": "2022-925975",
    "request_type": "Trash/Recycling",
    "request_reason": "Missed Trash Pick-Up",
    "date_created": "2022-10-04T13:42:33.000",
    "date_modified": "2022-10-04T13:42:34.000",
    "request_status": "Pending",
    "responsible_agency": "Department of Sanitation",
    "final_address": "1300 BLK Pauline St",
    "address_councildis": "D",
    "status": "Assigned to Contractor",
    "contractor": "Metro Disposal",
    "rowid": "925975",
    "final_x": "3691441.52456",
    "final_y": "536369.452639",
    "longitude": "-90.03650537929596",
    "latitude": "29.96852438759832",
    "geocoded_column": {
      "latitude": "29.96852438759832",
      "longitude": "-90.03650537929596"
    }
  },
  {
    "service_request": "2022-925974",
    "request_type": "Trash/Recycling",
    "request_reason": "Request a Large Item Pick Up",
    "date_created": "2022-10-04T13:37:05.000",
    "date_modified": "2022-10-04T13:37:05.000",
    "request_status": "Pending",
    "responsible_agency": "Department of Sanitation",
    "final_address": "2501 Napoleon Ave Apt A",
    "address_councildis": "B",
    "status": "Assigned to Contractor",
    "contractor": "Richards Disposal",
    "rowid": "925974",
    "final_x": "3670633.59713",
    "final_y": "524086.447356",
    "longitude": "-90.10263470637695",
    "latitude": "29.935381295706513",
    "geocoded_column": {
      "latitude": "29.935381295706513",
      "longitude": "-90.10263470637695"
    }
  },
  {
    "service_request": "2022-925973",
    "request_type": "Trash/Recycling",
    "request_reason": "Start Trash Service",
    "date_created": "2022-10-04T13:37:03.000",
    "date_modified": "2022-10-04T13:37:04.000",
    "request_status": "Pending",
    "responsible_agency": "Department of Sanitation",
    "final_address": "8535 Jeannette St",
    "address_councildis": "A",
    "status": "Assigned to Contractor",
    "contractor": "Richards Disposal",
    "rowid": "925973",
    "final_x": "3661437.71789",
    "final_y": "530334.68045",
    "longitude": "-90.13145937892675",
    "latitude": "29.95283032624546",
    "geocoded_column": {
      "latitude": "29.95283032624546",
      "longitude": "-90.13145937892675"
    }
  },
  {
    "service_request": "2022-925972",
    "request_type": "Trash/Recycling",
    "request_reason": "Order Trash Cart",
    "date_created": "2022-10-04T13:36:18.000",
    "date_modified": "2022-10-04T13:36:19.000",
    "request_status": "Pending",
    "responsible_agency": "Department of Sanitation",
    "final_address": "1916 Moss St",
    "address_councildis": "D",
    "status": "Assigned to Contractor",
    "contractor": "Metro Disposal",
    "rowid": "925972",
    "final_x": "3675498.61493",
    "final_y": "543865.624078",
    "longitude": "-90.08659639813291",
    "latitude": "29.98962279311745",
    "geocoded_column": {
      "latitude": "29.98962279311745",
      "longitude": "-90.08659639813291"
    }
  },
  {
    "service_request": "2022-925971",
    "request_type": "Property Maintenance",
    "request_reason": "Property Maintenance",
    "date_created": "2022-10-04T13:30:05.000",
    "date_modified": "2022-10-04T13:30:05.000",
    "request_status": "Pending",
    "responsible_agency": "Department of Code Enforcement",
    "final_address": "5520 Clements Dr",
    "address_councildis": "E",
    "status": "Pending",
    "rowid": "925971",
    "final_x": "3702371.91255",
    "final_y": "556055.527129",
    "longitude": "-90.00126415798469",
    "latitude": "30.02230907128343",
    "geocoded_column": {
      "latitude": "30.02230907128343",
      "longitude": "-90.00126415798469"
    }
  },
  {
    "service_request": "2022-925970",
    "request_type": "Trash/Recycling",
    "request_reason": "Order Recycling Cart",
    "date_created": "2022-10-04T13:27:59.000",
    "date_modified": "2022-10-04T13:28:00.000",
    "request_status": "Pending",
    "responsible_agency": "Department of Sanitation",
    "final_address": "7450 Seven Oaks Rd",
    "address_councildis": "E",
    "status": "Pending",
    "rowid": "925970",
    "final_x": "3712355.66437",
    "final_y": "565476.035682",
    "longitude": "-89.96936394618264",
    "latitude": "30.04788879968247",
    "geocoded_column": {
      "latitude": "30.04788879968247",
      "longitude": "-89.96936394618264"
    }
  },
  {
    "service_request": "2022-925969",
    "request_type": "Abandoned Vehicles",
    "request_reason": "Abandoned/Junk Vehicles",
    "date_created": "2022-10-04T13:27:03.000",
    "date_modified": "2022-10-04T13:27:04.000",
    "request_status": "Pending",
    "responsible_agency": "Department of Public Works",
    "final_address": "1836 Third St",
    "address_councildis": "B",
    "status": "Pending",
    "rowid": "925969",
    "final_x": "3675840.07873",
    "final_y": "523722.653755",
    "longitude": "-90.08621030869878",
    "latitude": "29.934226191973192",
    "geocoded_column": {
      "latitude": "29.934226191973192",
      "longitude": "-90.08621030869878"
    }
  },
  {
    "service_request": "2022-925968",
    "request_type": "Trash/Recycling",
    "request_reason": "Order Trash Cart",
    "date_created": "2022-10-04T13:23:41.000",
    "date_modified": "2022-10-04T13:23:41.000",
    "request_status": "Pending",
    "responsible_agency": "Department of Sanitation",
    "final_address": "4849 Bonita Dr",
    "address_councildis": "E",
    "status": "Assigned to Contractor",
    "contractor": "Metro Disposal",
    "rowid": "925968",
    "final_x": "3704460.95902",
    "final_y": "555979.798489",
    "longitude": "-89.99466612978105",
    "latitude": "30.02203390465638",
    "geocoded_column": {
      "latitude": "30.02203390465638",
      "longitude": "-89.99466612978105"
    }
  },
  {
    "service_request": "2022-925967",
    "request_type": "Trash/Recycling",
    "request_reason": "Order Trash Cart",
    "date_created": "2022-10-04T13:20:46.000",
    "date_modified": "2022-10-04T13:20:46.000",
    "request_status": "Pending",
    "responsible_agency": "Department of Sanitation",
    "final_address": "3202 Camp St",
    "address_councildis": "B",
    "status": "Assigned to Contractor",
    "contractor": "Richards Disposal",
    "rowid": "925967",
    "final_x": "3675601.02657",
    "final_y": "520263.010104",
    "longitude": "-90.08708378001597",
    "latitude": "29.924720446584885",
    "geocoded_column": {
      "latitude": "29.924720446584885",
      "longitude": "-90.08708378001597"
    }
  },
  {
    "service_request": "2022-925966",
    "request_type": "Trash/Recycling",
    "request_reason": "Request a Large Item Pick Up",
    "date_created": "2022-10-04T13:20:19.000",
    "date_modified": "2022-10-04T13:20:20.000",
    "request_status": "Pending",
    "responsible_agency": "Department of Sanitation",
    "final_address": "320 N Olympia St",
    "address_councildis": "A",
    "status": "Assigned to Contractor",
    "contractor": "Richards Disposal",
    "rowid": "925966",
    "final_x": "3670044.63591",
    "final_y": "540396.631371",
    "longitude": "-90.10394160455594",
    "latitude": "29.98024629034436",
    "geocoded_column": {
      "latitude": "29.98024629034436",
      "longitude": "-90.10394160455594"
    }
  },
  {
    "service_request": "2022-925965",
    "request_type": "Trash/Recycling",
    "request_reason": "Replace Trash Cart",
    "date_created": "2022-10-04T13:20:13.000",
    "date_modified": "2022-10-04T13:20:14.000",
    "request_status": "Pending",
    "responsible_agency": "Department of Sanitation",
    "final_address": "4550 Paris Ave",
    "address_councildis": "D",
    "status": "Assigned to Contractor",
    "contractor": "Metro Disposal",
    "rowid": "925965",
    "final_x": "3679240.83432",
    "final_y": "549512.872851",
    "longitude": "-90.07457981615133",
    "latitude": "30.005038239090577",
    "geocoded_column": {
      "latitude": "30.005038239090577",
      "longitude": "-90.07457981615133"
    }
  },
  {
    "service_request": "2022-925964",
    "request_type": "Trash/Recycling",
    "request_reason": "Order Recycling Cart",
    "date_created": "2022-10-04T13:19:52.000",
    "date_modified": "2022-10-04T13:19:52.000",
    "request_status": "Pending",
    "responsible_agency": "Department of Sanitation",
    "final_address": "555 Broadway St",
    "address_councildis": "A",
    "status": "Pending",
    "rowid": "925964",
    "final_x": "3662773.78899",
    "final_y": "524298.416764",
    "longitude": "-90.12744122722282",
    "latitude": "29.93619392876884",
    "geocoded_column": {
      "latitude": "29.93619392876884",
      "longitude": "-90.12744122722282"
    }
  },
  {
    "service_request": "2022-925963",
    "request_type": "Roads/Drainage",
    "request_reason": "Pothole",
    "date_created": "2022-10-04T13:18:29.000",
    "date_modified": "2022-10-04T13:23:49.000",
    "request_status": "Pending",
    "responsible_agency": "Department of Public Works",
    "final_address": "700 BLK Leontine St",
    "address_councildis": "B",
    "status": "Inspected",
    "rowid": "925963",
    "final_x": "3667085.12216",
    "final_y": "518103.89501",
    "longitude": "-90.1140382724444",
    "latitude": "29.91903549223269",
    "geocoded_column": {
      "latitude": "29.91903549223269",
      "longitude": "-90.1140382724444"
    }
  },
  {
    "service_request": "2022-925962",
    "request_type": "Trash/Recycling",
    "request_reason": "Missed Trash Pick-Up",
    "date_created": "2022-10-04T13:10:47.000",
    "date_modified": "2022-10-04T13:10:47.000",
    "request_status": "Pending",
    "responsible_agency": "Department of Sanitation",
    "final_address": "3507 Camp St",
    "address_councildis": "B",
    "status": "Assigned to Contractor",
    "contractor": "Richards Disposal",
    "rowid": "925962",
    "final_x": "3674255.19508",
    "final_y": "519768.564344",
    "longitude": "-90.0913490450715",
    "latitude": "29.92340105988629",
    "geocoded_column": {
      "latitude": "29.92340105988629",
      "longitude": "-90.0913490450715"
    }
  },
  {
    "service_request": "2022-925961",
    "request_type": "Trash/Recycling",
    "request_reason": "MIssed Recycling Pick-Up",
    "date_created": "2022-10-04T13:10:35.000",
    "date_modified": "2022-10-04T13:10:35.000",
    "request_status": "Pending",
    "responsible_agency": "Department of Sanitation",
    "final_address": "9408 Palm St",
    "address_councildis": "A",
    "status": "Assigned to Contractor",
    "contractor": "Richards Disposal",
    "rowid": "925961",
    "final_x": "3664198.11546",
    "final_y": "537835.589001",
    "longitude": "-90.12249295035443",
    "latitude": "29.97337546338181",
    "geocoded_column": {
      "latitude": "29.97337546338181",
      "longitude": "-90.12249295035443"
    }
  },
  {
    "service_request": "2022-925960",
    "request_type": "Trash/Recycling",
    "request_reason": "MIssed Recycling Pick-Up",
    "date_created": "2022-10-04T13:10:26.000",
    "date_modified": "2022-10-04T13:10:27.000",
    "request_status": "Pending",
    "responsible_agency": "Department of Sanitation",
    "final_address": "9118 Apple St",
    "address_councildis": "A",
    "status": "Assigned to Contractor",
    "contractor": "Richards Disposal",
    "rowid": "925960",
    "final_x": "3662610.09984",
    "final_y": "534557.668229",
    "longitude": "-90.12761718838134",
    "latitude": "29.964408305703383",
    "geocoded_column": {
      "latitude": "29.964408305703383",
      "longitude": "-90.12761718838134"
    }
  },