[
  {
    "service_request": "2023-1048437",
    "request_type": "Traffic Signals/Signs/Striping/Streetlights",
    "request_reason": "Street Light Outage/Malfunction",
    "date_created": "2023-11-06T21:19:11.000",
    "date_modified": "2023-11-06T21:19:12.000",
    "request_status": "Pending",
    "responsible_agency": "Department of Public Works",
    "final_address": "Leonidas Street & South Claiborne Avenue",
    "address_councildis": "A",
    "status": "Assigned to Contractor",
    "contractor": "Legacy Professional Services",
    "rowid": "1048437",
    "final_x": "3663561.67111",
    "final_y": "532773.568644",
    "longitude": "-90.1246716160918",
    "latitude": "29.959475048478655",
    "geocoded_column": {
      "latitude": "29.959475048478655",
      "longitude": "-90.1246716160918"
    }
  },
  {
    "service_request": "2023-1048436",
    "request_type": "Roads/Drainage",
    "request_reason": "Pothole",
    "date_created": "2023-11-06T20:59:52.000",
    "date_modified": "2023-11-06T20:59:52.000",
    "request_status": "Pending",
    "responsible_agency": "Department of Public Works",
    "final_address": "6047 Magazine St",
    "address_councildis": "A",
    "status": "Pending",
    "rowid": "1048436",
    "final_x": "3664375.36372",
    "final_y": "519431.121591",
    "longitude": "-90.12254735818453",
    "latitude": "29.922763958861278",
    "geocoded_column": {
      "latitude": "29.922763958861278",
      "longitude": "-90.12254735818453"
    }
  },
  {
    "service_request": "2023-1048435",
    "request_type": "Roads/Drainage",
    "request_reason": "Pothole",
    "date_created": "2023-11-06T20:57:43.000",
    "date_modified": "2023-11-06T20:57:43.000",
    "request_status": "Pending",
    "responsible_agency": "Department of Public Works",
    "final_address": "6125 Pitt St",
    "address_councildis": "A",
    "status": "Pending",
    "rowid": "1048435",
    "final_x": "3664701.78119",
    "final_y": "521470.575801",
    "longitude": "-90.1214488946833",
    "latitude": "29.92836232888595",
    "geocoded_column": {
      "latitude": "29.92836232888595",
      "longitude": "-90.1214488946833"
    }
  },
  {
    "service_request": "2023-1048434",
    "request_type": "Roads/Drainage",
    "request_reason": "Pothole",
    "date_created": "2023-11-06T20:49:10.000",
    "date_modified": "2023-11-06T20:49:10.000",
    "request_status": "Pending",
    "responsible_agency": "Department of Public Works",
    "final_address": "6031 Pitt St",
    "address_councildis": "A",
    "status": "Pending",
    "rowid": "1048434",
    "final_x": "3665074.90548",
    "final_y": "521345.766329",
    "longitude": "-90.12027518893876",
    "latitude": "29.928008285877205",
    "geocoded_column": {
      "latitude": "29.928008285877205",
      "longitude": "-90.12027518893876"
    }
  },
  {
    "service_request": "2023-1048433",
    "request_type": "Traffic Signals/Signs/Striping/Streetlights",
    "request_reason": "Traffic Signal Malfunctioning/Damaged",
    "date_created": "2023-11-06T20:30:05.000",
    "date_modified": "2023-11-06T20:30:07.000",
    "request_status": "Pending",
    "responsible_agency": "Department of Public Works",
    "final_address": "Leonidas Street & South Claiborne Avenue",
    "address_councildis": "A",
    "status": "Pending",
    "rowid": "1048433",
    "final_x": "3663561.67111",
    "final_y": "532773.568644",
    "longitude": "-90.1246716160918",
    "latitude": "29.959475048478655",
    "geocoded_column": {
      "latitude": "29.959475048478655",
      "longitude": "-90.1246716160918"
    }
  },
  {
    "service_request": "2023-1048432",
    "request_type": "Trash/Recycling",
    "request_reason": "MIssed Recycling Pick-Up",
    "date_created": "2023-11-06T19:24:39.000",
    "date_modified": "2023-11-06T19:24:40.000",
    "request_status": "Pending",
    "responsible_agency": "Department of Sanitation",
    "final_address": "110 Constitution St",
    "address_councildis": "C",
    "status": "Assigned to Contractor",
    "contractor": "Richards Disposal",
    "rowid": "1048432",
    "final_x": "3693820.84323",
    "final_y": "528226.180224",
    "longitude": "-90.02928407660094",
    "latitude": "29.946058982242185",
    "geocoded_column": {
      "latitude": "29.946058982242185",
      "longitude": "-90.02928407660094"
    }
  },
  {
    "service_request": "2023-1048431",
    "request_type": "Traffic Signals/Signs/Striping/Streetlights",
    "request_reason": "Street Light Outage/Malfunction",
    "date_created": "2023-11-06T19:07:01.000",
    "date_modified": "2023-11-06T19:07:01.000",
    "request_status": "Pending",
    "responsible_agency": "Department of Public Works",
    "final_address": "5700 BLK Memphis St",
    "address_councildis": "A",
    "status": "Assigned to Contractor",
    "contractor": "Legacy Professional Services",
    "rowid": "1048431",
    "final_x": "3669025.21441",
    "final_y": "545485.8327",
    "longitude": "-90.10698934712242",
    "latitude": "29.99426989160626",
    "geocoded_column": {
      "latitude": "29.99426989160626",
      "longitude": "-90.10698934712242"
    }
  },
  {
    "service_request": "2023-1048430",
    "request_type": "Trash/Recycling",
    "request_reason": "Illegal Dumping",
    "date_created": "2023-11-06T18:51:42.000",
    "date_modified": "2023-11-06T18:51:42.000",
    "request_status": "Pending",
    "responsible_agency": "Department of Sanitation",
    "final_address": "3810 Burgundy St",
    "address_councildis": "C",
    "status": "Pending",
    "rowid": "1048430",
    "final_x": "3691115.75606",
    "final_y": "534581.690885",
    "longitude": "-90.03759801353546",
    "latitude": "29.96361880468522",
    "geocoded_column": {
      "latitude": "29.96361880468522",
      "longitude": "-90.03759801353546"
    }
  },
  {
    "service_request": "2023-1048428",
    "request_type": "Roads/Drainage",
    "request_reason": "Pothole",
    "date_created": "2023-11-06T17:50:10.000",
    "date_modified": "2023-11-06T17:50:10.000",
    "request_status": "Pending",
    "responsible_agency": "Department of Public Works",
    "final_address": "1315 Peniston St",
    "address_councildis": "B",
    "status": "Pending",
    "rowid": "1048428",
    "final_x": "3673101.31451",
    "final_y": "520423.11276",
    "longitude": "-90.09496908964098",
    "latitude": "29.925235197927364",
    "geocoded_column": {
      "latitude": "29.925235197927364",
      "longitude": "-90.09496908964098"
    }
  },
  {
    "service_request": "2023-1048427",
    "request_type": "Property Maintenance",
    "request_reason": "Property Maintenance",
    "date_created": "2023-11-06T17:48:12.000",
    "date_modified": "2023-11-06T17:48:12.000",
    "request_status": "Pending",
    "responsible_agency": "Department of Code Enforcement",
    "final_address": "2100 Mirabeau Ave",
    "address_councildis": "D",
    "status": "Pending",
    "rowid": "1048427",
    "final_x": "3683132.25295",
    "final_y": "550564.339092",
    "longitude": "-90.06224918013726",
    "latitude": "30.007811273564865",
    "geocoded_column": {
      "latitude": "30.007811273564865",
      "longitude": "-90.06224918013726"
    }
  },
  {
    "service_request": "2023-1048426",
    "request_type": "Trash/Recycling",
    "request_reason": "Missed Trash Pick-Up",
    "date_created": "2023-11-06T17:28:12.000",
    "date_modified": "2023-11-06T17:28:13.000",
    "request_status": "Pending",
    "responsible_agency": "Department of Sanitation",
    "final_address": "6331 Tchoupitoulas St",
    "address_councildis": "A",
    "status": "Assigned to Contractor",
    "contractor": "Richards Disposal",
    "rowid": "1048426",
    "final_x": "3662518.82266",
    "final_y": "518261.67903",
    "longitude": "-90.12844657015093",
    "latitude": "29.91960216724289",
    "geocoded_column": {
      "latitude": "29.91960216724289",
      "longitude": "-90.12844657015093"
    }
  },
  {
    "service_request": "2023-1048425",
    "request_type": "Property Maintenance",
    "request_reason": "Property Maintenance",
    "date_created": "2023-11-06T17:13:45.000",
    "date_modified": "2023-11-06T17:13:45.000",
    "request_status": "Pending",
    "responsible_agency": "Department of Code Enforcement",
    "final_address": "2100 BLK Mirabeau Ave",
    "address_councildis": "D",
    "status": "Pending",
    "rowid": "1048425",
    "final_x": "3683255.1095",
    "final_y": "550631.018604",
    "longitude": "-90.06185870281863",
    "latitude": "30.007990870175266",
    "geocoded_column": {
      "latitude": "30.007990870175266",
      "longitude": "-90.06185870281863"
    }
  },
  {
    "service_request": "2023-1048424",
    "request_type": "Traffic Signals/Signs/Striping/Streetlights",
    "request_reason": "Street Light Outage/Malfunction",
    "date_created": "2023-11-06T17:13:32.000",
    "date_modified": "2023-11-06T17:13:33.000",
    "request_status": "Pending",
    "responsible_agency": "Department of Public Works",
    "final_address": "8400 Olive St",
    "address_councildis": "A",
    "status": "Assigned to Contractor",
    "contractor": "Legacy Professional Services",
    "rowid": "1048424",
    "final_x": "3666309.90836",
    "final_y": "534981.544902",
    "longitude": "-90.1159192152125",
    "latitude": "29.9654662596231",
    "geocoded_column": {
      "latitude": "29.9654662596231",
      "longitude": "-90.1159192152125"
    }
  },
  {
    "service_request": "2023-1048423",
    "request_type": "Trash/Recycling",
    "request_reason": "Request a Large Item Pick Up",
    "date_created": "2023-11-06T17:11:28.000",
    "date_modified": "2023-11-06T17:11:29.000",
    "request_status": "Pending",
    "responsible_agency": "Department of Sanitation",
    "final_address": "7021 Wayside Dr",
    "address_councildis": "E",
    "status": "Assigned to Contractor",
    "contractor": "Waste Pro",
    "rowid": "1048423",
    "final_x": "3717762.22629",
    "final_y": "567773.500324",
    "longitude": "-89.95218883564827",
    "latitude": "30.05402781490846",
    "geocoded_column": {
      "latitude": "30.05402781490846",
      "longitude": "-89.95218883564827"
    }
  },
  {
    "service_request": "2023-1048422",
    "request_type": "Property Maintenance",
    "request_reason": "Property Maintenance",
    "date_created": "2023-11-06T17:09:47.000",
    "date_modified": "2023-11-06T17:09:47.000",
    "request_status": "Pending",
    "responsible_agency": "Department of Code Enforcement",
    "final_address": "2100 BLK Mirabeau Ave",
    "address_councildis": "D",
    "status": "Pending",
    "rowid": "1048422",
    "final_x": "3683255.1095",
    "final_y": "550631.018604",
    "longitude": "-90.06185870281863",
    "latitude": "30.007990870175266",
    "geocoded_column": {
      "latitude": "30.007990870175266",
      "longitude": "-90.06185870281863"
    }
  },
  {
    "service_request": "2023-1048421",
    "request_type": "Trash/Recycling",
    "request_reason": "Start Trash Service",
    "date_created": "2023-11-06T17:02:22.000",
    "date_modified": "2023-11-06T17:02:23.000",
    "request_status": "Pending",
    "responsible_agency": "Department of Sanitation",
    "final_address": "4525 Annunciation St",
    "address_councildis": "B",
    "status": "Assigned to Contractor",
    "contractor": "Richards Disposal",
    "rowid": "1048421",
    "final_x": "3670537.48551",
    "final_y": "517720.70751",
    "longitude": "-90.10315389076011",
    "latitude": "29.917880382076508",
    "geocoded_column": {
      "latitude": "29.917880382076508",
      "longitude": "-90.10315389076011"
    }
  },
  {
    "service_request": "2023-1048420",
    "request_type": "Trash/Recycling",
    "request_reason": "Request a Large Item Pick Up",
    "date_created": "2023-11-06T16:57:01.000",
    "date_modified": "2023-11-06T16:57:02.000",
    "request_status": "Pending",
    "responsible_agency": "Department of Sanitation",
    "final_address": "1110 Dublin St",
    "address_councildis": "A",
    "status": "Assigned to Contractor",
    "contractor": "Richards Disposal",
    "rowid": "1048420",
    "final_x": "3661520.62982",
    "final_y": "528461.04",
    "longitude": "-90.13125964327034",
    "latitude": "29.947676024492896",
    "geocoded_column": {
      "latitude": "29.947676024492896",
      "longitude": "-90.13125964327034"
    }
  },
  {
    "service_request": "2023-1048419",
    "request_type": "Roads/Drainage",
    "request_reason": "Pothole",
    "date_created": "2023-11-06T16:52:17.000",
    "date_modified": "2023-11-06T16:52:17.000",
    "request_status": "Pending",
    "responsible_agency": "Department of Public Works",
    "final_address": "2300 BLK General Meyer Ave",
    "address_councildis": "C",
    "status": "Pending",
    "rowid": "1048419",
    "final_x": "3692663.44633",
    "final_y": "527735.540117",
    "longitude": "-90.03295593897936",
    "latitude": "29.94474605893001",
    "geocoded_column": {
      "latitude": "29.94474605893001",
      "longitude": "-90.03295593897936"
    }
  },
  {
    "service_request": "2023-1048418",
    "request_type": "Trash/Recycling",
    "request_reason": "Repair Trash Cart",
    "date_created": "2023-11-06T16:52:13.000",
    "date_modified": "2023-11-06T16:52:14.000",
    "request_status": "Pending",
    "responsible_agency": "Department of Sanitation",
    "final_address": "3512 Baronne St",
    "address_councildis": "B",
    "status": "Assigned to Contractor",
    "contractor": "Richards Disposal",
    "rowid": "1048418",
    "final_x": "3673426.57512",
    "final_y": "522000.527674",
    "longitude": "-90.09388848160509",
    "latitude": "29.92956291128205",
    "geocoded_column": {
      "latitude": "29.92956291128205",
      "longitude": "-90.09388848160509"
    }
  },
  {
    "service_request": "2023-1048417",
    "request_type": "Trash/Recycling",
    "request_reason": "Repair Trash Cart",
    "date_created": "2023-11-06T16:51:12.000",
    "date_modified": "2023-11-06T16:51:13.000",
    "request_status": "Pending",
    "responsible_agency": "Department of Sanitation",
    "final_address": "3512 Baronne St",
    "address_councildis": "B",
    "status": "Assigned to Contractor",
    "contractor": "Richards Disposal",
    "rowid": "1048417",
    "final_x": "3673426.57512",
    "final_y": "522000.527674",
    "longitude": "-90.09388848160509",
    "latitude": "29.92956291128205",
    "geocoded_column": {
      "latitude": "29.92956291128205",
      "longitude": "-90.09388848160509"
    }
  },
  {
    "service_request": "2023-1048416",
    "request_type": "Utility Poles",
    "request_reason": "Utility Pole Leaning",
    "date_created": "2023-11-06T16:49:02.000",
    "date_modified": "2023-11-06T16:49:08.000",
    "request_status": "Pending",
    "responsible_agency": "Utility Company Collective",
    "final_address": "HENDEE ST & GENERAL DE GAULLE DR",
    "address_councildis": "C",
    "status": "Pending",
    "rowid": "1048416",
    "final_x": "3690560.42",
    "final_y": "522534.39",
    "longitude": "-90.03978118555551",
    "latitude": "29.93051012225144",
    "geocoded_column": {
      "latitude": "29.93051012225144",
      "longitude": "-90.03978118555551"
    }
  },
  {
    "service_request": "2023-1048415",
    "request_type": "Roads/Drainage",
    "request_reason": "Street Subsidence (Sinking)",
    "date_created": "2023-11-06T16:42:57.000",
    "date_modified": "2023-11-06T16:42:58.000",
    "request_status": "Pending",
    "responsible_agency": "Department of Public Works",
    "final_address": "4616 Crowder Blvd",
    "address_councildis": "E",
    "status": "Pending",
    "rowid": "1048415",
    "final_x": "3706408.54769",
    "final_y": "554806.443736",
    "longitude": "-89.9885558071711",
    "latitude": "30.018744926338673",
    "geocoded_column": {
      "latitude": "30.018744926338673",
      "longitude": "-89.9885558071711"
    }
  },
  {
    "service_request": "2023-1048414",
    "request_type": "Roads/Drainage",
    "request_reason": "Pothole",
    "date_created": "2023-11-06T16:40:05.000",
    "date_modified": "2023-11-06T16:40:05.000",
    "request_status": "Pending",
    "responsible_agency": "Department of Public Works",
    "final_address": "HEBERT DR & CONSTELLATION ST",
    "address_councildis": "C",
    "status": "Pending",
    "rowid": "1048414",
    "final_x": "3692558.1",
    "final_y": "527961.58",
    "longitude": "-90.03328045031776",
    "latitude": "29.945370877651985",
    "geocoded_column": {
      "latitude": "29.945370877651985",
      "longitude": "-90.03328045031776"
    }
  },
  {
    "service_request": "2023-1048413",
    "request_type": "Trash/Recycling",
    "request_reason": "Repair Trash Cart",
    "date_created": "2023-11-06T16:38:13.000",
    "date_modified": "2023-11-06T16:38:13.000",
    "request_status": "Pending",
    "responsible_agency": "Department of Sanitation",
    "final_address": "2442 Alabo St",
    "address_councildis": "E",
    "status": "Assigned to Contractor",
    "contractor": "Waste Pro",
    "rowid": "1048413",
    "final_x": "3700274.23101",
    "final_y": "538754.321993",
    "longitude": "-90.00852433508152",
    "latitude": "29.97480408859937",
    "geocoded_column": {
      "latitude": "29.97480408859937",
      "longitude": "-90.00852433508152"
    }
  },
  {
    "service_request": "2023-1048412",
    "request_type": "Roads/Drainage",
    "request_reason": "Catch Basin - Clogged",
    "date_created": "2023-11-06T16:38:04.000",
    "date_modified": "2023-11-06T16:38:04.000",
    "request_status": "Pending",
    "responsible_agency": "Department of Public Works",
    "final_address": "925 Alvar St",
    "address_councildis": "C",
    "status": "Pending",
    "rowid": "1048412",
    "final_x": "3691391.07657",
    "final_y": "534778.182598",
    "longitude": "-90.03672156153289",
    "latitude": "29.964150524416475",
    "geocoded_column": {
      "latitude": "29.964150524416475",
      "longitude": "-90.03672156153289"
    }
  },
  {
    "service_request": "2023-1048411",
    "request_type": "Trash/Recycling",
    "request_reason": "Request a Large Item Pick Up",
    "date_created": "2023-11-06T16:35:55.000",
    "date_modified": "2023-11-06T16:35:56.000",
    "request_status": "Pending",
    "responsible_agency": "Department of Sanitation",
    "final_address": "1401 Nunez St",
    "address_councildis": "C",
    "status": "Assigned to Contractor",
    "contractor": "Richards Disposal",
    "rowid": "1048411",
    "final_x": "3686994.00905",
    "final_y": "526372.381118",
    "longitude": "-90.05090417917818",
    "latitude": "29.94117353122065",
    "geocoded_column": {
      "latitude": "29.94117353122065",
      "longitude": "-90.05090417917818"
    }
  },
  {
    "service_request": "2023-1048410",
    "request_type": "Trash/Recycling",
    "request_reason": "Request a Large Item Pick Up",
    "date_created": "2023-11-06T16:29:39.000",
    "date_modified": "2023-11-06T16:29:39.000",
    "request_status": "Pending",
    "responsible_agency": "Department of Sanitation",
    "final_address": "6619 E Hermes St",
    "address_councildis": "D",
    "status": "Assigned to Contractor",
    "contractor": "Waste Pro",
    "rowid": "1048410",
    "final_x": "3697873.36349",
    "final_y": "555941.016601",
    "longitude": "-90.01548255173462",
    "latitude": "30.02213724051023",
    "geocoded_column": {
      "latitude": "30.02213724051023",
      "longitude": "-90.01548255173462"
    }
  },
  {
    "service_request": "2023-1048409",
    "request_type": "Trash/Recycling",
    "request_reason": "Request a Large Item Pick Up",
    "date_created": "2023-11-06T16:20:18.000",
    "date_modified": "2023-11-06T16:20:19.000",
    "request_status": "Pending",
    "responsible_agency": "Department of Sanitation",
    "final_address": "4900 Cardenas Dr",
    "address_councildis": "E",
    "status": "Assigned to Contractor",
    "contractor": "Waste Pro",
    "rowid": "1048409",
    "final_x": "3713523.03736",
    "final_y": "557275.594011",
    "longitude": "-89.96598370962165",
    "latitude": "30.02530261190427",
    "geocoded_column": {
      "latitude": "30.02530261190427",
      "longitude": "-89.96598370962165"
    }
  },
  {
    "service_request": "2023-1048408",
    "request_type": "Trash/Recycling",
    "request_reason": "Request a Large Item Pick Up",
    "date_created": "2023-11-06T16:19:16.000",
    "date_modified": "2023-11-06T16:19:17.000",
    "request_status": "Pending",
    "responsible_agency": "Department of Sanitation",
    "final_address": "1809 Nie Prkwy",
    "address_councildis": "C",
    "status": "Assigned to Contractor",
    "contractor": "Richards Disposal",
    "rowid": "1048408",
    "final_x": "3701085.45188",
    "final_y": "524146.787196",
    "longitude": "-90.00649652812638",
    "latitude": "29.934612748055102",
    "geocoded_column": {
      "latitude": "29.934612748055102",
      "longitude": "-90.00649652812638"
    }
  },
  {
    "service_request": "2023-1048407",
    "request_type": "Trash/Recycling",
    "request_reason": "Missed Trash Pick-Up",
    "date_created": "2023-11-06T16:18:06.000",
    "date_modified": "2023-11-06T16:18:06.000",
    "request_status": "Pending",
    "responsible_agency": "Department of Sanitation",
    "final_address": "6718 Lake Willow Dr",
    "address_councildis": "E",
    "status": "Assigned to Contractor",
    "contractor": "Waste Pro",
    "rowid": "1048407",
    "final_x": "3704093.68612",
    "final_y": "559481.657053",
    "longitude": "-89.99569743950792",
    "latitude": "30.03167444979784",
    "geocoded_column": {
      "latitude": "30.03167444979784",
      "longitude": "-89.99569743950792"
    }
  },
  {
    "service_request": "2023-1048406",
    "request_type": "Trash/Recycling",
    "request_reason": "Missed Trash Pick-Up",
    "date_created": "2023-11-06T16:14:43.000",
    "date_modified": "2023-11-06T16:14:44.000",
    "request_status": "Pending",
    "responsible_agency": "Department of Sanitation",
    "final_address": "4900 Cardenas Dr",
    "address_councildis": "E",
    "status": "Assigned to Contractor",
    "contractor": "Waste Pro",
    "rowid": "1048406",
    "final_x": "3713523.03736",
    "final_y": "557275.594011",
    "longitude": "-89.96598370962165",
    "latitude": "30.02530261190427",
    "geocoded_column": {
      "latitude": "30.02530261190427",
      "longitude": "-89.96598370962165"
    }
  },
  {
    "service_request": "2023-1048405",
    "request_type": "Abandoned Vehicles",
    "request_reason": "Abandoned/Junk Vehicles",
    "date_created": "2023-11-06T16:11:13.000",
    "date_modified": "2023-11-06T16:11:13.000",
    "request_status": "Pending",
    "responsible_agency": "Department of Public Works",
    "final_address": "1715 Foucher St",
    "address_councildis": "B",
    "status": "Pending",
    "rowid": "1048405",
    "final_x": "3673342.73825",
    "final_y": "521805.022266",
    "longitude": "-90.0941598144127",
    "latitude": "29.929027827766433",
    "geocoded_column": {
      "latitude": "29.929027827766433",
      "longitude": "-90.0941598144127"
    }
  },
  {
    "service_request": "2023-1048404",
    "request_type": "Abandoned Vehicles",
    "request_reason": "Abandoned/Junk Vehicles",
    "date_created": "2023-11-06T16:09:01.000",
    "date_modified": "2023-11-06T16:09:01.000",
    "request_status": "Pending",
    "responsible_agency": "Department of Public Works",
    "final_address": "2323 Louisiana Ave",
    "address_councildis": "B",
    "status": "Pending",
    "rowid": "1048404",
    "final_x": "3673198.781",
    "final_y": "524043.258428",
    "longitude": "-90.09453787117123",
    "latitude": "29.935186533183003",
    "geocoded_column": {
      "latitude": "29.935186533183003",
      "longitude": "-90.09453787117123"
    }
  },
  {
    "service_request": "2023-1048403",
    "request_type": "Trash/Recycling",
    "request_reason": "Replace Trash Cart",
    "date_created": "2023-11-06T16:07:25.000",
    "date_modified": "2023-11-06T16:07:26.000",
    "request_status": "Pending",
    "responsible_agency": "Department of Sanitation",
    "final_address": "3213 Iberville St",
    "address_councildis": "B",
    "status": "Assigned to Contractor",
    "contractor": "Richards Disposal",
    "rowid": "1048403",
    "final_x": "3674076.42619",
    "final_y": "536704.574151",
    "longitude": "-90.09133388148216",
    "latitude": "29.969974830496405",
    "geocoded_column": {
      "latitude": "29.969974830496405",
      "longitude": "-90.09133388148216"
    }
  },
  {
    "service_request": "2023-1048402",
    "request_type": "Trash/Recycling",
    "request_reason": "Replace Trash Cart",
    "date_created": "2023-11-06T16:06:53.000",
    "date_modified": "2023-11-06T16:06:53.000",
    "request_status": "Pending",
    "responsible_agency": "Department of Sanitation",
    "final_address": "4818 Strasbourg Pl",
    "address_councildis": "E",
    "status": "Assigned to Contractor",
    "contractor": "Waste Pro",
    "rowid": "1048402",
    "final_x": "3725794.04012",
    "final_y": "561078.313566",
    "longitude": "-89.92706228801497",
    "latitude": "30.035350193642994",
    "geocoded_column": {
      "latitude": "30.035350193642994",
      "longitude": "-89.92706228801497"
    }
  },
  {
    "service_request": "2023-1048401",
    "request_type": "Abandoned Vehicles",
    "request_reason": "Abandoned/Junk Vehicles",
    "date_created": "2023-11-06T16:06:20.000",
    "date_modified": "2023-11-06T16:06:20.000",
    "request_status": "Pending",
    "responsible_agency": "Department of Public Works",
    "final_address": "2112 Foucher St",
    "address_councildis": "B",
    "status": "Pending",
    "rowid": "1048401",
    "final_x": "3672830.83022",
    "final_y": "523061.209275",
    "longitude": "-90.0957329791183",
    "latitude": "29.932497149086412",
    "geocoded_column": {
      "latitude": "29.932497149086412",
      "longitude": "-90.0957329791183"
    }
  },
  {
    "service_request": "2023-1048400",
    "request_type": "Abandoned Vehicles",
    "request_reason": "Abandoned/Junk Vehicles",
    "date_created": "2023-11-06T16:05:24.000",
    "date_modified": "2023-11-06T16:05:24.000",
    "request_status": "Pending",
    "responsible_agency": "Department of Public Works",
    "final_address": "2216 Governor Nicholls St",
    "address_councildis": "D",
    "status": "Pending",
    "rowid": "1048400",
    "final_x": "3679301.6413",
    "final_y": "537200.307656",
    "longitude": "-90.07481494471361",
    "latitude": "29.971181160185665",
    "geocoded_column": {
      "latitude": "29.971181160185665",
      "longitude": "-90.07481494471361"
    }
  },
  {
    "service_request": "2023-1048399",
    "request_type": "Abandoned Vehicles",
    "request_reason": "Abandoned/Junk Vehicles",
    "date_created": "2023-11-06T16:04:51.000",
    "date_modified": "2023-11-06T16:04:51.000",
    "request_status": "Pending",
    "responsible_agency": "Department of Public Works",
    "final_address": "4041 Dryades St",
    "address_councildis": "B",
    "status": "Pending",
    "rowid": "1048399",
    "final_x": "3671977.65915",
    "final_y": "522114.99257",
    "longitude": "-90.0984585635806",
    "latitude": "29.92992066847313",
    "geocoded_column": {
      "latitude": "29.92992066847313",
      "longitude": "-90.0984585635806"
    }
  },
  {
    "service_request": "2023-1048398",
    "request_type": "Abandoned Vehicles",
    "request_reason": "Abandoned/Junk Vehicles",
    "date_created": "2023-11-06T16:04:31.000",
    "date_modified": "2023-11-06T16:04:31.000",
    "request_status": "Pending",
    "responsible_agency": "Department of Public Works",
    "final_address": "2216 Governor Nicholls St",
    "address_councildis": "D",
    "status": "Pending",
    "rowid": "1048398",
    "final_x": "3679301.6413",
    "final_y": "537200.307656",
    "longitude": "-90.07481494471361",
    "latitude": "29.971181160185665",
    "geocoded_column": {
      "latitude": "29.971181160185665",
      "longitude": "-90.07481494471361"
    }
  },
  {
    "service_request": "2023-1048397",
    "request_type": "Traffic Signals/Signs/Striping/Streetlights",
    "request_reason": "Street Light Outage/Malfunction",
    "date_created": "2023-11-06T16:03:26.000",
    "date_modified": "2023-11-06T16:03:26.000",
    "request_status": "Pending",
    "responsible_agency": "Department of Public Works",
    "final_address": "7802 Haney Dr",
    "address_councildis": "E",
    "status": "Assigned to Contractor",
    "contractor": "Legacy Professional Services",
    "rowid": "1048397",
    "final_x": "3712251.37637",
    "final_y": "567737.11594",
    "longitude": "-89.96960850035641",
    "latitude": "30.054109264712544",
    "geocoded_column": {
      "latitude": "30.054109264712544",
      "longitude": "-89.96960850035641"
    }
  },
  {
    "service_request": "2023-1048396",
    "request_type": "Trash/Recycling",
    "request_reason": "Request a Large Item Pick Up",
    "date_created": "2023-11-06T16:02:11.000",
    "date_modified": "2023-11-06T16:02:12.000",
    "request_status": "Pending",
    "responsible_agency": "Department of Sanitation",
    "final_address": "2122 Selma St",
    "address_councildis": "D",
    "status": "Assigned to Contractor",
    "contractor": "IV Waste",
    "rowid": "1048396",
    "final_x": "3683205.46696",
    "final_y": "551393.448277",
    "longitude": "-90.06198881264618",
    "latitude": "30.01008879015396",
    "geocoded_column": {
      "latitude": "30.01008879015396",
      "longitude": "-90.06198881264618"
    }
  },
  {
    "service_request": "2023-1048395",
    "request_type": "Trash/Recycling",
    "request_reason": "Order Recycling Cart",
    "date_created": "2023-11-06T15:56:58.000",
    "date_modified": "2023-11-06T15:56:58.000",
    "request_status": "Pending",
    "responsible_agency": "Department of Sanitation",
    "final_address": "2215 St Philip St",
    "address_councildis": "D",
    "status": "Pending",
    "rowid": "1048395",
    "final_x": "3678961.79547",
    "final_y": "536700.477319",
    "longitude": "-90.07590554681443",
    "latitude": "29.96981705723779",
    "geocoded_column": {
      "latitude": "29.96981705723779",
      "longitude": "-90.07590554681443"
    }
  },
  {
    "service_request": "2023-1048394",
    "request_type": "Trash/Recycling",
    "request_reason": "Request a Large Item Pick Up",
    "date_created": "2023-11-06T15:53:07.000",
    "date_modified": "2023-11-06T15:53:08.000",
    "request_status": "Pending",
    "responsible_agency": "Department of Sanitation",
    "final_address": "7810 Sandpiper Dr",
    "address_councildis": "E",
    "status": "Assigned to Contractor",
    "contractor": "Waste Pro",
    "rowid": "1048394",
    "final_x": "3715482.12952",
    "final_y": "570157.726567",
    "longitude": "-89.95930522611017",
    "latitude": "30.060658825395677",
    "geocoded_column": {
      "latitude": "30.060658825395677",
      "longitude": "-89.95930522611017"
    }
  },
  {
    "service_request": "2023-1048393",
    "request_type": "Trash/Recycling",
    "request_reason": "Replace Trash Cart",
    "date_created": "2023-11-06T15:52:30.000",
    "date_modified": "2023-11-06T15:52:30.000",
    "request_status": "Pending",
    "responsible_agency": "Department of Sanitation",
    "final_address": "9422 Colapissa St",
    "address_councildis": "A",
    "status": "Assigned to Contractor",
    "contractor": "Richards Disposal",
    "rowid": "1048393",
    "final_x": "3662996.15226",
    "final_y": "536585.277319",
    "longitude": "-90.12633061091927",
    "latitude": "29.969972389168152",
    "geocoded_column": {
      "latitude": "29.969972389168152",
      "longitude": "-90.12633061091927"
    }
  },
  {
    "service_request": "2023-1048392",
    "request_type": "Trash/Recycling",
    "request_reason": "Order Trash Cart",
    "date_created": "2023-11-06T15:50:57.000",
    "date_modified": "2023-11-06T15:50:57.000",
    "request_status": "Pending",
    "responsible_agency": "Department of Sanitation",
    "final_address": "2215 St Philip St",
    "address_councildis": "D",
    "status": "Assigned to Contractor",
    "contractor": "Richards Disposal",
    "rowid": "1048392",
    "final_x": "3678961.79547",
    "final_y": "536700.477319",
    "longitude": "-90.07590554681443",
    "latitude": "29.96981705723779",
    "geocoded_column": {
      "latitude": "29.96981705723779",
      "longitude": "-90.07590554681443"
    }
  },
  {
    "service_request": "2023-1048391",
    "request_type": "Trash/Recycling",
    "request_reason": "Request a Large Item Pick Up",
    "date_created": "2023-11-06T15:50:33.000",
    "date_modified": "2023-11-06T15:50:35.000",
    "request_status": "Pending",
    "responsible_agency": "Department of Sanitation",
    "final_address": "6542 Virgilian St",
    "address_councildis": "D",
    "status": "Assigned to Contractor",
    "contractor": "Waste Pro",
    "rowid": "1048391",
    "final_x": "3697214.31504",
    "final_y": "555374.200153",
    "longitude": "-90.01758553408598",
    "latitude": "30.02059953569368",
    "geocoded_column": {
      "latitude": "30.02059953569368",
      "longitude": "-90.01758553408598"
    }
  },
  {
    "service_request": "2023-1048390",
    "request_type": "Trash/Recycling",
    "request_reason": "MIssed Recycling Pick-Up",
    "date_created": "2023-11-06T15:46:54.000",
    "date_modified": "2023-11-06T15:46:55.000",
    "request_status": "Pending",
    "responsible_agency": "Department of Sanitation",
    "final_address": "1613 Pace Blvd",
    "address_councildis": "C",
    "status": "Assigned to Contractor",
    "contractor": "Richards Disposal",
    "rowid": "1048390",
    "final_x": "3694291.30166",
    "final_y": "525320.397053",
    "longitude": "-90.02790320904465",
    "latitude": "29.93805435015464",
    "geocoded_column": {
      "latitude": "29.93805435015464",
      "longitude": "-90.02790320904465"
    }
  },
  {
    "service_request": "2023-1048389",
    "request_type": "Traffic Signals/Signs/Striping/Streetlights",
    "request_reason": "Street Light Outage/Malfunction",
    "date_created": "2023-11-06T15:45:18.000",
    "date_modified": "2023-11-06T15:45:18.000",
    "request_status": "Pending",
    "responsible_agency": "Department of Public Works",
    "final_address": "1100 BLK Jena St",
    "address_councildis": "B",
    "status": "Assigned to Contractor",
    "contractor": "Legacy Professional Services",
    "rowid": "1048389",
    "final_x": "3670569.24445",
    "final_y": "519630.492023",
    "longitude": "-90.10298891788169",
    "latitude": "29.923130746173477",
    "geocoded_column": {
      "latitude": "29.923130746173477",
      "longitude": "-90.10298891788169"
    }
  },
  {
    "service_request": "2023-1048387",
    "request_type": "Trash/Recycling",
    "request_reason": "Illegal Dumping",
    "date_created": "2023-11-06T15:43:05.000",
    "date_modified": "2023-11-06T15:43:06.000",
    "request_status": "Pending",
    "responsible_agency": "Department of Sanitation",
    "final_address": "2416 Amelia St",
    "address_councildis": "B",
    "status": "Pending",
    "rowid": "1048387",
    "final_x": "3672389.64231",
    "final_y": "524037.798332",
    "longitude": "-90.09709251113057",
    "latitude": "29.93519554844634",
    "geocoded_column": {
      "latitude": "29.93519554844634",
      "longitude": "-90.09709251113057"
    }
  },
  {
    "service_request": "2023-1048386",
    "request_type": "Trash/Recycling",
    "request_reason": "Dead Animal Pick Up",
    "date_created": "2023-11-06T15:40:50.000",
    "date_modified": "2023-11-06T15:40:51.000",
    "request_status": "Pending",
    "responsible_agency": "Department of Sanitation",
    "final_address": "ST CLAUDE AVE & LIZARDI ST",
    "address_councildis": "E",
    "status": "Assigned to Contractor",
    "contractor": "Waste Pro",
    "rowid": "1048386",
    "final_x": "3696528.3",
    "final_y": "534129.58",
    "longitude": "-90.02052220663448",
    "latitude": "29.962206254870203",
    "geocoded_column": {
      "latitude": "29.962206254870203",
      "longitude": "-90.02052220663448"
    }
  },
  {
    "service_request": "2023-1048385",
    "request_type": "Trash/Recycling",
    "request_reason": "Repair Recycling Cart",
    "date_created": "2023-11-06T15:40:15.000",
    "date_modified": "2023-11-06T15:40:15.000",
    "request_status": "Pending",
    "responsible_agency": "Department of Sanitation",
    "final_address": "2716 St Nick Dr",
    "address_councildis": "C",
    "status": "Pending",
    "rowid": "1048385",
    "final_x": "3699374.86596",
    "final_y": "520948.212153",
    "longitude": "-90.01201322115004",
    "latitude": "29.92587212431199",
    "geocoded_column": {
      "latitude": "29.92587212431199",
      "longitude": "-90.01201322115004"
    }
  },
  {
    "service_request": "2023-1048384",
    "request_type": "Trash/Recycling",
    "request_reason": "Order Trash Cart",
    "date_created": "2023-11-06T15:28:18.000",
    "date_modified": "2023-11-06T15:28:19.000",
    "request_status": "Pending",
    "responsible_agency": "Department of Sanitation",
    "final_address": "1931 Annunciation St Unit G",
    "address_councildis": "B",
    "status": "Assigned to Contractor",
    "contractor": "Richards Disposal",
    "rowid": "1048384",
    "final_x": "3680261.36091",
    "final_y": "522009.831738",
    "longitude": "-90.07231197957042",
    "latitude": "29.929383438272723",
    "geocoded_column": {
      "latitude": "29.929383438272723",
      "longitude": "-90.07231197957042"
    }
  },
  {
    "service_request": "2023-1048383",
    "request_type": "Property Maintenance",
    "request_reason": "Property Maintenance",
    "date_created": "2023-11-06T15:26:03.000",
    "date_modified": "2023-11-06T15:26:03.000",
    "request_status": "Pending",
    "responsible_agency": "Department of Code Enforcement",
    "final_address": "3713 Fairmont Dr",
    "address_councildis": "D",
    "status": "Pending",
    "rowid": "1048383",
    "final_x": "3685321.68149",
    "final_y": "546193.985488",
    "longitude": "-90.05548611887362",
    "latitude": "29.995727415209902",
    "geocoded_column": {
      "latitude": "29.995727415209902",
      "longitude": "-90.05548611887362"
    }
  },
  {
    "service_request": "2023-1048382",
    "request_type": "Trash/Recycling",
    "request_reason": "Replace Trash Cart",
    "date_created": "2023-11-06T15:22:22.000",
    "date_modified": "2023-11-06T15:22:22.000",
    "request_status": "Pending",
    "responsible_agency": "Department of Sanitation",
    "final_address": "1300 BLK N Broad St",
    "address_councildis": "D",
    "status": "Assigned to Contractor",
    "contractor": "Richards Disposal",
    "rowid": "1048382",
    "final_x": "3678095.64016",
    "final_y": "538769.277236",
    "longitude": "-90.07856940149249",
    "latitude": "29.975531654718296",
    "geocoded_column": {
      "latitude": "29.975531654718296",
      "longitude": "-90.07856940149249"
    }
  },
  {
    "service_request": "2023-1048381",
    "request_type": "Roads/Drainage",
    "request_reason": "Pothole",
    "date_created": "2023-11-06T15:20:54.000",
    "date_modified": "2023-11-06T15:20:54.000",
    "request_status": "Pending",
    "responsible_agency": "Department of Public Works",
    "final_address": "1312 Milan St",
    "address_councildis": "B",
    "status": "Pending",
    "rowid": "1048381",
    "final_x": "3671625.82823",
    "final_y": "520286.919608",
    "longitude": "-90.09963137110304",
    "latitude": "29.92490447494246",
    "geocoded_column": {
      "latitude": "29.92490447494246",
      "longitude": "-90.09963137110304"
    }
  },
  {
    "service_request": "2023-1048380",
    "request_type": "Trash/Recycling",
    "request_reason": "Request a Large Item Pick Up",
    "date_created": "2023-11-06T15:20:52.000",
    "date_modified": "2023-11-06T15:20:53.000",
    "request_status": "Pending",
    "responsible_agency": "Department of Sanitation",
    "final_address": "6861 Tara Ln",
    "address_councildis": "E",
    "status": "Assigned to Contractor",
    "contractor": "Waste Pro",
    "rowid": "1048380",
    "final_x": "3707224.90852",
    "final_y": "559696.984733",
    "longitude": "-89.98579469822805",
    "latitude": "30.03216563646959",
    "geocoded_column": {
      "latitude": "30.03216563646959",
      "longitude": "-89.98579469822805"
    }
  },
  {
    "service_request": "2023-1048379",
    "request_type": "Traffic Signals/Signs/Striping/Streetlights",
    "request_reason": "Request for Stop Sign",
    "date_created": "2023-11-06T15:20:04.000",
    "date_modified": "2023-11-06T15:20:04.000",
    "request_status": "Pending",
    "responsible_agency": "Department of Public Works",
    "final_address": "2536 Somerset Dr",
    "address_councildis": "C",
    "status": "Pending",
    "rowid": "1048379",
    "final_x": "3702931.99185",
    "final_y": "521587.509177",
    "longitude": "-90.00076104525905",
    "latitude": "29.927516702086425",
    "geocoded_column": {
      "latitude": "29.927516702086425",
      "longitude": "-90.00076104525905"
    }
  },
  {
    "service_request": "2023-1048378",
    "request_type": "Trash/Recycling",
    "request_reason": "Repair Trash Cart",
    "date_created": "2023-11-06T15:13:34.000",
    "date_modified": "2023-11-06T15:13:34.000",
    "request_status": "Pending",
    "responsible_agency": "Department of Sanitation",
    "final_address": "7322 Strathmore Dr",
    "address_councildis": "E",
    "status": "Assigned to Contractor",
    "contractor": "Waste Pro",
    "rowid": "1048378",
    "final_x": "3714469.26085",
    "final_y": "566419.882211",
    "longitude": "-89.96264817510715",
    "latitude": "30.05041464468296",
    "geocoded_column": {
      "latitude": "30.05041464468296",
      "longitude": "-89.96264817510715"
    }
  },
  {
    "service_request": "2023-1048377",
    "request_type": "Trash/Recycling",
    "request_reason": "Illegal Dumping",
    "date_created": "2023-11-06T15:11:03.000",
    "date_modified": "2023-11-06T15:11:03.000",
    "request_status": "Pending",
    "responsible_agency": "Department of Sanitation",
    "final_address": "N CLAIBORNE AVE & URSULINES AVE",
    "address_councildis": "D",
    "status": "Pending",
    "rowid": "1048377",
    "final_x": "3680724.68",
    "final_y": "535739.58",
    "longitude": "-90.07037164369352",
    "latitude": "29.967121608050693",
    "geocoded_column": {
      "latitude": "29.967121608050693",
      "longitude": "-90.07037164369352"
    }
  },
  {
    "service_request": "2023-1048376",
    "request_type": "Roads/Drainage",
    "request_reason": "Pothole",
    "date_created": "2023-11-06T15:10:26.000",
    "date_modified": "2023-11-06T15:10:26.000",
    "request_status": "Pending",
    "responsible_agency": "Department of Public Works",
    "final_address": "1421 Constantinople St",
    "address_councildis": "B",
    "status": "Pending",
    "rowid": "1048376",
    "final_x": "3672433.24257",
    "final_y": "520667.657465",
    "longitude": "-90.09706965638372",
    "latitude": "29.925927453713577",
    "geocoded_column": {
      "latitude": "29.925927453713577",
      "longitude": "-90.09706965638372"
    }
  },
  {
    "service_request": "2023-1048375",
    "request_type": "Trash/Recycling",
    "request_reason": "Repair Trash Cart",
    "date_created": "2023-11-06T15:09:53.000",
    "date_modified": "2023-11-06T15:09:54.000",
    "request_status": "Pending",
    "responsible_agency": "Department of Sanitation",
    "final_address": "72 English Turn Dr",
    "address_councildis": "C",
    "status": "Assigned to Contractor",
    "contractor": "Richards Disposal",
    "rowid": "1048375",
    "final_x": "3722005.74431",
    "final_y": "512918.395569",
    "longitude": "-89.9408832599418",
    "latitude": "29.903056046386705",
    "geocoded_column": {
      "latitude": "29.903056046386705",
      "longitude": "-89.9408832599418"
    }
  },
  {
    "service_request": "2023-1048374",
    "request_type": "Trash/Recycling",
    "request_reason": "Request a Large Item Pick Up",
    "date_created": "2023-11-06T15:09:41.000",
    "date_modified": "2023-11-06T15:12:42.000",
    "request_status": "Pending",
    "responsible_agency": "Department of Sanitation",
    "final_address": "7322 Strathmore Dr",
    "address_councildis": "E",
    "status": "Assigned to Contractor",
    "contractor": "Waste Pro",
    "rowid": "1048374",
    "final_x": "3714469.26085",
    "final_y": "566419.882211",
    "longitude": "-89.96264817510715",
    "latitude": "30.05041464468296",
    "geocoded_column": {
      "latitude": "30.05041464468296",
      "longitude": "-89.96264817510715"
    }
  },
  {
    "service_request": "2023-1048373",
    "request_type": "Abandoned Vehicles",
    "request_reason": "Abandoned/Junk Vehicles",
    "date_created": "2023-11-06T15:06:12.000",
    "date_modified": "2023-11-06T15:06:12.000",
    "request_status": "Pending",
    "responsible_agency": "Department of Public Works",
    "final_address": "5611 New England Dr",
    "address_councildis": "E",
    "status": "Pending",
    "rowid": "1048373",
    "final_x": "3723737.40172",
    "final_y": "564166.724769",
    "longitude": "-89.93344228180898",
    "latitude": "30.043911295379942",
    "geocoded_column": {
      "latitude": "30.043911295379942",
      "longitude": "-89.93344228180898"
    }
  },
  {
    "service_request": "2023-1048372",
    "request_type": "Roads/Drainage",
    "request_reason": "Pothole",
    "date_created": "2023-11-06T15:02:37.000",
    "date_modified": "2023-11-06T15:02:37.000",
    "request_status": "Pending",
    "responsible_agency": "Department of Public Works",
    "final_address": "4216 Chestnut St",
    "address_councildis": "B",
    "status": "Pending",
    "rowid": "1048372",
    "final_x": "3671574.31393",
    "final_y": "519539.203703",
    "longitude": "-90.09981939416457",
    "latitude": "29.922850019854593",
    "geocoded_column": {
      "latitude": "29.922850019854593",
      "longitude": "-90.09981939416457"
    }
  },
  {
    "service_request": "2023-1048371",
    "request_type": "Trash/Recycling",
    "request_reason": "Request a Large Item Pick Up",
    "date_created": "2023-11-06T14:59:33.000",
    "date_modified": "2023-11-06T14:59:33.000",
    "request_status": "Pending",
    "responsible_agency": "Department of Sanitation",
    "final_address": "1860 Rosiere St",
    "address_councildis": "D",
    "status": "Assigned to Contractor",
    "contractor": "IV Waste",
    "rowid": "1048371",
    "final_x": "3679216.77352",
    "final_y": "542647.260045",
    "longitude": "-90.07489404236165",
    "latitude": "29.986160955797278",
    "geocoded_column": {
      "latitude": "29.986160955797278",
      "longitude": "-90.07489404236165"
    }
  },
  {
    "service_request": "2023-1048370",
    "request_type": "Roads/Drainage",
    "request_reason": "Accessibility Ramps, Curbs and Sidewalk Repair",
    "date_created": "2023-11-06T14:56:18.000",
    "date_modified": "2023-11-06T14:56:18.000",
    "request_status": "Pending",
    "responsible_agency": "Department of Public Works",
    "final_address": "8521 Olive St",
    "address_councildis": "A",
    "status": "Pending",
    "rowid": "1048370",
    "final_x": "3666068.32455",
    "final_y": "535299.801734",
    "longitude": "-90.11667145748304",
    "latitude": "29.966348416202024",
    "geocoded_column": {
      "latitude": "29.966348416202024",
      "longitude": "-90.11667145748304"
    }
  },
  {
    "service_request": "2023-1048369",
    "request_type": "Trash/Recycling",
    "request_reason": "Dead Animal Pick Up",
    "date_created": "2023-11-06T14:56:02.000",
    "date_modified": "2023-11-06T14:56:02.000",
    "request_status": "Pending",
    "responsible_agency": "Department of Sanitation",
    "final_address": "5400 St Claude Ave",
    "address_councildis": "E",
    "status": "Assigned to Contractor",
    "contractor": "Waste Pro",
    "rowid": "1048369",
    "final_x": "3697202.46218",
    "final_y": "533902.895493",
    "longitude": "-90.01840152863893",
    "latitude": "29.961561697367742",
    "geocoded_column": {
      "latitude": "29.961561697367742",
      "longitude": "-90.01840152863893"
    }
  },
  {
    "service_request": "2023-1048368",
    "request_type": "Abandoned Vehicles",
    "request_reason": "Abandoned/Junk Vehicles",
    "date_created": "2023-11-06T14:52:45.000",
    "date_modified": "2023-11-06T14:52:45.000",
    "request_status": "Pending",
    "responsible_agency": "Department of Public Works",
    "final_address": "6318 S Rocheblave St",
    "address_councildis": "A",
    "status": "Pending",
    "rowid": "1048368",
    "final_x": "3667244.31181",
    "final_y": "528735.12736",
    "longitude": "-90.11317845293115",
    "latitude": "29.94826332864773",
    "geocoded_column": {
      "latitude": "29.94826332864773",
      "longitude": "-90.11317845293115"
    }
  },
  {
    "service_request": "2023-1048367",
    "request_type": "Parks & Parkways",
    "request_reason": "Request Tree Service (Right of Way/Public Property)",
    "date_created": "2023-11-06T14:50:01.000",
    "date_modified": "2023-11-06T15:48:56.000",
    "request_status": "Pending",
    "responsible_agency": "Department of Parks & Parkway",
    "final_address": "10000 BLK Irby St",
    "address_councildis": "E",
    "status": "Pending",
    "rowid": "1048367",
    "final_x": "3707941.4056",
    "final_y": "565224.842435",
    "longitude": "-89.98332473043362",
    "latitude": "30.047341860844778",
    "geocoded_column": {
      "latitude": "30.047341860844778",
      "longitude": "-89.98332473043362"
    }
  },
  {
    "service_request": "2023-1048366",
    "request_type": "Roads/Drainage",
    "request_reason": "Street Subsidence (Sinking)",
    "date_created": "2023-11-06T14:46:59.000",
    "date_modified": "2023-11-06T14:46:59.000",
    "request_status": "Pending",
    "responsible_agency": "Department of Public Works",
    "final_address": "5900 BLK Warwick Ct",
    "address_councildis": "C",
    "status": "Pending",
    "rowid": "1048366",
    "final_x": "3705635.61855",
    "final_y": "515877.138637",
    "longitude": "-89.99243737654427",
    "latitude": "29.911728430154877",
    "geocoded_column": {
      "latitude": "29.911728430154877",
      "longitude": "-89.99243737654427"
    }
  },
  {
    "service_request": "2023-1048365",
    "request_type": "Trash/Recycling",
    "request_reason": "Order Recycling Cart",
    "date_created": "2023-11-06T14:46:40.000",
    "date_modified": "2023-11-06T14:46:41.000",
    "request_status": "Pending",
    "responsible_agency": "Department of Sanitation",
    "final_address": "4118 Duplessis St",
    "address_councildis": "D",
    "status": "Pending",
    "rowid": "1048365",
    "final_x": "3678286.32219",
    "final_y": "547457.865489",
    "longitude": "-90.07766646422823",
    "latitude": "29.99941649629221",
    "geocoded_column": {
      "latitude": "29.99941649629221",
      "longitude": "-90.07766646422823"
    }
  },
  {
    "service_request": "2023-1048364",
    "request_type": "Trash/Recycling",
    "request_reason": "Repair Trash Cart",
    "date_created": "2023-11-06T14:46:12.000",
    "date_modified": "2023-11-06T14:46:13.000",
    "request_status": "Pending",
    "responsible_agency": "Department of Sanitation",
    "final_address": "4118 Duplessis St",
    "address_councildis": "D",
    "status": "Assigned to Contractor",
    "contractor": "IV Waste",
    "rowid": "1048364",
    "final_x": "3678286.32219",
    "final_y": "547457.865489",
    "longitude": "-90.07766646422823",
    "latitude": "29.99941649629221",
    "geocoded_column": {
      "latitude": "29.99941649629221",
      "longitude": "-90.07766646422823"
    }
  },
  {
    "service_request": "2023-1048363",
    "request_type": "Trash/Recycling",
    "request_reason": "Request a Large Item Pick Up",
    "date_created": "2023-11-06T14:43:12.000",
    "date_modified": "2023-11-06T14:43:13.000",
    "request_status": "Pending",
    "responsible_agency": "Department of Sanitation",
    "final_address": "819 Hillary St",
    "address_councildis": "A",
    "status": "Assigned to Contractor",
    "contractor": "Richards Disposal",
    "rowid": "1048363",
    "final_x": "3662490.87315",
    "final_y": "526221.16339",
    "longitude": "-90.12827056611243",
    "latitude": "29.941489055845725",
    "geocoded_column": {
      "latitude": "29.941489055845725",
      "longitude": "-90.12827056611243"
    }
  },
  {
    "service_request": "2023-1048362",
    "request_type": "Parks & Parkways",
    "request_reason": "Request Tree Service (Right of Way/Public Property)",
    "date_created": "2023-11-06T14:42:00.000",
    "date_modified": "2023-11-06T14:42:01.000",
    "request_status": "Pending",
    "responsible_agency": "Department of Parks & Parkway",
    "final_address": "BIENVILLE ST & N SOLOMON ST",
    "address_councildis": "A",
    "status": "Pending",
    "rowid": "1048362",
    "final_x": "3671052.43",
    "final_y": "539334.08",
    "longitude": "-90.10079465565433",
    "latitude": "29.977294864958644",
    "geocoded_column": {
      "latitude": "29.977294864958644",
      "longitude": "-90.10079465565433"
    }
  },
  {
    "service_request": "2023-1048361",
    "request_type": "Trash/Recycling",
    "request_reason": "Request a Large Item Pick Up",
    "date_created": "2023-11-06T14:41:57.000",
    "date_modified": "2023-11-06T14:41:57.000",
    "request_status": "Pending",
    "responsible_agency": "Department of Sanitation",
    "final_address": "1814 Camp St",
    "address_councildis": "B",
    "status": "Assigned to Contractor",
    "contractor": "Richards Disposal",
    "rowid": "1048361",
    "final_x": "3679550.33064",
    "final_y": "523192.912059",
    "longitude": "-90.07451553952943",
    "latitude": "29.93265801785025",
    "geocoded_column": {
      "latitude": "29.93265801785025",
      "longitude": "-90.07451553952943"
    }
  },
  {
    "service_request": "2023-1048360",
    "request_type": "Trash/Recycling",
    "request_reason": "Debris in Roadway",
    "date_created": "2023-11-06T14:25:48.000",
    "date_modified": "2023-11-06T15:27:43.000",
    "request_status": "Pending",
    "responsible_agency": "Department of Public Works",
    "final_address": "5600 St Claude Ave",
    "address_councildis": "E",
    "status": "Pending",
    "rowid": "1048360",
    "final_x": "3698079.92106",
    "final_y": "533663.126469",
    "longitude": "-90.01563938430233",
    "latitude": "29.9608747010821",
    "geocoded_column": {
      "latitude": "29.9608747010821",
      "longitude": "-90.01563938430233"
    }
  },
  {
    "service_request": "2023-1048359",
    "request_type": "Trash/Recycling",
    "request_reason": "Repair Trash Cart",
    "date_created": "2023-11-06T14:23:36.000",
    "date_modified": "2023-11-06T14:23:36.000",
    "request_status": "Pending",
    "responsible_agency": "Department of Sanitation",
    "final_address": "1809 N Salcedo St",
    "address_councildis": "A",
    "status": "Assigned to Contractor",
    "contractor": "IV Waste",
    "rowid": "1048359",
    "final_x": "3677332.8292",
    "final_y": "543030.799629",
    "longitude": "-90.08083144979074",
    "latitude": "29.987272314005967",
    "geocoded_column": {
      "latitude": "29.987272314005967",
      "longitude": "-90.08083144979074"
    }
  },
  {
    "service_request": "2023-1048358",
    "request_type": "Trash/Recycling",
    "request_reason": "Dead Animal Pick Up",
    "date_created": "2023-11-06T14:19:15.000",
    "date_modified": "2023-11-06T14:19:16.000",
    "request_status": "Pending",
    "responsible_agency": "Department of Sanitation",
    "final_address": "5719 St Claude Ave",
    "address_councildis": "E",
    "status": "Assigned to Contractor",
    "contractor": "Waste Pro",
    "rowid": "1048358",
    "final_x": "3698560.00048",
    "final_y": "533731.566661",
    "longitude": "-90.01412090554254",
    "latitude": "29.961047698180415",
    "geocoded_column": {
      "latitude": "29.961047698180415",
      "longitude": "-90.01412090554254"
    }
  },
  {
    "service_request": "2023-1048357",
    "request_type": "Trash/Recycling",
    "request_reason": "Request a Large Item Pick Up",
    "date_created": "2023-11-06T14:15:31.000",
    "date_modified": "2023-11-06T14:15:31.000",
    "request_status": "Pending",
    "responsible_agency": "Department of Public Works",
    "final_address": "2621 Clara St",
    "address_councildis": "B",
    "status": "Assigned to Contractor",
    "contractor": "Richards Disposal",
    "rowid": "1048357",
    "final_x": "3673929.01544",
    "final_y": "526368.60243",
    "longitude": "-90.09215300001381",
    "latitude": "29.941558742133402",
    "geocoded_column": {
      "latitude": "29.941558742133402",
      "longitude": "-90.09215300001381"
    }
  },
  {
    "service_request": "2023-1048356",
    "request_type": "Property Maintenance",
    "request_reason": "Property Maintenance",
    "date_created": "2023-11-06T14:02:22.000",
    "date_modified": "2023-11-06T14:02:23.000",
    "request_status": "Pending",
    "responsible_agency": "Department of Code Enforcement",
    "final_address": "3124 N Johnson St",
    "address_councildis": "D",
    "status": "Pending",
    "rowid": "1048356",
    "final_x": "3690056.22243",
    "final_y": "539274.981322",
    "longitude": "-90.0407767141998",
    "latitude": "29.97655660343164",
    "geocoded_column": {
      "latitude": "29.97655660343164",
      "longitude": "-90.0407767141998"
    }
  },
  {
    "service_request": "2023-1048355",
    "request_type": "Roads/Drainage",
    "request_reason": "Damaged Sidewalk",
    "date_created": "2023-11-06T14:02:17.000",
    "date_modified": "2023-11-06T14:02:17.000",
    "request_status": "Pending",
    "responsible_agency": "Department of Public Works",
    "final_address": "1205 St Charles Ave",
    "address_councildis": "B",
    "status": "Pending",
    "rowid": "1048355",
    "final_x": "3679654.76706",
    "final_y": "526356.192382",
    "longitude": "-90.07407609579455",
    "latitude": "29.94135283774421",
    "geocoded_column": {
      "latitude": "29.94135283774421",
      "longitude": "-90.07407609579455"
    }
  },
  {
    "service_request": "2023-1048354",
    "request_type": "Trash/Recycling",
    "request_reason": "Missed Trash Pick-Up",
    "date_created": "2023-11-06T14:01:40.000",
    "date_modified": "2023-11-06T14:01:41.000",
    "request_status": "Pending",
    "responsible_agency": "Department of Sanitation",
    "final_address": "1530 Magazine St, New Orleans, Louisiana, 70130",
    "address_councildis": "B",
    "status": "Assigned to Contractor",
    "contractor": "Richards Disposal",
    "rowid": "1048354",
    "final_x": "3680175.45557",
    "final_y": "523569.600891",
    "longitude": "-90.07252898743484",
    "latitude": "29.933674889505326",
    "geocoded_column": {
      "latitude": "29.933674889505326",
      "longitude": "-90.07252898743484"
    }
  },
  {
    "service_request": "2023-1048353",
    "request_type": "Trash/Recycling",
    "request_reason": "Missed Trash Pick-Up",
    "date_created": "2023-11-06T13:58:56.000",
    "date_modified": "2023-11-06T13:58:57.000",
    "request_status": "Pending",
    "responsible_agency": "Department of Sanitation",
    "final_address": "4655 Francisco Verrett Dr",
    "address_councildis": "E",
    "status": "Assigned to Contractor",
    "contractor": "Waste Pro",
    "rowid": "1048353",
    "final_x": "3704310.60452",
    "final_y": "554724.259352",
    "longitude": "-89.99518753801233",
    "latitude": "30.018586484898663",
    "geocoded_column": {
      "latitude": "30.018586484898663",
      "longitude": "-89.99518753801233"
    }
  },
  {
    "service_request": "2023-1048352",
    "request_type": "Traffic Signals/Signs/Striping/Streetlights",
    "request_reason": "Street Light Outage/Malfunction",
    "date_created": "2023-11-06T13:50:40.000",
    "date_modified": "2023-11-06T13:50:41.000",
    "request_status": "Pending",
    "responsible_agency": "Department of Public Works",
    "final_address": "3500 Gibson St",
    "address_councildis": "D",
    "status": "Assigned to Contractor",
    "contractor": "Legacy Professional Services",
    "rowid": "1048352",
    "final_x": "3678893.67266",
    "final_y": "545107.370319",
    "longitude": "-90.07582931443193",
    "latitude": "29.992935150121717",
    "geocoded_column": {
      "latitude": "29.992935150121717",
      "longitude": "-90.07582931443193"
    }
  },
  {
    "service_request": "2023-1048351",
    "request_type": "Trash/Recycling",
    "request_reason": "Missed Trash Pick-Up",
    "date_created": "2023-11-06T13:39:04.000",
    "date_modified": "2023-11-06T13:39:05.000",
    "request_status": "Pending",
    "responsible_agency": "Department of Sanitation",
    "final_address": "4731 Canal St",
    "address_councildis": "A",
    "status": "Assigned to Contractor",
    "contractor": "Richards Disposal",
    "rowid": "1048351",
    "final_x": "3669015.67764",
    "final_y": "540110.791115",
    "longitude": "-90.10720116083343",
    "latitude": "29.97949064208057",
    "geocoded_column": {
      "latitude": "29.97949064208057",
      "longitude": "-90.10720116083343"
    }
  },
  {
    "service_request": "2023-1048350",
    "request_type": "Abandoned Vehicles",
    "request_reason": "Abandoned/Junk Vehicles",
    "date_created": "2023-11-06T13:32:34.000",
    "date_modified": "2023-11-06T13:32:35.000",
    "request_status": "Pending",
    "responsible_agency": "Department of Public Works",
    "final_address": "1440 N Dorgenois St",
    "address_councildis": "D",
    "status": "Pending",
    "rowid": "1048350",
    "final_x": "3678990.23765",
    "final_y": "538999.00001",
    "longitude": "-90.07573605442548",
    "latitude": "29.976136346114405",
    "geocoded_column": {
      "latitude": "29.976136346114405",
      "longitude": "-90.07573605442548"
    }
  },
  {
    "service_request": "2023-1048349",
    "request_type": "Mosquito, Termite & Rodent Control",
    "request_reason": "Rodent Complaint (Rats)",
    "date_created": "2023-11-06T13:26:17.000",
    "date_modified": "2023-11-06T13:26:18.000",
    "request_status": "Pending",
    "responsible_agency": "Mosquito, Termite & Rodent Control Board",
    "final_address": "2418 Jackson Ave",
    "address_councildis": "B",
    "status": "Pending",
    "rowid": "1048349",
    "final_x": "3675484.40782",
    "final_y": "526417.35443",
    "longitude": "-90.08724063740519",
    "latitude": "29.941646375778774",
    "geocoded_column": {
      "latitude": "29.941646375778774",
      "longitude": "-90.08724063740519"
    }
  },
  {
    "service_request": "2023-1048348",
    "request_type": "Trash/Recycling",
    "request_reason": "Request a Large Item Pick Up",
    "date_created": "2023-11-06T13:24:11.000",
    "date_modified": "2023-11-06T13:24:11.000",
    "request_status": "Pending",
    "responsible_agency": "Department of Sanitation",
    "final_address": "1323 S Derbigny St",
    "address_councildis": "B",
    "status": "Assigned to Contractor",
    "contractor": "Richards Disposal",
    "rowid": "1048348",
    "final_x": "3674920.98037",
    "final_y": "528685.855808",
    "longitude": "-90.08894171264667",
    "latitude": "29.947900842776853",
    "geocoded_column": {
      "latitude": "29.947900842776853",
      "longitude": "-90.08894171264667"
    }
  },
  {
    "service_request": "2023-1048347",
    "request_type": "Property Maintenance",
    "request_reason": "Property Maintenance",
    "date_created": "2023-11-06T13:23:51.000",
    "date_modified": "2023-11-06T13:23:51.000",
    "request_status": "Pending",
    "responsible_agency": "Department of Code Enforcement",
    "final_address": "2418 Jackson Ave",
    "address_councildis": "B",
    "status": "Pending",
    "rowid": "1048347",
    "final_x": "3675484.40782",
    "final_y": "526417.35443",
    "longitude": "-90.08724063740519",
    "latitude": "29.941646375778774",
    "geocoded_column": {
      "latitude": "29.941646375778774",
      "longitude": "-90.08724063740519"
    }
  },
  {
    "service_request": "2023-1048346",
    "request_type": "Parks & Parkways",
    "request_reason": "Request Tree Service (Right of Way/Public Property)",
    "date_created": "2023-11-06T13:19:37.000",
    "date_modified": "2023-11-06T13:19:37.000",
    "request_status": "Pending",
    "responsible_agency": "Department of Parks & Parkway",
    "final_address": "1626 Audubon St",
    "address_councildis": "A",
    "status": "Pending",
    "rowid": "1048346",
    "final_x": "3665306.8752",
    "final_y": "527734.654783",
    "longitude": "-90.11932923028385",
    "latitude": "29.945568937735",
    "geocoded_column": {
      "latitude": "29.945568937735",
      "longitude": "-90.11932923028385"
    }
  },
  {
    "service_request": "2023-1048345",
    "request_type": "Trash/Recycling",
    "request_reason": "Request a Large Item Pick Up",
    "date_created": "2023-11-06T13:16:48.000",
    "date_modified": "2023-11-06T13:16:49.000",
    "request_status": "Pending",
    "responsible_agency": "Department of Sanitation",
    "final_address": "6423 Franklin Ave",
    "address_councildis": "D",
    "status": "Assigned to Contractor",
    "contractor": "IV Waste",
    "rowid": "1048345",
    "final_x": "3686367.2541",
    "final_y": "556927.136986",
    "longitude": "-90.05180405227208",
    "latitude": "30.025207555302067",
    "geocoded_column": {
      "latitude": "30.025207555302067",
      "longitude": "-90.05180405227208"
    }
  },
  {
    "service_request": "2023-1048344",
    "request_type": "Trash/Recycling",
    "request_reason": "Repair Trash Cart",
    "date_created": "2023-11-06T13:13:26.000",
    "date_modified": "2023-11-06T13:13:26.000",
    "request_status": "Pending",
    "responsible_agency": "Department of Sanitation",
    "final_address": "2313 Urquhart St",
    "address_councildis": "C",
    "status": "Assigned to Contractor",
    "contractor": "IV Waste",
    "rowid": "1048344",
    "final_x": "3685844.15855",
    "final_y": "537140.657544",
    "longitude": "-90.05415492837523",
    "latitude": "29.97081793408753",
    "geocoded_column": {
      "latitude": "29.97081793408753",
      "longitude": "-90.05415492837523"
    }
  },
  {
    "service_request": "2023-1048343",
    "request_type": "Trash/Recycling",
    "request_reason": "Order Recycling Cart",
    "date_created": "2023-11-06T13:12:53.000",
    "date_modified": "2023-11-06T13:12:53.000",
    "request_status": "Pending",
    "responsible_agency": "Department of Sanitation",
    "final_address": "7311 Sardonyx St",
    "address_councildis": "D",
    "status": "Pending",
    "rowid": "1048343",
    "final_x": "3669681.72161",
    "final_y": "555613.442201",
    "longitude": "-90.10457245280888",
    "latitude": "30.022097929622",
    "geocoded_column": {
      "latitude": "30.022097929622",
      "longitude": "-90.10457245280888"
    }
  },
  {
    "service_request": "2023-1048342",
    "request_type": "Trash/Recycling",
    "request_reason": "Replace Trash Cart",
    "date_created": "2023-11-06T13:12:30.000",
    "date_modified": "2023-11-06T13:12:31.000",
    "request_status": "Pending",
    "responsible_agency": "Department of Sanitation",
    "final_address": "1127 Second St",
    "address_councildis": "B",
    "status": "Assigned to Contractor",
    "contractor": "Richards Disposal",
    "rowid": "1048342",
    "final_x": "3677723.1844",
    "final_y": "521558.687097",
    "longitude": "-90.0803401076697",
    "latitude": "29.928219500625033",
    "geocoded_column": {
      "latitude": "29.928219500625033",
      "longitude": "-90.0803401076697"
    }
  },
  {
    "service_request": "2023-1048341",
    "request_type": "Mosquito, Termite & Rodent Control",
    "request_reason": "Rodent Complaint (Rats)",
    "date_created": "2023-11-06T13:12:30.000",
    "date_modified": "2023-11-06T13:12:30.000",
    "request_status": "Pending",
    "responsible_agency": "Mosquito, Termite & Rodent Control Board",
    "final_address": "2422 Jackson Ave",
    "address_councildis": "B",
    "status": "Pending",
    "rowid": "1048341",
    "final_x": "3675466.32341",
    "final_y": "526436.895486",
    "longitude": "-90.0872970627016",
    "latitude": "29.941700648012176",
    "geocoded_column": {
      "latitude": "29.941700648012176",
      "longitude": "-90.0872970627016"
    }
  },
  {
    "service_request": "2023-1048340",
    "request_type": "Trash/Recycling",
    "request_reason": "Missed Trash Pick-Up",
    "date_created": "2023-11-06T13:10:09.000",
    "date_modified": "2023-11-06T13:13:31.000",
    "request_status": "Pending",
    "responsible_agency": "Department of Sanitation",
    "final_address": "2100 Andry St",
    "address_councildis": "E",
    "status": "Assigned to Contractor",
    "contractor": "Waste Pro",
    "rowid": "1048340",
    "final_x": "3698165.28938",
    "final_y": "537758.140936",
    "longitude": "-90.01522105487891",
    "latitude": "29.972131826852934",
    "geocoded_column": {
      "latitude": "29.972131826852934",
      "longitude": "-90.01522105487891"
    }
  },
  {
    "service_request": "2023-1048339",
    "request_type": "Trash/Recycling",
    "request_reason": "Order Recycling Cart",
    "date_created": "2023-11-06T13:10:03.000",
    "date_modified": "2023-11-06T13:10:04.000",
    "request_status": "Pending",
    "responsible_agency": "Department of Sanitation",
    "final_address": "7311 Sardonyx St",
    "address_councildis": "D",
    "status": "Pending",
    "rowid": "1048339",
    "final_x": "3669681.72161",
    "final_y": "555613.442201",
    "longitude": "-90.10457245280888",
    "latitude": "30.022097929622",
    "geocoded_column": {
      "latitude": "30.022097929622",
      "longitude": "-90.10457245280888"
    }
  },
  {
    "service_request": "2023-1048338",
    "request_type": "Abandoned Vehicles",
    "request_reason": "Abandoned/Junk Vehicles",
    "date_created": "2023-11-06T13:09:40.000",
    "date_modified": "2023-11-06T13:09:40.000",
    "request_status": "Pending",
    "responsible_agency": "Department of Public Works",
    "final_address": "700 BLK Saint Peter St",
    "address_councildis": "C",
    "status": "Pending",
    "rowid": "1048338",
    "final_x": "3682393.58924",
    "final_y": "532551.413031",
    "longitude": "-90.06521264736965",
    "latitude": "29.95830455581892",
    "geocoded_column": {
      "latitude": "29.95830455581892",
      "longitude": "-90.06521264736965"
    }
  },
  {
    "service_request": "2023-1048337",
    "request_type": "Trash/Recycling",
    "request_reason": "Replace Trash Cart",
    "date_created": "2023-11-06T13:04:22.000",
    "date_modified": "2023-11-06T13:04:23.000",
    "request_status": "Pending",
    "responsible_agency": "Department of Sanitation",
    "final_address": "3630 Third St",
    "address_councildis": "B",
    "status": "Assigned to Contractor",
    "contractor": "Richards Disposal",
    "rowid": "1048337",
    "final_x": "3672382.54759",
    "final_y": "528947.826624",
    "longitude": "-90.09694765062883",
    "latitude": "29.948696733930312",
    "geocoded_column": {
      "latitude": "29.948696733930312",
      "longitude": "-90.09694765062883"
    }
  },
  {
    "service_request": "2023-1048336",
    "request_type": "Trash/Recycling",
    "request_reason": "Repair Recycling Cart",
    "date_created": "2023-11-06T12:58:51.000",
    "date_modified": "2023-11-06T12:59:12.000",
    "request_status": "Pending",
    "responsible_agency": "Department of Sanitation",
    "final_address": "90 Lakewood Estates Dr",
    "address_councildis": "C",
    "status": "Pending",
    "rowid": "1048336",
    "final_x": "3701855.88874",
    "final_y": "512659.881457",
    "longitude": "-90.00448484915783",
    "latitude": "29.903003144909494",
    "geocoded_column": {
      "latitude": "29.903003144909494",
      "longitude": "-90.00448484915783"
    }
  },
  {
    "service_request": "2023-1048335",
    "request_type": "Trash/Recycling",
    "request_reason": "Repair Trash Cart",
    "date_created": "2023-11-06T12:58:34.000",
    "date_modified": "2023-11-06T12:58:55.000",
    "request_status": "Pending",
    "responsible_agency": "Department of Sanitation",
    "final_address": "90 Lakewood Estates Dr",
    "address_councildis": "C",
    "status": "Assigned to Contractor",
    "contractor": "Richards Disposal",
    "rowid": "1048335",
    "final_x": "3701855.88874",
    "final_y": "512659.881457",
    "longitude": "-90.00448484915783",
    "latitude": "29.903003144909494",
    "geocoded_column": {
      "latitude": "29.903003144909494",
      "longitude": "-90.00448484915783"
    }
  },
  {
    "service_request": "2023-1048334",
    "request_type": "Trash/Recycling",
    "request_reason": "Replace Trash Cart",
    "date_created": "2023-11-06T12:58:10.000",
    "date_modified": "2023-11-06T12:58:50.000",
    "request_status": "Pending",
    "responsible_agency": "Department of Sanitation",
    "final_address": "2405 Napoleon Ave",
    "address_councildis": "B",
    "status": "Assigned to Contractor",
    "contractor": "Richards Disposal",
    "rowid": "1048334",
    "final_x": "3670654.80366",
    "final_y": "523765.569147",
    "longitude": "-90.10257863796892",
    "latitude": "29.93449835778245",
    "geocoded_column": {
      "latitude": "29.93449835778245",
      "longitude": "-90.10257863796892"
    }
  },
  {
    "service_request": "2023-1048333",
    "request_type": "Trash/Recycling",
    "request_reason": "Repair Trash Cart",
    "date_created": "2023-11-06T12:55:51.000",
    "date_modified": "2023-11-06T12:55:51.000",
    "request_status": "Pending",
    "responsible_agency": "Department of Sanitation",
    "final_address": "123 Danny Dr",
    "address_councildis": "C",
    "status": "Assigned to Contractor",
    "contractor": "Richards Disposal",
    "rowid": "1048333",
    "final_x": "3701888.45757",
    "final_y": "524326.192188",
    "longitude": "-90.00395490271582",
    "latitude": "29.935080457077483",
    "geocoded_column": {
      "latitude": "29.935080457077483",
      "longitude": "-90.00395490271582"
    }
  },
  {
    "service_request": "2023-1048332",
    "request_type": "Trash/Recycling",
    "request_reason": "Request a Large Item Pick Up",
    "date_created": "2023-11-06T12:54:38.000",
    "date_modified": "2023-11-06T12:54:39.000",
    "request_status": "Pending",
    "responsible_agency": "Department of Sanitation",
    "final_address": "11040 Guildford Rd",
    "address_councildis": "E",
    "status": "Assigned to Contractor",
    "contractor": "Waste Pro",
    "rowid": "1048332",
    "final_x": "3711861.30379",
    "final_y": "564197.379169",
    "longitude": "-89.97097443839183",
    "latitude": "30.044389181850352",
    "geocoded_column": {
      "latitude": "30.044389181850352",
      "longitude": "-89.97097443839183"
    }
  },
  {
    "service_request": "2023-1048331",
    "request_type": "Trash/Recycling",
    "request_reason": "Request a Large Item Pick Up",
    "date_created": "2023-11-06T12:54:01.000",
    "date_modified": "2023-11-06T12:54:01.000",
    "request_status": "Pending",
    "responsible_agency": "Department of Sanitation",
    "final_address": "4642 Franklin Ave",
    "address_councildis": "D",
    "status": "Assigned to Contractor",
    "contractor": "IV Waste",
    "rowid": "1048331",
    "final_x": "3686772.92866",
    "final_y": "550044.246484",
    "longitude": "-90.05076562605174",
    "latitude": "30.006269658671663",
    "geocoded_column": {
      "latitude": "30.006269658671663",
      "longitude": "-90.05076562605174"
    }
  },
  {
    "service_request": "2023-1048330",
    "request_type": "Traffic Signals/Signs/Striping/Streetlights",
    "request_reason": "Street Light Outage/Malfunction",
    "date_created": "2023-11-06T12:48:45.000",
    "date_modified": "2023-11-06T12:48:46.000",
    "request_status": "Pending",
    "responsible_agency": "Department of Public Works",
    "final_address": "3711 Red Cypress Dr",
    "address_councildis": "C",
    "status": "Assigned to Contractor",
    "contractor": "Legacy Professional Services",
    "rowid": "1048330",
    "final_x": "3703156.4755",
    "final_y": "512175.365105",
    "longitude": "-90.00039804211376",
    "latitude": "29.901629351259647",
    "geocoded_column": {
      "latitude": "29.901629351259647",
      "longitude": "-90.00039804211376"
    }
  },
  {
    "service_request": "2023-1048329",
    "request_type": "Abandoned Vehicles",
    "request_reason": "Abandoned/Junk Vehicles",
    "date_created": "2023-11-06T12:43:16.000",
    "date_modified": "2023-11-06T12:44:44.000",
    "request_status": "Pending",
    "responsible_agency": "Department of Public Works",
    "final_address": "2200 BLK N Prieur St",
    "address_councildis": "D",
    "status": "Pending",
    "rowid": "1048329",
    "final_x": "3685005.0955",
    "final_y": "539268.628928",
    "longitude": "-90.05672991624225",
    "latitude": "29.976694841767255",
    "geocoded_column": {
      "latitude": "29.976694841767255",
      "longitude": "-90.05672991624225"
    }
  },
  {
    "service_request": "2023-1048328",
    "request_type": "Trash/Recycling",
    "request_reason": "Request a Large Item Pick Up",
    "date_created": "2023-11-06T12:40:47.000",
    "date_modified": "2023-11-06T12:40:47.000",
    "request_status": "Pending",
    "responsible_agency": "Department of Sanitation",
    "final_address": "1017 Moss St",
    "address_councildis": "A",
    "status": "Assigned to Contractor",
    "contractor": "Richards Disposal",
    "rowid": "1048328",
    "final_x": "3674801.53985",
    "final_y": "539898.29537",
    "longitude": "-90.08893436203574",
    "latitude": "29.978734843836385",
    "geocoded_column": {
      "latitude": "29.978734843836385",
      "longitude": "-90.08893436203574"
    }
  },
  {
    "service_request": "2023-1048327",
    "request_type": "Abandoned Vehicles",
    "request_reason": "Abandoned/Junk Vehicles",
    "date_created": "2023-11-06T12:40:15.000",
    "date_modified": "2023-11-06T12:40:15.000",
    "request_status": "Pending",
    "responsible_agency": "Department of Public Works",
    "final_address": "4806 Conti St",
    "address_councildis": "A",
    "status": "Pending",
    "rowid": "1048327",
    "final_x": "3669458.21236",
    "final_y": "541012.964107",
    "longitude": "-90.1057729289794",
    "latitude": "29.981958283637145",
    "geocoded_column": {
      "latitude": "29.981958283637145",
      "longitude": "-90.1057729289794"
    }
  },
  {
    "service_request": "2023-1048326",
    "request_type": "Trash/Recycling",
    "request_reason": "Repair Trash Cart",
    "date_created": "2023-11-06T12:40:10.000",
    "date_modified": "2023-11-06T12:40:10.000",
    "request_status": "Pending",
    "responsible_agency": "Department of Sanitation",
    "final_address": "2916 Cleveland Ave",
    "address_councildis": "B",
    "status": "Assigned to Contractor",
    "contractor": "Richards Disposal",
    "rowid": "1048326",
    "final_x": "3674158.20552",
    "final_y": "535430.941958",
    "longitude": "-90.09111921953253",
    "latitude": "29.96647033476178",
    "geocoded_column": {
      "latitude": "29.96647033476178",
      "longitude": "-90.09111921953253"
    }
  },
  {
    "service_request": "2023-1048325",
    "request_type": "Traffic Signals/Signs/Striping/Streetlights",
    "request_reason": "Traffic Sign Missing/Damaged",
    "date_created": "2023-11-06T12:39:27.000",
    "date_modified": "2023-11-06T12:39:27.000",
    "request_status": "Pending",
    "responsible_agency": "Department of Public Works",
    "final_address": "Esplanade Avenue & Moss Street",
    "address_councildis": "A",
    "status": "Pending",
    "rowid": "1048325",
    "final_x": "3674746.6459",
    "final_y": "541602.452364",
    "longitude": "-90.08904929006643",
    "latitude": "29.983422329205908",
    "geocoded_column": {
      "latitude": "29.983422329205908",
      "longitude": "-90.08904929006643"
    }
  },
  {
    "service_request": "2023-1048324",
    "request_type": "Abandoned Vehicles",
    "request_reason": "Vehicle Blocking Your Driveway",
    "date_created": "2023-11-06T12:38:44.000",
    "date_modified": "2023-11-06T12:38:44.000",
    "request_status": "Pending",
    "responsible_agency": "Department of Public Works",
    "final_address": "401 N Roadway St",
    "address_councildis": "A",
    "status": "Pending",
    "rowid": "1048324",
    "final_x": "3665209.3504",
    "final_y": "556742.641434",
    "longitude": "-90.11866625765286",
    "latitude": "30.0253339428865",
    "geocoded_column": {
      "latitude": "30.0253339428865",
      "longitude": "-90.11866625765286"
    }
  },
  {
    "service_request": "2023-1048323",
    "request_type": "Traffic Signals/Signs/Striping/Streetlights",
    "request_reason": "Street Light Outage/Malfunction",
    "date_created": "2023-11-06T12:37:13.000",
    "date_modified": "2023-11-06T12:37:14.000",
    "request_status": "Pending",
    "responsible_agency": "Department of Public Works",
    "final_address": "OKEEFE AVE & LAFAYETTE ST",
    "address_councildis": "B",
    "status": "Assigned to Contractor",
    "contractor": "Legacy Professional Services",
    "rowid": "1048323",
    "final_x": "3679446.1",
    "final_y": "529190.88",
    "longitude": "-90.07463658656482",
    "latitude": "29.949153587277227",
    "geocoded_column": {
      "latitude": "29.949153587277227",
      "longitude": "-90.07463658656482"
    }
  },
  {
    "service_request": "2023-1048322",
    "request_type": "Trash/Recycling",
    "request_reason": "Order Recycling Cart",
    "date_created": "2023-11-06T12:34:00.000",
    "date_modified": "2023-11-06T12:34:00.000",
    "request_status": "Pending",
    "responsible_agency": "Department of Sanitation",
    "final_address": "3469 Vespasian St",
    "address_councildis": "C",
    "status": "Pending",
    "rowid": "1048322",
    "final_x": "3696053.47414",
    "final_y": "522570.257786",
    "longitude": "-90.02243923494422",
    "latitude": "29.930437091892376",
    "geocoded_column": {
      "latitude": "29.930437091892376",
      "longitude": "-90.02243923494422"
    }
  },
  {
    "service_request": "2023-1048321",
    "request_type": "Trash/Recycling",
    "request_reason": "Order Recycling Cart",
    "date_created": "2023-11-06T12:32:47.000",
    "date_modified": "2023-11-06T12:32:48.000",
    "request_status": "Pending",
    "responsible_agency": "Department of Sanitation",
    "final_address": "3469 Vespasian St",
    "address_councildis": "C",
    "status": "Pending",
    "rowid": "1048321",
    "final_x": "3696053.47414",
    "final_y": "522570.257786",
    "longitude": "-90.02243923494422",
    "latitude": "29.930437091892376",
    "geocoded_column": {
      "latitude": "29.930437091892376",
      "longitude": "-90.02243923494422"
    }
  },
  {
    "service_request": "2023-1048320",
    "request_type": "Trash/Recycling",
    "request_reason": "Repair Trash Cart",
    "date_created": "2023-11-06T12:32:43.000",
    "date_modified": "2023-11-06T12:32:43.000",
    "request_status": "Pending",
    "responsible_agency": "Department of Sanitation",
    "final_address": "8025 Wales St",
    "address_councildis": "E",
    "status": "Assigned to Contractor",
    "contractor": "Waste Pro",
    "rowid": "1048320",
    "final_x": "3701949.28465",
    "final_y": "562275.845215",
    "longitude": "-90.0023712489195",
    "latitude": "30.039426035466246",
    "geocoded_column": {
      "latitude": "30.039426035466246",
      "longitude": "-90.0023712489195"
    }
  },
  {
    "service_request": "2023-1048319",
    "request_type": "Traffic Signals/Signs/Striping/Streetlights",
    "request_reason": "Street Name Sign Damaged or Missing",
    "date_created": "2023-11-06T12:32:21.000",
    "date_modified": "2023-11-06T12:32:21.000",
    "request_status": "Pending",
    "responsible_agency": "Department of Public Works",
    "final_address": "ESPLANADE AVE & LEDA CT",
    "address_councildis": "A",
    "status": "Pending",
    "rowid": "1048319",
    "final_x": "3675482.18",
    "final_y": "541029.89",
    "longitude": "-90.08674576010222",
    "latitude": "29.981825997399948",
    "geocoded_column": {
      "latitude": "29.981825997399948",
      "longitude": "-90.08674576010222"
    }
  },
  {
    "service_request": "2023-1048318",
    "request_type": "Trash/Recycling",
    "request_reason": "Repair Trash Cart",
    "date_created": "2023-11-06T12:29:04.000",
    "date_modified": "2023-11-06T12:29:04.000",
    "request_status": "Pending",
    "responsible_agency": "Department of Sanitation",
    "final_address": "165 Pinewood Ct",
    "address_councildis": "C",
    "status": "Assigned to Contractor",
    "contractor": "Richards Disposal",
    "rowid": "1048318",
    "final_x": "3695831.66032",
    "final_y": "523551.918779",
    "longitude": "-90.02310402827541",
    "latitude": "29.933143299302643",
    "geocoded_column": {
      "latitude": "29.933143299302643",
      "longitude": "-90.02310402827541"
    }
  },
  {
    "service_request": "2023-1048317",
    "request_type": "Trash/Recycling",
    "request_reason": "MIssed Recycling Pick-Up",
    "date_created": "2023-11-06T12:28:50.000",
    "date_modified": "2023-11-06T12:28:51.000",
    "request_status": "Pending",
    "responsible_agency": "Department of Sanitation",
    "final_address": "6201 Berkley Dr",
    "address_councildis": "C",
    "status": "Assigned to Contractor",
    "contractor": "Richards Disposal",
    "rowid": "1048317",
    "final_x": "3707025.10321",
    "final_y": "518035.768886",
    "longitude": "-89.98797185070612",
    "latitude": "29.917619132934384",
    "geocoded_column": {
      "latitude": "29.917619132934384",
      "longitude": "-89.98797185070612"
    }
  },
  {
    "service_request": "2023-1048316",
    "request_type": "Trash/Recycling",
    "request_reason": "Missed Trash Pick-Up",
    "date_created": "2023-11-06T12:28:25.000",
    "date_modified": "2023-11-06T12:28:26.000",
    "request_status": "Pending",
    "responsible_agency": "Department of Sanitation",
    "final_address": "4560 Francisco Verrett Dr",
    "address_councildis": "E",
    "status": "Assigned to Contractor",
    "contractor": "Waste Pro",
    "rowid": "1048316",
    "final_x": "3704299.35614",
    "final_y": "554026.151256",
    "longitude": "-89.9952488368954",
    "latitude": "30.016667317013255",
    "geocoded_column": {
      "latitude": "30.016667317013255",
      "longitude": "-89.9952488368954"
    }
  },
  {
    "service_request": "2023-1048315",
    "request_type": "Trash/Recycling",
    "request_reason": "Request a Large Item Pick Up",
    "date_created": "2023-11-06T12:22:45.000",
    "date_modified": "2023-11-06T12:22:46.000",
    "request_status": "Pending",
    "responsible_agency": "Department of Sanitation",
    "final_address": "1823 Prytania St",
    "address_councildis": "B",
    "status": "Assigned to Contractor",
    "contractor": "Richards Disposal",
    "rowid": "1048315",
    "final_x": "3678753.23317",
    "final_y": "524036.89446",
    "longitude": "-90.0770026977678",
    "latitude": "29.9350027465606",
    "geocoded_column": {
      "latitude": "29.9350027465606",
      "longitude": "-90.0770026977678"
    }
  },
  {
    "service_request": "2023-1048314",
    "request_type": "Roads/Drainage",
    "request_reason": "Street Flooding / Drainage",
    "date_created": "2023-11-06T12:21:48.000",
    "date_modified": "2023-11-06T15:46:25.000",
    "case_close_date": "2023-11-06T09:46:25.000",
    "request_status": "Closed",
    "responsible_agency": "Department of Public Works",
    "final_address": "2477 Verbena St",
    "address_councildis": "D",
    "status": "Referred to External Agency",
    "rowid": "1048314",
    "final_x": "3686178.30857",
    "final_y": "547773.478418",
    "longitude": "-90.05272435071878",
    "latitude": "30.00004415653736",
    "geocoded_column": {
      "latitude": "30.00004415653736",
      "longitude": "-90.05272435071878"
    }
  },
  {
    "service_request": "2023-1048313",
    "request_type": "Parks & Parkways",
    "request_reason": "Request Tree Service (Right of Way/Public Property)",
    "date_created": "2023-11-06T12:15:32.000",
    "date_modified": "2023-11-06T12:15:33.000",
    "request_status": "Pending",
    "responsible_agency": "Department of Parks & Parkway",
    "final_address": "3508 Washington Ave",
    "address_councildis": "B",
    "status": "Pending",
    "rowid": "1048313",
    "final_x": "3672102.81588",
    "final_y": "528228.355456",
    "longitude": "-90.09785537822586",
    "latitude": "29.946726720991023",
    "geocoded_column": {
      "latitude": "29.946726720991023",
      "longitude": "-90.09785537822586"
    }
  },
  {
    "service_request": "2023-1048312",
    "request_type": "Trash/Recycling",
    "request_reason": "Replace Trash Cart",
    "date_created": "2023-11-06T12:12:41.000",
    "date_modified": "2023-11-06T12:12:42.000",
    "request_status": "Pending",
    "responsible_agency": "Department of Sanitation",
    "final_address": "930 St Ann St",
    "address_councildis": "C",
    "status": "Assigned to Contractor",
    "contractor": "Empire Services",
    "rowid": "1048312",
    "final_x": "3681979.71829",
    "final_y": "533332.012868",
    "longitude": "-90.06649228630259",
    "latitude": "29.960463527198293",
    "geocoded_column": {
      "latitude": "29.960463527198293",
      "longitude": "-90.06649228630259"
    }
  },
  {
    "service_request": "2023-1048311",
    "request_type": "Trash/Recycling",
    "request_reason": "Order Recycling Cart",
    "date_created": "2023-11-06T12:07:25.000",
    "date_modified": "2023-11-06T12:08:12.000",
    "request_status": "Pending",
    "responsible_agency": "Department of Sanitation",
    "final_address": "1910 Constantinople St",
    "address_councildis": "B",
    "contractor": "Richards Disposal",
    "rowid": "1048311",
    "final_x": "3672112.71131",
    "final_y": "522185.217978",
    "longitude": "-90.09802983585794",
    "latitude": "29.93010976301257",
    "geocoded_column": {
      "latitude": "29.93010976301257",
      "longitude": "-90.09802983585794"
    }
  },
  {
    "service_request": "2023-1048310",
    "request_type": "Parks & Parkways",
    "request_reason": "Request Tree Service (Right of Way/Public Property)",
    "date_created": "2023-11-06T12:06:39.000",
    "date_modified": "2023-11-06T12:06:39.000",
    "request_status": "Pending",
    "responsible_agency": "Department of Parks & Parkway",
    "final_address": "6645 Bellaire Dr",
    "address_councildis": "A",
    "status": "Pending",
    "rowid": "1048310",
    "final_x": "3664621.76544",
    "final_y": "552450.533078",
    "longitude": "-90.12066648095897",
    "latitude": "30.0135492673041",
    "geocoded_column": {
      "latitude": "30.0135492673041",
      "longitude": "-90.12066648095897"
    }
  },
  {
    "service_request": "2023-1048309",
    "request_type": "Trash/Recycling",
    "request_reason": "Return Recycling Cart",
    "date_created": "2023-11-06T12:05:59.000",
    "date_modified": "2023-11-06T12:06:00.000",
    "request_status": "Pending",
    "responsible_agency": "Department of Sanitation",
    "final_address": "3539 Pin Oak Ave",
    "address_councildis": "C",
    "status": "Pending",
    "rowid": "1048309",
    "final_x": "3703470.43972",
    "final_y": "514929.006259",
    "longitude": "-89.99930602306524",
    "latitude": "29.909190882373753",
    "geocoded_column": {
      "latitude": "29.909190882373753",
      "longitude": "-89.99930602306524"
    }
  },
  {
    "service_request": "2023-1048308",
    "request_type": "Trash/Recycling",
    "request_reason": "Order Recycling Cart",
    "date_created": "2023-11-06T12:03:39.000",
    "date_modified": "2023-11-06T12:03:39.000",
    "request_status": "Pending",
    "responsible_agency": "Department of Sanitation",
    "final_address": "2706 General Pershing St Apt A",
    "address_councildis": "B",
    "status": "Pending",
    "contractor": "Richards Disposal",
    "rowid": "1048308",
    "final_x": "3670818.31726",
    "final_y": "524850.096252",
    "longitude": "-90.10202563613112",
    "latitude": "29.937475626783105",
    "geocoded_column": {
      "latitude": "29.937475626783105",
      "longitude": "-90.10202563613112"
    }
  },
  {
    "service_request": "2023-1048307",
    "request_type": "Trash/Recycling",
    "request_reason": "Order Trash Cart",
    "date_created": "2023-11-06T12:03:33.000",
    "date_modified": "2023-11-06T12:03:34.000",
    "request_status": "Pending",
    "responsible_agency": "Department of Sanitation",
    "final_address": "7819 Sun St",
    "address_councildis": "E",
    "status": "Assigned to Contractor",
    "contractor": "Waste Pro",
    "rowid": "1048307",
    "final_x": "3720531.74911",
    "final_y": "574364.021931",
    "longitude": "-89.94318242794927",
    "latitude": "30.072056904786702",
    "geocoded_column": {
      "latitude": "30.072056904786702",
      "longitude": "-89.94318242794927"
    }
  },
  {
    "service_request": "2023-1048306",
    "request_type": "Trash/Recycling",
    "request_reason": "Order Trash Cart",
    "date_created": "2023-11-06T12:03:25.000",
    "date_modified": "2023-11-06T12:03:26.000",
    "request_status": "Pending",
    "responsible_agency": "Department of Sanitation",
    "final_address": "2706 General Pershing St Apt A",
    "address_councildis": "B",
    "status": "Assigned to Contractor",
    "contractor": "Richards Disposal",
    "rowid": "1048306",
    "final_x": "3670818.31726",
    "final_y": "524850.096252",
    "longitude": "-90.10202563613112",
    "latitude": "29.937475626783105",
    "geocoded_column": {
      "latitude": "29.937475626783105",
      "longitude": "-90.10202563613112"
    }
  },
  {
    "service_request": "2023-1048305",
    "request_type": "Trash/Recycling",
    "request_reason": "Order Recycling Cart",
    "date_created": "2023-11-06T12:02:09.000",
    "date_modified": "2023-11-06T12:02:09.000",
    "request_status": "Pending",
    "responsible_agency": "Department of Sanitation",
    "final_address": "1846 Pauline St",
    "address_councildis": "D",
    "status": "Pending",
    "rowid": "1048305",
    "final_x": "3691907.71484",
    "final_y": "538426.148937",
    "longitude": "-90.0349595340757",
    "latitude": "29.97416505820761",
    "geocoded_column": {
      "latitude": "29.97416505820761",
      "longitude": "-90.0349595340757"
    }
  },
  {
    "service_request": "2023-1048304",
    "request_type": "Trash/Recycling",
    "request_reason": "Order Recycling Cart",
    "date_created": "2023-11-06T12:00:32.000",
    "date_modified": "2023-11-06T12:00:32.000",
    "request_status": "Pending",
    "responsible_agency": "Department of Sanitation",
    "final_address": "3049 Burgundy St",
    "address_councildis": "C",
    "status": "Pending",
    "rowid": "1048304",
    "final_x": "3688623.96239",
    "final_y": "535288.808966",
    "longitude": "-90.04544172013118",
    "latitude": "29.965640376380243",
    "geocoded_column": {
      "latitude": "29.965640376380243",
      "longitude": "-90.04544172013118"
    }
  },
  {
    "service_request": "2023-1048303",
    "request_type": "Trash/Recycling",
    "request_reason": "Return Trash Cart",
    "date_created": "2023-11-06T12:00:09.000",
    "date_modified": "2023-11-06T12:00:10.000",
    "request_status": "Pending",
    "responsible_agency": "Department of Sanitation",
    "final_address": "2127 N Rampart St",
    "address_councildis": "C",
    "status": "Assigned to Contractor",
    "contractor": "IV Waste",
    "rowid": "1048303",
    "final_x": "3684859.06453",
    "final_y": "535973.635271",
    "longitude": "-90.05730701630216",
    "latitude": "29.96763923000135",
    "geocoded_column": {
      "latitude": "29.96763923000135",
      "longitude": "-90.05730701630216"
    }
  },
  {
    "service_request": "2023-1048302",
    "request_type": "Trash/Recycling",
    "request_reason": "Illegal Dumping",
    "date_created": "2023-11-06T11:55:44.000",
    "date_modified": "2023-11-06T11:55:44.000",
    "request_status": "Pending",
    "responsible_agency": "Department of Sanitation",
    "final_address": "1425 Shirley Dr",
    "address_councildis": "C",
    "status": "Pending",
    "rowid": "1048302",
    "final_x": "3693002.03792",
    "final_y": "525816.525885",
    "longitude": "-90.03195572167908",
    "latitude": "29.93945885941",
    "geocoded_column": {
      "latitude": "29.93945885941",
      "longitude": "-90.03195572167908"
    }
  },
  {
    "service_request": "2023-1048301",
    "request_type": "Trash/Recycling",
    "request_reason": "Order Recycling Cart",
    "date_created": "2023-11-06T11:52:00.000",
    "date_modified": "2023-11-06T11:52:00.000",
    "request_status": "Pending",
    "responsible_agency": "Department of Sanitation",
    "final_address": "1602 Ursulines Ave",
    "address_councildis": "D",
    "status": "Pending",
    "rowid": "1048301",
    "final_x": "3680913.62543",
    "final_y": "535548.700998",
    "longitude": "-90.06978160008182",
    "latitude": "29.96659102852155",
    "geocoded_column": {
      "latitude": "29.96659102852155",
      "longitude": "-90.06978160008182"
    }
  },
  {
    "service_request": "2023-1048300",
    "request_type": "Trash/Recycling",
    "request_reason": "MIssed Recycling Pick-Up",
    "date_created": "2023-11-06T11:45:19.000",
    "date_modified": "2023-11-06T11:45:20.000",
    "request_status": "Pending",
    "responsible_agency": "Department of Sanitation",
    "final_address": "705 Patterson St",
    "address_councildis": "C",
    "status": "Assigned to Contractor",
    "contractor": "Richards Disposal",
    "rowid": "1048300",
    "final_x": "3687673.99535",
    "final_y": "531408.048899",
    "longitude": "-90.04857908142694",
    "latitude": "29.954998954409437",
    "geocoded_column": {
      "latitude": "29.954998954409437",
      "longitude": "-90.04857908142694"
    }
  },
  {
    "service_request": "2023-1048299",
    "request_type": "Trash/Recycling",
    "request_reason": "Replace Trash Cart",
    "date_created": "2023-11-06T11:45:05.000",
    "date_modified": "2023-11-06T11:45:06.000",
    "request_status": "Pending",
    "responsible_agency": "Department of Sanitation",
    "final_address": "425 Decatur St",
    "address_councildis": "C",
    "status": "Assigned to Contractor",
    "contractor": "Empire Services",
    "rowid": "1048299",
    "final_x": "3682597.02594",
    "final_y": "531312.695234",
    "longitude": "-90.06461356014876",
    "latitude": "29.954892311224285",
    "geocoded_column": {
      "latitude": "29.954892311224285",
      "longitude": "-90.06461356014876"
    }
  },
  {
    "service_request": "2023-1048298",
    "request_type": "Trash/Recycling",
    "request_reason": "Request a Large Item Pick Up",
    "date_created": "2023-11-06T11:44:42.000",
    "date_modified": "2023-11-06T11:44:42.000",
    "request_status": "Pending",
    "responsible_agency": "Department of Sanitation",
    "final_address": "2356 N Robertson St",
    "address_councildis": "C",
    "status": "Assigned to Contractor",
    "contractor": "IV Waste",
    "rowid": "1048298",
    "final_x": "3686154.94038",
    "final_y": "537841.769737",
    "longitude": "-90.05314870463762",
    "latitude": "29.972736204191648",
    "geocoded_column": {
      "latitude": "29.972736204191648",
      "longitude": "-90.05314870463762"
    }
  },