[
  {
    "service_request": "2022-925400",
    "request_type": "Taxi Issues",
    "request_reason": "Taxi Lost & Found Item",
    "date_created": "2022-10-03T01:01:13.000",
    "date_modified": "2022-10-03T01:01:13.000",
    "request_status": "Pending",
    "responsible_agency": "Ground Transportation Bureau",
    "final_address": "730 Dumaine St",
    "address_councildis": "C",
    "status": "Pending",
    "rowid": "925400",
    "final_x": "3682772.97532",
    "final_y": "533182.370372",
    "longitude": "-90.06399257898622",
    "latitude": "29.96002792246444",
    "geocoded_column": {
      "latitude": "29.96002792246444",
      "longitude": "-90.06399257898622"
    }
  },
  {
    "service_request": "2022-925399",
    "request_type": "Traffic Signals/Signs/Striping/Streetlights",
    "request_reason": "Street Light Outage/Malfunction",
    "date_created": "2022-10-02T23:53:12.000",
    "date_modified": "2022-10-02T23:53:13.000",
    "request_status": "Pending",
    "responsible_agency": "Department of Public Works",
    "final_address": "10201 Castlewood Dr",
    "address_councildis": "E",
    "status": "Pending",
    "contractor": "Legacy Professional Services",
    "rowid": "925399",
    "final_x": "3709089.102",
    "final_y": "564598.472737",
    "longitude": "-89.97972080046763",
    "latitude": "30.045582365439905",
    "geocoded_column": {
      "latitude": "30.045582365439905",
      "longitude": "-89.97972080046763"
    }
  },
  {
    "service_request": "2022-925398",
    "request_type": "Trash/Recycling",
    "request_reason": "MIssed Recycling Pick-Up",
    "date_created": "2022-10-02T23:13:46.000",
    "date_modified": "2022-10-02T23:13:47.000",
    "request_status": "Pending",
    "responsible_agency": "Department of Sanitation",
    "final_address": "3625 Joliet St",
    "address_councildis": "A",
    "status": "Assigned to Contractor",
    "contractor": "Richards Disposal",
    "rowid": "925398",
    "final_x": "3666835.76935",
    "final_y": "535790.653767",
    "longitude": "-90.11423137853515",
    "latitude": "29.967675667852692",
    "geocoded_column": {
      "latitude": "29.967675667852692",
      "longitude": "-90.11423137853515"
    }
  },
  {
    "service_request": "2022-925397",
    "request_type": "Health Related Questions",
    "request_reason": "Noise Ordinance Complaint",
    "date_created": "2022-10-02T23:12:31.000",
    "date_modified": "2022-10-02T23:12:31.000",
    "request_status": "Pending",
    "responsible_agency": "Health Department",
    "final_address": "1500 N Claiborne Ave",
    "address_councildis": "C",
    "status": "Pending",
    "rowid": "925397",
    "final_x": "3681846.67516",
    "final_y": "537148.826504",
    "longitude": "-90.0667791844965",
    "latitude": "29.970962498120493",
    "geocoded_column": {
      "latitude": "29.970962498120493",
      "longitude": "-90.0667791844965"
    }
  },
  {
    "service_request": "2022-925396",
    "request_type": "Abandoned Vehicles",
    "request_reason": "Abandoned/Junk Vehicles",
    "date_created": "2022-10-02T23:03:37.000",
    "date_modified": "2022-10-02T23:03:37.000",
    "request_status": "Pending",
    "responsible_agency": "Department of Public Works",
    "final_address": "4760 Franklin Ave",
    "address_councildis": "D",
    "status": "Pending",
    "rowid": "925396",
    "final_x": "3686731.12207",
    "final_y": "550798.750677",
    "longitude": "-90.05087102435674",
    "latitude": "30.008345556834186",
    "geocoded_column": {
      "latitude": "30.008345556834186",
      "longitude": "-90.05087102435674"
    }
  },
  {
    "service_request": "2022-925395",
    "request_type": "Roads/Drainage",
    "request_reason": "Debris in Roadway",
    "date_created": "2022-10-02T22:10:24.000",
    "date_modified": "2022-10-02T22:10:24.000",
    "request_status": "Pending",
    "responsible_agency": "Department of Public Works",
    "final_address": "5414 Macarthur Blvd",
    "address_councildis": "C",
    "status": "Pending",
    "rowid": "925395",
    "final_x": "3704073.96913",
    "final_y": "519660.39564",
    "longitude": "-89.99722706639425",
    "latitude": "29.922181241680395",
    "geocoded_column": {
      "latitude": "29.922181241680395",
      "longitude": "-89.99722706639425"
    }
  },
  {
    "service_request": "2022-925394",
    "request_type": "Trash/Recycling",
    "request_reason": "Request a Large Item Pick Up",
    "date_created": "2022-10-02T21:44:32.000",
    "date_modified": "2022-10-02T21:44:32.000",
    "request_status": "Pending",
    "responsible_agency": "Department of Sanitation",
    "final_address": "921 N Galvez St",
    "address_councildis": "D",
    "status": "Assigned to Contractor",
    "contractor": "Richards Disposal",
    "rowid": "925394",
    "final_x": "3678824.52366",
    "final_y": "536463.660103",
    "longitude": "-90.07634726837881",
    "latitude": "29.96917003232504",
    "geocoded_column": {
      "latitude": "29.96917003232504",
      "longitude": "-90.07634726837881"
    }
  },
  {
    "service_request": "2022-925393",
    "request_type": "Trash/Recycling",
    "request_reason": "Request a Large Item Pick Up",
    "date_created": "2022-10-02T20:55:38.000",
    "date_modified": "2022-10-02T20:55:39.000",
    "request_status": "Pending",
    "responsible_agency": "Department of Sanitation",
    "final_address": "4234 Ulloa St",
    "address_councildis": "A",
    "status": "Assigned to Contractor",
    "contractor": "Richards Disposal",
    "rowid": "925393",
    "final_x": "3668898.2418",
    "final_y": "537014.269256",
    "longitude": "-90.10767668441316",
    "latitude": "29.970979703560968",
    "geocoded_column": {
      "latitude": "29.970979703560968",
      "longitude": "-90.10767668441316"
    }
  },
  {
    "service_request": "2022-925392",
    "request_type": "Trash/Recycling",
    "request_reason": "Illegal Dumping",
    "date_created": "2022-10-02T20:09:52.000",
    "date_modified": "2022-10-02T20:10:59.000",
    "request_status": "Pending",
    "responsible_agency": "Department of Code Enforcement",
    "final_address": "3020 BLK Rue Parc Fontaine",
    "address_councildis": "C",
    "status": "Pending",
    "rowid": "925392",
    "final_x": "3700179.05203",
    "final_y": "519428.286719",
    "longitude": "-90.00953009239862",
    "latitude": "29.921667327849818",
    "geocoded_column": {
      "latitude": "29.921667327849818",
      "longitude": "-90.00953009239862"
    }
  },
  {
    "service_request": "2022-925391",
    "request_type": "Traffic Signals/Signs/Striping/Streetlights",
    "request_reason": "Traffic Signal Malfunctioning/Damaged",
    "date_created": "2022-10-02T19:54:58.000",
    "date_modified": "2022-10-02T19:54:58.000",
    "request_status": "Pending",
    "responsible_agency": "Department of Public Works",
    "final_address": "1601 Magazine St",
    "address_councildis": "B",
    "status": "Pending",
    "rowid": "925391",
    "final_x": "3679986.73013",
    "final_y": "523100.633595",
    "longitude": "-90.07314106656567",
    "latitude": "29.932391092561822",
    "geocoded_column": {
      "latitude": "29.932391092561822",
      "longitude": "-90.07314106656567"
    }
  },
  {
    "service_request": "2022-925390",
    "request_type": "Property Maintenance",
    "request_reason": "Property Maintenance",
    "date_created": "2022-10-02T19:07:15.000",
    "date_modified": "2022-10-02T19:07:15.000",
    "request_status": "Pending",
    "responsible_agency": "Department of Code Enforcement",
    "final_address": "3724 Meadow Park Ln",
    "address_councildis": "C",
    "status": "Pending",
    "rowid": "925390",
    "final_x": "3703776.46193",
    "final_y": "510714.503535",
    "longitude": "-89.99849512752554",
    "latitude": "29.897592630145482",
    "geocoded_column": {
      "latitude": "29.897592630145482",
      "longitude": "-89.99849512752554"
    }
  },
  {
    "service_request": "2022-925389",
    "request_type": "Abandoned Vehicles",
    "request_reason": "Abandoned/Junk Vehicles",
    "date_created": "2022-10-02T19:04:19.000",
    "date_modified": "2022-10-02T19:04:19.000",
    "request_status": "Pending",
    "responsible_agency": "Department of Public Works",
    "final_address": "3738 Timber Bluff Ln",
    "address_councildis": "C",
    "status": "Pending",
    "rowid": "925389",
    "final_x": "3703996.17809",
    "final_y": "510640.108975",
    "longitude": "-89.99780448708086",
    "latitude": "29.897381030412195",
    "geocoded_column": {
      "latitude": "29.897381030412195",
      "longitude": "-89.99780448708086"
    }
  },
  {
    "service_request": "2022-925388",
    "request_type": "Abandoned Vehicles",
    "request_reason": "Abandoned/Junk Vehicles",
    "date_created": "2022-10-02T19:01:40.000",
    "date_modified": "2022-10-02T19:01:40.000",
    "request_status": "Pending",
    "responsible_agency": "Department of Public Works",
    "final_address": "5242 Forest Park Ln",
    "address_councildis": "C",
    "status": "Pending",
    "rowid": "925388",
    "final_x": "3703967.9219",
    "final_y": "510543.702127",
    "longitude": "-89.99789720314857",
    "latitude": "29.897116849661245",
    "geocoded_column": {
      "latitude": "29.897116849661245",
      "longitude": "-89.99789720314857"
    }
  },
  {
    "service_request": "2022-925387",
    "request_type": "Traffic Signals/Signs/Striping/Streetlights",
    "request_reason": "Street Light Outage/Malfunction",
    "date_created": "2022-10-02T18:55:59.000",
    "date_modified": "2022-10-02T18:56:00.000",
    "request_status": "Pending",
    "responsible_agency": "Department of Public Works",
    "final_address": "6361 Louisville St",
    "address_councildis": "A",
    "status": "Pending",
    "contractor": "Legacy Professional Services",
    "rowid": "925387",
    "final_x": "3668066.15316",
    "final_y": "549814.744788",
    "longitude": "-90.10987289640458",
    "latitude": "30.006201090675304",
    "geocoded_column": {
      "latitude": "30.006201090675304",
      "longitude": "-90.10987289640458"
    }
  },
  {
    "service_request": "2022-925386",
    "request_type": "Health Related Questions",
    "request_reason": "Noise Ordinance Complaint",
    "date_created": "2022-10-02T18:50:00.000",
    "date_modified": "2022-10-02T18:50:00.000",
    "request_status": "Pending",
    "responsible_agency": "Health Department",
    "final_address": "550 Baronne St, New Orleans, Louisiana, 70113",
    "address_councildis": "B",
    "status": "Pending",
    "rowid": "925386",
    "final_x": "3679871.27515",
    "final_y": "529133.143296",
    "longitude": "-90.07329612681656",
    "latitude": "29.948981981496516",
    "geocoded_column": {
      "latitude": "29.948981981496516",
      "longitude": "-90.07329612681656"
    }
  },
  {
    "service_request": "2022-925385",
    "request_type": "Trash/Recycling",
    "request_reason": "Replace Trash Cart",
    "date_created": "2022-10-02T18:33:52.000",
    "date_modified": "2022-10-02T18:33:53.000",
    "request_status": "Pending",
    "responsible_agency": "Department of Sanitation",
    "final_address": "6019 Charlotte Dr",
    "address_councildis": "D",
    "status": "Assigned to Contractor",
    "contractor": "Metro Disposal",
    "rowid": "925385",
    "final_x": "3679970.27023",
    "final_y": "554642.173208",
    "longitude": "-90.07209701216085",
    "latitude": "30.01911991074156",
    "geocoded_column": {
      "latitude": "30.01911991074156",
      "longitude": "-90.07209701216085"
    }
  },
  {
    "service_request": "2022-925384",
    "request_type": "Property Maintenance",
    "request_reason": "Property Maintenance",
    "date_created": "2022-10-02T18:12:44.000",
    "date_modified": "2022-10-02T18:12:44.000",
    "request_status": "Pending",
    "responsible_agency": "Department of Code Enforcement",
    "final_address": "4041 Tulane Ave",
    "address_councildis": "A",
    "status": "Pending",
    "rowid": "925384",
    "final_x": "3669643.28628",
    "final_y": "536226.881159",
    "longitude": "-90.10535037982294",
    "latitude": "29.96879271575841",
    "geocoded_column": {
      "latitude": "29.96879271575841",
      "longitude": "-90.10535037982294"
    }
  },
  {
    "service_request": "2022-925383",
    "request_type": "Property Maintenance",
    "request_reason": "Property Maintenance",
    "date_created": "2022-10-02T18:11:45.000",
    "date_modified": "2022-10-02T18:11:45.000",
    "request_status": "Pending",
    "responsible_agency": "Department of Code Enforcement",
    "final_address": "4118 S Carrollton Ave",
    "address_councildis": "A",
    "status": "Pending",
    "rowid": "925383",
    "final_x": "3669537.0779",
    "final_y": "536403.305927",
    "longitude": "-90.10567982388267",
    "latitude": "29.96928095415532",
    "geocoded_column": {
      "latitude": "29.96928095415532",
      "longitude": "-90.10567982388267"
    }
  },
  {
    "service_request": "2022-925382",
    "request_type": "Property Maintenance",
    "request_reason": "Property Maintenance",
    "date_created": "2022-10-02T18:10:18.000",
    "date_modified": "2022-10-02T18:10:18.000",
    "request_status": "Pending",
    "responsible_agency": "Department of Code Enforcement",
    "final_address": "4052 Ulloa St",
    "address_councildis": "A",
    "status": "Pending",
    "rowid": "925382",
    "final_x": "3669677.65748",
    "final_y": "536391.234887",
    "longitude": "-90.10523627017909",
    "latitude": "29.96924362063183",
    "geocoded_column": {
      "latitude": "29.96924362063183",
      "longitude": "-90.10523627017909"
    }
  },
  {
    "service_request": "2022-925380",
    "request_type": "Property Maintenance",
    "request_reason": "Property Maintenance",
    "date_created": "2022-10-02T18:09:23.000",
    "date_modified": "2022-10-02T18:09:23.000",
    "request_status": "Pending",
    "responsible_agency": "Department of Code Enforcement",
    "final_address": "4044 Ulloa St",
    "address_councildis": "A",
    "status": "Pending",
    "rowid": "925380",
    "final_x": "3669728.88967",
    "final_y": "536366.720263",
    "longitude": "-90.10507530450072",
    "latitude": "29.969174703683215",
    "geocoded_column": {
      "latitude": "29.969174703683215",
      "longitude": "-90.10507530450072"
    }
  },
  {
    "service_request": "2022-925379",
    "request_type": "Property Maintenance",
    "request_reason": "Property Maintenance",
    "date_created": "2022-10-02T18:08:44.000",
    "date_modified": "2022-10-02T18:08:44.000",
    "request_status": "Pending",
    "responsible_agency": "Department of Code Enforcement",
    "final_address": "4051 Tulane Ave",
    "address_councildis": "A",
    "status": "Pending",
    "rowid": "925379",
    "final_x": "3669602.0962",
    "final_y": "536274.100551",
    "longitude": "-90.10547886301586",
    "latitude": "29.96892376700848",
    "geocoded_column": {
      "latitude": "29.96892376700848",
      "longitude": "-90.10547886301586"
    }
  },
  {
    "service_request": "2022-925378",
    "request_type": "Property Maintenance",
    "request_reason": "Property Maintenance",
    "date_created": "2022-10-02T18:07:39.000",
    "date_modified": "2022-10-02T18:07:39.000",
    "request_status": "Pending",
    "responsible_agency": "Department of Code Enforcement",
    "final_address": "4041 Tulane Ave",
    "address_councildis": "A",
    "status": "Pending",
    "rowid": "925378",
    "final_x": "3669643.28628",
    "final_y": "536226.881159",
    "longitude": "-90.10535037982294",
    "latitude": "29.96879271575841",
    "geocoded_column": {
      "latitude": "29.96879271575841",
      "longitude": "-90.10535037982294"
    }
  },
  {
    "service_request": "2022-925377",
    "request_type": "Property Maintenance",
    "request_reason": "Property Maintenance",
    "date_created": "2022-10-02T18:06:47.000",
    "date_modified": "2022-10-02T18:06:47.000",
    "request_status": "Pending",
    "responsible_agency": "Department of Code Enforcement",
    "final_address": "4040 Ulloa St",
    "address_councildis": "A",
    "status": "Pending",
    "rowid": "925377",
    "final_x": "3669759.87713",
    "final_y": "536342.901703",
    "longitude": "-90.10497824994674",
    "latitude": "29.969108297243295",
    "geocoded_column": {
      "latitude": "29.969108297243295",
      "longitude": "-90.10497824994674"
    }
  },
  {
    "service_request": "2022-925376",
    "request_type": "Abandoned Vehicles",
    "request_reason": "Abandoned/Junk Vehicles",
    "date_created": "2022-10-02T17:56:56.000",
    "date_modified": "2022-10-02T17:56:56.000",
    "request_status": "Pending",
    "responsible_agency": "Department of Public Works",
    "final_address": "1201 Farragut St",
    "address_councildis": "C",
    "status": "Pending",
    "rowid": "925376",
    "final_x": "3692326.33347",
    "final_y": "526881.288766",
    "longitude": "-90.03405088407331",
    "latitude": "29.94240767668299",
    "geocoded_column": {
      "latitude": "29.94240767668299",
      "longitude": "-90.03405088407331"
    }
  },
  {
    "service_request": "2022-925375",
    "request_type": "Trash/Recycling",
    "request_reason": "Start Trash Service",
    "date_created": "2022-10-02T17:48:42.000",
    "date_modified": "2022-10-02T17:48:43.000",
    "request_status": "Pending",
    "responsible_agency": "Department of Sanitation",
    "final_address": "1233 St Bernard Ave",
    "address_councildis": "C",
    "status": "Assigned to Contractor",
    "contractor": "Metro Disposal",
    "rowid": "925375",
    "final_x": "3683008.80783",
    "final_y": "536407.313031",
    "longitude": "-90.06313498291263",
    "latitude": "29.968888220370644",
    "geocoded_column": {
      "latitude": "29.968888220370644",
      "longitude": "-90.06313498291263"
    }
  },
  {
    "service_request": "2022-925374",
    "request_type": "Trash/Recycling",
    "request_reason": "Order Trash Cart",
    "date_created": "2022-10-02T17:47:23.000",
    "date_modified": "2022-10-02T17:47:24.000",
    "request_status": "Pending",
    "responsible_agency": "Department of Sanitation",
    "final_address": "1233 St Bernard Ave",
    "address_councildis": "C",
    "status": "Assigned to Contractor",
    "contractor": "Metro Disposal",
    "rowid": "925374",
    "final_x": "3683008.80783",
    "final_y": "536407.313031",
    "longitude": "-90.06313498291263",
    "latitude": "29.968888220370644",
    "geocoded_column": {
      "latitude": "29.968888220370644",
      "longitude": "-90.06313498291263"
    }
  },
  {
    "service_request": "2022-925373",
    "request_type": "Trash/Recycling",
    "request_reason": "Order Recycling Cart",
    "date_created": "2022-10-02T17:46:15.000",
    "date_modified": "2022-10-02T17:46:15.000",
    "request_status": "Pending",
    "responsible_agency": "Department of Sanitation",
    "final_address": "1233 St Bernard Ave",
    "address_councildis": "C",
    "status": "Pending",
    "rowid": "925373",
    "final_x": "3683008.80783",
    "final_y": "536407.313031",
    "longitude": "-90.06313498291263",
    "latitude": "29.968888220370644",
    "geocoded_column": {
      "latitude": "29.968888220370644",
      "longitude": "-90.06313498291263"
    }
  },
  {
    "service_request": "2022-925372",
    "request_type": "Trash/Recycling",
    "request_reason": "Request a Large Item Pick Up",
    "date_created": "2022-10-02T17:27:56.000",
    "date_modified": "2022-10-02T17:27:57.000",
    "request_status": "Pending",
    "responsible_agency": "Department of Sanitation",
    "final_address": "500 S Norman C Francis Prkwy",
    "address_councildis": "B",
    "status": "Assigned to Contractor",
    "contractor": "Richards Disposal",
    "rowid": "925372",
    "final_x": "3672321.93287",
    "final_y": "535319.025094",
    "longitude": "-90.09692197070544",
    "latitude": "29.966217211138765",
    "geocoded_column": {
      "latitude": "29.966217211138765",
      "longitude": "-90.09692197070544"
    }
  },
  {
    "service_request": "2022-925371",
    "request_type": "Trash/Recycling",
    "request_reason": "Request a Large Item Pick Up",
    "date_created": "2022-10-02T17:25:35.000",
    "date_modified": "2022-10-02T17:25:35.000",
    "request_status": "Pending",
    "responsible_agency": "Department of Sanitation",
    "final_address": "5323 Timber Haven Ln",
    "address_councildis": "C",
    "status": "Assigned to Contractor",
    "contractor": "Richards Disposal",
    "rowid": "925371",
    "final_x": "3703861.90628",
    "final_y": "511327.259056",
    "longitude": "-89.99820295173951",
    "latitude": "29.89927476360019",
    "geocoded_column": {
      "latitude": "29.89927476360019",
      "longitude": "-89.99820295173951"
    }
  },
  {
    "service_request": "2022-925370",
    "request_type": "Trash/Recycling",
    "request_reason": "Missed Trash Pick-Up",
    "date_created": "2022-10-02T17:14:53.000",
    "date_modified": "2022-10-02T17:14:53.000",
    "request_status": "Pending",
    "responsible_agency": "Department of Sanitation",
    "final_address": "11279 Winrock Dr",
    "address_councildis": "E",
    "status": "Assigned to Contractor",
    "contractor": "Metro Disposal",
    "rowid": "925370",
    "final_x": "3716623.39077",
    "final_y": "561681.751519",
    "longitude": "-89.9560198206519",
    "latitude": "30.037315684746805",
    "geocoded_column": {
      "latitude": "30.037315684746805",
      "longitude": "-89.9560198206519"
    }
  },
  {
    "service_request": "2022-925369",
    "request_type": "Roads/Drainage",
    "request_reason": "Catch Basin - Clogged",
    "date_created": "2022-10-02T17:12:28.000",
    "date_modified": "2022-10-02T17:12:28.000",
    "request_status": "Pending",
    "responsible_agency": "Department of Public Works",
    "final_address": "2615 Ap Tureaud Ave",
    "address_councildis": "D",
    "status": "Pending",
    "rowid": "925369",
    "final_x": "3681667.1709",
    "final_y": "541722.23022",
    "longitude": "-90.0671864830669",
    "latitude": "29.983543222375598",
    "geocoded_column": {
      "latitude": "29.983543222375598",
      "longitude": "-90.0671864830669"
    }
  },
  {
    "service_request": "2022-925368",
    "request_type": "Abandoned Vehicles",
    "request_reason": "Abandoned/Junk Vehicles",
    "date_created": "2022-10-02T17:12:11.000",
    "date_modified": "2022-10-02T17:12:11.000",
    "request_status": "Pending",
    "responsible_agency": "Department of Public Works",
    "final_address": "940 Congress St",
    "address_councildis": "C",
    "status": "Pending",
    "rowid": "925368",
    "final_x": "3690579.41193",
    "final_y": "535115.642374",
    "longitude": "-90.0392726843571",
    "latitude": "29.965103650243623",
    "geocoded_column": {
      "latitude": "29.965103650243623",
      "longitude": "-90.0392726843571"
    }
  },
  {
    "service_request": "2022-925367",
    "request_type": "Abandoned Vehicles",
    "request_reason": "Abandoned/Junk Vehicles",
    "date_created": "2022-10-02T17:02:14.000",
    "date_modified": "2022-10-02T17:05:13.000",
    "request_status": "Pending",
    "responsible_agency": "Department of Public Works",
    "final_address": "1713 S Norman C Francis Prkwy",
    "address_councildis": "B",
    "status": "Pending",
    "rowid": "925367",
    "final_x": "3669183.17729",
    "final_y": "530910.119746",
    "longitude": "-90.1069831405983",
    "latitude": "29.954186933437096",
    "geocoded_column": {
      "latitude": "29.954186933437096",
      "longitude": "-90.1069831405983"
    }
  },
  {
    "service_request": "2022-925366",
    "request_type": "Trash/Recycling",
    "request_reason": "Illegal Dumping",
    "date_created": "2022-10-02T16:34:08.000",
    "date_modified": "2022-10-02T16:34:08.000",
    "request_status": "Closed",
    "responsible_agency": "Department of Sanitation",
    "final_address": "4219 N Claiborne Ave",
    "address_councildis": "D",
    "status": "Resolved",
    "rowid": "925366",
    "final_x": "3693026.99401",
    "final_y": "537022.488136",
    "longitude": "-90.03147497410414",
    "latitude": "29.97027056918445",
    "geocoded_column": {
      "latitude": "29.97027056918445",
      "longitude": "-90.03147497410414"
    }
  },
  {
    "service_request": "2022-925365",
    "request_type": "Property Maintenance",
    "request_reason": "Property Maintenance",
    "date_created": "2022-10-02T16:26:35.000",
    "date_modified": "2022-10-02T16:26:35.000",
    "request_status": "Pending",
    "responsible_agency": "Department of Code Enforcement",
    "final_address": "13116 Wales St",
    "address_councildis": "E",
    "status": "Pending",
    "rowid": "925365",
    "final_x": "3716101.65503",
    "final_y": "570726.053479",
    "longitude": "-89.95732537375423",
    "latitude": "30.062201047333513",
    "geocoded_column": {
      "latitude": "30.062201047333513",
      "longitude": "-89.95732537375423"
    }
  },
  {
    "service_request": "2022-925364",
    "request_type": "Property Maintenance",
    "request_reason": "Property Maintenance",
    "date_created": "2022-10-02T16:13:34.000",
    "date_modified": "2022-10-02T16:53:58.000",
    "request_status": "Pending",
    "responsible_agency": "Department of Code Enforcement",
    "final_address": "1128 Leboeuf St",
    "address_councildis": "C",
    "status": "Pending",
    "rowid": "925364",
    "final_x": "3689785.34774",
    "final_y": "527147.528447",
    "longitude": "-90.0420638512203",
    "latitude": "29.94321872518187",
    "geocoded_column": {
      "latitude": "29.94321872518187",
      "longitude": "-90.0420638512203"
    }
  },
  {
    "service_request": "2022-925363",
    "request_type": "Trash/Recycling",
    "request_reason": "Request a Large Item Pick Up",
    "date_created": "2022-10-02T16:00:16.000",
    "date_modified": "2022-10-02T16:00:17.000",
    "request_status": "Pending",
    "responsible_agency": "Department of Sanitation",
    "final_address": "2203 Palmer Ave",
    "address_councildis": "A",
    "status": "Assigned to Contractor",
    "contractor": "Richards Disposal",
    "rowid": "925363",
    "final_x": "3666154.34241",
    "final_y": "524950.004285",
    "longitude": "-90.11674683871095",
    "latitude": "29.93788732756657",
    "geocoded_column": {
      "latitude": "29.93788732756657",
      "longitude": "-90.11674683871095"
    }
  },
  {
    "service_request": "2022-925362",
    "request_type": "Abandoned Vehicles",
    "request_reason": "Abandoned/Junk Vehicles",
    "date_created": "2022-10-02T15:54:52.000",
    "date_modified": "2022-10-02T15:54:52.000",
    "request_status": "Pending",
    "responsible_agency": "Department of Public Works",
    "final_address": "2400 Delachaise St",
    "address_councildis": "B",
    "status": "Pending",
    "rowid": "925362",
    "final_x": "3672624.57492",
    "final_y": "524036.323068",
    "longitude": "-90.09635087823251",
    "latitude": "29.93518452033321",
    "geocoded_column": {
      "latitude": "29.93518452033321",
      "longitude": "-90.09635087823251"
    }
  },
  {
    "service_request": "2022-925361",
    "request_type": "Trash/Recycling",
    "request_reason": "Request a Large Item Pick Up",
    "date_created": "2022-10-02T15:46:38.000",
    "date_modified": "2022-10-02T15:46:39.000",
    "request_status": "Pending",
    "responsible_agency": "Department of Sanitation",
    "final_address": "2415 Lapeyrouse St",
    "address_councildis": "D",
    "status": "Assigned to Contractor",
    "contractor": "Metro Disposal",
    "rowid": "925361",
    "final_x": "3679846.17979",
    "final_y": "539618.148426",
    "longitude": "-90.07301123054911",
    "latitude": "29.977812931267877",
    "geocoded_column": {
      "latitude": "29.977812931267877",
      "longitude": "-90.07301123054911"
    }
  },
  {
    "service_request": "2022-925360",
    "request_type": "Trash/Recycling",
    "request_reason": "Missed Trash Pick-Up",
    "date_created": "2022-10-02T15:04:22.000",
    "date_modified": "2022-10-02T15:12:45.000",
    "request_status": "Pending",
    "responsible_agency": "Department of Sanitation",
    "final_address": "8526 Palmetto St",
    "address_councildis": "A",
    "status": "Assigned to Contractor",
    "contractor": "Richards Disposal",
    "rowid": "925360",
    "final_x": "3666853.36359",
    "final_y": "536228.979655",
    "longitude": "-90.11416108692225",
    "latitude": "29.968880403789182",
    "geocoded_column": {
      "latitude": "29.968880403789182",
      "longitude": "-90.11416108692225"
    }
  },
  {
    "service_request": "2022-925359",
    "request_type": "Roads/Drainage",
    "request_reason": "Man hole cover issue",
    "date_created": "2022-10-02T14:36:55.000",
    "date_modified": "2022-10-02T14:36:56.000",
    "request_status": "Pending",
    "responsible_agency": "Department of Public Works",
    "final_address": "S MURAT ST & PALMYRA ST",
    "address_councildis": "A",
    "status": "Pending",
    "rowid": "925359",
    "final_x": "3669227.5",
    "final_y": "538766.18",
    "longitude": "-90.10657760642857",
    "latitude": "29.975787181315777",
    "geocoded_column": {
      "latitude": "29.975787181315777",
      "longitude": "-90.10657760642857"
    }
  },
  {
    "service_request": "2022-925358",
    "request_type": "Property Maintenance",
    "request_reason": "Property Maintenance",
    "date_created": "2022-10-02T14:04:17.000",
    "date_modified": "2022-10-02T14:04:17.000",
    "request_status": "Pending",
    "responsible_agency": "Department of Code Enforcement",
    "final_address": "10880 Morrison Rd",
    "address_councildis": "E",
    "status": "Pending",
    "rowid": "925358",
    "final_x": "3710874.24664",
    "final_y": "564678.834402",
    "longitude": "-89.97407590688428",
    "latitude": "30.045745221820557",
    "geocoded_column": {
      "latitude": "30.045745221820557",
      "longitude": "-89.97407590688428"
    }
  },
  {
    "service_request": "2022-925357",
    "request_type": "Traffic Signals/Signs/Striping/Streetlights",
    "request_reason": "Street Light Knocked Down/Leaning",
    "date_created": "2022-10-02T12:50:19.000",
    "date_modified": "2022-10-02T12:50:20.000",
    "request_status": "Pending",
    "responsible_agency": "Department of Public Works",
    "final_address": "700 Fulton St",
    "address_councildis": "B",
    "status": "Pending",
    "contractor": "Legacy Professional Services",
    "rowid": "925357",
    "final_x": "3682366.08399",
    "final_y": "527998.300607",
    "longitude": "-90.06545858861404",
    "latitude": "29.945785874841356",
    "geocoded_column": {
      "latitude": "29.945785874841356",
      "longitude": "-90.06545858861404"
    }
  },
  {
    "service_request": "2022-925356",
    "request_type": "Traffic Signals/Signs/Striping/Streetlights",
    "request_reason": "Request for Stop Sign",
    "date_created": "2022-10-02T12:47:14.000",
    "date_modified": "2022-10-02T12:47:14.000",
    "request_status": "Pending",
    "responsible_agency": "Department of Public Works",
    "final_address": "700 S Peters St",
    "address_councildis": "B",
    "status": "Pending",
    "rowid": "925356",
    "final_x": "3682279.14312",
    "final_y": "527966.560575",
    "longitude": "-90.06573419823657",
    "latitude": "29.945701245317867",
    "geocoded_column": {
      "latitude": "29.945701245317867",
      "longitude": "-90.06573419823657"
    }
  },
  {
    "service_request": "2022-925355",
    "request_type": "Trash/Recycling",
    "request_reason": "Repair Recycling Cart",
    "date_created": "2022-10-02T12:38:03.000",
    "date_modified": "2022-10-02T12:38:03.000",
    "request_status": "Pending",
    "responsible_agency": "Department of Sanitation",
    "final_address": "422 Henry Clay Ave",
    "address_councildis": "A",
    "status": "Pending",
    "rowid": "925355",
    "final_x": "3663279.62535",
    "final_y": "518453.130742",
    "longitude": "-90.12603871432563",
    "latitude": "29.920106580322933",
    "geocoded_column": {
      "latitude": "29.920106580322933",
      "longitude": "-90.12603871432563"
    }
  },
  {
    "service_request": "2022-925354",
    "request_type": "Property Maintenance",
    "request_reason": "Property Maintenance",
    "date_created": "2022-10-02T12:29:46.000",
    "date_modified": "2022-10-02T12:29:46.000",
    "request_status": "Pending",
    "responsible_agency": "Department of Code Enforcement",
    "final_address": "1218 Burdette St",
    "address_councildis": "A",
    "status": "Pending",
    "rowid": "925354",
    "final_x": "3662867.87866",
    "final_y": "527755.415999",
    "longitude": "-90.12702928427578",
    "latitude": "29.9456968529667",
    "geocoded_column": {
      "latitude": "29.9456968529667",
      "longitude": "-90.12702928427578"
    }
  },
  {
    "service_request": "2022-925353",
    "request_type": "Trash/Recycling",
    "request_reason": "Request a Large Item Pick Up",
    "date_created": "2022-10-02T11:59:28.000",
    "date_modified": "2022-10-02T11:59:29.000",
    "request_status": "Pending",
    "responsible_agency": "Department of Sanitation",
    "final_address": "4310 Dumaine St",
    "address_councildis": "A",
    "status": "Assigned to Contractor",
    "contractor": "Richards Disposal",
    "rowid": "925353",
    "final_x": "3671990.50599",
    "final_y": "541375.634828",
    "longitude": "-90.09776236748047",
    "latitude": "29.982880665925336",
    "geocoded_column": {
      "latitude": "29.982880665925336",
      "longitude": "-90.09776236748047"
    }
  },
  {
    "service_request": "2022-925352",
    "request_type": "Trash/Recycling",
    "request_reason": "Request a Large Item Pick Up",
    "date_created": "2022-10-02T11:56:37.000",
    "date_modified": "2022-10-02T11:56:38.000",
    "request_status": "Pending",
    "responsible_agency": "Department of Sanitation",
    "final_address": "4516 S Roman St",
    "address_councildis": "B",
    "status": "Assigned to Contractor",
    "contractor": "Richards Disposal",
    "rowid": "925352",
    "final_x": "3669735.46894",
    "final_y": "526464.347838",
    "longitude": "-90.1053896587823",
    "latitude": "29.941946247754846",
    "geocoded_column": {
      "latitude": "29.941946247754846",
      "longitude": "-90.1053896587823"
    }
  },
  {
    "service_request": "2022-925351",
    "request_type": "Property Maintenance",
    "request_reason": "Property Maintenance",
    "date_created": "2022-10-02T11:53:09.000",
    "date_modified": "2022-10-02T11:53:09.000",
    "request_status": "Pending",
    "responsible_agency": "Department of Code Enforcement",
    "final_address": "513 Warrington Dr",
    "address_councildis": "D",
    "status": "Pending",
    "rowid": "925351",
    "final_x": "3681296.1702",
    "final_y": "548609.985107",
    "longitude": "-90.06811808191462",
    "latitude": "30.002493377826603",
    "geocoded_column": {
      "latitude": "30.002493377826603",
      "longitude": "-90.06811808191462"
    }
  },
  {
    "service_request": "2022-925350",
    "request_type": "Trash/Recycling",
    "request_reason": "Missed Trash Pick-Up",
    "date_created": "2022-10-02T11:51:00.000",
    "date_modified": "2022-10-02T11:51:01.000",
    "request_status": "Pending",
    "responsible_agency": "Department of Sanitation",
    "final_address": "3925 St Claude Ave",
    "address_councildis": "C",
    "status": "Assigned to Contractor",
    "contractor": "Metro Disposal",
    "rowid": "925350",
    "final_x": "3691731.69308",
    "final_y": "535435.809798",
    "longitude": "-90.03562240832692",
    "latitude": "29.96594816555109",
    "geocoded_column": {
      "latitude": "29.96594816555109",
      "longitude": "-90.03562240832692"
    }
  },
  {
    "service_request": "2022-925349",
    "request_type": "Abandoned Vehicles",
    "request_reason": "Abandoned/Junk Vehicles",
    "date_created": "2022-10-02T11:39:18.000",
    "date_modified": "2022-10-02T11:40:01.000",
    "request_status": "Pending",
    "responsible_agency": "Department of Public Works",
    "final_address": "711 Pelican Ave",
    "address_councildis": "C",
    "status": "Pending",
    "rowid": "925349",
    "final_x": "3687675.92163",
    "final_y": "530716.673154",
    "longitude": "-90.04859747629588",
    "latitude": "29.95309784937331",
    "geocoded_column": {
      "latitude": "29.95309784937331",
      "longitude": "-90.04859747629588"
    }
  },
  {
    "service_request": "2022-925348",
    "request_type": "Trash/Recycling",
    "request_reason": "Request a Large Item Pick Up",
    "date_created": "2022-10-02T11:37:11.000",
    "date_modified": "2022-10-02T11:37:12.000",
    "request_status": "Pending",
    "responsible_agency": "Department of Sanitation",
    "final_address": "5530 Laurel St",
    "address_councildis": "A",
    "status": "Assigned to Contractor",
    "contractor": "Richards Disposal",
    "rowid": "925348",
    "final_x": "3665965.67188",
    "final_y": "517832.504118",
    "longitude": "-90.11758090535794",
    "latitude": "29.918321959256065",
    "geocoded_column": {
      "latitude": "29.918321959256065",
      "longitude": "-90.11758090535794"
    }
  },
  {
    "service_request": "2022-925347",
    "request_type": "Roads/Drainage",
    "request_reason": "Debris in Roadway",
    "date_created": "2022-10-02T11:36:55.000",
    "date_modified": "2022-10-02T11:36:55.000",
    "request_status": "Pending",
    "responsible_agency": "Department of Public Works",
    "final_address": "49 Martin Dr",
    "address_councildis": "E",
    "status": "Pending",
    "rowid": "925347",
    "final_x": "3697917.56656",
    "final_y": "561107.978846",
    "longitude": "-90.01515506391704",
    "latitude": "30.036343006280305",
    "geocoded_column": {
      "latitude": "30.036343006280305",
      "longitude": "-90.01515506391704"
    }
  },
  {
    "service_request": "2022-925346",
    "request_type": "Trash/Recycling",
    "request_reason": "Illegal Dumping",
    "date_created": "2022-10-02T11:34:35.000",
    "date_modified": "2022-10-02T11:34:35.000",
    "request_status": "Pending",
    "responsible_agency": "Department of Sanitation",
    "final_address": "18 Curtis Dr",
    "address_councildis": "E",
    "status": "Pending",
    "rowid": "925346",
    "final_x": "3698183.02947",
    "final_y": "560639.446366",
    "longitude": "-90.01433319704626",
    "latitude": "30.035046323456744",
    "geocoded_column": {
      "latitude": "30.035046323456744",
      "longitude": "-90.01433319704626"
    }
  },
  {
    "service_request": "2022-925345",
    "request_type": "Abandoned Vehicles",
    "request_reason": "Abandoned/Junk Vehicles",
    "date_created": "2022-10-02T11:24:23.000",
    "date_modified": "2022-10-02T16:13:01.000",
    "request_status": "Pending",
    "responsible_agency": "Department of Public Works",
    "final_address": "ROBERT E LEE BLVD & WADSWORTH DR",
    "address_councildis": "D",
    "status": "Pending",
    "rowid": "925345",
    "final_x": "3681639.1",
    "final_y": "555629.58",
    "longitude": "-90.06678960574557",
    "latitude": "30.02178430465276",
    "geocoded_column": {
      "latitude": "30.02178430465276",
      "longitude": "-90.06678960574557"
    }
  },
  {
    "service_request": "2022-925344",
    "request_type": "Property Maintenance",
    "request_reason": "Property Maintenance",
    "date_created": "2022-10-02T11:20:58.000",
    "date_modified": "2022-10-02T11:20:58.000",
    "request_status": "Pending",
    "responsible_agency": "Department of Code Enforcement",
    "final_address": "4234 General Ogden St",
    "address_councildis": "A",
    "status": "Pending",
    "rowid": "925344",
    "final_x": "3667170.2962",
    "final_y": "538420.415945",
    "longitude": "-90.11308648897693",
    "latitude": "29.974896846217145",
    "geocoded_column": {
      "latitude": "29.974896846217145",
      "longitude": "-90.11308648897693"
    }
  },
  {
    "service_request": "2022-925343",
    "request_type": "Traffic Signals/Signs/Striping/Streetlights",
    "request_reason": "Street Light Outage/Malfunction",
    "date_created": "2022-10-02T11:00:50.000",
    "date_modified": "2022-10-02T11:00:51.000",
    "request_status": "Pending",
    "responsible_agency": "Department of Public Works",
    "final_address": "339 Broadway St",
    "address_councildis": "A",
    "status": "Pending",
    "contractor": "Legacy Professional Services",
    "rowid": "925343",
    "final_x": "3661750.77901",
    "final_y": "522789.753722",
    "longitude": "-90.13072090523535",
    "latitude": "29.93207514462521",
    "geocoded_column": {
      "latitude": "29.93207514462521",
      "longitude": "-90.13072090523535"
    }
  },
  {
    "service_request": "2022-925341",
    "request_type": "Trash/Recycling",
    "request_reason": "Return Trash Cart",
    "date_created": "2022-10-02T10:42:35.000",
    "date_modified": "2022-10-02T10:42:36.000",
    "request_status": "Pending",
    "responsible_agency": "Department of Sanitation",
    "final_address": "1435 Cambronne St",
    "address_councildis": "A",
    "status": "Assigned to Contractor",
    "contractor": "Richards Disposal",
    "rowid": "925341",
    "final_x": "3661855.15226",
    "final_y": "529799.108993",
    "longitude": "-90.13015905709823",
    "latitude": "29.951345631095872",
    "geocoded_column": {
      "latitude": "29.951345631095872",
      "longitude": "-90.13015905709823"
    }
  },
  {
    "service_request": "2022-925340",
    "request_type": "Trash/Recycling",
    "request_reason": "Missed Trash Pick-Up",
    "date_created": "2022-10-02T10:38:07.000",
    "date_modified": "2022-10-02T10:38:08.000",
    "request_status": "Pending",
    "responsible_agency": "Department of Sanitation",
    "final_address": "1832 General Ogden St",
    "address_councildis": "A",
    "status": "Assigned to Contractor",
    "contractor": "Richards Disposal",
    "rowid": "925340",
    "final_x": "3661438.79315",
    "final_y": "532071.973507",
    "longitude": "-90.13139844215588",
    "latitude": "29.957607290672733",
    "geocoded_column": {
      "latitude": "29.957607290672733",
      "longitude": "-90.13139844215588"
    }
  },
  {
    "service_request": "2022-925339",
    "request_type": "Trash/Recycling",
    "request_reason": "Missed Trash Pick-Up",
    "date_created": "2022-10-02T10:20:07.000",
    "date_modified": "2022-10-02T10:20:07.000",
    "request_status": "Pending",
    "responsible_agency": "Department of Sanitation",
    "final_address": "1306 Calhoun St",
    "address_councildis": "A",
    "status": "Assigned to Contractor",
    "contractor": "Richards Disposal",
    "rowid": "925339",
    "final_x": "3664103.11738",
    "final_y": "521391.034809",
    "longitude": "-90.12334140557269",
    "latitude": "29.928161012734737",
    "geocoded_column": {
      "latitude": "29.928161012734737",
      "longitude": "-90.12334140557269"
    }
  },
  {
    "service_request": "2022-925338",
    "request_type": "Traffic Signals/Signs/Striping/Streetlights",
    "request_reason": "Traffic Sign Missing/Damaged",
    "date_created": "2022-10-02T10:06:19.000",
    "date_modified": "2022-10-02T10:06:20.000",
    "request_status": "Pending",
    "responsible_agency": "Department of Public Works",
    "final_address": "CHEROKEE ST & MAPLE ST",
    "address_councildis": "A",
    "status": "Pending",
    "rowid": "925338",
    "final_x": "3662593.3",
    "final_y": "525897.98",
    "longitude": "-90.12795791650288",
    "latitude": "29.94059744199086",
    "geocoded_column": {
      "latitude": "29.94059744199086",
      "longitude": "-90.12795791650288"
    }
  },
  {
    "service_request": "2022-925337",
    "request_type": "Traffic Signals/Signs/Striping/Streetlights",
    "request_reason": "Street Light Outage/Malfunction",
    "date_created": "2022-10-02T09:52:06.000",
    "date_modified": "2022-10-02T09:52:07.000",
    "request_status": "Pending",
    "responsible_agency": "Department of Public Works",
    "final_address": "5517 LaSalle St",
    "address_councildis": "A",
    "status": "Pending",
    "contractor": "Legacy Professional Services",
    "rowid": "925337",
    "final_x": "3667378.09025",
    "final_y": "523855.073979",
    "longitude": "-90.11292016937786",
    "latitude": "29.93484083658678",
    "geocoded_column": {
      "latitude": "29.93484083658678",
      "longitude": "-90.11292016937786"
    }
  },
  {
    "service_request": "2022-925336",
    "request_type": "Trash/Recycling",
    "request_reason": "Request a Large Item Pick Up",
    "date_created": "2022-10-02T09:45:08.000",
    "date_modified": "2022-10-02T09:45:09.000",
    "request_status": "Pending",
    "responsible_agency": "Department of Sanitation",
    "final_address": "818 Constantinople St",
    "address_councildis": "B",
    "status": "Assigned to Contractor",
    "contractor": "Richards Disposal",
    "rowid": "925336",
    "final_x": "3672511.01236",
    "final_y": "518721.097847",
    "longitude": "-90.09689046548255",
    "latitude": "29.920572729737785",
    "geocoded_column": {
      "latitude": "29.920572729737785",
      "longitude": "-90.09689046548255"
    }
  },
  {
    "service_request": "2022-925335",
    "request_type": "Trash/Recycling",
    "request_reason": "Missed Trash Pick-Up",
    "date_created": "2022-10-02T09:43:52.000",
    "date_modified": "2022-10-02T09:43:53.000",
    "request_status": "Pending",
    "responsible_agency": "Department of Sanitation",
    "final_address": "7030 Boston Dr",
    "address_councildis": "E",
    "status": "Assigned to Contractor",
    "contractor": "Metro Disposal",
    "rowid": "925335",
    "final_x": "3706367.73963",
    "final_y": "560652.00067",
    "longitude": "-89.98846796591668",
    "latitude": "30.034819244756914",
    "geocoded_column": {
      "latitude": "30.034819244756914",
      "longitude": "-89.98846796591668"
    }
  },
  {
    "service_request": "2022-925334",
    "request_type": "Law Enforcement Services",
    "request_reason": "Off Duty Officer for Hire",
    "date_created": "2022-10-02T09:36:36.000",
    "date_modified": "2022-10-02T09:36:36.000",
    "request_status": "Pending",
    "responsible_agency": "Office of Police Secondary Employment",
    "status": "Pending",
    "rowid": "925334",
    "longitude": "0.0",
    "latitude": "0.0",
    "geocoded_column": {
      "latitude": "0.0",
      "longitude": "0.0"
    }
  },
  {
    "service_request": "2022-925333",
    "request_type": "Property Maintenance",
    "request_reason": "Property Maintenance",
    "date_created": "2022-10-02T09:16:29.000",
    "date_modified": "2022-10-02T09:16:29.000",
    "request_status": "Pending",
    "responsible_agency": "Department of Code Enforcement",
    "final_address": "1241 Mazant St",
    "address_councildis": "D",
    "status": "Pending",
    "rowid": "925333",
    "final_x": "3692310.7448",
    "final_y": "535904.983559",
    "longitude": "-90.0337769833759",
    "latitude": "29.967220183053904",
    "geocoded_column": {
      "latitude": "29.967220183053904",
      "longitude": "-90.0337769833759"
    }
  },
  {
    "service_request": "2022-925332",
    "request_type": "Property Maintenance",
    "request_reason": "Property Maintenance",
    "date_created": "2022-10-02T09:15:34.000",
    "date_modified": "2022-10-02T09:15:34.000",
    "request_status": "Pending",
    "responsible_agency": "Department of Code Enforcement",
    "final_address": "4120 Urquhart St",
    "address_councildis": "D",
    "status": "Pending",
    "rowid": "925332",
    "final_x": "3692416.7512",
    "final_y": "535869.022791",
    "longitude": "-90.03344350368955",
    "latitude": "29.967117997370618",
    "geocoded_column": {
      "latitude": "29.967117997370618",
      "longitude": "-90.03344350368955"
    }
  },
  {
    "service_request": "2022-925330",
    "request_type": "Trash/Recycling",
    "request_reason": "Missed Trash Pick-Up",
    "date_created": "2022-10-02T09:05:19.000",
    "date_modified": "2022-10-02T09:05:20.000",
    "request_status": "Pending",
    "responsible_agency": "Department of Sanitation",
    "final_address": "1817 S Carrollton Ave",
    "address_councildis": "A",
    "status": "Assigned to Contractor",
    "contractor": "Richards Disposal",
    "rowid": "925330",
    "final_x": "3663611.65747",
    "final_y": "529925.938241",
    "longitude": "-90.12460862671952",
    "latitude": "29.95164353894241",
    "geocoded_column": {
      "latitude": "29.95164353894241",
      "longitude": "-90.12460862671952"
    }
  },
  {
    "service_request": "2022-925328",
    "request_type": "Roads/Drainage",
    "request_reason": "Pothole",
    "date_created": "2022-10-02T08:49:34.000",
    "date_modified": "2022-10-02T08:49:34.000",
    "request_status": "Pending",
    "responsible_agency": "Department of Public Works",
    "final_address": "5515 Danneel St",
    "address_councildis": "A",
    "status": "Pending",
    "rowid": "925328",
    "final_x": "3667076.40205",
    "final_y": "522452.748218",
    "longitude": "-90.11391971229378",
    "latitude": "29.930993719674174",
    "geocoded_column": {
      "latitude": "29.930993719674174",
      "longitude": "-90.11391971229378"
    }
  },
  {
    "service_request": "2022-925327",
    "request_type": "Traffic Signals/Signs/Striping/Streetlights",
    "request_reason": "Additional signage",
    "date_created": "2022-10-02T08:43:52.000",
    "date_modified": "2022-10-02T08:43:52.000",
    "request_status": "Pending",
    "responsible_agency": "Department of Public Works",
    "final_address": "5515 Danneel St",
    "address_councildis": "A",
    "status": "Pending",
    "rowid": "925327",
    "final_x": "3667076.40205",
    "final_y": "522452.748218",
    "longitude": "-90.11391971229378",
    "latitude": "29.930993719674174",
    "geocoded_column": {
      "latitude": "29.930993719674174",
      "longitude": "-90.11391971229378"
    }
  },
  {
    "service_request": "2022-925326",
    "request_type": "Roads/Drainage",
    "request_reason": "Catch Basin - Clogged",
    "date_created": "2022-10-02T08:37:51.000",
    "date_modified": "2022-10-02T08:37:51.000",
    "request_status": "Pending",
    "responsible_agency": "Department of Public Works",
    "final_address": "5515 Danneel St",
    "address_councildis": "A",
    "status": "Pending",
    "rowid": "925326",
    "final_x": "3667076.40205",
    "final_y": "522452.748218",
    "longitude": "-90.11391971229378",
    "latitude": "29.930993719674174",
    "geocoded_column": {
      "latitude": "29.930993719674174",
      "longitude": "-90.11391971229378"
    }
  },
  {
    "service_request": "2022-925325",
    "request_type": "Traffic Signals/Signs/Striping/Streetlights",
    "request_reason": "Street Light Outage/Malfunction",
    "date_created": "2022-10-02T08:35:53.000",
    "date_modified": "2022-10-02T08:35:54.000",
    "request_status": "Pending",
    "responsible_agency": "Department of Public Works",
    "final_address": "5515 Danneel St",
    "address_councildis": "A",
    "status": "Pending",
    "contractor": "Legacy Professional Services",
    "rowid": "925325",
    "final_x": "3667076.40205",
    "final_y": "522452.748218",
    "longitude": "-90.11391971229378",
    "latitude": "29.930993719674174",
    "geocoded_column": {
      "latitude": "29.930993719674174",
      "longitude": "-90.11391971229378"
    }
  },
  {
    "service_request": "2022-925324",
    "request_type": "Trash/Recycling",
    "request_reason": "MIssed Recycling Pick-Up",
    "date_created": "2022-10-02T08:33:47.000",
    "date_modified": "2022-10-02T08:33:48.000",
    "request_status": "Pending",
    "responsible_agency": "Department of Sanitation",
    "final_address": "2514 Adams St",
    "address_councildis": "A",
    "status": "Assigned to Contractor",
    "contractor": "Richards Disposal",
    "rowid": "925324",
    "final_x": "3666291.92775",
    "final_y": "531000.21101",
    "longitude": "-90.11610955893856",
    "latitude": "29.95451942389691",
    "geocoded_column": {
      "latitude": "29.95451942389691",
      "longitude": "-90.11610955893856"
    }
  },
  {
    "service_request": "2022-925323",
    "request_type": "Traffic Signals/Signs/Striping/Streetlights",
    "request_reason": "Street Light Outage/Malfunction",
    "date_created": "2022-10-02T08:20:55.000",
    "date_modified": "2022-10-02T08:20:55.000",
    "request_status": "Pending",
    "responsible_agency": "Department of Public Works",
    "final_address": "2515 Myrtle St",
    "address_councildis": "D",
    "status": "Pending",
    "contractor": "Legacy Professional Services",
    "rowid": "925323",
    "final_x": "3686623.55695",
    "final_y": "546061.801872",
    "longitude": "-90.05137828794435",
    "latitude": "29.995323972588047",
    "geocoded_column": {
      "latitude": "29.995323972588047",
      "longitude": "-90.05137828794435"
    }
  },
  {
    "service_request": "2022-925322",
    "request_type": "Trash/Recycling",
    "request_reason": "Missed Trash Pick-Up",
    "date_created": "2022-10-02T08:20:01.000",
    "date_modified": "2022-10-02T08:20:02.000",
    "request_status": "Pending",
    "responsible_agency": "Department of Sanitation",
    "final_address": "1515 S Carrollton Ave",
    "address_councildis": "A",
    "status": "Assigned to Contractor",
    "contractor": "Richards Disposal",
    "rowid": "925322",
    "final_x": "3662870.27117",
    "final_y": "529118.659648",
    "longitude": "-90.12697641489757",
    "latitude": "29.949445266350885",
    "geocoded_column": {
      "latitude": "29.949445266350885",
      "longitude": "-90.12697641489757"
    }
  },
  {
    "service_request": "2022-925321",
    "request_type": "Abandoned Vehicles",
    "request_reason": "Abandoned/Junk Vehicles",
    "date_created": "2022-10-02T08:18:23.000",
    "date_modified": "2022-10-02T08:18:23.000",
    "request_status": "Pending",
    "responsible_agency": "Department of Public Works",
    "final_address": "6343 Kingston Ct",
    "address_councildis": "C",
    "status": "Pending",
    "rowid": "925321",
    "final_x": "3707461.20888",
    "final_y": "517734.45791",
    "longitude": "-89.98660649874053",
    "latitude": "29.916776545741794",
    "geocoded_column": {
      "latitude": "29.916776545741794",
      "longitude": "-89.98660649874053"
    }
  },
  {
    "service_request": "2022-925320",
    "request_type": "Abandoned Vehicles",
    "request_reason": "Abandoned/Junk Vehicles",
    "date_created": "2022-10-02T08:15:29.000",
    "date_modified": "2022-10-02T08:15:29.000",
    "request_status": "Pending",
    "responsible_agency": "Department of Public Works",
    "final_address": "6343 Kingston Ct",
    "address_councildis": "C",
    "status": "Pending",
    "rowid": "925320",
    "final_x": "3707461.20888",
    "final_y": "517734.45791",
    "longitude": "-89.98660649874053",
    "latitude": "29.916776545741794",
    "geocoded_column": {
      "latitude": "29.916776545741794",
      "longitude": "-89.98660649874053"
    }
  },
  {
    "service_request": "2022-925319",
    "request_type": "Property Maintenance",
    "request_reason": "Property Maintenance",
    "date_created": "2022-10-02T08:11:36.000",
    "date_modified": "2022-10-02T08:11:36.000",
    "request_status": "Pending",
    "responsible_agency": "Department of Code Enforcement",
    "final_address": "107 Kingston Ct",
    "address_councildis": "C",
    "status": "Pending",
    "rowid": "925319",
    "final_x": "3705824.1715",
    "final_y": "517703.543862",
    "longitude": "-89.99177476798187",
    "latitude": "29.916744346023812",
    "geocoded_column": {
      "latitude": "29.916744346023812",
      "longitude": "-89.99177476798187"
    }
  },
  {
    "service_request": "2022-925318",
    "request_type": "Traffic Signals/Signs/Striping/Streetlights",
    "request_reason": "Street Light Outage/Malfunction",
    "date_created": "2022-10-02T07:09:53.000",
    "date_modified": "2022-10-02T07:09:54.000",
    "request_status": "Pending",
    "responsible_agency": "Department of Public Works",
    "final_address": "SARDONYX ST & TOPAZ ST",
    "address_councildis": "D",
    "status": "Pending",
    "contractor": "Legacy Professional Services",
    "rowid": "925318",
    "final_x": "3669674.3",
    "final_y": "556449.38",
    "longitude": "-90.10456757817003",
    "latitude": "30.024396678791863",
    "geocoded_column": {
      "latitude": "30.024396678791863",
      "longitude": "-90.10456757817003"
    }
  },
  {
    "service_request": "2022-925317",
    "request_type": "Trash/Recycling",
    "request_reason": "Missed Trash Pick-Up",
    "date_created": "2022-10-02T05:56:14.000",
    "date_modified": "2022-10-02T05:56:15.000",
    "request_status": "Pending",
    "responsible_agency": "Department of Sanitation",
    "final_address": "4713 Baudin St",
    "address_councildis": "A",
    "status": "Assigned to Contractor",
    "contractor": "Richards Disposal",
    "rowid": "925317",
    "final_x": "3668069.05716",
    "final_y": "538675.029385",
    "longitude": "-90.11023938073886",
    "latitude": "29.975570599468433",
    "geocoded_column": {
      "latitude": "29.975570599468433",
      "longitude": "-90.11023938073886"
    }
  },
  {
    "service_request": "2022-925316",
    "request_type": "Traffic Signals/Signs/Striping/Streetlights",
    "request_reason": "Street Light Outage/Malfunction",
    "date_created": "2022-10-02T03:45:50.000",
    "date_modified": "2022-10-02T03:45:51.000",
    "request_status": "Pending",
    "responsible_agency": "Department of Public Works",
    "final_address": "7 Yellowstone Dr",
    "address_councildis": "C",
    "status": "Pending",
    "contractor": "Legacy Professional Services",
    "rowid": "925316",
    "final_x": "3699506.22935",
    "final_y": "517987.872758",
    "longitude": "-90.01170633374278",
    "latitude": "29.917728037658794",
    "geocoded_column": {
      "latitude": "29.917728037658794",
      "longitude": "-90.01170633374278"
    }
  },
  {
    "service_request": "2022-925315",
    "request_type": "Trash/Recycling",
    "request_reason": "Repair Trash Cart",
    "date_created": "2022-10-01T23:54:00.000",
    "date_modified": "2022-10-01T23:54:00.000",
    "request_status": "Pending",
    "responsible_agency": "Department of Sanitation",
    "final_address": "6301 Franklin Ave",
    "address_councildis": "D",
    "status": "Assigned to Contractor",
    "contractor": "Metro Disposal",
    "rowid": "925315",
    "final_x": "3686418.04297",
    "final_y": "556429.745498",
    "longitude": "-90.05166114747813",
    "latitude": "30.02383835160653",
    "geocoded_column": {
      "latitude": "30.02383835160653",
      "longitude": "-90.05166114747813"
    }
  },
  {
    "service_request": "2022-925314",
    "request_type": "Property Maintenance",
    "request_reason": "Property Maintenance",
    "date_created": "2022-10-01T23:25:13.000",
    "date_modified": "2022-10-01T23:25:13.000",
    "request_status": "Pending",
    "responsible_agency": "Department of Code Enforcement",
    "final_address": "1906 Annette St",
    "address_councildis": "D",
    "status": "Pending",
    "rowid": "925314",
    "final_x": "3682870.36335",
    "final_y": "539176.25601",
    "longitude": "-90.06347528954245",
    "latitude": "29.976506072045282",
    "geocoded_column": {
      "latitude": "29.976506072045282",
      "longitude": "-90.06347528954245"
    }
  },
  {
    "service_request": "2022-925313",
    "request_type": "Traffic Signals/Signs/Striping/Streetlights",
    "request_reason": "Street Light Outage/Malfunction",
    "date_created": "2022-10-01T22:50:22.000",
    "date_modified": "2022-10-01T22:50:23.000",
    "request_status": "Pending",
    "responsible_agency": "Department of Public Works",
    "final_address": "4911 Carondelet St",
    "address_councildis": "B",
    "status": "Pending",
    "contractor": "Legacy Professional Services",
    "rowid": "925313",
    "final_x": "3668967.87502",
    "final_y": "521173.868281",
    "longitude": "-90.10799174322814",
    "latitude": "29.927421723435902",
    "geocoded_column": {
      "latitude": "29.927421723435902",
      "longitude": "-90.10799174322814"
    }
  },
  {
    "service_request": "2022-925312",
    "request_type": "Roads/Drainage",
    "request_reason": "Bicycle Hazardous Incident Reporting",
    "date_created": "2022-10-01T22:42:33.000",
    "date_modified": "2022-10-01T22:42:33.000",
    "request_status": "Pending",
    "responsible_agency": "Health Department",
    "final_address": "3200 Garden Oaks Dr",
    "address_councildis": "C",
    "status": "Pending",
    "rowid": "925312",
    "final_x": "3696271.74019",
    "final_y": "519935.25484",
    "longitude": "-90.02184541412716",
    "latitude": "29.923184864470592",
    "geocoded_column": {
      "latitude": "29.923184864470592",
      "longitude": "-90.02184541412716"
    }
  },
  {
    "service_request": "2022-925310",
    "request_type": "Trash/Recycling",
    "request_reason": "Replace Trash Cart",
    "date_created": "2022-10-01T22:04:05.000",
    "date_modified": "2022-10-01T22:04:06.000",
    "request_status": "Pending",
    "responsible_agency": "Department of Sanitation",
    "final_address": "1539 De Battista Pl",
    "address_councildis": "C",
    "status": "Assigned to Contractor",
    "contractor": "Richards Disposal",
    "rowid": "925310",
    "final_x": "3699712.20906",
    "final_y": "525478.878525",
    "longitude": "-90.01078326043796",
    "latitude": "29.938319188890205",
    "geocoded_column": {
      "latitude": "29.938319188890205",
      "longitude": "-90.01078326043796"
    }
  },
  {
    "service_request": "2022-925309",
    "request_type": "Traffic Signals/Signs/Striping/Streetlights",
    "request_reason": "Street Light Outage/Malfunction",
    "date_created": "2022-10-01T21:20:27.000",
    "date_modified": "2022-10-01T21:20:28.000",
    "request_status": "Pending",
    "responsible_agency": "Department of Public Works",
    "final_address": "I 10 W & I 10 W EXIT",
    "address_councildis": "A",
    "status": "Pending",
    "contractor": "Legacy Professional Services",
    "rowid": "925309",
    "final_x": "3665262.2",
    "final_y": "545613.08",
    "longitude": "-90.118871999094",
    "latitude": "29.994729980791746",
    "geocoded_column": {
      "latitude": "29.994729980791746",
      "longitude": "-90.118871999094"
    }
  },
  {
    "service_request": "2022-925308",
    "request_type": "Trash/Recycling",
    "request_reason": "Order Trash Cart",
    "date_created": "2022-10-01T20:19:09.000",
    "date_modified": "2022-10-01T20:19:10.000",
    "request_status": "Pending",
    "responsible_agency": "Department of Sanitation",
    "final_address": "2608 Bienville Ave",
    "address_councildis": "B",
    "status": "Assigned to Contractor",
    "contractor": "Richards Disposal",
    "rowid": "925308",
    "final_x": "3676147.7508",
    "final_y": "535398.338694",
    "longitude": "-90.08483737707807",
    "latitude": "29.966321229969104",
    "geocoded_column": {
      "latitude": "29.966321229969104",
      "longitude": "-90.08483737707807"
    }
  },
  {
    "service_request": "2022-925307",
    "request_type": "Trash/Recycling",
    "request_reason": "Order Trash Cart",
    "date_created": "2022-10-01T20:16:17.000",
    "date_modified": "2022-10-01T20:16:18.000",
    "request_status": "Pending",
    "responsible_agency": "Department of Sanitation",
    "final_address": "15530 Dwyer Blvd",
    "address_councildis": "E",
    "status": "Assigned to Contractor",
    "contractor": "Metro Disposal",
    "rowid": "925307",
    "final_x": "3731043.53171",
    "final_y": "563730.722977",
    "longitude": "-89.91036919488947",
    "latitude": "30.042465018778252",
    "geocoded_column": {
      "latitude": "30.042465018778252",
      "longitude": "-89.91036919488947"
    }
  },
  {
    "service_request": "2022-925306",
    "request_type": "Health Related Questions",
    "request_reason": "Noise Ordinance Complaint",
    "date_created": "2022-10-01T20:14:49.000",
    "date_modified": "2022-10-01T20:14:50.000",
    "request_status": "Pending",
    "responsible_agency": "Health Department",
    "final_address": "700 Frenchmen St",
    "address_councildis": "C",
    "status": "Pending",
    "rowid": "925306",
    "final_x": "3684674.15349",
    "final_y": "534862.19559",
    "longitude": "-90.05793003716528",
    "latitude": "29.964588816083072",
    "geocoded_column": {
      "latitude": "29.964588816083072",
      "longitude": "-90.05793003716528"
    }
  },
  {
    "service_request": "2022-925305",
    "request_type": "Mosquito, Termite & Rodent Control",
    "request_reason": "Non-Rodent Complaint (Mice, Possums, Snakes)",
    "date_created": "2022-10-01T19:56:47.000",
    "date_modified": "2022-10-01T19:56:47.000",
    "request_status": "Pending",
    "responsible_agency": "Mosquito, Termite & Rodent Control Board",
    "final_address": "2468 General Collins Ave",
    "address_councildis": "C",
    "status": "Pending",
    "rowid": "925305",
    "final_x": "3698460.12496",
    "final_y": "521806.581882",
    "longitude": "-90.01486959123572",
    "latitude": "29.928261319235343",
    "geocoded_column": {
      "latitude": "29.928261319235343",
      "longitude": "-90.01486959123572"
    }
  },
  {
    "service_request": "2022-925304",
    "request_type": "Health Related Questions",
    "request_reason": "Noise Ordinance Complaint",
    "date_created": "2022-10-01T19:53:41.000",
    "date_modified": "2022-10-01T19:53:41.000",
    "request_status": "Pending",
    "responsible_agency": "Health Department",
    "final_address": "5010 S Robertson St",
    "address_councildis": "B",
    "status": "Pending",
    "rowid": "925304",
    "final_x": "3668654.35982",
    "final_y": "524225.60294",
    "longitude": "-90.10887849078452",
    "latitude": "29.93582223345129",
    "geocoded_column": {
      "latitude": "29.93582223345129",
      "longitude": "-90.10887849078452"
    }
  },
  {
    "service_request": "2022-925303",
    "request_type": "Health Related Questions",
    "request_reason": "Noise Ordinance Complaint",
    "date_created": "2022-10-01T19:27:32.000",
    "date_modified": "2022-10-01T19:27:32.000",
    "request_status": "Pending",
    "responsible_agency": "Health Department",
    "final_address": "5723 Eads St. 70122",
    "status": "Pending",
    "rowid": "925303",
    "longitude": "0.0",
    "latitude": "0.0",
    "geocoded_column": {
      "latitude": "0.0",
      "longitude": "0.0"
    }
  },
  {
    "service_request": "2022-925302",
    "request_type": "Trash/Recycling",
    "request_reason": "Missed Trash Pick-Up",
    "date_created": "2022-10-01T19:20:26.000",
    "date_modified": "2022-10-01T19:20:27.000",
    "request_status": "Pending",
    "responsible_agency": "Department of Sanitation",
    "final_address": "2222 Cambronne St",
    "address_councildis": "A",
    "status": "Assigned to Contractor",
    "contractor": "Richards Disposal",
    "rowid": "925302",
    "final_x": "3663646.12467",
    "final_y": "531890.178051",
    "longitude": "-90.12443436090143",
    "latitude": "29.95704356214727",
    "geocoded_column": {
      "latitude": "29.95704356214727",
      "longitude": "-90.12443436090143"
    }
  },
  {
    "service_request": "2022-925301",
    "request_type": "Roads/Drainage",
    "request_reason": "Pothole",
    "date_created": "2022-10-01T19:04:19.000",
    "date_modified": "2022-10-01T19:04:19.000",
    "request_status": "Pending",
    "responsible_agency": "Department of Public Works",
    "final_address": "3805 Iberville St",
    "address_councildis": "A",
    "status": "Pending",
    "rowid": "925301",
    "final_x": "3672326.10407",
    "final_y": "538050.620105",
    "longitude": "-90.09681570833044",
    "latitude": "29.973728052759334",
    "geocoded_column": {
      "latitude": "29.973728052759334",
      "longitude": "-90.09681570833044"
    }
  },
  {
    "service_request": "2022-925300",
    "request_type": "Trash/Recycling",
    "request_reason": "Order Recycling Cart",
    "date_created": "2022-10-01T19:02:25.000",
    "date_modified": "2022-10-01T19:02:25.000",
    "request_status": "Pending",
    "responsible_agency": "Department of Sanitation",
    "final_address": "4518 S Miro St",
    "address_councildis": "B",
    "status": "Pending",
    "rowid": "925300",
    "final_x": "3669579.65658",
    "final_y": "527721.339775",
    "longitude": "-90.105839078741",
    "latitude": "29.945407157718655",
    "geocoded_column": {
      "latitude": "29.945407157718655",
      "longitude": "-90.105839078741"
    }
  },
  {
    "service_request": "2022-925299",
    "request_type": "Roads/Drainage",
    "request_reason": "Street Subsidence (Sinking)",
    "date_created": "2022-10-01T18:54:48.000",
    "date_modified": "2022-10-01T18:54:48.000",
    "request_status": "Pending",
    "responsible_agency": "Department of Public Works",
    "final_address": "716 Jena St",
    "address_councildis": "B",
    "status": "Pending",
    "rowid": "925299",
    "final_x": "3670675.93287",
    "final_y": "518150.534838",
    "longitude": "-90.10270231619691",
    "latitude": "29.919058183385832",
    "geocoded_column": {
      "latitude": "29.919058183385832",
      "longitude": "-90.10270231619691"
    }
  },
  {
    "service_request": "2022-925298",
    "request_type": "Mosquito, Termite & Rodent Control",
    "request_reason": "Mosquito Complaint",
    "date_created": "2022-10-01T18:46:58.000",
    "date_modified": "2022-10-01T18:46:58.000",
    "request_status": "Pending",
    "responsible_agency": "Mosquito, Termite & Rodent Control Board",
    "final_address": "1843 Marigny St",
    "address_councildis": "D",
    "status": "Pending",
    "rowid": "925298",
    "final_x": "3685217.64853",
    "final_y": "539254.242634",
    "longitude": "-90.05605911542231",
    "latitude": "29.97664877134958",
    "geocoded_column": {
      "latitude": "29.97664877134958",
      "longitude": "-90.05605911542231"
    }
  },
  {
    "service_request": "2022-925297",
    "request_type": "Abandoned Vehicles",
    "request_reason": "Abandoned/Junk Vehicles",
    "date_created": "2022-10-01T18:35:28.000",
    "date_modified": "2022-10-01T18:36:20.000",
    "request_status": "Pending",
    "responsible_agency": "Department of Public Works",
    "final_address": "4500 Schindler Dr",
    "address_councildis": "E",
    "status": "Pending",
    "rowid": "925297",
    "final_x": "3714390.8108",
    "final_y": "555410.097817",
    "longitude": "-89.96331218545548",
    "latitude": "30.020144733377617",
    "geocoded_column": {
      "latitude": "30.020144733377617",
      "longitude": "-89.96331218545548"
    }
  },
  {
    "service_request": "2022-925296",
    "request_type": "Property Maintenance",
    "request_reason": "Property Maintenance",
    "date_created": "2022-10-01T17:47:06.000",
    "date_modified": "2022-10-01T17:47:06.000",
    "request_status": "Pending",
    "responsible_agency": "Department of Code Enforcement",
    "final_address": "2900 BLK Seine St",
    "address_councildis": "C",
    "status": "Pending",
    "rowid": "925296",
    "final_x": "3694314.24454",
    "final_y": "520523.369502",
    "longitude": "-90.02800330263085",
    "latitude": "29.924863441475647",
    "geocoded_column": {
      "latitude": "29.924863441475647",
      "longitude": "-90.02800330263085"
    }
  },
  {
    "service_request": "2022-925294",
    "request_type": "Trash/Recycling",
    "request_reason": "Missed Trash Pick-Up",
    "date_created": "2022-10-01T17:37:22.000",
    "date_modified": "2022-10-01T17:37:23.000",
    "request_status": "Pending",
    "responsible_agency": "Department of Sanitation",
    "final_address": "3925 St Claude Ave",
    "address_councildis": "C",
    "status": "Assigned to Contractor",
    "contractor": "Metro Disposal",
    "rowid": "925294",
    "final_x": "3691731.69308",
    "final_y": "535435.809798",
    "longitude": "-90.03562240832692",
    "latitude": "29.96594816555109",
    "geocoded_column": {
      "latitude": "29.96594816555109",
      "longitude": "-90.03562240832692"
    }
  },
  {
    "service_request": "2022-925293",
    "request_type": "Trash/Recycling",
    "request_reason": "Request a Large Item Pick Up",
    "date_created": "2022-10-01T17:34:54.000",
    "date_modified": "2022-10-01T17:34:55.000",
    "request_status": "Pending",
    "responsible_agency": "Department of Sanitation",
    "final_address": "426 S Bernadotte St",
    "address_councildis": "A",
    "status": "Assigned to Contractor",
    "contractor": "Richards Disposal",
    "rowid": "925293",
    "final_x": "3667979.20045",
    "final_y": "538897.191177",
    "longitude": "-90.11051568605609",
    "latitude": "29.976184106789738",
    "geocoded_column": {
      "latitude": "29.976184106789738",
      "longitude": "-90.11051568605609"
    }
  },
  {
    "service_request": "2022-925292",
    "request_type": "Trash/Recycling",
    "request_reason": "Request a Large Item Pick Up",
    "date_created": "2022-10-01T17:32:55.000",
    "date_modified": "2022-10-01T17:32:56.000",
    "request_status": "Pending",
    "responsible_agency": "Department of Sanitation",
    "final_address": "7929 Freret St",
    "address_councildis": "A",
    "status": "Assigned to Contractor",
    "contractor": "Richards Disposal",
    "rowid": "925292",
    "final_x": "3661926.85114",
    "final_y": "527522.518655",
    "longitude": "-90.13000815603785",
    "latitude": "29.9450836666227",
    "geocoded_column": {
      "latitude": "29.9450836666227",
      "longitude": "-90.13000815603785"
    }
  },
  {
    "service_request": "2022-925290",
    "request_type": "Abandoned Vehicles",
    "request_reason": "Abandoned/Junk Vehicles",
    "date_created": "2022-10-01T17:22:47.000",
    "date_modified": "2022-10-01T17:22:47.000",
    "request_status": "Pending",
    "responsible_agency": "Department of Public Works",
    "final_address": "1312 General Taylor St",
    "address_councildis": "B",
    "status": "Pending",
    "rowid": "925290",
    "final_x": "3672756.35662",
    "final_y": "520372.428344",
    "longitude": "-90.09605974197332",
    "latitude": "29.92510607865805",
    "geocoded_column": {
      "latitude": "29.92510607865805",
      "longitude": "-90.09605974197332"
    }
  },
  {
    "service_request": "2022-925291",
    "request_type": "Abandoned Vehicles",
    "request_reason": "Abandoned/Junk Vehicles",
    "date_created": "2022-10-01T17:22:47.000",
    "date_modified": "2022-10-01T17:22:47.000",
    "request_status": "Pending",
    "responsible_agency": "Department of Public Works",
    "final_address": "1312 General Taylor St",
    "address_councildis": "B",
    "status": "Pending",
    "rowid": "925291",
    "final_x": "3672756.35662",
    "final_y": "520372.428344",
    "longitude": "-90.09605974197332",
    "latitude": "29.92510607865805",
    "geocoded_column": {
      "latitude": "29.92510607865805",
      "longitude": "-90.09605974197332"
    }
  },
  {
    "service_request": "2022-925289",
    "request_type": "Abandoned Vehicles",
    "request_reason": "Abandoned/Junk Vehicles",
    "date_created": "2022-10-01T17:22:44.000",
    "date_modified": "2022-10-01T17:22:44.000",
    "request_status": "Pending",
    "responsible_agency": "Department of Public Works",
    "final_address": "1312 General Taylor St",
    "address_councildis": "B",
    "status": "Pending",
    "rowid": "925289",
    "final_x": "3672756.35662",
    "final_y": "520372.428344",
    "longitude": "-90.09605974197332",
    "latitude": "29.92510607865805",
    "geocoded_column": {
      "latitude": "29.92510607865805",
      "longitude": "-90.09605974197332"
    }
  },
  {
    "service_request": "2022-925288",
    "request_type": "Trash/Recycling",
    "request_reason": "Repair Trash Cart",
    "date_created": "2022-10-01T16:58:08.000",
    "date_modified": "2022-10-01T16:58:08.000",
    "request_status": "Pending",
    "responsible_agency": "Department of Sanitation",
    "final_address": "1202 Arabella St",
    "address_councildis": "A",
    "status": "Assigned to Contractor",
    "contractor": "Richards Disposal",
    "rowid": "925288",
    "final_x": "3666096.34784",
    "final_y": "520318.879416",
    "longitude": "-90.11708512571782",
    "latitude": "29.92515489757499",
    "geocoded_column": {
      "latitude": "29.92515489757499",
      "longitude": "-90.11708512571782"
    }
  },
  {
    "service_request": "2022-925287",
    "request_type": "Trash/Recycling",
    "request_reason": "Missed Trash Pick-Up",
    "date_created": "2022-10-01T16:57:26.000",
    "date_modified": "2022-10-01T16:57:27.000",
    "request_status": "Pending",
    "responsible_agency": "Department of Sanitation",
    "final_address": "1202 Arabella St",
    "address_councildis": "A",
    "status": "Assigned to Contractor",
    "contractor": "Richards Disposal",
    "rowid": "925287",
    "final_x": "3666096.34784",
    "final_y": "520318.879416",
    "longitude": "-90.11708512571782",
    "latitude": "29.92515489757499",
    "geocoded_column": {
      "latitude": "29.92515489757499",
      "longitude": "-90.11708512571782"
    }
  },
  {
    "service_request": "2022-925286",
    "request_type": "Abandoned Vehicles",
    "request_reason": "Abandoned/Junk Vehicles",
    "date_created": "2022-10-01T16:52:05.000",
    "date_modified": "2022-10-01T16:52:06.000",
    "request_status": "Pending",
    "responsible_agency": "Department of Public Works",
    "final_address": "7900 BLK Jahncke Rd",
    "address_councildis": "E",
    "status": "Pending",
    "rowid": "925286",
    "final_x": "3713402.61286",
    "final_y": "569292.077411",
    "longitude": "-89.96591110095636",
    "latitude": "30.058347047614713",
    "geocoded_column": {
      "latitude": "30.058347047614713",
      "longitude": "-89.96591110095636"
    }
  },
  {
    "service_request": "2022-925285",
    "request_type": "Trash/Recycling",
    "request_reason": "Replace Trash Cart",
    "date_created": "2022-10-01T16:40:24.000",
    "date_modified": "2022-10-01T16:40:24.000",
    "request_status": "Pending",
    "responsible_agency": "Department of Sanitation",
    "final_address": "6153 Catina St",
    "address_councildis": "A",
    "status": "Assigned to Contractor",
    "contractor": "Metro Disposal",
    "rowid": "925285",
    "final_x": "3666923.71572",
    "final_y": "548739.699795",
    "longitude": "-90.11351830551484",
    "latitude": "30.00327858142252",
    "geocoded_column": {
      "latitude": "30.00327858142252",
      "longitude": "-90.11351830551484"
    }
  },
  {
    "service_request": "2022-925284",
    "request_type": "Roads/Drainage",
    "request_reason": "Street Flooding / Drainage",
    "date_created": "2022-10-01T16:39:23.000",
    "date_modified": "2022-10-01T16:39:23.000",
    "request_status": "Pending",
    "responsible_agency": "Department of Public Works",
    "final_address": "CHERRY ST & DIXON ST",
    "address_councildis": "A",
    "status": "Pending",
    "rowid": "925284",
    "final_x": "3665294.9",
    "final_y": "538312.68",
    "longitude": "-90.11901309677044",
    "latitude": "29.97465539055838",
    "geocoded_column": {
      "latitude": "29.97465539055838",
      "longitude": "-90.11901309677044"
    }
  },
  {
    "service_request": "2022-925283",
    "request_type": "Trash/Recycling",
    "request_reason": "Missed Trash Pick-Up",
    "date_created": "2022-10-01T16:09:34.000",
    "date_modified": "2022-10-01T16:09:35.000",
    "request_status": "Pending",
    "responsible_agency": "Department of Sanitation",
    "final_address": "1220 Joliet St",
    "address_councildis": "A",
    "status": "Assigned to Contractor",
    "contractor": "Richards Disposal",
    "rowid": "925283",
    "final_x": "3661002.43578",
    "final_y": "529493.895553",
    "longitude": "-90.13286162784152",
    "latitude": "29.95053098453264",
    "geocoded_column": {
      "latitude": "29.95053098453264",
      "longitude": "-90.13286162784152"
    }
  },
  {
    "service_request": "2022-925282",
    "request_type": "Trash/Recycling",
    "request_reason": "MIssed Recycling Pick-Up",
    "date_created": "2022-10-01T15:58:05.000",
    "date_modified": "2022-10-01T15:58:06.000",
    "request_status": "Pending",
    "responsible_agency": "Department of Sanitation",
    "final_address": "410 Lowerline St",
    "address_councildis": "A",
    "status": "Assigned to Contractor",
    "contractor": "Richards Disposal",
    "rowid": "925282",
    "final_x": "3661666.96403",
    "final_y": "524041.37734",
    "longitude": "-90.13094403947427",
    "latitude": "29.93551913414109",
    "geocoded_column": {
      "latitude": "29.93551913414109",
      "longitude": "-90.13094403947427"
    }
  },
  {
    "service_request": "2022-925281",
    "request_type": "Traffic Signals/Signs/Striping/Streetlights",
    "request_reason": "Traffic Signal Malfunctioning/Damaged",
    "date_created": "2022-10-01T15:56:32.000",
    "date_modified": "2022-10-01T15:56:32.000",
    "request_status": "Pending",
    "responsible_agency": "Department of Public Works",
    "final_address": "4001 S Carrollton Ave",
    "address_councildis": "A",
    "status": "Pending",
    "rowid": "925281",
    "final_x": "3668802.94727",
    "final_y": "535867.444167",
    "longitude": "-90.10801636824937",
    "latitude": "29.9678291200983",
    "geocoded_column": {
      "latitude": "29.9678291200983",
      "longitude": "-90.10801636824937"
    }
  },
  {
    "service_request": "2022-925280",
    "request_type": "Trash/Recycling",
    "request_reason": "MIssed Recycling Pick-Up",
    "date_created": "2022-10-01T15:54:44.000",
    "date_modified": "2022-10-01T15:54:45.000",
    "request_status": "Pending",
    "responsible_agency": "Department of Sanitation",
    "final_address": "1831 Audubon St, New Orleans, Louisiana, 70118",
    "address_councildis": "A",
    "status": "Assigned to Contractor",
    "contractor": "Richards Disposal",
    "rowid": "925280",
    "final_x": "3665785.82298",
    "final_y": "528303.803392",
    "longitude": "-90.11779796714376",
    "latitude": "29.94711995113553",
    "geocoded_column": {
      "latitude": "29.94711995113553",
      "longitude": "-90.11779796714376"
    }
  },
  {
    "service_request": "2022-925278",
    "request_type": "Trash/Recycling",
    "request_reason": "Missed Trash Pick-Up",
    "date_created": "2022-10-01T15:36:31.000",
    "date_modified": "2022-10-01T15:36:32.000",
    "request_status": "Pending",
    "responsible_agency": "Department of Sanitation",
    "final_address": "8217 Birch St",
    "address_councildis": "A",
    "status": "Assigned to Contractor",
    "contractor": "Richards Disposal",
    "rowid": "925278",
    "final_x": "3662562.19354",
    "final_y": "529790.754369",
    "longitude": "-90.12792683468498",
    "latitude": "29.95130222556222",
    "geocoded_column": {
      "latitude": "29.95130222556222",
      "longitude": "-90.12792683468498"
    }
  },
  {
    "service_request": "2022-925277",
    "request_type": "Trash/Recycling",
    "request_reason": "Missed Trash Pick-Up",
    "date_created": "2022-10-01T15:34:49.000",
    "date_modified": "2022-10-01T15:34:50.000",
    "request_status": "Pending",
    "responsible_agency": "Department of Sanitation",
    "final_address": "1618 Dublin St",
    "address_councildis": "A",
    "status": "Assigned to Contractor",
    "contractor": "Richards Disposal",
    "rowid": "925277",
    "final_x": "3662720.02336",
    "final_y": "529796.128769",
    "longitude": "-90.12742830486165",
    "latitude": "29.95131243708717",
    "geocoded_column": {
      "latitude": "29.95131243708717",
      "longitude": "-90.12742830486165"
    }
  },
  {
    "service_request": "2022-925276",
    "request_type": "Trash/Recycling",
    "request_reason": "Request a Large Item Pick Up",
    "date_created": "2022-10-01T15:34:06.000",
    "date_modified": "2022-10-01T15:34:07.000",
    "request_status": "Pending",
    "responsible_agency": "Department of Sanitation",
    "final_address": "3419 Huntlee Dr",
    "address_councildis": "C",
    "status": "Assigned to Contractor",
    "contractor": "Richards Disposal",
    "rowid": "925276",
    "final_x": "3701682.92567",
    "final_y": "518611.449271",
    "longitude": "-90.0048129379853",
    "latitude": "29.91937344584335",
    "geocoded_column": {
      "latitude": "29.91937344584335",
      "longitude": "-90.0048129379853"
    }
  },
  {
    "service_request": "2022-925275",
    "request_type": "Trash/Recycling",
    "request_reason": "Request a Large Item Pick Up",
    "date_created": "2022-10-01T15:32:34.000",
    "date_modified": "2022-10-01T15:32:35.000",
    "request_status": "Pending",
    "responsible_agency": "Department of Sanitation",
    "final_address": "1961 N Rocheblave St",
    "address_councildis": "D",
    "status": "Assigned to Contractor",
    "contractor": "Metro Disposal",
    "rowid": "925275",
    "final_x": "3682186.66632",
    "final_y": "540933.545931",
    "longitude": "-90.06557320528489",
    "latitude": "29.981358822542997",
    "geocoded_column": {
      "latitude": "29.981358822542997",
      "longitude": "-90.06557320528489"
    }
  },
  {
    "service_request": "2022-925274",
    "request_type": "Trash/Recycling",
    "request_reason": "Request a Large Item Pick Up",
    "date_created": "2022-10-01T15:22:23.000",
    "date_modified": "2022-10-01T15:22:24.000",
    "request_status": "Pending",
    "responsible_agency": "Department of Sanitation",
    "final_address": "618 Arabella St, New Orleans, Louisiana, 70115",
    "address_councildis": "A",
    "status": "Assigned to Contractor",
    "contractor": "Richards Disposal",
    "rowid": "925274",
    "final_x": "3665675.30951",
    "final_y": "518430.376758",
    "longitude": "-90.11847741912129",
    "latitude": "29.919974390017167",
    "geocoded_column": {
      "latitude": "29.919974390017167",
      "longitude": "-90.11847741912129"
    }
  },
  {
    "service_request": "2022-925273",
    "request_type": "Trash/Recycling",
    "request_reason": "Order Trash Cart",
    "date_created": "2022-10-01T15:10:23.000",
    "date_modified": "2022-10-01T15:10:49.000",
    "request_status": "Pending",
    "responsible_agency": "Department of Sanitation",
    "final_address": "224 N Pierce St",
    "address_councildis": "A",
    "status": "Assigned to Contractor",
    "contractor": "Richards Disposal",
    "rowid": "925273",
    "final_x": "3671875.37723",
    "final_y": "538530.443401",
    "longitude": "-90.09822287010316",
    "latitude": "29.975060770908723",
    "geocoded_column": {
      "latitude": "29.975060770908723",
      "longitude": "-90.09822287010316"
    }
  },
  {
    "service_request": "2022-925272",
    "request_type": "Trash/Recycling",
    "request_reason": "Missed Trash Pick-Up",
    "date_created": "2022-10-01T14:56:47.000",
    "date_modified": "2022-10-01T14:56:47.000",
    "request_status": "Pending",
    "responsible_agency": "Department of Sanitation",
    "final_address": "8407 Panola St",
    "address_councildis": "A",
    "status": "Assigned to Contractor",
    "contractor": "Richards Disposal",
    "rowid": "925272",
    "final_x": "3663248.46803",
    "final_y": "531527.940035",
    "longitude": "-90.12570209798855",
    "latitude": "29.956059055151336",
    "geocoded_column": {
      "latitude": "29.956059055151336",
      "longitude": "-90.12570209798855"
    }
  },
  {
    "service_request": "2022-925271",
    "request_type": "Trash/Recycling",
    "request_reason": "MIssed Recycling Pick-Up",
    "date_created": "2022-10-01T14:27:16.000",
    "date_modified": "2022-10-01T14:27:17.000",
    "request_status": "Pending",
    "responsible_agency": "Department of Sanitation",
    "final_address": "1831 Audubon St",
    "address_councildis": "A",
    "status": "Assigned to Contractor",
    "contractor": "Richards Disposal",
    "rowid": "925271",
    "final_x": "3665785.82298",
    "final_y": "528303.803392",
    "longitude": "-90.11779796714376",
    "latitude": "29.94711995113553",
    "geocoded_column": {
      "latitude": "29.94711995113553",
      "longitude": "-90.11779796714376"
    }
  },
  {
    "service_request": "2022-925270",
    "request_type": "Property Maintenance",
    "request_reason": "Property Maintenance",
    "date_created": "2022-10-01T14:17:10.000",
    "date_modified": "2022-10-01T14:17:10.000",
    "request_status": "Pending",
    "responsible_agency": "Department of Code Enforcement",
    "final_address": "901 Pelican Ave",
    "address_councildis": "C",
    "status": "Pending",
    "rowid": "925270",
    "final_x": "3688278.38351",
    "final_y": "530711.723202",
    "longitude": "-90.04669534511703",
    "latitude": "29.953065651254995",
    "geocoded_column": {
      "latitude": "29.953065651254995",
      "longitude": "-90.04669534511703"
    }
  },
  {
    "service_request": "2022-925269",
    "request_type": "Trash/Recycling",
    "request_reason": "Request a Large Item Pick Up",
    "date_created": "2022-10-01T14:09:00.000",
    "date_modified": "2022-10-01T14:09:01.000",
    "request_status": "Pending",
    "responsible_agency": "Department of Sanitation",
    "final_address": "1532 Owens Blvd",
    "address_councildis": "D",
    "status": "Assigned to Contractor",
    "contractor": "Metro Disposal",
    "rowid": "925269",
    "final_x": "3679134.33685",
    "final_y": "548970.604819",
    "longitude": "-90.07493507806737",
    "latitude": "30.003550411919218",
    "geocoded_column": {
      "latitude": "30.003550411919218",
      "longitude": "-90.07493507806737"
    }
  },
  {
    "service_request": "2022-925268",
    "request_type": "Mosquito, Termite & Rodent Control",
    "request_reason": "Non-Rodent Complaint (Mice, Possums, Snakes)",
    "date_created": "2022-10-01T13:56:47.000",
    "date_modified": "2022-10-01T13:56:47.000",
    "request_status": "Pending",
    "responsible_agency": "Mosquito, Termite & Rodent Control Board",
    "final_address": "2214 Music St",
    "address_councildis": "D",
    "status": "Pending",
    "rowid": "925268",
    "final_x": "3686477.61922",
    "final_y": "540644.848523",
    "longitude": "-90.05203063525099",
    "latitude": "29.980433768687945",
    "geocoded_column": {
      "latitude": "29.980433768687945",
      "longitude": "-90.05203063525099"
    }
  },
  {
    "service_request": "2022-925267",
    "request_type": "Traffic Signals/Signs/Striping/Streetlights",
    "request_reason": "Traffic Signal Malfunctioning/Damaged",
    "date_created": "2022-10-01T13:55:24.000",
    "date_modified": "2022-10-01T13:55:24.000",
    "request_status": "Pending",
    "responsible_agency": "Department of Public Works",
    "final_address": "4077 Tulane Ave",
    "address_councildis": "A",
    "status": "Pending",
    "rowid": "925267",
    "final_x": "3669420.73556",
    "final_y": "536314.603975",
    "longitude": "-90.10605024330957",
    "latitude": "29.969040480368907",
    "geocoded_column": {
      "latitude": "29.969040480368907",
      "longitude": "-90.10605024330957"
    }
  },
  {
    "service_request": "2022-925266",
    "request_type": "Roads/Drainage",
    "request_reason": "Pothole",
    "date_created": "2022-10-01T13:54:22.000",
    "date_modified": "2022-10-01T13:54:22.000",
    "request_status": "Pending",
    "responsible_agency": "Department of Public Works",
    "final_address": "2440 N Miro St",
    "address_councildis": "D",
    "status": "Pending",
    "rowid": "925266",
    "final_x": "3686558.18095",
    "final_y": "540472.364747",
    "longitude": "-90.05178228029968",
    "latitude": "29.979957021910664",
    "geocoded_column": {
      "latitude": "29.979957021910664",
      "longitude": "-90.05178228029968"
    }
  },
  {
    "service_request": "2022-925265",
    "request_type": "Trash/Recycling",
    "request_reason": "MIssed Recycling Pick-Up",
    "date_created": "2022-10-01T13:50:22.000",
    "date_modified": "2022-10-01T13:50:23.000",
    "request_status": "Pending",
    "responsible_agency": "Department of Sanitation",
    "final_address": "2214 Music St",
    "address_councildis": "D",
    "status": "Assigned to Contractor",
    "contractor": "Metro Disposal",
    "rowid": "925265",
    "final_x": "3686477.61922",
    "final_y": "540644.848523",
    "longitude": "-90.05203063525099",
    "latitude": "29.980433768687945",
    "geocoded_column": {
      "latitude": "29.980433768687945",
      "longitude": "-90.05203063525099"
    }
  },
  {
    "service_request": "2022-925264",
    "request_type": "Safety & Permits",
    "request_reason": "Licenses & Permits",
    "date_created": "2022-10-01T13:49:55.000",
    "date_modified": "2022-10-01T13:49:55.000",
    "request_status": "Pending",
    "responsible_agency": "Safety and Permits",
    "final_address": "219 Dauphine St",
    "address_councildis": "C",
    "status": "Pending",
    "rowid": "925264",
    "final_x": "3680958.41416",
    "final_y": "531617.313987",
    "longitude": "-90.0697770651872",
    "latitude": "29.955779696033893",
    "geocoded_column": {
      "latitude": "29.955779696033893",
      "longitude": "-90.0697770651872"
    }
  },
  {
    "service_request": "2022-925263",
    "request_type": "Trash/Recycling",
    "request_reason": "MIssed Recycling Pick-Up",
    "date_created": "2022-10-01T13:43:23.000",
    "date_modified": "2022-10-01T13:43:24.000",
    "request_status": "Pending",
    "responsible_agency": "Department of Sanitation",
    "final_address": "128 S Scott St",
    "address_councildis": "A",
    "status": "Assigned to Contractor",
    "contractor": "Richards Disposal",
    "rowid": "925263",
    "final_x": "3671627.00603",
    "final_y": "537557.52404",
    "longitude": "-90.09904039180304",
    "latitude": "29.972392930638364",
    "geocoded_column": {
      "latitude": "29.972392930638364",
      "longitude": "-90.09904039180304"
    }
  },
  {
    "service_request": "2022-925262",
    "request_type": "Trash/Recycling",
    "request_reason": "Order Recycling Cart",
    "date_created": "2022-10-01T13:35:03.000",
    "date_modified": "2022-10-01T13:35:04.000",
    "request_status": "Pending",
    "responsible_agency": "Department of Sanitation",
    "final_address": "9209 Apple St",
    "address_councildis": "A",
    "status": "Pending",
    "rowid": "925262",
    "final_x": "3662400.88685",
    "final_y": "534838.063814",
    "longitude": "-90.12826855760447",
    "latitude": "29.9651853534499",
    "geocoded_column": {
      "latitude": "29.9651853534499",
      "longitude": "-90.12826855760447"
    }
  },
  {
    "service_request": "2022-925261",
    "request_type": "Trash/Recycling",
    "request_reason": "Order Trash Cart",
    "date_created": "2022-10-01T13:34:05.000",
    "date_modified": "2022-10-01T13:34:06.000",
    "request_status": "Pending",
    "responsible_agency": "Department of Sanitation",
    "final_address": "9209 Apple St",
    "address_councildis": "A",
    "status": "Assigned to Contractor",
    "contractor": "Richards Disposal",
    "rowid": "925261",
    "final_x": "3662400.88685",
    "final_y": "534838.063814",
    "longitude": "-90.12826855760447",
    "latitude": "29.9651853534499",
    "geocoded_column": {
      "latitude": "29.9651853534499",
      "longitude": "-90.12826855760447"
    }
  },
  {
    "service_request": "2022-925260",
    "request_type": "Roads/Drainage",
    "request_reason": "Pothole",
    "date_created": "2022-10-01T13:32:27.000",
    "date_modified": "2022-10-01T13:32:27.000",
    "request_status": "Pending",
    "responsible_agency": "Department of Public Works",
    "final_address": "851 Harrison Ave, New Orleans, Louisiana, 70124",
    "address_councildis": "A",
    "status": "Pending",
    "rowid": "925260",
    "final_x": "3669786.86702",
    "final_y": "549319.015827",
    "longitude": "-90.10445352052868",
    "latitude": "30.004787378537902",
    "geocoded_column": {
      "latitude": "30.004787378537902",
      "longitude": "-90.10445352052868"
    }
  },
  {
    "service_request": "2022-925259",
    "request_type": "Trash/Recycling",
    "request_reason": "Order Recycling Cart",
    "date_created": "2022-10-01T13:26:23.000",
    "date_modified": "2022-10-01T13:26:23.000",
    "request_status": "Pending",
    "responsible_agency": "Department of Sanitation",
    "final_address": "613 Huntlee Dr",
    "address_councildis": "C",
    "status": "Pending",
    "rowid": "925259",
    "final_x": "3701755.88445",
    "final_y": "520641.482552",
    "longitude": "-90.00450833473175",
    "latitude": "29.924953012585902",
    "geocoded_column": {
      "latitude": "29.924953012585902",
      "longitude": "-90.00450833473175"
    }
  },
  {
    "service_request": "2022-925258",
    "request_type": "Trash/Recycling",
    "request_reason": "Order Trash Cart",
    "date_created": "2022-10-01T13:14:20.000",
    "date_modified": "2022-10-01T13:14:21.000",
    "request_status": "Pending",
    "responsible_agency": "Department of Sanitation",
    "final_address": "4875 Lurline St",
    "address_councildis": "E",
    "status": "Assigned to Contractor",
    "contractor": "Metro Disposal",
    "rowid": "925258",
    "final_x": "3711966.2885",
    "final_y": "556928.547866",
    "longitude": "-89.97091579085213",
    "latitude": "30.024399359515147",
    "geocoded_column": {
      "latitude": "30.024399359515147",
      "longitude": "-89.97091579085213"
    }
  },
  {
    "service_request": "2022-925257",
    "request_type": "Roads/Drainage",
    "request_reason": "Pothole",
    "date_created": "2022-10-01T13:08:34.000",
    "date_modified": "2022-10-01T13:08:34.000",
    "request_status": "Pending",
    "responsible_agency": "Department of Public Works",
    "final_address": "762 Harrison Ave",
    "address_councildis": "A",
    "status": "Pending",
    "rowid": "925257",
    "final_x": "3669171.1387",
    "final_y": "549112.960595",
    "longitude": "-90.10640570584738",
    "latitude": "30.00423894142722",
    "geocoded_column": {
      "latitude": "30.00423894142722",
      "longitude": "-90.10640570584738"
    }
  },
  {
    "service_request": "2022-925256",
    "request_type": "Trash/Recycling",
    "request_reason": "Order Trash Cart",
    "date_created": "2022-10-01T13:03:33.000",
    "date_modified": "2022-10-01T13:03:34.000",
    "request_status": "Pending",
    "responsible_agency": "Department of Sanitation",
    "final_address": "4875 Lurline St",
    "address_councildis": "E",
    "status": "Assigned to Contractor",
    "contractor": "Metro Disposal",
    "rowid": "925256",
    "final_x": "3711966.2885",
    "final_y": "556928.547866",
    "longitude": "-89.97091579085213",
    "latitude": "30.024399359515147",
    "geocoded_column": {
      "latitude": "30.024399359515147",
      "longitude": "-89.97091579085213"
    }
  },
  {
    "service_request": "2022-925255",
    "request_type": "Trash/Recycling",
    "request_reason": "Repair Trash Cart",
    "date_created": "2022-10-01T13:03:26.000",
    "date_modified": "2022-10-01T13:03:27.000",
    "request_status": "Pending",
    "responsible_agency": "Department of Sanitation",
    "final_address": "4313 Palmyra St",
    "address_councildis": "A",
    "status": "Assigned to Contractor",
    "contractor": "Richards Disposal",
    "rowid": "925255",
    "final_x": "3669735.89473",
    "final_y": "538435.030473",
    "longitude": "-90.1049831596672",
    "latitude": "29.974861655695168",
    "geocoded_column": {
      "latitude": "29.974861655695168",
      "longitude": "-90.1049831596672"
    }
  },