[
  {
    "service_request": "2024-1098048",
    "request_type": "Property Maintenance",
    "request_reason": "Property Maintenance",
    "date_created": "2024-05-29T23:29:02.000",
    "date_modified": "2024-05-29T23:29:02.000",
    "request_status": "Pending",
    "responsible_agency": "Department of Code Enforcement",
    "final_address": "2104 L. B. Landry Ave",
    "address_councildis": "C",
    "status": "Pending",
    "rowid": "1098048",
    "final_x": "3690031.45948",
    "final_y": "522811.279675",
    "longitude": "-90.04144117365321",
    "latitude": "29.931287884546922",
    "geocoded_column": {
      "latitude": "29.931287884546922",
      "longitude": "-90.04144117365321"
    }
  },
  {
    "service_request": "2024-1098047",
    "request_type": "Trash/Recycling",
    "request_reason": "Replace Trash Cart",
    "date_created": "2024-05-29T23:07:01.000",
    "date_modified": "2024-05-29T23:07:02.000",
    "request_status": "Pending",
    "responsible_agency": "Department of Sanitation",
    "final_address": "4401 Joycelyn Dr",
    "address_councildis": "C",
    "status": "Assigned to Contractor",
    "contractor": "Richards Disposal",
    "rowid": "1098047",
    "final_x": "3707969.74833",
    "final_y": "514528.008883",
    "longitude": "-89.98512043497223",
    "latitude": "29.90794347652955",
    "geocoded_column": {
      "latitude": "29.90794347652955",
      "longitude": "-89.98512043497223"
    }
  },
  {
    "service_request": "2024-1098046",
    "request_type": "Traffic Signals/Signs/Striping/Streetlights",
    "request_reason": "Street Light Outage/Malfunction",
    "date_created": "2024-05-29T23:06:32.000",
    "date_modified": "2024-05-29T23:06:33.000",
    "request_status": "Pending",
    "responsible_agency": "Department of Public Works",
    "final_address": "3624 N Rampart St",
    "address_councildis": "C",
    "status": "Assigned to Contractor",
    "contractor": "Legacy Professional Services",
    "rowid": "1098046",
    "final_x": "3690807.02755",
    "final_y": "535060.182022",
    "longitude": "-90.03855586860355",
    "latitude": "29.96494408352629",
    "geocoded_column": {
      "latitude": "29.96494408352629",
      "longitude": "-90.03855586860355"
    }
  },
  {
    "service_request": "2024-1098045",
    "request_type": "Roads/Drainage",
    "request_reason": "Pothole",
    "date_created": "2024-05-29T23:04:56.000",
    "date_modified": "2024-05-29T23:04:56.000",
    "request_status": "Pending",
    "responsible_agency": "Department of Public Works",
    "final_address": "1217 Foucher St",
    "address_councildis": "B",
    "status": "Pending",
    "rowid": "1098045",
    "final_x": "3674050.86318",
    "final_y": "519817.288376",
    "longitude": "-90.09199237897313",
    "latitude": "29.923541123641915",
    "geocoded_column": {
      "latitude": "29.923541123641915",
      "longitude": "-90.09199237897313"
    }
  },
  {
    "service_request": "2024-1098044",
    "request_type": "Abandoned Vehicles",
    "request_reason": "Abandoned/Junk Vehicles",
    "date_created": "2024-05-29T22:33:40.000",
    "date_modified": "2024-05-29T22:33:40.000",
    "request_status": "Pending",
    "responsible_agency": "Department of Public Works",
    "final_address": "2014 N Rampart St",
    "address_councildis": "C",
    "status": "Pending",
    "rowid": "1098044",
    "final_x": "3684382.7949",
    "final_y": "535842.118151",
    "longitude": "-90.058815704698",
    "latitude": "29.967292178521415",
    "geocoded_column": {
      "latitude": "29.967292178521415",
      "longitude": "-90.058815704698"
    }
  },
  {
    "service_request": "2024-1098043",
    "request_type": "Abandoned Vehicles",
    "request_reason": "Abandoned/Junk Vehicles",
    "date_created": "2024-05-29T22:31:51.000",
    "date_modified": "2024-05-29T22:31:51.000",
    "request_status": "Pending",
    "responsible_agency": "Department of Public Works",
    "final_address": "2014 N Rampart St",
    "address_councildis": "C",
    "status": "Pending",
    "rowid": "1098043",
    "final_x": "3684382.7949",
    "final_y": "535842.118151",
    "longitude": "-90.058815704698",
    "latitude": "29.967292178521415",
    "geocoded_column": {
      "latitude": "29.967292178521415",
      "longitude": "-90.058815704698"
    }
  },
  {
    "service_request": "2024-1098042",
    "request_type": "Health Related Request",
    "request_reason": "Noise Ordinance Complaint",
    "date_created": "2024-05-29T22:22:55.000",
    "date_modified": "2024-05-29T22:22:55.000",
    "request_status": "Pending",
    "responsible_agency": "Health Department",
    "final_address": "2102 Chartres St",
    "address_councildis": "C",
    "status": "Pending",
    "rowid": "1098042",
    "final_x": "3684814.01308",
    "final_y": "534429.625861",
    "longitude": "-90.05750358136324",
    "latitude": "29.963395117391723",
    "geocoded_column": {
      "latitude": "29.963395117391723",
      "longitude": "-90.05750358136324"
    }
  },
  {
    "service_request": "2024-1098041",
    "request_type": "Abandoned Vehicles",
    "request_reason": "Abandoned/Junk Vehicles",
    "date_created": "2024-05-29T21:51:53.000",
    "date_modified": "2024-05-29T21:51:53.000",
    "request_status": "Pending",
    "responsible_agency": "Department of Public Works",
    "final_address": "7200 BLK General Haig St",
    "address_councildis": "D",
    "status": "Pending",
    "rowid": "1098041",
    "final_x": "3671220.60437",
    "final_y": "554660.02531",
    "longitude": "-90.0997423910397",
    "latitude": "30.019430908320604",
    "geocoded_column": {
      "latitude": "30.019430908320604",
      "longitude": "-90.0997423910397"
    }
  },
  {
    "service_request": "2024-1098040",
    "request_type": "Roads/Drainage",
    "request_reason": "Damaged Sidewalk",
    "date_created": "2024-05-29T21:41:31.000",
    "date_modified": "2024-05-29T21:41:31.000",
    "request_status": "Pending",
    "responsible_agency": "Department of Public Works",
    "final_address": "1725 Dufossat St",
    "address_councildis": "B",
    "status": "Pending",
    "rowid": "1098040",
    "final_x": "3668192.68743",
    "final_y": "522036.060218",
    "longitude": "-90.11040977787289",
    "latitude": "29.92981524824353",
    "geocoded_column": {
      "latitude": "29.92981524824353",
      "longitude": "-90.11040977787289"
    }
  },
  {
    "service_request": "2024-1098039",
    "request_type": "Roads/Drainage",
    "request_reason": "Street Flooding / Drainage",
    "date_created": "2024-05-29T21:41:10.000",
    "date_modified": "2024-05-29T21:41:10.000",
    "request_status": "Pending",
    "responsible_agency": "Department of Public Works",
    "final_address": "CADIZ ST & WILLOW ST",
    "address_councildis": "B",
    "status": "Pending",
    "rowid": "1098039",
    "final_x": "3669647.6",
    "final_y": "525366.58",
    "longitude": "-90.10570421317037",
    "latitude": "29.938930330416248",
    "geocoded_column": {
      "latitude": "29.938930330416248",
      "longitude": "-90.10570421317037"
    }
  },
  {
    "service_request": "2024-1098037",
    "request_type": "Roads/Drainage",
    "request_reason": "Street Flooding / Drainage",
    "date_created": "2024-05-29T21:21:03.000",
    "date_modified": "2024-05-29T21:21:03.000",
    "request_status": "Pending",
    "responsible_agency": "Department of Public Works",
    "final_address": "8501 N Interstate 10 Service Rd",
    "address_councildis": "E",
    "status": "Pending",
    "rowid": "1098037",
    "final_x": "3704755.23332",
    "final_y": "559450.599453",
    "longitude": "-89.99360808006935",
    "latitude": "30.03156780215238",
    "geocoded_column": {
      "latitude": "30.03156780215238",
      "longitude": "-89.99360808006935"
    }
  },
  {
    "service_request": "2024-1098036",
    "request_type": "Trash/Recycling",
    "request_reason": "Repair Trash Cart",
    "date_created": "2024-05-29T21:05:38.000",
    "date_modified": "2024-05-29T21:05:39.000",
    "request_status": "Pending",
    "responsible_agency": "Department of Sanitation",
    "final_address": "213 Adams St",
    "address_councildis": "A",
    "status": "Assigned to Contractor",
    "contractor": "IV Waste",
    "rowid": "1098036",
    "final_x": "3660806.57536",
    "final_y": "524854.030268",
    "longitude": "-90.13363344661877",
    "latitude": "29.937778470987528",
    "geocoded_column": {
      "latitude": "29.937778470987528",
      "longitude": "-90.13363344661877"
    }
  },
  {
    "service_request": "2024-1098035",
    "request_type": "Roads/Drainage",
    "request_reason": "Street Flooding / Drainage",
    "date_created": "2024-05-29T20:53:37.000",
    "date_modified": "2024-05-29T20:53:37.000",
    "request_status": "Pending",
    "responsible_agency": "Department of Public Works",
    "final_address": "7150 Bundy Rd",
    "address_councildis": "E",
    "status": "Pending",
    "rowid": "1098035",
    "final_x": "3706574.69668",
    "final_y": "561469.457951",
    "longitude": "-89.98778362059947",
    "latitude": "30.037060249381778",
    "geocoded_column": {
      "latitude": "30.037060249381778",
      "longitude": "-89.98778362059947"
    }
  },
  {
    "service_request": "2024-1098034",
    "request_type": "Roads/Drainage",
    "request_reason": "Man hole cover issue",
    "date_created": "2024-05-29T20:50:10.000",
    "date_modified": "2024-05-29T20:50:10.000",
    "request_status": "Pending",
    "responsible_agency": "Department of Public Works",
    "final_address": "LEAKE AVE & SHORT ST",
    "address_councildis": "A",
    "status": "Pending",
    "rowid": "1098034",
    "final_x": "3660522.0",
    "final_y": "526126.58",
    "longitude": "-90.13448984471117",
    "latitude": "29.941285770277545",
    "geocoded_column": {
      "latitude": "29.941285770277545",
      "longitude": "-90.13448984471117"
    }
  },
  {
    "service_request": "2024-1098033",
    "request_type": "Abandoned Vehicles",
    "request_reason": "Abandoned/Junk Vehicles",
    "date_created": "2024-05-29T20:48:51.000",
    "date_modified": "2024-05-29T20:48:51.000",
    "request_status": "Pending",
    "responsible_agency": "Department of Public Works",
    "final_address": "7150 Bundy Rd",
    "address_councildis": "E",
    "status": "Pending",
    "rowid": "1098033",
    "final_x": "3706574.69668",
    "final_y": "561469.457951",
    "longitude": "-89.98778362059947",
    "latitude": "30.037060249381778",
    "geocoded_column": {
      "latitude": "30.037060249381778",
      "longitude": "-89.98778362059947"
    }
  },
  {
    "service_request": "2024-1098032",
    "request_type": "Trash/Recycling",
    "request_reason": "Repair Trash Cart",
    "date_created": "2024-05-29T20:26:28.000",
    "date_modified": "2024-05-29T20:26:29.000",
    "request_status": "Pending",
    "responsible_agency": "Department of Sanitation",
    "final_address": "711 Upperline St",
    "address_councildis": "B",
    "status": "Assigned to Contractor",
    "contractor": "IV Waste",
    "rowid": "1098032",
    "final_x": "3669008.39361",
    "final_y": "517973.149046",
    "longitude": "-90.10797188663378",
    "latitude": "29.91861956803019",
    "geocoded_column": {
      "latitude": "29.91861956803019",
      "longitude": "-90.10797188663378"
    }
  },
  {
    "service_request": "2024-1098029",
    "request_type": "Abandoned Vehicles",
    "request_reason": "Abandoned/Junk Vehicles",
    "date_created": "2024-05-29T20:07:31.000",
    "date_modified": "2024-05-29T20:07:31.000",
    "request_status": "Pending",
    "responsible_agency": "Department of Public Works",
    "final_address": "4127 Paris Ave",
    "address_councildis": "D",
    "status": "Pending",
    "rowid": "1098029",
    "final_x": "3679628.15599",
    "final_y": "547319.835537",
    "longitude": "-90.07343236569878",
    "latitude": "29.998996462644975",
    "geocoded_column": {
      "latitude": "29.998996462644975",
      "longitude": "-90.07343236569878"
    }
  },
  {
    "service_request": "2024-1098028",
    "request_type": "Trash/Recycling",
    "request_reason": "Request a Large Item Pick Up",
    "date_created": "2024-05-29T20:03:59.000",
    "date_modified": "2024-05-29T20:03:59.000",
    "request_status": "Pending",
    "responsible_agency": "Department of Sanitation",
    "final_address": "4040 Virgil Blvd",
    "address_councildis": "D",
    "status": "Assigned to Contractor",
    "contractor": "IV Waste",
    "rowid": "1098028",
    "final_x": "3679671.16443",
    "final_y": "547254.479249",
    "longitude": "-90.07329877170346",
    "latitude": "29.998815455686035",
    "geocoded_column": {
      "latitude": "29.998815455686035",
      "longitude": "-90.07329877170346"
    }
  },
  {
    "service_request": "2024-1098027",
    "request_type": "Trash/Recycling",
    "request_reason": "Request a Large Item Pick Up",
    "date_created": "2024-05-29T19:17:08.000",
    "date_modified": "2024-05-29T19:17:08.000",
    "request_status": "Pending",
    "responsible_agency": "Department of Sanitation",
    "final_address": "7204 Hickory St",
    "address_councildis": "A",
    "status": "Assigned to Contractor",
    "contractor": "IV Waste",
    "rowid": "1098027",
    "final_x": "3665245.82784",
    "final_y": "528287.601216",
    "longitude": "-90.11950348324063",
    "latitude": "29.947091140537676",
    "geocoded_column": {
      "latitude": "29.947091140537676",
      "longitude": "-90.11950348324063"
    }
  },
  {
    "service_request": "2024-1098026",
    "request_type": "Healthy Homes",
    "request_reason": "Healthy Homes",
    "date_created": "2024-05-29T19:12:46.000",
    "date_modified": "2024-05-29T19:12:46.000",
    "request_status": "Pending",
    "responsible_agency": "Department of Code Enforcement",
    "final_address": "2218 Jefferson Ave",
    "address_councildis": "A",
    "status": "Pending",
    "rowid": "1098026",
    "final_x": "3667805.8258",
    "final_y": "523830.306811",
    "longitude": "-90.11157064313855",
    "latitude": "29.934760201097962",
    "geocoded_column": {
      "latitude": "29.934760201097962",
      "longitude": "-90.11157064313855"
    }
  },
  {
    "service_request": "2024-1098025",
    "request_type": "Trash/Recycling",
    "request_reason": "Order Trash Cart",
    "date_created": "2024-05-29T19:03:03.000",
    "date_modified": "2024-05-29T19:03:03.000",
    "request_status": "Pending",
    "responsible_agency": "Department of Sanitation",
    "final_address": "11020 Roger Dr Apt D",
    "address_councildis": "E",
    "status": "Assigned to Contractor",
    "contractor": "Waste Pro",
    "rowid": "1098025",
    "final_x": "3712334.25131",
    "final_y": "563444.727904",
    "longitude": "-89.96950803700153",
    "latitude": "30.042304224057077",
    "geocoded_column": {
      "latitude": "30.042304224057077",
      "longitude": "-89.96950803700153"
    }
  },
  {
    "service_request": "2024-1098024",
    "request_type": "Trash/Recycling",
    "request_reason": "Order Trash Cart",
    "date_created": "2024-05-29T19:03:02.000",
    "date_modified": "2024-05-29T19:03:03.000",
    "request_status": "Pending",
    "responsible_agency": "Department of Sanitation",
    "final_address": "11020 Roger Dr Apt D",
    "address_councildis": "E",
    "status": "Assigned to Contractor",
    "contractor": "Waste Pro",
    "rowid": "1098024",
    "final_x": "3712334.25131",
    "final_y": "563444.727904",
    "longitude": "-89.96950803700153",
    "latitude": "30.042304224057077",
    "geocoded_column": {
      "latitude": "30.042304224057077",
      "longitude": "-89.96950803700153"
    }
  },
  {
    "service_request": "2024-1098023",
    "request_type": "Trash/Recycling",
    "request_reason": "Request a Large Item Pick Up",
    "date_created": "2024-05-29T19:02:44.000",
    "date_modified": "2024-05-29T19:02:44.000",
    "request_status": "Pending",
    "responsible_agency": "Department of Sanitation",
    "final_address": "1206 Touro St",
    "address_councildis": "C",
    "status": "Assigned to Contractor",
    "contractor": "IV Waste",
    "rowid": "1098023",
    "final_x": "3684168.95804",
    "final_y": "536683.043271",
    "longitude": "-90.05946147947584",
    "latitude": "29.96961096968141",
    "geocoded_column": {
      "latitude": "29.96961096968141",
      "longitude": "-90.05946147947584"
    }
  },
  {
    "service_request": "2024-1098022",
    "request_type": "Trash/Recycling",
    "request_reason": "Request a Large Item Pick Up",
    "date_created": "2024-05-29T19:01:54.000",
    "date_modified": "2024-05-29T19:01:55.000",
    "request_status": "Pending",
    "responsible_agency": "Department of Sanitation",
    "final_address": "808 Delery St",
    "address_councildis": "E",
    "status": "Assigned to Contractor",
    "contractor": "Waste Pro",
    "rowid": "1098022",
    "final_x": "3699998.89732",
    "final_y": "531934.571011",
    "longitude": "-90.00964271737993",
    "latitude": "29.95606097052958",
    "geocoded_column": {
      "latitude": "29.95606097052958",
      "longitude": "-90.00964271737993"
    }
  },
  {
    "service_request": "2024-1098021",
    "request_type": "Roads/Drainage",
    "request_reason": "Pothole",
    "date_created": "2024-05-29T18:53:17.000",
    "date_modified": "2024-05-29T18:53:17.000",
    "request_status": "Pending",
    "responsible_agency": "Department of Public Works",
    "final_address": "7510 Shaw Ave",
    "address_councildis": "E",
    "status": "Pending",
    "rowid": "1098021",
    "final_x": "3707335.94417",
    "final_y": "563898.662689",
    "longitude": "-89.98528761492565",
    "latitude": "30.043714996477608",
    "geocoded_column": {
      "latitude": "30.043714996477608",
      "longitude": "-89.98528761492565"
    }
  },
  {
    "service_request": "2024-1098020",
    "request_type": "Trash/Recycling",
    "request_reason": "Request a Large Item Pick Up",
    "date_created": "2024-05-29T18:51:21.000",
    "date_modified": "2024-05-29T18:51:21.000",
    "request_status": "Pending",
    "responsible_agency": "Department of Sanitation",
    "final_address": "1725 Delachaise St",
    "address_councildis": "B",
    "status": "Assigned to Contractor",
    "contractor": "IV Waste",
    "rowid": "1098020",
    "final_x": "3673621.01499",
    "final_y": "521958.910842",
    "longitude": "-90.0932760907818",
    "latitude": "29.929442693780985",
    "geocoded_column": {
      "latitude": "29.929442693780985",
      "longitude": "-90.0932760907818"
    }
  },
  {
    "service_request": "2024-1098019",
    "request_type": "Abandoned Vehicles",
    "request_reason": "Abandoned/Junk Vehicles",
    "date_created": "2024-05-29T18:38:55.000",
    "date_modified": "2024-05-29T18:38:55.000",
    "request_status": "Pending",
    "responsible_agency": "Department of Public Works",
    "final_address": "1111 S Peters St",
    "address_councildis": "B",
    "status": "Pending",
    "rowid": "1098019",
    "final_x": "3682291.57576",
    "final_y": "525914.435517",
    "longitude": "-90.0657666197599",
    "latitude": "29.940058210635538",
    "geocoded_column": {
      "latitude": "29.940058210635538",
      "longitude": "-90.0657666197599"
    }
  },
  {
    "service_request": "2024-1098018",
    "request_type": "Trash/Recycling",
    "request_reason": "Replace Trash Cart",
    "date_created": "2024-05-29T18:34:35.000",
    "date_modified": "2024-05-29T18:34:36.000",
    "request_status": "Pending",
    "responsible_agency": "Department of Sanitation",
    "final_address": "3516 Cecil St",
    "address_councildis": "A",
    "status": "Assigned to Contractor",
    "contractor": "IV Waste",
    "rowid": "1098018",
    "final_x": "3663475.77728",
    "final_y": "538313.271753",
    "longitude": "-90.12475834138861",
    "latitude": "29.97470990132734",
    "geocoded_column": {
      "latitude": "29.97470990132734",
      "longitude": "-90.12475834138861"
    }
  },
  {
    "service_request": "2024-1098017",
    "request_type": "Mosquito, Termite & Rodent Control",
    "request_reason": "Mosquito Complaint",
    "date_created": "2024-05-29T18:32:56.000",
    "date_modified": "2024-05-29T18:32:56.000",
    "request_status": "Pending",
    "responsible_agency": "Mosquito, Termite & Rodent Control Board",
    "final_address": "3516 Cecil St",
    "address_councildis": "A",
    "status": "Pending",
    "rowid": "1098017",
    "final_x": "3663475.77728",
    "final_y": "538313.271753",
    "longitude": "-90.12475834138861",
    "latitude": "29.97470990132734",
    "geocoded_column": {
      "latitude": "29.97470990132734",
      "longitude": "-90.12475834138861"
    }
  },
  {
    "service_request": "2024-1098016",
    "request_type": "Trash/Recycling",
    "request_reason": "Request a Large Item Pick Up",
    "date_created": "2024-05-29T18:32:51.000",
    "date_modified": "2024-05-29T18:32:52.000",
    "request_status": "Pending",
    "responsible_agency": "Department of Sanitation",
    "final_address": "1028 Joseph St",
    "address_councildis": "A",
    "status": "Assigned to Contractor",
    "contractor": "IV Waste",
    "rowid": "1098016",
    "final_x": "3666271.46612",
    "final_y": "519780.839608",
    "longitude": "-90.11655036694887",
    "latitude": "29.92367034540412",
    "geocoded_column": {
      "latitude": "29.92367034540412",
      "longitude": "-90.11655036694887"
    }
  },
  {
    "service_request": "2024-1098015",
    "request_type": "Abandoned Vehicles",
    "request_reason": "Abandoned/Junk Vehicles",
    "date_created": "2024-05-29T18:17:19.000",
    "date_modified": "2024-05-29T18:17:19.000",
    "request_status": "Pending",
    "responsible_agency": "Department of Public Works",
    "final_address": "2020 Mandeville St",
    "address_councildis": "D",
    "status": "Pending",
    "rowid": "1098015",
    "final_x": "3685456.22434",
    "final_y": "539877.636106",
    "longitude": "-90.05528366025025",
    "latitude": "29.978355569928176",
    "geocoded_column": {
      "latitude": "29.978355569928176",
      "longitude": "-90.05528366025025"
    }
  },
  {
    "service_request": "2024-1098014",
    "request_type": "Abandoned Vehicles",
    "request_reason": "Abandoned/Junk Vehicles",
    "date_created": "2024-05-29T18:14:50.000",
    "date_modified": "2024-05-29T18:14:50.000",
    "request_status": "Pending",
    "responsible_agency": "Department of Public Works",
    "final_address": "2020 Mandeville St",
    "address_councildis": "D",
    "status": "Pending",
    "rowid": "1098014",
    "final_x": "3685456.22434",
    "final_y": "539877.636106",
    "longitude": "-90.05528366025025",
    "latitude": "29.978355569928176",
    "geocoded_column": {
      "latitude": "29.978355569928176",
      "longitude": "-90.05528366025025"
    }
  },
  {
    "service_request": "2024-1098013",
    "request_type": "Abandoned Vehicles",
    "request_reason": "Abandoned/Junk Vehicles",
    "date_created": "2024-05-29T18:10:27.000",
    "date_modified": "2024-05-29T18:10:27.000",
    "request_status": "Pending",
    "responsible_agency": "Department of Public Works",
    "final_address": "2456 N Rampart St",
    "address_councildis": "C",
    "status": "Pending",
    "rowid": "1098013",
    "final_x": "3686296.61404",
    "final_y": "536015.361159",
    "longitude": "-90.05276573736514",
    "latitude": "29.967709864726412",
    "geocoded_column": {
      "latitude": "29.967709864726412",
      "longitude": "-90.05276573736514"
    }
  },
  {
    "service_request": "2024-1098012",
    "request_type": "Trash/Recycling",
    "request_reason": "Request a Large Item Pick Up",
    "date_created": "2024-05-29T18:09:47.000",
    "date_modified": "2024-05-29T18:09:48.000",
    "request_status": "Pending",
    "responsible_agency": "Department of Sanitation",
    "final_address": "928 Independence St",
    "address_councildis": "C",
    "status": "Assigned to Contractor",
    "contractor": "IV Waste",
    "rowid": "1098012",
    "final_x": "3690786.50275",
    "final_y": "534971.233222",
    "longitude": "-90.03862385832427",
    "latitude": "29.96470014320912",
    "geocoded_column": {
      "latitude": "29.96470014320912",
      "longitude": "-90.03862385832427"
    }
  },
  {
    "service_request": "2024-1098011",
    "request_type": "Abandoned Vehicles",
    "request_reason": "Abandoned/Junk Vehicles",
    "date_created": "2024-05-29T18:07:27.000",
    "date_modified": "2024-05-29T18:07:27.000",
    "request_status": "Pending",
    "responsible_agency": "Department of Public Works",
    "final_address": "2456 N Rampart St",
    "address_councildis": "C",
    "status": "Pending",
    "rowid": "1098011",
    "final_x": "3686296.61404",
    "final_y": "536015.361159",
    "longitude": "-90.05276573736514",
    "latitude": "29.967709864726412",
    "geocoded_column": {
      "latitude": "29.967709864726412",
      "longitude": "-90.05276573736514"
    }
  },
  {
    "service_request": "2024-1098010",
    "request_type": "Trash/Recycling",
    "request_reason": "Replace Trash Cart",
    "date_created": "2024-05-29T18:02:23.000",
    "date_modified": "2024-05-29T18:02:24.000",
    "request_status": "Pending",
    "responsible_agency": "Department of Sanitation",
    "final_address": "1200 BLK Saint Andrew St",
    "address_councildis": "B",
    "status": "Assigned to Contractor",
    "contractor": "IV Waste",
    "rowid": "1098010",
    "final_x": "3679153.74205",
    "final_y": "523012.049892",
    "longitude": "-90.07577380335337",
    "latitude": "29.93217268042737",
    "geocoded_column": {
      "latitude": "29.93217268042737",
      "longitude": "-90.07577380335337"
    }
  },
  {
    "service_request": "2024-1098009",
    "request_type": "Trash/Recycling",
    "request_reason": "Request a Large Item Pick Up",
    "date_created": "2024-05-29T18:01:12.000",
    "date_modified": "2024-05-29T18:01:13.000",
    "request_status": "Pending",
    "responsible_agency": "Department of Sanitation",
    "final_address": "132 S Scott St",
    "address_councildis": "A",
    "status": "Assigned to Contractor",
    "contractor": "IV Waste",
    "rowid": "1098009",
    "final_x": "3671610.26951",
    "final_y": "537532.18356",
    "longitude": "-90.0990941108146",
    "latitude": "29.972323748581616",
    "geocoded_column": {
      "latitude": "29.972323748581616",
      "longitude": "-90.0990941108146"
    }
  },
  {
    "service_request": "2024-1098008",
    "request_type": "Trash/Recycling",
    "request_reason": "Request a Large Item Pick Up",
    "date_created": "2024-05-29T17:57:00.000",
    "date_modified": "2024-05-29T17:57:01.000",
    "request_status": "Pending",
    "responsible_agency": "Department of Sanitation",
    "final_address": "2726 Pauger St",
    "address_councildis": "D",
    "status": "Assigned to Contractor",
    "contractor": "IV Waste",
    "rowid": "1098008",
    "final_x": "3683558.10492",
    "final_y": "539751.134794",
    "longitude": "-90.06128303862418",
    "latitude": "29.978065812691963",
    "geocoded_column": {
      "latitude": "29.978065812691963",
      "longitude": "-90.06128303862418"
    }
  },
  {
    "service_request": "2024-1098007",
    "request_type": "Abandoned Vehicles",
    "request_reason": "Abandoned/Junk Vehicles",
    "date_created": "2024-05-29T17:48:20.000",
    "date_modified": "2024-05-29T17:48:20.000",
    "request_status": "Pending",
    "responsible_agency": "Department of Public Works",
    "final_address": "1123 Seventh St",
    "address_councildis": "B",
    "status": "Pending",
    "rowid": "1098007",
    "final_x": "3676305.90497",
    "final_y": "520574.708984",
    "longitude": "-90.08484799137946",
    "latitude": "29.925556418563993",
    "geocoded_column": {
      "latitude": "29.925556418563993",
      "longitude": "-90.08484799137946"
    }
  },
  {
    "service_request": "2024-1098006",
    "request_type": "Roads/Drainage",
    "request_reason": "Pothole",
    "date_created": "2024-05-29T17:43:13.000",
    "date_modified": "2024-05-29T17:43:13.000",
    "request_status": "Pending",
    "responsible_agency": "Department of Public Works",
    "final_address": "1720 Soniat St",
    "address_councildis": "B",
    "status": "Pending",
    "rowid": "1098006",
    "final_x": "3668395.56538",
    "final_y": "521986.59417",
    "longitude": "-90.10977099258422",
    "latitude": "29.92967327705658",
    "geocoded_column": {
      "latitude": "29.92967327705658",
      "longitude": "-90.10977099258422"
    }
  },
  {
    "service_request": "2024-1098005",
    "request_type": "Traffic Signals/Signs/Striping/Streetlights",
    "request_reason": "Street Name Sign Damaged or Missing",
    "date_created": "2024-05-29T17:37:56.000",
    "date_modified": "2024-05-29T17:37:56.000",
    "request_status": "Pending",
    "responsible_agency": "Department of Public Works",
    "final_address": "ST PETER ST & BOURBON ST",
    "address_councildis": "C",
    "status": "Pending",
    "rowid": "1098005",
    "final_x": "3682250.2",
    "final_y": "532663.48",
    "longitude": "-90.06566151625142",
    "latitude": "29.958617064477945",
    "geocoded_column": {
      "latitude": "29.958617064477945",
      "longitude": "-90.06566151625142"
    }
  },
  {
    "service_request": "2024-1098004",
    "request_type": "Trash/Recycling",
    "request_reason": "Request a Large Item Pick Up",
    "date_created": "2024-05-29T17:28:20.000",
    "date_modified": "2024-05-29T17:28:21.000",
    "request_status": "Pending",
    "responsible_agency": "Department of Sanitation",
    "final_address": "2306 Octavia St",
    "address_councildis": "A",
    "status": "Assigned to Contractor",
    "contractor": "IV Waste",
    "rowid": "1098004",
    "final_x": "3667559.69517",
    "final_y": "524147.864892",
    "longitude": "-90.11233699345368",
    "latitude": "29.935640598116837",
    "geocoded_column": {
      "latitude": "29.935640598116837",
      "longitude": "-90.11233699345368"
    }
  },
  {
    "service_request": "2024-1098003",
    "request_type": "Trash/Recycling",
    "request_reason": "Replace Trash Cart",
    "date_created": "2024-05-29T17:25:35.000",
    "date_modified": "2024-05-29T17:25:35.000",
    "request_status": "Pending",
    "responsible_agency": "Department of Sanitation",
    "final_address": "617 Henry Clay Ave",
    "address_councildis": "A",
    "status": "Assigned to Contractor",
    "contractor": "IV Waste",
    "rowid": "1098003",
    "final_x": "3663653.79962",
    "final_y": "519068.599287",
    "longitude": "-90.12483713037831",
    "latitude": "29.921788081249247",
    "geocoded_column": {
      "latitude": "29.921788081249247",
      "longitude": "-90.12483713037831"
    }
  },
  {
    "service_request": "2024-1098002",
    "request_type": "Safety & Permits",
    "request_reason": "Licenses & Permits",
    "date_created": "2024-05-29T17:08:04.000",
    "date_modified": "2024-05-29T17:08:04.000",
    "request_status": "Pending",
    "responsible_agency": "Safety and Permits",
    "final_address": "1415 Broadway St",
    "address_councildis": "A",
    "status": "Pending",
    "rowid": "1098002",
    "final_x": "3664704.13805",
    "final_y": "527179.366911",
    "longitude": "-90.12125082189009",
    "latitude": "29.94405961992344",
    "geocoded_column": {
      "latitude": "29.94405961992344",
      "longitude": "-90.12125082189009"
    }
  },
  {
    "service_request": "2024-1098001",
    "request_type": "Abandoned Vehicles",
    "request_reason": "Abandoned/Junk Vehicles",
    "date_created": "2024-05-29T17:06:35.000",
    "date_modified": "2024-05-29T17:06:35.000",
    "request_status": "Pending",
    "responsible_agency": "Department of Public Works",
    "final_address": "1000 BLK Melpomene St",
    "address_councildis": "B",
    "status": "Pending",
    "rowid": "1098001",
    "final_x": "3680635.8421",
    "final_y": "524841.167953",
    "longitude": "-90.07103134821891",
    "latitude": "29.937157341002063",
    "geocoded_column": {
      "latitude": "29.937157341002063",
      "longitude": "-90.07103134821891"
    }
  },
  {
    "service_request": "2024-1098000",
    "request_type": "Trash/Recycling",
    "request_reason": "Illegal Dumping",
    "date_created": "2024-05-29T17:01:18.000",
    "date_modified": "2024-05-29T17:01:18.000",
    "request_status": "Pending",
    "responsible_agency": "Department of Sanitation",
    "final_address": "I 10 W & ORLEANS AVE",
    "address_councildis": "D",
    "status": "Pending",
    "rowid": "1098000",
    "final_x": "3679851.4",
    "final_y": "534745.38",
    "longitude": "-90.07316399782698",
    "latitude": "29.964414335467445",
    "geocoded_column": {
      "latitude": "29.964414335467445",
      "longitude": "-90.07316399782698"
    }
  },
  {
    "service_request": "2024-1097999",
    "request_type": "Trash/Recycling",
    "request_reason": "Repair Trash Cart",
    "date_created": "2024-05-29T16:59:09.000",
    "date_modified": "2024-05-29T16:59:09.000",
    "request_status": "Pending",
    "responsible_agency": "Department of Sanitation",
    "final_address": "13619 Dwyer Blvd",
    "address_councildis": "E",
    "status": "Assigned to Contractor",
    "contractor": "Waste Pro",
    "rowid": "1097999",
    "final_x": "3726462.87117",
    "final_y": "562292.361759",
    "longitude": "-89.92490154316016",
    "latitude": "30.038665737825536",
    "geocoded_column": {
      "latitude": "30.038665737825536",
      "longitude": "-89.92490154316016"
    }
  },
  {
    "service_request": "2024-1097998",
    "request_type": "Trash/Recycling",
    "request_reason": "Request a Large Item Pick Up",
    "date_created": "2024-05-29T16:55:08.000",
    "date_modified": "2024-05-29T16:55:09.000",
    "request_status": "Pending",
    "responsible_agency": "Department of Sanitation",
    "final_address": "6014 Kuebel Dr",
    "address_councildis": "E",
    "status": "Assigned to Contractor",
    "contractor": "Waste Pro",
    "rowid": "1097998",
    "final_x": "3694998.35088",
    "final_y": "559657.036829",
    "longitude": "-90.0244327023045",
    "latitude": "30.032445488926125",
    "geocoded_column": {
      "latitude": "30.032445488926125",
      "longitude": "-90.0244327023045"
    }
  },
  {
    "service_request": "2024-1097997",
    "request_type": "Property Maintenance",
    "request_reason": "Property Maintenance",
    "date_created": "2024-05-29T16:55:03.000",
    "date_modified": "2024-05-29T16:55:04.000",
    "request_status": "Pending",
    "responsible_agency": "Department of Code Enforcement",
    "final_address": "14000 S Interstate 10 Service Rd",
    "address_councildis": "E",
    "status": "Pending",
    "rowid": "1097997",
    "final_x": "3720794.00838",
    "final_y": "568871.767653",
    "longitude": "-89.94256409160228",
    "latitude": "30.056946763438972",
    "geocoded_column": {
      "latitude": "30.056946763438972",
      "longitude": "-89.94256409160228"
    }
  },
  {
    "service_request": "2024-1097996",
    "request_type": "Abandoned Vehicles",
    "request_reason": "Abandoned/Junk Vehicles",
    "date_created": "2024-05-29T16:54:48.000",
    "date_modified": "2024-05-29T16:54:48.000",
    "request_status": "Pending",
    "responsible_agency": "Department of Public Works",
    "final_address": "225 Bermuda St",
    "address_councildis": "C",
    "status": "Pending",
    "rowid": "1097996",
    "final_x": "3686150.38658",
    "final_y": "530889.80109",
    "longitude": "-90.05340833437134",
    "latitude": "29.95362083553353",
    "geocoded_column": {
      "latitude": "29.95362083553353",
      "longitude": "-90.05340833437134"
    }
  },
  {
    "service_request": "2024-1097995",
    "request_type": "Traffic Signals/Signs/Striping/Streetlights",
    "request_reason": "Traffic Signal Malfunctioning/Damaged",
    "date_created": "2024-05-29T16:52:52.000",
    "date_modified": "2024-05-29T16:52:52.000",
    "request_status": "Pending",
    "responsible_agency": "Department of Public Works",
    "final_address": "4000 BLK Canal St",
    "address_councildis": "A",
    "status": "Pending",
    "rowid": "1097995",
    "final_x": "3671265.28703",
    "final_y": "538272.092207",
    "longitude": "-90.10015847891161",
    "latitude": "29.97436846070621",
    "geocoded_column": {
      "latitude": "29.97436846070621",
      "longitude": "-90.10015847891161"
    }
  },
  {
    "service_request": "2024-1097994",
    "request_type": "Abandoned Vehicles",
    "request_reason": "Abandoned/Junk Vehicles",
    "date_created": "2024-05-29T16:52:44.000",
    "date_modified": "2024-05-29T16:52:44.000",
    "request_status": "Pending",
    "responsible_agency": "Department of Public Works",
    "final_address": "225 Bermuda St",
    "address_councildis": "C",
    "status": "Pending",
    "rowid": "1097994",
    "final_x": "3686150.38658",
    "final_y": "530889.80109",
    "longitude": "-90.05340833437134",
    "latitude": "29.95362083553353",
    "geocoded_column": {
      "latitude": "29.95362083553353",
      "longitude": "-90.05340833437134"
    }
  },
  {
    "service_request": "2024-1097993",
    "request_type": "Roads/Drainage",
    "request_reason": "Street Flooding / Drainage",
    "date_created": "2024-05-29T16:52:29.000",
    "date_modified": "2024-05-29T16:52:29.000",
    "request_status": "Pending",
    "responsible_agency": "Department of Public Works",
    "final_address": "7960 Edgelake Ct",
    "address_councildis": "E",
    "status": "Pending",
    "rowid": "1097993",
    "final_x": "3702783.18302",
    "final_y": "562222.058015",
    "longitude": "-89.99973787948463",
    "latitude": "30.039251481952636",
    "geocoded_column": {
      "latitude": "30.039251481952636",
      "longitude": "-89.99973787948463"
    }
  },
  {
    "service_request": "2024-1097992",
    "request_type": "Trash/Recycling",
    "request_reason": "Request a Large Item Pick Up",
    "date_created": "2024-05-29T16:50:50.000",
    "date_modified": "2024-05-29T16:50:50.000",
    "request_status": "Pending",
    "responsible_agency": "Department of Sanitation",
    "final_address": "4324 Jena St",
    "address_councildis": "A",
    "status": "Assigned to Contractor",
    "contractor": "IV Waste",
    "rowid": "1097992",
    "final_x": "3669103.10638",
    "final_y": "529116.731968",
    "longitude": "-90.10729656453329",
    "latitude": "29.949258060392957",
    "geocoded_column": {
      "latitude": "29.949258060392957",
      "longitude": "-90.10729656453329"
    }
  },
  {
    "service_request": "2024-1097991",
    "request_type": "Abandoned Vehicles",
    "request_reason": "Abandoned/Junk Vehicles",
    "date_created": "2024-05-29T16:50:24.000",
    "date_modified": "2024-05-29T16:50:24.000",
    "request_status": "Pending",
    "responsible_agency": "Department of Public Works",
    "final_address": "225 Bermuda St",
    "address_councildis": "C",
    "status": "Pending",
    "rowid": "1097991",
    "final_x": "3686150.38658",
    "final_y": "530889.80109",
    "longitude": "-90.05340833437134",
    "latitude": "29.95362083553353",
    "geocoded_column": {
      "latitude": "29.95362083553353",
      "longitude": "-90.05340833437134"
    }
  },
  {
    "service_request": "2024-1097990",
    "request_type": "Trash/Recycling",
    "request_reason": "Request a Large Item Pick Up",
    "date_created": "2024-05-29T16:48:07.000",
    "date_modified": "2024-05-29T16:48:08.000",
    "request_status": "Pending",
    "responsible_agency": "Department of Sanitation",
    "final_address": "2932 Cleveland Ave",
    "address_councildis": "B",
    "status": "Assigned to Contractor",
    "contractor": "IV Waste",
    "rowid": "1097990",
    "final_x": "3674121.7858",
    "final_y": "535456.84455",
    "longitude": "-90.09123334599815",
    "latitude": "29.96654264374944",
    "geocoded_column": {
      "latitude": "29.96654264374944",
      "longitude": "-90.09123334599815"
    }
  },
  {
    "service_request": "2024-1097989",
    "request_type": "Parks & Parkways",
    "request_reason": "Request Grass Cutting Service (City Owned Property)",
    "date_created": "2024-05-29T16:47:07.000",
    "date_modified": "2024-05-29T16:47:07.000",
    "request_status": "Pending",
    "responsible_agency": "Department of Parks & Parkway",
    "final_address": "HAMMOND ST & FLAKE AVE",
    "address_councildis": "E",
    "status": "Pending",
    "rowid": "1097989",
    "final_x": "3706070.0",
    "final_y": "555760.48",
    "longitude": "-89.98959013746978",
    "latitude": "30.021379077669053",
    "geocoded_column": {
      "latitude": "30.021379077669053",
      "longitude": "-89.98959013746978"
    }
  },
  {
    "service_request": "2024-1097988",
    "request_type": "Trash/Recycling",
    "request_reason": "Repair Recycling Cart",
    "date_created": "2024-05-29T16:45:47.000",
    "date_modified": "2024-05-29T16:45:47.000",
    "request_status": "Pending",
    "responsible_agency": "Department of Sanitation",
    "final_address": "5406 Provincial Pl",
    "address_councildis": "E",
    "status": "Pending",
    "rowid": "1097988",
    "final_x": "3726202.78438",
    "final_y": "564015.491489",
    "longitude": "-89.92565657724954",
    "latitude": "30.043412418027142",
    "geocoded_column": {
      "latitude": "30.043412418027142",
      "longitude": "-89.92565657724954"
    }
  },
  {
    "service_request": "2024-1097987",
    "request_type": "Roads/Drainage",
    "request_reason": "Catch Basin - Clogged",
    "date_created": "2024-05-29T16:45:30.000",
    "date_modified": "2024-05-29T16:45:31.000",
    "request_status": "Pending",
    "responsible_agency": "Department of Public Works",
    "final_address": "3120 Lancaster St",
    "address_councildis": "C",
    "status": "Pending",
    "rowid": "1097987",
    "final_x": "3710049.73598",
    "final_y": "519074.213687",
    "longitude": "-89.97838610610995",
    "latitude": "29.920376496841197",
    "geocoded_column": {
      "latitude": "29.920376496841197",
      "longitude": "-89.97838610610995"
    }
  },
  {
    "service_request": "2024-1097986",
    "request_type": "Roads/Drainage",
    "request_reason": "Pothole",
    "date_created": "2024-05-29T16:44:10.000",
    "date_modified": "2024-05-29T16:44:11.000",
    "request_status": "Pending",
    "responsible_agency": "Department of Public Works",
    "final_address": "3100 BLK Laussat Pl",
    "address_councildis": "D",
    "status": "Pending",
    "rowid": "1097986",
    "final_x": "3690760.96588",
    "final_y": "541832.889219",
    "longitude": "-90.03845963241373",
    "latitude": "29.98356806000986",
    "geocoded_column": {
      "latitude": "29.98356806000986",
      "longitude": "-90.03845963241373"
    }
  },
  {
    "service_request": "2024-1097984",
    "request_type": "Roads/Drainage",
    "request_reason": "Pothole",
    "date_created": "2024-05-29T16:43:10.000",
    "date_modified": "2024-05-29T16:43:10.000",
    "request_status": "Pending",
    "responsible_agency": "Department of Public Works",
    "final_address": "5924 Prytania St",
    "address_councildis": "A",
    "status": "Pending",
    "rowid": "1097984",
    "final_x": "3665376.0544",
    "final_y": "520678.843833",
    "longitude": "-90.11934683236012",
    "latitude": "29.926165689488833",
    "geocoded_column": {
      "latitude": "29.926165689488833",
      "longitude": "-90.11934683236012"
    }
  },
  {
    "service_request": "2024-1097983",
    "request_type": "Trash/Recycling",
    "request_reason": "Request a Large Item Pick Up",
    "date_created": "2024-05-29T16:41:47.000",
    "date_modified": "2024-05-29T16:41:48.000",
    "request_status": "Pending",
    "responsible_agency": "Department of Sanitation",
    "final_address": "2700 BLK Dreux Ave",
    "address_councildis": "D",
    "status": "Assigned to Contractor",
    "contractor": "IV Waste",
    "rowid": "1097983",
    "final_x": "3687732.53624",
    "final_y": "552310.86531",
    "longitude": "-90.04765364923055",
    "latitude": "30.012472461255687",
    "geocoded_column": {
      "latitude": "30.012472461255687",
      "longitude": "-90.04765364923055"
    }
  },
  {
    "service_request": "2024-1097982",
    "request_type": "Roads/Drainage",
    "request_reason": "Street Flooding / Drainage",
    "date_created": "2024-05-29T16:40:13.000",
    "date_modified": "2024-05-29T16:40:13.000",
    "request_status": "Pending",
    "responsible_agency": "Department of Public Works",
    "final_address": "7960 Edgelake Ct",
    "address_councildis": "E",
    "status": "Pending",
    "rowid": "1097982",
    "final_x": "3702783.18302",
    "final_y": "562222.058015",
    "longitude": "-89.99973787948463",
    "latitude": "30.039251481952636",
    "geocoded_column": {
      "latitude": "30.039251481952636",
      "longitude": "-89.99973787948463"
    }
  },
  {
    "service_request": "2024-1097981",
    "request_type": "Trash/Recycling",
    "request_reason": "Replace Trash Cart",
    "date_created": "2024-05-29T16:39:43.000",
    "date_modified": "2024-05-29T16:39:43.000",
    "request_status": "Pending",
    "responsible_agency": "Department of Sanitation",
    "final_address": "7310 Hayne Blvd",
    "address_councildis": "E",
    "status": "Assigned to Contractor",
    "contractor": "Waste Pro",
    "rowid": "1097981",
    "final_x": "3699531.03447",
    "final_y": "561726.204767",
    "longitude": "-90.01003365180127",
    "latitude": "30.03799175177604",
    "geocoded_column": {
      "latitude": "30.03799175177604",
      "longitude": "-90.01003365180127"
    }
  },
  {
    "service_request": "2024-1097980",
    "request_type": "Trash/Recycling",
    "request_reason": "Request a Large Item Pick Up",
    "date_created": "2024-05-29T16:39:29.000",
    "date_modified": "2024-05-29T16:39:29.000",
    "request_status": "Pending",
    "responsible_agency": "Department of Sanitation",
    "final_address": "6200 Morrison Rd",
    "address_councildis": "D",
    "status": "Assigned to Contractor",
    "contractor": "Waste Pro",
    "rowid": "1097980",
    "final_x": "3696290.34211",
    "final_y": "557667.375131",
    "longitude": "-90.02042197491433",
    "latitude": "30.02693403655978",
    "geocoded_column": {
      "latitude": "30.02693403655978",
      "longitude": "-90.02042197491433"
    }
  },
  {
    "service_request": "2024-1097979",
    "request_type": "Traffic Signals/Signs/Striping/Streetlights",
    "request_reason": "Traffic Sign Missing/Damaged",
    "date_created": "2024-05-29T16:39:11.000",
    "date_modified": "2024-05-29T16:39:11.000",
    "request_status": "Pending",
    "responsible_agency": "Department of Public Works",
    "final_address": "FRANCE RD & CHEF MENTEUR BRIDGE",
    "address_councildis": "D",
    "status": "Pending",
    "rowid": "1097979",
    "final_x": "3693359.34",
    "final_y": "550643.33",
    "longitude": "-90.02993608576215",
    "latitude": "30.007712559725835",
    "geocoded_column": {
      "latitude": "30.007712559725835",
      "longitude": "-90.02993608576215"
    }
  },
  {
    "service_request": "2024-1097978",
    "request_type": "Trash/Recycling",
    "request_reason": "Illegal Dumping",
    "date_created": "2024-05-29T16:37:38.000",
    "date_modified": "2024-05-29T16:37:38.000",
    "request_status": "Pending",
    "responsible_agency": "Department of Sanitation",
    "final_address": "LURLINE ST & GRANT ST",
    "address_councildis": "E",
    "status": "Pending",
    "rowid": "1097978",
    "final_x": "3712075.0",
    "final_y": "555142.18",
    "longitude": "-89.97063941384229",
    "latitude": "30.01948399533439",
    "geocoded_column": {
      "latitude": "30.01948399533439",
      "longitude": "-89.97063941384229"
    }
  },
  {
    "service_request": "2024-1097977",
    "request_type": "Trash/Recycling",
    "request_reason": "MIssed Recycling Pick-Up",
    "date_created": "2024-05-29T16:37:18.000",
    "date_modified": "2024-05-29T17:17:37.000",
    "case_close_date": "2024-05-29T12:17:37.000",
    "request_status": "Closed",
    "responsible_agency": "Department of Sanitation",
    "final_address": "2303 Odin St",
    "address_councildis": "D",
    "status": "Invalid Request",
    "contractor": "IV Waste",
    "contractor_action": "Invalid",
    "rowid": "1097977",
    "final_x": "3684473.80245",
    "final_y": "553139.149527",
    "longitude": "-90.0579202903796",
    "latitude": "30.014850076344324",
    "geocoded_column": {
      "latitude": "30.014850076344324",
      "longitude": "-90.0579202903796"
    }
  },
  {
    "service_request": "2024-1097976",
    "request_type": "Trash/Recycling",
    "request_reason": "Request a Large Item Pick Up",
    "date_created": "2024-05-29T16:35:10.000",
    "date_modified": "2024-05-29T16:35:11.000",
    "request_status": "Pending",
    "responsible_agency": "Department of Sanitation",
    "final_address": "4665 Perelli Dr",
    "address_councildis": "E",
    "status": "Assigned to Contractor",
    "contractor": "Waste Pro",
    "rowid": "1097976",
    "final_x": "3711831.8965",
    "final_y": "555669.338201",
    "longitude": "-89.97138773399972",
    "latitude": "30.020941420976825",
    "geocoded_column": {
      "latitude": "30.020941420976825",
      "longitude": "-89.97138773399972"
    }
  },
  {
    "service_request": "2024-1097975",
    "request_type": "Roads/Drainage",
    "request_reason": "Street Subsidence (Sinking)",
    "date_created": "2024-05-29T16:33:45.000",
    "date_modified": "2024-05-29T16:33:45.000",
    "request_status": "Pending",
    "responsible_agency": "Department of Public Works",
    "final_address": "1241 Eleonore St",
    "address_councildis": "A",
    "status": "Pending",
    "rowid": "1097975",
    "final_x": "3665601.32096",
    "final_y": "520595.412792",
    "longitude": "-90.11863851974041",
    "latitude": "29.925929716012785",
    "geocoded_column": {
      "latitude": "29.925929716012785",
      "longitude": "-90.11863851974041"
    }
  },
  {
    "service_request": "2024-1097974",
    "request_type": "Trash/Recycling",
    "request_reason": "Repair Trash Cart",
    "date_created": "2024-05-29T16:29:15.000",
    "date_modified": "2024-05-29T16:29:16.000",
    "request_status": "Pending",
    "responsible_agency": "Department of Sanitation",
    "final_address": "3624 Timber Bluff Ln",
    "address_councildis": "C",
    "status": "Assigned to Contractor",
    "contractor": "Richards Disposal",
    "rowid": "1097974",
    "final_x": "3704179.69111",
    "final_y": "511011.132272",
    "longitude": "-89.99721170769234",
    "latitude": "29.89839533648046",
    "geocoded_column": {
      "latitude": "29.89839533648046",
      "longitude": "-89.99721170769234"
    }
  },
  {
    "service_request": "2024-1097973",
    "request_type": "Abandoned Vehicles",
    "request_reason": "Abandoned/Junk Vehicles",
    "date_created": "2024-05-29T16:27:45.000",
    "date_modified": "2024-05-29T16:27:45.000",
    "request_status": "Pending",
    "responsible_agency": "Department of Public Works",
    "final_address": "200 BLK N Prieur St",
    "address_councildis": "B",
    "status": "Pending",
    "rowid": "1097973",
    "final_x": "3677901.09265",
    "final_y": "533921.726236",
    "longitude": "-90.07935138413777",
    "latitude": "29.96220840035672",
    "geocoded_column": {
      "latitude": "29.96220840035672",
      "longitude": "-90.07935138413777"
    }
  },
  {
    "service_request": "2024-1097972",
    "request_type": "Abandoned Vehicles",
    "request_reason": "Abandoned/Junk Vehicles",
    "date_created": "2024-05-29T16:26:51.000",
    "date_modified": "2024-05-29T16:26:51.000",
    "request_status": "Pending",
    "responsible_agency": "Department of Public Works",
    "final_address": "225 Bermuda St",
    "address_councildis": "C",
    "status": "Pending",
    "rowid": "1097972",
    "final_x": "3686150.38658",
    "final_y": "530889.80109",
    "longitude": "-90.05340833437134",
    "latitude": "29.95362083553353",
    "geocoded_column": {
      "latitude": "29.95362083553353",
      "longitude": "-90.05340833437134"
    }
  },
  {
    "service_request": "2024-1097971",
    "request_type": "Trash/Recycling",
    "request_reason": "Request a Large Item Pick Up",
    "date_created": "2024-05-29T16:25:42.000",
    "date_modified": "2024-05-29T16:25:43.000",
    "request_status": "Pending",
    "responsible_agency": "Department of Sanitation",
    "final_address": "3100 Frenchmen St",
    "address_councildis": "D",
    "status": "Assigned to Contractor",
    "contractor": "IV Waste",
    "rowid": "1097971",
    "final_x": "3683914.06799",
    "final_y": "544050.63547",
    "longitude": "-90.06000788116744",
    "latitude": "29.98987705392291",
    "geocoded_column": {
      "latitude": "29.98987705392291",
      "longitude": "-90.06000788116744"
    }
  },
  {
    "service_request": "2024-1097970",
    "request_type": "Abandoned Vehicles",
    "request_reason": "Abandoned/Junk Vehicles",
    "date_created": "2024-05-29T16:25:08.000",
    "date_modified": "2024-05-29T16:25:09.000",
    "request_status": "Pending",
    "responsible_agency": "Department of Public Works",
    "final_address": "6100 BLK Florida Ave",
    "address_councildis": "E",
    "status": "Pending",
    "rowid": "1097970",
    "final_x": "3701974.64687",
    "final_y": "538962.452375",
    "longitude": "-90.00314640234042",
    "latitude": "29.975322203566243",
    "geocoded_column": {
      "latitude": "29.975322203566243",
      "longitude": "-90.00314640234042"
    }
  },
  {
    "service_request": "2024-1097969",
    "request_type": "Abandoned Vehicles",
    "request_reason": "Abandoned/Junk Vehicles",
    "date_created": "2024-05-29T16:24:55.000",
    "date_modified": "2024-05-29T16:24:55.000",
    "request_status": "Pending",
    "responsible_agency": "Department of Public Works",
    "final_address": "225 Bermuda St",
    "address_councildis": "C",
    "status": "Pending",
    "rowid": "1097969",
    "final_x": "3686150.38658",
    "final_y": "530889.80109",
    "longitude": "-90.05340833437134",
    "latitude": "29.95362083553353",
    "geocoded_column": {
      "latitude": "29.95362083553353",
      "longitude": "-90.05340833437134"
    }
  },
  {
    "service_request": "2024-1097968",
    "request_type": "Roads/Drainage",
    "request_reason": "Pothole",
    "date_created": "2024-05-29T16:22:32.000",
    "date_modified": "2024-05-29T16:22:32.000",
    "request_status": "Pending",
    "responsible_agency": "Department of Public Works",
    "final_address": "3400 BLK Danneel St",
    "address_councildis": "B",
    "status": "Pending",
    "rowid": "1097968",
    "final_x": "3673433.90441",
    "final_y": "522785.026724",
    "longitude": "-90.09383855492008",
    "latitude": "29.931719812171327",
    "geocoded_column": {
      "latitude": "29.931719812171327",
      "longitude": "-90.09383855492008"
    }
  },
  {
    "service_request": "2024-1097966",
    "request_type": "Roads/Drainage",
    "request_reason": "Catch Basin - Clogged",
    "date_created": "2024-05-29T16:20:29.000",
    "date_modified": "2024-05-29T16:20:29.000",
    "request_status": "Pending",
    "responsible_agency": "Department of Public Works",
    "final_address": "1662 Valmont St",
    "address_councildis": "B",
    "status": "Pending",
    "rowid": "1097966",
    "final_x": "3667832.85639",
    "final_y": "521780.610426",
    "longitude": "-90.11155430482025",
    "latitude": "29.92912339747289",
    "geocoded_column": {
      "latitude": "29.92912339747289",
      "longitude": "-90.11155430482025"
    }
  },
  {
    "service_request": "2024-1097965",
    "request_type": "Roads/Drainage",
    "request_reason": "Debris in Roadway",
    "date_created": "2024-05-29T16:19:06.000",
    "date_modified": "2024-05-29T16:19:06.000",
    "request_status": "Pending",
    "responsible_agency": "Department of Public Works",
    "final_address": "1210 Peniston St",
    "address_councildis": "B",
    "status": "Pending",
    "rowid": "1097965",
    "final_x": "3673070.73268",
    "final_y": "520149.477688",
    "longitude": "-90.0950749614316",
    "latitude": "29.924483698017024",
    "geocoded_column": {
      "latitude": "29.924483698017024",
      "longitude": "-90.0950749614316"
    }
  },
  {
    "service_request": "2024-1097964",
    "request_type": "Property Maintenance",
    "request_reason": "Property Maintenance",
    "date_created": "2024-05-29T16:18:26.000",
    "date_modified": "2024-05-29T16:18:26.000",
    "request_status": "Pending",
    "responsible_agency": "Department of Code Enforcement",
    "final_address": "6700 BLK Cindy Pl",
    "address_councildis": "E",
    "status": "Pending",
    "rowid": "1097964",
    "final_x": "3707228.82304",
    "final_y": "558747.23728",
    "longitude": "-89.98581762317008",
    "latitude": "30.029554077271175",
    "geocoded_column": {
      "latitude": "30.029554077271175",
      "longitude": "-89.98581762317008"
    }
  },
  {
    "service_request": "2024-1097963",
    "request_type": "Roads/Drainage",
    "request_reason": "Pothole",
    "date_created": "2024-05-29T16:17:53.000",
    "date_modified": "2024-05-29T16:17:53.000",
    "request_status": "Pending",
    "responsible_agency": "Department of Public Works",
    "final_address": "1120 Aline St Apt 2A",
    "address_councildis": "B",
    "status": "Pending",
    "rowid": "1097963",
    "final_x": "3674344.461",
    "final_y": "519521.432503",
    "longitude": "-90.09107572309848",
    "latitude": "29.922718865916426",
    "geocoded_column": {
      "latitude": "29.922718865916426",
      "longitude": "-90.09107572309848"
    }
  },
  {
    "service_request": "2024-1097962",
    "request_type": "Roads/Drainage",
    "request_reason": "Catch Basin - Clogged",
    "date_created": "2024-05-29T16:17:47.000",
    "date_modified": "2024-05-29T16:17:48.000",
    "request_status": "Pending",
    "responsible_agency": "Department of Public Works",
    "final_address": "4216 Stephen Girard Ave",
    "address_councildis": "D",
    "status": "Pending",
    "rowid": "1097962",
    "final_x": "3690104.21193",
    "final_y": "549840.544852",
    "longitude": "-90.04024857607429",
    "latitude": "30.00560660499078",
    "geocoded_column": {
      "latitude": "30.00560660499078",
      "longitude": "-90.04024857607429"
    }
  },
  {
    "service_request": "2024-1097961",
    "request_type": "Trash/Recycling",
    "request_reason": "Missed Trash Pick-Up",
    "date_created": "2024-05-29T16:15:49.000",
    "date_modified": "2024-05-29T16:15:50.000",
    "request_status": "Pending",
    "responsible_agency": "Department of Sanitation",
    "final_address": "6904 Downman Rd",
    "address_councildis": "D",
    "status": "Assigned to Contractor",
    "contractor": "Waste Pro",
    "rowid": "1097961",
    "final_x": "3695234.95626",
    "final_y": "556270.036634",
    "longitude": "-90.02380733618763",
    "latitude": "30.023125094101015",
    "geocoded_column": {
      "latitude": "30.023125094101015",
      "longitude": "-90.02380733618763"
    }
  },
  {
    "service_request": "2024-1097960",
    "request_type": "Traffic Signals/Signs/Striping/Streetlights",
    "request_reason": "Traffic Sign Missing/Damaged",
    "date_created": "2024-05-29T16:10:19.000",
    "date_modified": "2024-05-29T16:10:19.000",
    "request_status": "Pending",
    "responsible_agency": "Department of Public Works",
    "final_address": "VERRET ST & ALIX ST",
    "address_councildis": "C",
    "status": "Pending",
    "rowid": "1097960",
    "final_x": "3686913.8",
    "final_y": "530334.78",
    "longitude": "-90.05101741322156",
    "latitude": "29.952071247966668",
    "geocoded_column": {
      "latitude": "29.952071247966668",
      "longitude": "-90.05101741322156"
    }
  },
  {
    "service_request": "2024-1097959",
    "request_type": "Trash/Recycling",
    "request_reason": "Request a Large Item Pick Up",
    "date_created": "2024-05-29T16:06:02.000",
    "date_modified": "2024-05-29T16:06:02.000",
    "request_status": "Pending",
    "responsible_agency": "Department of Sanitation",
    "final_address": "1830 Martin Luther King, Jr. Blvd",
    "address_councildis": "B",
    "status": "Assigned to Contractor",
    "contractor": "IV Waste",
    "rowid": "1097959",
    "final_x": "3678140.59259",
    "final_y": "526149.686078",
    "longitude": "-90.07886377546969",
    "latitude": "29.94083068271841",
    "geocoded_column": {
      "latitude": "29.94083068271841",
      "longitude": "-90.07886377546969"
    }
  },
  {
    "service_request": "2024-1097958",
    "request_type": "Abandoned Vehicles",
    "request_reason": "Abandoned/Junk Vehicles",
    "date_created": "2024-05-29T15:59:23.000",
    "date_modified": "2024-05-29T15:59:23.000",
    "request_status": "Pending",
    "responsible_agency": "Department of Public Works",
    "final_address": "4511 Chestnut St",
    "address_councildis": "B",
    "status": "Pending",
    "rowid": "1097958",
    "final_x": "3670464.61595",
    "final_y": "519503.907511",
    "longitude": "-90.10332348006754",
    "latitude": "29.92278576771541",
    "geocoded_column": {
      "latitude": "29.92278576771541",
      "longitude": "-90.10332348006754"
    }
  },
  {
    "service_request": "2024-1097957",
    "request_type": "Property Maintenance",
    "request_reason": "Property Maintenance",
    "date_created": "2024-05-29T15:57:52.000",
    "date_modified": "2024-05-29T15:57:52.000",
    "request_status": "Pending",
    "responsible_agency": "Department of Code Enforcement",
    "final_address": "2650 Piety St",
    "address_councildis": "D",
    "status": "Pending",
    "rowid": "1097957",
    "final_x": "3691321.84854",
    "final_y": "541859.457676",
    "longitude": "-90.03668712558792",
    "latitude": "29.98362367362341",
    "geocoded_column": {
      "latitude": "29.98362367362341",
      "longitude": "-90.03668712558792"
    }
  },
  {
    "service_request": "2024-1097956",
    "request_type": "Property Maintenance",
    "request_reason": "Property Maintenance",
    "date_created": "2024-05-29T15:56:57.000",
    "date_modified": "2024-05-29T15:56:57.000",
    "request_status": "Pending",
    "responsible_agency": "Department of Code Enforcement",
    "final_address": "1336 Kerlerec St",
    "address_councildis": "C",
    "status": "Pending",
    "rowid": "1097956",
    "final_x": "3682180.74408",
    "final_y": "536325.284871",
    "longitude": "-90.06575292435976",
    "latitude": "29.96868788525061",
    "geocoded_column": {
      "latitude": "29.96868788525061",
      "longitude": "-90.06575292435976"
    }
  },
  {
    "service_request": "2024-1097955",
    "request_type": "Roads/Drainage",
    "request_reason": "Pothole",
    "date_created": "2024-05-29T15:56:23.000",
    "date_modified": "2024-05-29T15:56:23.000",
    "request_status": "Pending",
    "responsible_agency": "Department of Public Works",
    "final_address": "1400 BLK Valence St",
    "address_councildis": "B",
    "status": "Pending",
    "rowid": "1097955",
    "final_x": "3669784.65285",
    "final_y": "520336.257015",
    "longitude": "-90.1054417057675",
    "latitude": "29.925094517046503",
    "geocoded_column": {
      "latitude": "29.925094517046503",
      "longitude": "-90.1054417057675"
    }
  },
  {
    "service_request": "2024-1097954",
    "request_type": "Trash/Recycling",
    "request_reason": "Order Recycling Cart",
    "date_created": "2024-05-29T15:54:17.000",
    "date_modified": "2024-05-29T15:54:17.000",
    "request_status": "Pending",
    "responsible_agency": "Department of Sanitation",
    "final_address": "2434 Chartres St",
    "address_councildis": "C",
    "status": "Pending",
    "rowid": "1097954",
    "final_x": "3686203.5983",
    "final_y": "534571.242437",
    "longitude": "-90.05311043707961",
    "latitude": "29.963741897367576",
    "geocoded_column": {
      "latitude": "29.963741897367576",
      "longitude": "-90.05311043707961"
    }
  },
  {
    "service_request": "2024-1097953",
    "request_type": "Trash/Recycling",
    "request_reason": "Request a Large Item Pick Up",
    "date_created": "2024-05-29T15:53:28.000",
    "date_modified": "2024-05-29T15:53:29.000",
    "request_status": "Pending",
    "responsible_agency": "Department of Sanitation",
    "final_address": "2434 Chartres St",
    "address_councildis": "C",
    "status": "Assigned to Contractor",
    "contractor": "IV Waste",
    "rowid": "1097953",
    "final_x": "3686203.5983",
    "final_y": "534571.242437",
    "longitude": "-90.05311043707961",
    "latitude": "29.963741897367576",
    "geocoded_column": {
      "latitude": "29.963741897367576",
      "longitude": "-90.05311043707961"
    }
  },
  {
    "service_request": "2024-1097952",
    "request_type": "Trash/Recycling",
    "request_reason": "Request a Large Item Pick Up",
    "date_created": "2024-05-29T15:52:31.000",
    "date_modified": "2024-05-29T15:52:32.000",
    "request_status": "Pending",
    "responsible_agency": "Department of Sanitation",
    "final_address": "2239 Independence St",
    "address_councildis": "D",
    "status": "Assigned to Contractor",
    "contractor": "IV Waste",
    "rowid": "1097952",
    "final_x": "3692091.01366",
    "final_y": "539925.871818",
    "longitude": "-90.03432694046838",
    "latitude": "29.978283049662043",
    "geocoded_column": {
      "latitude": "29.978283049662043",
      "longitude": "-90.03432694046838"
    }
  },
  {
    "service_request": "2024-1097951",
    "request_type": "Property Maintenance",
    "request_reason": "Property Maintenance",
    "date_created": "2024-05-29T15:52:17.000",
    "date_modified": "2024-05-29T15:52:17.000",
    "request_status": "Pending",
    "responsible_agency": "Department of Code Enforcement",
    "final_address": "2652 Piety St",
    "address_councildis": "D",
    "status": "Pending",
    "rowid": "1097951",
    "final_x": "3691326.04867",
    "final_y": "541888.29134",
    "longitude": "-90.03667282880882",
    "latitude": "29.98370282517232",
    "geocoded_column": {
      "latitude": "29.98370282517232",
      "longitude": "-90.03667282880882"
    }
  },
  {
    "service_request": "2024-1097950",
    "request_type": "Trash/Recycling",
    "request_reason": "Missed Trash Pick-Up",
    "date_created": "2024-05-29T15:50:10.000",
    "date_modified": "2024-05-29T15:50:11.000",
    "request_status": "Pending",
    "responsible_agency": "Department of Sanitation",
    "final_address": "5516 Urquhart St",
    "address_councildis": "E",
    "status": "Assigned to Contractor",
    "contractor": "Waste Pro",
    "rowid": "1097950",
    "final_x": "3698022.0497",
    "final_y": "534497.895429",
    "longitude": "-90.01579181960619",
    "latitude": "29.9631718485776",
    "geocoded_column": {
      "latitude": "29.9631718485776",
      "longitude": "-90.01579181960619"
    }
  },
  {
    "service_request": "2024-1097949",
    "request_type": "Health Related Request",
    "request_reason": "Noise Ordinance Complaint",
    "date_created": "2024-05-29T15:45:16.000",
    "date_modified": "2024-05-29T15:45:16.000",
    "request_status": "Pending",
    "responsible_agency": "Health Department",
    "final_address": "5345 Baccich St",
    "address_councildis": "D",
    "status": "Pending",
    "rowid": "1097949",
    "final_x": "3687737.78761",
    "final_y": "552679.790294",
    "longitude": "-90.04762397909339",
    "latitude": "30.01348670726616",
    "geocoded_column": {
      "latitude": "30.01348670726616",
      "longitude": "-90.04762397909339"
    }
  },
  {
    "service_request": "2024-1097948",
    "request_type": "Traffic Signals/Signs/Striping/Streetlights",
    "request_reason": "Street Light Outage/Malfunction",
    "date_created": "2024-05-29T15:44:40.000",
    "date_modified": "2024-05-29T15:44:41.000",
    "request_status": "Pending",
    "responsible_agency": "Department of Public Works",
    "final_address": "10700 Dreux Ave",
    "address_councildis": "E",
    "status": "Assigned to Contractor",
    "contractor": "Legacy Professional Services",
    "rowid": "1097948",
    "final_x": "3715087.89765",
    "final_y": "555887.488601",
    "longitude": "-89.9610915699869",
    "latitude": "30.021434433628798",
    "geocoded_column": {
      "latitude": "30.021434433628798",
      "longitude": "-89.9610915699869"
    }
  },
  {
    "service_request": "2024-1097947",
    "request_type": "Abandoned Vehicles",
    "request_reason": "Abandoned/Junk Vehicles",
    "date_created": "2024-05-29T15:44:08.000",
    "date_modified": "2024-05-29T15:44:08.000",
    "request_status": "Pending",
    "responsible_agency": "Department of Public Works",
    "final_address": "2319 N Claiborne Ave",
    "address_councildis": "D",
    "status": "Inspected",
    "rowid": "1097947",
    "final_x": "3685782.58306",
    "final_y": "538253.249289",
    "longitude": "-90.05431017002725",
    "latitude": "29.973879062790193",
    "geocoded_column": {
      "latitude": "29.973879062790193",
      "longitude": "-90.05431017002725"
    }
  },
  {
    "service_request": "2024-1097946",
    "request_type": "Roads/Drainage",
    "request_reason": "Pothole",
    "date_created": "2024-05-29T15:42:47.000",
    "date_modified": "2024-05-29T15:42:47.000",
    "request_status": "Pending",
    "responsible_agency": "Department of Public Works",
    "final_address": "3901 Macarthur Blvd",
    "address_councildis": "C",
    "status": "Pending",
    "rowid": "1097946",
    "final_x": "3698084.55895",
    "final_y": "520378.098488",
    "longitude": "-90.01610700175507",
    "latitude": "29.92434535626145",
    "geocoded_column": {
      "latitude": "29.92434535626145",
      "longitude": "-90.01610700175507"
    }
  },
  {
    "service_request": "2024-1097945",
    "request_type": "Property Maintenance",
    "request_reason": "Property Maintenance",
    "date_created": "2024-05-29T15:42:35.000",
    "date_modified": "2024-05-29T15:42:35.000",
    "request_status": "Pending",
    "responsible_agency": "Department of Code Enforcement",
    "final_address": "2419 Feliciana St",
    "address_councildis": "D",
    "status": "Pending",
    "rowid": "1097945",
    "final_x": "3690032.05744",
    "final_y": "541107.089164",
    "longitude": "-90.04078776244769",
    "latitude": "29.981594998059876",
    "geocoded_column": {
      "latitude": "29.981594998059876",
      "longitude": "-90.04078776244769"
    }
  },
  {
    "service_request": "2024-1097944",
    "request_type": "Trash/Recycling",
    "request_reason": "Request a Large Item Pick Up",
    "date_created": "2024-05-29T15:40:47.000",
    "date_modified": "2024-05-29T15:40:48.000",
    "request_status": "Pending",
    "responsible_agency": "Department of Sanitation",
    "final_address": "1026 Marais St",
    "address_councildis": "C",
    "status": "Assigned to Contractor",
    "contractor": "IV Waste",
    "rowid": "1097944",
    "final_x": "3681408.44885",
    "final_y": "535035.822022",
    "longitude": "-90.06823683558679",
    "latitude": "29.96516577431069",
    "geocoded_column": {
      "latitude": "29.96516577431069",
      "longitude": "-90.06823683558679"
    }
  },
  {
    "service_request": "2024-1097943",
    "request_type": "Roads/Drainage",
    "request_reason": "Pothole",
    "date_created": "2024-05-29T15:37:45.000",
    "date_modified": "2024-05-29T15:37:45.000",
    "request_status": "Pending",
    "responsible_agency": "Department of Public Works",
    "final_address": "5823 Perrier St",
    "address_councildis": "A",
    "status": "Pending",
    "rowid": "1097943",
    "final_x": "3665601.07367",
    "final_y": "520421.208184",
    "longitude": "-90.11864512991228",
    "latitude": "29.92545071542357",
    "geocoded_column": {
      "latitude": "29.92545071542357",
      "longitude": "-90.11864512991228"
    }
  },
  {
    "service_request": "2024-1097942",
    "request_type": "Trash/Recycling",
    "request_reason": "Request a Large Item Pick Up",
    "date_created": "2024-05-29T15:35:39.000",
    "date_modified": "2024-05-29T15:35:40.000",
    "request_status": "Pending",
    "responsible_agency": "Department of Sanitation",
    "final_address": "7531 Willow St",
    "address_councildis": "A",
    "status": "Assigned to Contractor",
    "contractor": "IV Waste",
    "rowid": "1097942",
    "final_x": "3663887.24711",
    "final_y": "527621.261119",
    "longitude": "-90.12381525828374",
    "latitude": "29.94529842240596",
    "geocoded_column": {
      "latitude": "29.94529842240596",
      "longitude": "-90.12381525828374"
    }
  },
  {
    "service_request": "2024-1097941",
    "request_type": "Mosquito, Termite & Rodent Control",
    "request_reason": "Non-Rodent Complaint (Mice, Possums, Snakes)",
    "date_created": "2024-05-29T15:30:55.000",
    "date_modified": "2024-05-29T15:30:55.000",
    "request_status": "Pending",
    "responsible_agency": "Mosquito, Termite & Rodent Control Board",
    "final_address": "1551 Shirley Dr",
    "address_councildis": "C",
    "status": "Pending",
    "rowid": "1097941",
    "final_x": "3692960.5112",
    "final_y": "524958.050365",
    "longitude": "-90.03211760482928",
    "latitude": "29.937099642389022",
    "geocoded_column": {
      "latitude": "29.937099642389022",
      "longitude": "-90.03211760482928"
    }
  },
  {
    "service_request": "2024-1097940",
    "request_type": "Trash/Recycling",
    "request_reason": "Return Recycling Cart",
    "date_created": "2024-05-29T15:29:29.000",
    "date_modified": "2024-05-29T15:29:29.000",
    "request_status": "Pending",
    "responsible_agency": "Department of Sanitation",
    "final_address": "4323 Annunciation St",
    "address_councildis": "B",
    "status": "Pending",
    "rowid": "1097940",
    "final_x": "3671360.46747",
    "final_y": "517813.432886",
    "longitude": "-90.10055303421463",
    "latitude": "29.918111026839423",
    "geocoded_column": {
      "latitude": "29.918111026839423",
      "longitude": "-90.10055303421463"
    }
  },
  {
    "service_request": "2024-1097939",
    "request_type": "Trash/Recycling",
    "request_reason": "Request a Large Item Pick Up",
    "date_created": "2024-05-29T15:23:44.000",
    "date_modified": "2024-05-29T15:23:45.000",
    "request_status": "Pending",
    "responsible_agency": "Department of Sanitation",
    "final_address": "1311 St Mary St",
    "address_councildis": "B",
    "status": "Assigned to Contractor",
    "contractor": "IV Waste",
    "rowid": "1097939",
    "final_x": "3679225.93339",
    "final_y": "523457.990267",
    "longitude": "-90.07553044888037",
    "latitude": "29.933396691117768",
    "geocoded_column": {
      "latitude": "29.933396691117768",
      "longitude": "-90.07553044888037"
    }
  },
  {
    "service_request": "2024-1097938",
    "request_type": "Trash/Recycling",
    "request_reason": "Repair Trash Cart",
    "date_created": "2024-05-29T15:22:16.000",
    "date_modified": "2024-05-29T15:22:16.000",
    "request_status": "Pending",
    "responsible_agency": "Department of Sanitation",
    "final_address": "3307 Annunciation St",
    "address_councildis": "B",
    "status": "Assigned to Contractor",
    "contractor": "IV Waste",
    "rowid": "1097938",
    "final_x": "3675753.63003",
    "final_y": "518776.970167",
    "longitude": "-90.08665309889064",
    "latitude": "29.92062975085604",
    "geocoded_column": {
      "latitude": "29.92062975085604",
      "longitude": "-90.08665309889064"
    }
  },
  {
    "service_request": "2024-1097937",
    "request_type": "Trash/Recycling",
    "request_reason": "Missed Trash Pick-Up",
    "date_created": "2024-05-29T15:21:55.000",
    "date_modified": "2024-05-29T15:21:56.000",
    "request_status": "Pending",
    "responsible_agency": "Department of Sanitation",
    "final_address": "6381 Eastover Dr",
    "address_councildis": "E",
    "status": "Assigned to Contractor",
    "contractor": "Waste Pro",
    "rowid": "1097937",
    "final_x": "3718235.65874",
    "final_y": "563560.61296",
    "longitude": "-89.9508531063115",
    "latitude": "30.04242840456935",
    "geocoded_column": {
      "latitude": "30.04242840456935",
      "longitude": "-89.9508531063115"
    }
  },
  {
    "service_request": "2024-1097936",
    "request_type": "Trash/Recycling",
    "request_reason": "Request a Large Item Pick Up",
    "date_created": "2024-05-29T15:20:56.000",
    "date_modified": "2024-05-29T15:20:56.000",
    "request_status": "Pending",
    "responsible_agency": "Department of Sanitation",
    "final_address": "3307 Annunciation St",
    "address_councildis": "B",
    "status": "Assigned to Contractor",
    "contractor": "IV Waste",
    "rowid": "1097936",
    "final_x": "3675753.63003",
    "final_y": "518776.970167",
    "longitude": "-90.08665309889064",
    "latitude": "29.92062975085604",
    "geocoded_column": {
      "latitude": "29.92062975085604",
      "longitude": "-90.08665309889064"
    }
  },
  {
    "service_request": "2024-1097935",
    "request_type": "Trash/Recycling",
    "request_reason": "Illegal Dumping",
    "date_created": "2024-05-29T15:20:24.000",
    "date_modified": "2024-05-29T15:20:24.000",
    "request_status": "Pending",
    "responsible_agency": "Department of Sanitation",
    "final_address": "LAVENDER ST & PEOPLES AVE",
    "address_councildis": "D",
    "status": "Pending",
    "rowid": "1097935",
    "final_x": "3688482.8",
    "final_y": "547045.18",
    "longitude": "-90.04547022646666",
    "latitude": "29.997970580541956",
    "geocoded_column": {
      "latitude": "29.997970580541956",
      "longitude": "-90.04547022646666"
    }
  },
  {
    "service_request": "2024-1097934",
    "request_type": "Trash/Recycling",
    "request_reason": "Return Trash Cart",
    "date_created": "2024-05-29T15:18:04.000",
    "date_modified": "2024-05-29T15:18:05.000",
    "request_status": "Pending",
    "responsible_agency": "Department of Sanitation",
    "final_address": "7721 Shubert St",
    "address_councildis": "E",
    "status": "Assigned to Contractor",
    "contractor": "Waste Pro",
    "rowid": "1097934",
    "final_x": "3695703.39638",
    "final_y": "559162.124124",
    "longitude": "-90.02222261127496",
    "latitude": "30.03106250474244",
    "geocoded_column": {
      "latitude": "30.03106250474244",
      "longitude": "-90.02222261127496"
    }
  },
  {
    "service_request": "2024-1097933",
    "request_type": "Health Related Request",
    "request_reason": "Smoke-Free Ordinance Complaint",
    "date_created": "2024-05-29T15:16:23.000",
    "date_modified": "2024-05-29T15:23:12.000",
    "case_close_date": "2024-05-29T10:23:12.000",
    "request_status": "Closed",
    "responsible_agency": "Health Department",
    "final_address": "1237 N Galvez St",
    "address_councildis": "D",
    "status": "Unfounded",
    "rowid": "1097933",
    "final_x": "3679583.00392",
    "final_y": "537430.68244",
    "longitude": "-90.073918366622",
    "latitude": "29.97180611137115",
    "geocoded_column": {
      "latitude": "29.97180611137115",
      "longitude": "-90.073918366622"
    }
  },
  {
    "service_request": "2024-1097932",
    "request_type": "Trash/Recycling",
    "request_reason": "Request a Large Item Pick Up",
    "date_created": "2024-05-29T15:15:41.000",
    "date_modified": "2024-05-29T15:15:42.000",
    "request_status": "Pending",
    "responsible_agency": "Department of Sanitation",
    "final_address": "5911 Painters St",
    "address_councildis": "D",
    "status": "Assigned to Contractor",
    "contractor": "IV Waste",
    "rowid": "1097932",
    "final_x": "3686164.71772",
    "final_y": "554895.484312",
    "longitude": "-90.05251579426154",
    "latitude": "30.019627490195678",
    "geocoded_column": {
      "latitude": "30.019627490195678",
      "longitude": "-90.05251579426154"
    }
  },
  {
    "service_request": "2024-1097931",
    "request_type": "Trash/Recycling",
    "request_reason": "Request a Large Item Pick Up",
    "date_created": "2024-05-29T15:15:23.000",
    "date_modified": "2024-05-29T16:49:00.000",
    "case_close_date": "2024-05-29T11:49:00.000",
    "request_status": "Closed",
    "responsible_agency": "Department of Sanitation",
    "final_address": "11283 Winrock Dr",
    "address_councildis": "E",
    "status": "Assigned to Contractor",
    "contractor": "Waste Pro",
    "contractor_action": "Completed",
    "rowid": "1097931",
    "final_x": "3716712.63884",
    "final_y": "561668.571935",
    "longitude": "-89.95573828024344",
    "latitude": "30.037276496200594",
    "geocoded_column": {
      "latitude": "30.037276496200594",
      "longitude": "-89.95573828024344"
    }
  },
  {
    "service_request": "2024-1097930",
    "request_type": "Traffic Signals/Signs/Striping/Streetlights",
    "request_reason": "Traffic Signal Malfunctioning/Damaged",
    "date_created": "2024-05-29T15:11:12.000",
    "date_modified": "2024-05-29T15:11:12.000",
    "request_status": "Pending",
    "responsible_agency": "Department of Public Works",
    "final_address": "W HARRISON AVE & PONTCHARTRAIN BLVD & HARRISON AVE",
    "address_councildis": "A",
    "status": "Pending",
    "rowid": "1097930",
    "final_x": "3666195.8",
    "final_y": "549576.28",
    "longitude": "-90.11578982849903",
    "latitude": "30.005600174486602",
    "geocoded_column": {
      "latitude": "30.005600174486602",
      "longitude": "-90.11578982849903"
    }
  },
  {
    "service_request": "2024-1097929",
    "request_type": "Trash/Recycling",
    "request_reason": "Repair Recycling Cart",
    "date_created": "2024-05-29T15:07:19.000",
    "date_modified": "2024-05-29T15:07:19.000",
    "request_status": "Pending",
    "responsible_agency": "Department of Sanitation",
    "final_address": "5387 Charlotte Dr",
    "address_councildis": "D",
    "status": "Pending",
    "rowid": "1097929",
    "final_x": "3680166.8516",
    "final_y": "552305.825366",
    "longitude": "-90.07155717280224",
    "latitude": "30.012689850365504",
    "geocoded_column": {
      "latitude": "30.012689850365504",
      "longitude": "-90.07155717280224"
    }
  },
  {
    "service_request": "2024-1097928",
    "request_type": "Trash/Recycling",
    "request_reason": "Missed Trash Pick-Up",
    "date_created": "2024-05-29T15:06:20.000",
    "date_modified": "2024-05-29T15:06:21.000",
    "request_status": "Pending",
    "responsible_agency": "Department of Sanitation",
    "final_address": "11283 Winrock Dr",
    "address_councildis": "E",
    "status": "Assigned to Contractor",
    "contractor": "Waste Pro",
    "rowid": "1097928",
    "final_x": "3716712.63884",
    "final_y": "561668.571935",
    "longitude": "-89.95573828024344",
    "latitude": "30.037276496200594",
    "geocoded_column": {
      "latitude": "30.037276496200594",
      "longitude": "-89.95573828024344"
    }
  },
  {
    "service_request": "2024-1097927",
    "request_type": "Trash/Recycling",
    "request_reason": "Request a Large Item Pick Up",
    "date_created": "2024-05-29T15:04:15.000",
    "date_modified": "2024-05-29T15:04:15.000",
    "request_status": "Pending",
    "responsible_agency": "Department of Sanitation",
    "final_address": "3011 Calhoun St",
    "address_councildis": "A",
    "status": "Assigned to Contractor",
    "contractor": "IV Waste",
    "rowid": "1097927",
    "final_x": "3666943.23783",
    "final_y": "527644.834175",
    "longitude": "-90.11416569881195",
    "latitude": "29.94527418745526",
    "geocoded_column": {
      "latitude": "29.94527418745526",
      "longitude": "-90.11416569881195"
    }
  },
  {
    "service_request": "2024-1097926",
    "request_type": "Trash/Recycling",
    "request_reason": "Request a Large Item Pick Up",
    "date_created": "2024-05-29T15:03:45.000",
    "date_modified": "2024-05-29T15:03:46.000",
    "request_status": "Pending",
    "responsible_agency": "Department of Sanitation",
    "final_address": "New Orleans,LA",
    "status": "Assigned to Contractor",
    "rowid": "1097926",
    "longitude": "0.0",
    "latitude": "0.0",
    "geocoded_column": {
      "latitude": "0.0",
      "longitude": "0.0"
    }
  },
  {
    "service_request": "2024-1097925",
    "request_type": "Trash/Recycling",
    "request_reason": "Request a Large Item Pick Up",
    "date_created": "2024-05-29T15:03:09.000",
    "date_modified": "2024-05-29T15:03:10.000",
    "request_status": "Pending",
    "responsible_agency": "Department of Sanitation",
    "final_address": "3401 Annunciation St",
    "address_councildis": "B",
    "status": "Assigned to Contractor",
    "contractor": "IV Waste",
    "rowid": "1097925",
    "final_x": "3675348.05326",
    "final_y": "518605.898231",
    "longitude": "-90.08793918760863",
    "latitude": "29.920171485210638",
    "geocoded_column": {
      "latitude": "29.920171485210638",
      "longitude": "-90.08793918760863"
    }
  },
  {
    "service_request": "2024-1097924",
    "request_type": "Trash/Recycling",
    "request_reason": "Replace Trash Cart",
    "date_created": "2024-05-29T15:02:50.000",
    "date_modified": "2024-05-29T15:18:20.000",
    "request_status": "Pending",
    "responsible_agency": "Department of Sanitation",
    "final_address": "435 Audubon St",
    "address_councildis": "A",
    "status": "Assigned to Contractor",
    "contractor": "IV Waste",
    "rowid": "1097924",
    "final_x": "3662303.45427",
    "final_y": "523079.206715",
    "longitude": "-90.12896655203383",
    "latitude": "29.932855087943405",
    "geocoded_column": {
      "latitude": "29.932855087943405",
      "longitude": "-90.12896655203383"
    }
  },
  {
    "service_request": "2024-1097923",
    "request_type": "Safety & Permits",
    "request_reason": "Construction permit",
    "date_created": "2024-05-29T14:59:54.000",
    "date_modified": "2024-05-29T14:59:54.000",
    "request_status": "Pending",
    "responsible_agency": "Safety and Permits",
    "final_address": "2033 Dumaine St",
    "address_councildis": "D",
    "status": "Pending",
    "rowid": "1097923",
    "final_x": "3679169.05461",
    "final_y": "536034.348743",
    "longitude": "-90.07527410037542",
    "latitude": "29.967979176169784",
    "geocoded_column": {
      "latitude": "29.967979176169784",
      "longitude": "-90.07527410037542"
    }
  },
  {
    "service_request": "2024-1097922",
    "request_type": "Property Maintenance",
    "request_reason": "Property Maintenance",
    "date_created": "2024-05-29T14:58:44.000",
    "date_modified": "2024-05-29T15:49:01.000",
    "case_close_date": "2024-05-29T10:49:01.000",
    "request_status": "Closed",
    "responsible_agency": "Department of Code Enforcement",
    "final_address": "2025 Dumaine St",
    "address_councildis": "D",
    "status": "Referred to Code Enforcement",
    "rowid": "1097922",
    "final_x": "3679200.72162",
    "final_y": "536009.613703",
    "longitude": "-90.07517495256164",
    "latitude": "29.967910207220616",
    "geocoded_column": {
      "latitude": "29.967910207220616",
      "longitude": "-90.07517495256164"
    }
  },
  {
    "service_request": "2024-1097921",
    "request_type": "Property Maintenance",
    "request_reason": "Property Maintenance",
    "date_created": "2024-05-29T14:57:49.000",
    "date_modified": "2024-05-29T14:57:49.000",
    "request_status": "Pending",
    "responsible_agency": "Department of Code Enforcement",
    "final_address": "2016 Dumaine St",
    "address_councildis": "D",
    "status": "Pending",
    "rowid": "1097921",
    "final_x": "3679211.65256",
    "final_y": "535901.296135",
    "longitude": "-90.07514418839651",
    "latitude": "29.9676120409163",
    "geocoded_column": {
      "latitude": "29.9676120409163",
      "longitude": "-90.07514418839651"
    }
  },
  {
    "service_request": "2024-1097920",
    "request_type": "Trash/Recycling",
    "request_reason": "Repair Trash Cart",
    "date_created": "2024-05-29T14:57:29.000",
    "date_modified": "2024-05-29T14:57:30.000",
    "request_status": "Pending",
    "responsible_agency": "Department of Sanitation",
    "final_address": "2410 Bristol Pl",
    "address_councildis": "C",
    "status": "Assigned to Contractor",
    "contractor": "Richards Disposal",
    "rowid": "1097920",
    "final_x": "3702699.16094",
    "final_y": "522181.491322",
    "longitude": "-90.00147423546959",
    "latitude": "29.92915739009808",
    "geocoded_column": {
      "latitude": "29.92915739009808",
      "longitude": "-90.00147423546959"
    }
  },
  {
    "service_request": "2024-1097919",
    "request_type": "Property Maintenance",
    "request_reason": "Property Maintenance",
    "date_created": "2024-05-29T14:56:56.000",
    "date_modified": "2024-05-29T14:56:56.000",
    "request_status": "Pending",
    "responsible_agency": "Department of Code Enforcement",
    "final_address": "2018 Dumaine St",
    "address_councildis": "D",
    "status": "Pending",
    "rowid": "1097919",
    "final_x": "3679203.31925",
    "final_y": "535909.282183",
    "longitude": "-90.07517022826022",
    "latitude": "29.96763425141972",
    "geocoded_column": {
      "latitude": "29.96763425141972",
      "longitude": "-90.07517022826022"
    }
  },
  {
    "service_request": "2024-1097918",
    "request_type": "Healthy Homes",
    "request_reason": "Healthy Homes",
    "date_created": "2024-05-29T14:56:20.000",
    "date_modified": "2024-05-29T14:56:20.000",
    "request_status": "Pending",
    "responsible_agency": "Department of Code Enforcement",
    "final_address": "2018 Dumaine St",
    "address_councildis": "D",
    "status": "Pending",
    "rowid": "1097918",
    "final_x": "3679203.31925",
    "final_y": "535909.282183",
    "longitude": "-90.07517022826022",
    "latitude": "29.96763425141972",
    "geocoded_column": {
      "latitude": "29.96763425141972",
      "longitude": "-90.07517022826022"
    }
  },
  {
    "service_request": "2024-1097917",
    "request_type": "Trash/Recycling",
    "request_reason": "Repair Trash Cart",
    "date_created": "2024-05-29T14:56:07.000",
    "date_modified": "2024-05-29T14:56:08.000",
    "request_status": "Pending",
    "responsible_agency": "Department of Sanitation",
    "final_address": "2410 Bristol Pl",
    "address_councildis": "C",
    "status": "Assigned to Contractor",
    "contractor": "Richards Disposal",
    "rowid": "1097917",
    "final_x": "3702699.16094",
    "final_y": "522181.491322",
    "longitude": "-90.00147423546959",
    "latitude": "29.92915739009808",
    "geocoded_column": {
      "latitude": "29.92915739009808",
      "longitude": "-90.00147423546959"
    }
  },
  {
    "service_request": "2024-1097916",
    "request_type": "Trash/Recycling",
    "request_reason": "Repair Trash Cart",
    "date_created": "2024-05-29T14:55:03.000",
    "date_modified": "2024-05-29T14:55:03.000",
    "request_status": "Pending",
    "responsible_agency": "Department of Sanitation",
    "final_address": "1862 Industry St",
    "address_councildis": "D",
    "status": "Assigned to Contractor",
    "contractor": "IV Waste",
    "rowid": "1097916",
    "final_x": "3682086.24476",
    "final_y": "542709.159501",
    "longitude": "-90.06582834558228",
    "latitude": "29.986244191710746",
    "geocoded_column": {
      "latitude": "29.986244191710746",
      "longitude": "-90.06582834558228"
    }
  },
  {
    "service_request": "2024-1097915",
    "request_type": "Abandoned Vehicles",
    "request_reason": "Vehicle Blocking Your Driveway",
    "date_created": "2024-05-29T14:51:56.000",
    "date_modified": "2024-05-29T14:51:56.000",
    "request_status": "Pending",
    "responsible_agency": "Department of Public Works",
    "final_address": "5801 Garfield St",
    "address_councildis": "A",
    "status": "Pending",
    "rowid": "1097915",
    "final_x": "3665908.02496",
    "final_y": "521411.038585",
    "longitude": "-90.11764302551224",
    "latitude": "29.928163485724156",
    "geocoded_column": {
      "latitude": "29.928163485724156",
      "longitude": "-90.11764302551224"
    }
  },
  {
    "service_request": "2024-1097914",
    "request_type": "Abandoned Vehicles",
    "request_reason": "Abandoned/Junk Vehicles",
    "date_created": "2024-05-29T14:51:31.000",
    "date_modified": "2024-05-29T14:51:31.000",
    "request_status": "Pending",
    "responsible_agency": "Department of Public Works",
    "final_address": "1813 N Robertson St",
    "address_councildis": "C",
    "status": "Inspected",
    "rowid": "1097914",
    "final_x": "3683509.39823",
    "final_y": "537733.624392",
    "longitude": "-90.06150759753184",
    "latitude": "29.972519848920914",
    "geocoded_column": {
      "latitude": "29.972519848920914",
      "longitude": "-90.06150759753184"
    }
  },
  {
    "service_request": "2024-1097913",
    "request_type": "Trash/Recycling",
    "request_reason": "Request a Large Item Pick Up",
    "date_created": "2024-05-29T14:50:12.000",
    "date_modified": "2024-05-29T14:50:13.000",
    "request_status": "Pending",
    "responsible_agency": "Department of Sanitation",
    "final_address": "8009 Vanderkloot Ave",
    "address_councildis": "E",
    "status": "Assigned to Contractor",
    "contractor": "Waste Pro",
    "rowid": "1097913",
    "final_x": "3705390.98705",
    "final_y": "564316.570273",
    "longitude": "-89.99141900491878",
    "latitude": "30.044926849203407",
    "geocoded_column": {
      "latitude": "30.044926849203407",
      "longitude": "-89.99141900491878"
    }
  },
  {
    "service_request": "2024-1097912",
    "request_type": "Trash/Recycling",
    "request_reason": "Request a Large Item Pick Up",
    "date_created": "2024-05-29T14:49:47.000",
    "date_modified": "2024-05-29T14:49:48.000",
    "request_status": "Pending",
    "responsible_agency": "Department of Sanitation",
    "final_address": "7153 Bunker Hill Rd",
    "address_councildis": "E",
    "status": "Assigned to Contractor",
    "contractor": "Waste Pro",
    "rowid": "1097912",
    "final_x": "3705661.63249",
    "final_y": "561021.870366",
    "longitude": "-89.99068565718676",
    "latitude": "30.035859009657194",
    "geocoded_column": {
      "latitude": "30.035859009657194",
      "longitude": "-89.99068565718676"
    }
  },
  {
    "service_request": "2024-1097911",
    "request_type": "EMS",
    "request_reason": "EMS Lost & Found",
    "date_created": "2024-05-29T14:49:28.000",
    "date_modified": "2024-05-29T14:49:28.000",
    "request_status": "Pending",
    "responsible_agency": "Emergency Medical Services",
    "final_address": "6420 Chef Menteur Hwy",
    "address_councildis": "E",
    "status": "Pending",
    "rowid": "1097911",
    "final_x": "3698514.56343",
    "final_y": "551665.555605",
    "longitude": "-90.01361212637978",
    "latitude": "30.01036104805558",
    "geocoded_column": {
      "latitude": "30.01036104805558",
      "longitude": "-90.01361212637978"
    }
  },
  {
    "service_request": "2024-1097910",
    "request_type": "Traffic Signals/Signs/Striping/Streetlights",
    "request_reason": "Street Light Outage/Malfunction",
    "date_created": "2024-05-29T14:49:06.000",
    "date_modified": "2024-05-29T14:49:07.000",
    "request_status": "Pending",
    "responsible_agency": "Department of Public Works",
    "final_address": "3300 BLK Fourth St",
    "address_councildis": "B",
    "status": "Assigned to Contractor",
    "contractor": "Legacy Professional Services",
    "rowid": "1097910",
    "final_x": "3672748.67678",
    "final_y": "527901.187096",
    "longitude": "-90.09582731358294",
    "latitude": "29.945807951324863",
    "geocoded_column": {
      "latitude": "29.945807951324863",
      "longitude": "-90.09582731358294"
    }
  },
  {
    "service_request": "2024-1097909",
    "request_type": "Traffic Signals/Signs/Striping/Streetlights",
    "request_reason": "Additional signage",
    "date_created": "2024-05-29T14:48:53.000",
    "date_modified": "2024-05-29T14:48:53.000",
    "request_status": "Pending",
    "responsible_agency": "Department of Public Works",
    "final_address": "NAPOLEON AVE & S GALVEZ ST",
    "address_councildis": "B",
    "status": "Pending",
    "rowid": "1097909",
    "final_x": "3670155.3",
    "final_y": "527475.78",
    "longitude": "-90.10402990077517",
    "latitude": "29.94471497954966",
    "geocoded_column": {
      "latitude": "29.94471497954966",
      "longitude": "-90.10402990077517"
    }
  },
  {
    "service_request": "2024-1097908",
    "request_type": "Abandoned Vehicles",
    "request_reason": "Abandoned/Junk Vehicles",
    "date_created": "2024-05-29T14:45:55.000",
    "date_modified": "2024-05-29T14:45:56.000",
    "request_status": "Pending",
    "responsible_agency": "Department of Public Works",
    "final_address": "2011 Burgundy St",
    "address_councildis": "C",
    "status": "Pending",
    "rowid": "1097908",
    "final_x": "3684398.61954",
    "final_y": "535560.82951",
    "longitude": "-90.05877561136326",
    "latitude": "29.966518248071743",
    "geocoded_column": {
      "latitude": "29.966518248071743",
      "longitude": "-90.05877561136326"
    }
  },
  {
    "service_request": "2024-1097907",
    "request_type": "Trash/Recycling",
    "request_reason": "Replace Recycling Cart",
    "date_created": "2024-05-29T14:45:08.000",
    "date_modified": "2024-05-29T14:45:08.000",
    "request_status": "Pending",
    "responsible_agency": "Department of Sanitation",
    "final_address": "1423 Pine St",
    "address_councildis": "A",
    "status": "Pending",
    "rowid": "1097907",
    "final_x": "3664494.86317",
    "final_y": "527364.868863",
    "longitude": "-90.12190537170652",
    "latitude": "29.944575776135945",
    "geocoded_column": {
      "latitude": "29.944575776135945",
      "longitude": "-90.12190537170652"
    }
  },
  {
    "service_request": "2024-1097906",
    "request_type": "Roads/Drainage",
    "request_reason": "Pothole",
    "date_created": "2024-05-29T14:43:36.000",
    "date_modified": "2024-05-29T14:43:36.000",
    "request_status": "Pending",
    "responsible_agency": "Department of Public Works",
    "final_address": "600 BLK Constance St",
    "address_councildis": "B",
    "status": "Pending",
    "rowid": "1097906",
    "final_x": "3681569.24247",
    "final_y": "528493.193457",
    "longitude": "-90.067957225121",
    "latitude": "29.947170883965494",
    "geocoded_column": {
      "latitude": "29.947170883965494",
      "longitude": "-90.067957225121"
    }
  },
  {
    "service_request": "2024-1097905",
    "request_type": "Traffic Signals/Signs/Striping/Streetlights",
    "request_reason": "Street Light Outage/Malfunction",
    "date_created": "2024-05-29T14:43:23.000",
    "date_modified": "2024-05-29T14:43:24.000",
    "request_status": "Pending",
    "responsible_agency": "Department of Public Works",
    "final_address": "4635 Werner Dr",
    "address_councildis": "E",
    "status": "Assigned to Contractor",
    "contractor": "Legacy Professional Services",
    "rowid": "1097905",
    "final_x": "3704884.17617",
    "final_y": "554620.760792",
    "longitude": "-89.99337909826853",
    "latitude": "30.018283473291124",
    "geocoded_column": {
      "latitude": "30.018283473291124",
      "longitude": "-89.99337909826853"
    }
  },