[
  {
    "service_request": "2022-870650",
    "request_type": "Trash/Recycling",
    "request_reason": "Repair Recycling Cart",
    "date_created": "2022-03-30T01:32:16.000",
    "date_modified": "2022-03-30T01:32:16.000",
    "request_status": "Pending",
    "responsible_agency": "Department of Sanitation",
    "final_address": "4162 Vincennes Pl",
    "address_councildis": "B",
    "status": "Pending",
    "rowid": "870650",
    "final_x": "3668596.79969",
    "final_y": "530981.477442",
    "longitude": "-90.10883228361622",
    "latitude": "29.954400386968956",
    "geocoded_column": {
      "latitude": "29.954400386968956",
      "longitude": "-90.10883228361622"
    }
  },
  {
    "service_request": "2022-870649",
    "request_type": "Traffic Signals/Signs/Striping/Streetlights",
    "request_reason": "Street Light Outage/Malfunction",
    "date_created": "2022-03-30T01:29:14.000",
    "date_modified": "2022-03-30T01:29:15.000",
    "request_status": "Pending",
    "responsible_agency": "Department of Public Works",
    "final_address": "4162 Vincennes Pl",
    "address_councildis": "B",
    "status": "Pending",
    "contractor": "Royal Engineering",
    "rowid": "870649",
    "final_x": "3668596.79969",
    "final_y": "530981.477442",
    "longitude": "-90.10883228361622",
    "latitude": "29.954400386968956",
    "geocoded_column": {
      "latitude": "29.954400386968956",
      "longitude": "-90.10883228361622"
    }
  },
  {
    "service_request": "2022-870648",
    "request_type": "Trash/Recycling",
    "request_reason": "Replace Trash Cart",
    "date_created": "2022-03-30T01:23:57.000",
    "date_modified": "2022-03-30T01:23:58.000",
    "request_status": "Pending",
    "responsible_agency": "Department of Sanitation",
    "final_address": "4162 Vincennes Pl",
    "address_councildis": "B",
    "status": "Assigned to Contractor",
    "contractor": "Richards Disposal",
    "rowid": "870648",
    "final_x": "3668596.79969",
    "final_y": "530981.477442",
    "longitude": "-90.10883228361622",
    "latitude": "29.954400386968956",
    "geocoded_column": {
      "latitude": "29.954400386968956",
      "longitude": "-90.10883228361622"
    }
  },
  {
    "service_request": "2022-870647",
    "request_type": "Health Related Questions",
    "request_reason": "Noise Ordinance Complaint",
    "date_created": "2022-03-30T00:41:43.000",
    "date_modified": "2022-03-30T00:41:43.000",
    "request_status": "Pending",
    "responsible_agency": "Health Department",
    "final_address": "718 Bourbon St, New Orleans, Louisiana, 70116",
    "address_councildis": "C",
    "status": "Pending",
    "rowid": "870647",
    "final_x": "3682364.17781",
    "final_y": "532746.008004",
    "longitude": "-90.06529872053143",
    "latitude": "29.95884052062511",
    "geocoded_column": {
      "latitude": "29.95884052062511",
      "longitude": "-90.06529872053143"
    }
  },
  {
    "service_request": "2022-870646",
    "request_type": "Trash/Recycling",
    "request_reason": "Request a Large Item Pick Up",
    "date_created": "2022-03-30T00:39:45.000",
    "date_modified": "2022-03-30T00:39:46.000",
    "request_status": "Pending",
    "responsible_agency": "Department of Sanitation",
    "final_address": "819 Saint Ann St, New Orleans, Louisiana, 70116",
    "status": "Assigned to Contractor",
    "rowid": "870646",
    "longitude": "0.0",
    "latitude": "0.0",
    "geocoded_column": {
      "latitude": "0.0",
      "longitude": "0.0"
    }
  },
  {
    "service_request": "2022-870645",
    "request_type": "Health Related Questions",
    "request_reason": "Noise Ordinance Complaint",
    "date_created": "2022-03-30T00:25:56.000",
    "date_modified": "2022-03-30T00:25:56.000",
    "request_status": "Pending",
    "responsible_agency": "Health Department",
    "final_address": "718 Bourbon St, New Orleans, Louisiana, 70116",
    "address_councildis": "C",
    "status": "Pending",
    "rowid": "870645",
    "final_x": "3682364.17781",
    "final_y": "532746.008004",
    "longitude": "-90.06529872053143",
    "latitude": "29.95884052062511",
    "geocoded_column": {
      "latitude": "29.95884052062511",
      "longitude": "-90.06529872053143"
    }
  },
  {
    "service_request": "2022-870644",
    "request_type": "Health Related Questions",
    "request_reason": "Noise Ordinance Complaint",
    "date_created": "2022-03-30T00:11:45.000",
    "date_modified": "2022-03-30T00:11:45.000",
    "request_status": "Pending",
    "responsible_agency": "Health Department",
    "final_address": "718 Bourbon St, New Orleans, Louisiana, 70116",
    "address_councildis": "C",
    "status": "Pending",
    "rowid": "870644",
    "final_x": "3682364.17781",
    "final_y": "532746.008004",
    "longitude": "-90.06529872053143",
    "latitude": "29.95884052062511",
    "geocoded_column": {
      "latitude": "29.95884052062511",
      "longitude": "-90.06529872053143"
    }
  },
  {
    "service_request": "2022-870643",
    "request_type": "Health Related Questions",
    "request_reason": "Noise Ordinance Complaint",
    "date_created": "2022-03-30T00:11:25.000",
    "date_modified": "2022-03-30T00:11:25.000",
    "request_status": "Pending",
    "responsible_agency": "Health Department",
    "final_address": "718 Bourbon St, New Orleans, Louisiana, 70116",
    "address_councildis": "C",
    "status": "Pending",
    "rowid": "870643",
    "final_x": "3682364.17781",
    "final_y": "532746.008004",
    "longitude": "-90.06529872053143",
    "latitude": "29.95884052062511",
    "geocoded_column": {
      "latitude": "29.95884052062511",
      "longitude": "-90.06529872053143"
    }
  },
  {
    "service_request": "2022-870642",
    "request_type": "Health Related Questions",
    "request_reason": "Noise Ordinance Complaint",
    "date_created": "2022-03-30T00:11:04.000",
    "date_modified": "2022-03-30T00:11:04.000",
    "request_status": "Pending",
    "responsible_agency": "Health Department",
    "final_address": "718 Bourbon St, New Orleans, Louisiana, 70116",
    "address_councildis": "C",
    "status": "Pending",
    "rowid": "870642",
    "final_x": "3682364.17781",
    "final_y": "532746.008004",
    "longitude": "-90.06529872053143",
    "latitude": "29.95884052062511",
    "geocoded_column": {
      "latitude": "29.95884052062511",
      "longitude": "-90.06529872053143"
    }
  },
  {
    "service_request": "2022-870641",
    "request_type": "Health Related Questions",
    "request_reason": "Noise Ordinance Complaint",
    "date_created": "2022-03-30T00:04:47.000",
    "date_modified": "2022-03-30T00:04:47.000",
    "request_status": "Pending",
    "responsible_agency": "Health Department",
    "final_address": "718 Bourbon St, New Orleans, Louisiana, 70116",
    "address_councildis": "C",
    "status": "Pending",
    "rowid": "870641",
    "final_x": "3682364.17781",
    "final_y": "532746.008004",
    "longitude": "-90.06529872053143",
    "latitude": "29.95884052062511",
    "geocoded_column": {
      "latitude": "29.95884052062511",
      "longitude": "-90.06529872053143"
    }
  },
  {
    "service_request": "2022-870640",
    "request_type": "Trash/Recycling",
    "request_reason": "Order Trash Cart",
    "date_created": "2022-03-30T00:00:59.000",
    "date_modified": "2022-03-30T00:01:03.000",
    "request_status": "Pending",
    "responsible_agency": "Department of Sanitation",
    "final_address": "4547 Paris Ave",
    "address_councildis": "D",
    "status": "Assigned to Contractor",
    "contractor": "Metro Disposal",
    "rowid": "870640",
    "final_x": "3679474.95663",
    "final_y": "549643.643604",
    "longitude": "-90.07383563396391",
    "latitude": "30.005390737943145",
    "geocoded_column": {
      "latitude": "30.005390737943145",
      "longitude": "-90.07383563396391"
    }
  },
  {
    "service_request": "2022-870639",
    "request_type": "Health Related Questions",
    "request_reason": "Noise Ordinance Complaint",
    "date_created": "2022-03-29T23:57:46.000",
    "date_modified": "2022-03-29T23:57:46.000",
    "request_status": "Pending",
    "responsible_agency": "Health Department",
    "final_address": "718 Bourbon St, New Orleans, Louisiana, 70116",
    "address_councildis": "C",
    "status": "Pending",
    "rowid": "870639",
    "final_x": "3682364.17781",
    "final_y": "532746.008004",
    "longitude": "-90.06529872053143",
    "latitude": "29.95884052062511",
    "geocoded_column": {
      "latitude": "29.95884052062511",
      "longitude": "-90.06529872053143"
    }
  },
  {
    "service_request": "2022-870638",
    "request_type": "Health Related Questions",
    "request_reason": "Noise Ordinance Complaint",
    "date_created": "2022-03-29T23:32:56.000",
    "date_modified": "2022-03-29T23:32:56.000",
    "request_status": "Pending",
    "responsible_agency": "Health Department",
    "final_address": "711 Bourbon St, New Orleans, Louisiana, 70116",
    "address_councildis": "C",
    "status": "Pending",
    "rowid": "870638",
    "final_x": "3682299.38447",
    "final_y": "532765.705988",
    "longitude": "-90.06550263299877",
    "latitude": "29.95889665479323",
    "geocoded_column": {
      "latitude": "29.95889665479323",
      "longitude": "-90.06550263299877"
    }
  },
  {
    "service_request": "2022-870637",
    "request_type": "Trash/Recycling",
    "request_reason": "Repair Recycling Cart",
    "date_created": "2022-03-29T23:26:50.000",
    "date_modified": "2022-03-29T23:26:50.000",
    "request_status": "Pending",
    "responsible_agency": "Department of Sanitation",
    "final_address": "3541 Silver Maple Ct",
    "address_councildis": "C",
    "status": "Pending",
    "rowid": "870637",
    "final_x": "3703190.08266",
    "final_y": "512438.588849",
    "longitude": "-90.00028231644679",
    "latitude": "29.902352052463144",
    "geocoded_column": {
      "latitude": "29.902352052463144",
      "longitude": "-90.00028231644679"
    }
  },
  {
    "service_request": "2022-870636",
    "request_type": "Abandoned Vehicles",
    "request_reason": "Abandoned/Junk Vehicles",
    "date_created": "2022-03-29T23:23:46.000",
    "date_modified": "2022-03-29T23:23:46.000",
    "request_status": "Pending",
    "responsible_agency": "Department of Public Works",
    "final_address": "2224 St Ann St",
    "address_councildis": "D",
    "status": "Pending",
    "rowid": "870636",
    "final_x": "3678383.94875",
    "final_y": "536030.214855",
    "longitude": "-90.07775363578345",
    "latitude": "29.967991487970508",
    "geocoded_column": {
      "latitude": "29.967991487970508",
      "longitude": "-90.07775363578345"
    }
  },
  {
    "service_request": "2022-870635",
    "request_type": "Health Related Questions",
    "request_reason": "Noise Ordinance Complaint",
    "date_created": "2022-03-29T23:16:19.000",
    "date_modified": "2022-03-29T23:16:19.000",
    "request_status": "Pending",
    "responsible_agency": "Health Department",
    "final_address": "711 Bourbon St, New Orleans, Louisiana, 70116",
    "address_councildis": "C",
    "status": "Pending",
    "rowid": "870635",
    "final_x": "3682299.38447",
    "final_y": "532765.705988",
    "longitude": "-90.06550263299877",
    "latitude": "29.95889665479323",
    "geocoded_column": {
      "latitude": "29.95889665479323",
      "longitude": "-90.06550263299877"
    }
  },
  {
    "service_request": "2022-870634",
    "request_type": "Health Related Questions",
    "request_reason": "Noise Ordinance Complaint",
    "date_created": "2022-03-29T23:15:47.000",
    "date_modified": "2022-03-29T23:15:47.000",
    "request_status": "Pending",
    "responsible_agency": "Health Department",
    "final_address": "711 Bourbon St, New Orleans, Louisiana, 70116",
    "address_councildis": "C",
    "status": "Pending",
    "rowid": "870634",
    "final_x": "3682299.38447",
    "final_y": "532765.705988",
    "longitude": "-90.06550263299877",
    "latitude": "29.95889665479323",
    "geocoded_column": {
      "latitude": "29.95889665479323",
      "longitude": "-90.06550263299877"
    }
  },
  {
    "service_request": "2022-870633",
    "request_type": "Trash/Recycling",
    "request_reason": "Missed Trash Pick-Up",
    "date_created": "2022-03-29T23:12:15.000",
    "date_modified": "2022-03-29T23:12:16.000",
    "request_status": "Pending",
    "responsible_agency": "Department of Sanitation",
    "final_address": "6663 Avenue A",
    "address_councildis": "A",
    "status": "Assigned to Contractor",
    "contractor": "Metro Disposal",
    "rowid": "870633",
    "final_x": "3666127.5161",
    "final_y": "552495.997526",
    "longitude": "-90.11590755036863",
    "latitude": "30.013630375254785",
    "geocoded_column": {
      "latitude": "30.013630375254785",
      "longitude": "-90.11590755036863"
    }
  },
  {
    "service_request": "2022-870631",
    "request_type": "Traffic Signals/Signs/Striping/Streetlights",
    "request_reason": "Street Light Outage/Malfunction",
    "date_created": "2022-03-29T22:59:24.000",
    "date_modified": "2022-03-29T22:59:25.000",
    "request_status": "Pending",
    "responsible_agency": "Department of Public Works",
    "final_address": "1536 St Roch Ave",
    "address_councildis": "C",
    "status": "Pending",
    "contractor": "Royal Engineering",
    "rowid": "870631",
    "final_x": "3686273.86774",
    "final_y": "538182.611337",
    "longitude": "-90.05276108066712",
    "latitude": "29.973669745261617",
    "geocoded_column": {
      "latitude": "29.973669745261617",
      "longitude": "-90.05276108066712"
    }
  },
  {
    "service_request": "2022-870630",
    "request_type": "Traffic Signals/Signs/Striping/Streetlights",
    "request_reason": "Street Light Outage/Malfunction",
    "date_created": "2022-03-29T22:58:19.000",
    "date_modified": "2022-03-29T22:58:20.000",
    "request_status": "Pending",
    "responsible_agency": "Department of Public Works",
    "final_address": "1532 St Roch Ave",
    "address_councildis": "C",
    "status": "Pending",
    "contractor": "Royal Engineering",
    "rowid": "870630",
    "final_x": "3686272.01692",
    "final_y": "538146.696841",
    "longitude": "-90.05276819356094",
    "latitude": "29.973571049849244",
    "geocoded_column": {
      "latitude": "29.973571049849244",
      "longitude": "-90.05276819356094"
    }
  },
  {
    "service_request": "2022-870628",
    "request_type": "Health Related Questions",
    "request_reason": "Noise Ordinance Complaint",
    "date_created": "2022-03-29T22:57:19.000",
    "date_modified": "2022-03-29T22:57:19.000",
    "request_status": "Pending",
    "responsible_agency": "Health Department",
    "final_address": "711 Bourbon St, New Orleans, Louisiana, 70116",
    "address_councildis": "C",
    "status": "Pending",
    "rowid": "870628",
    "final_x": "3682299.38447",
    "final_y": "532765.705988",
    "longitude": "-90.06550263299877",
    "latitude": "29.95889665479323",
    "geocoded_column": {
      "latitude": "29.95889665479323",
      "longitude": "-90.06550263299877"
    }
  },
  {
    "service_request": "2022-870629",
    "request_type": "Trash/Recycling",
    "request_reason": "Request a Large Item Pick Up",
    "date_created": "2022-03-29T22:57:19.000",
    "date_modified": "2022-03-29T22:57:20.000",
    "request_status": "Pending",
    "responsible_agency": "Department of Sanitation",
    "final_address": "2347 N Claiborne Ave",
    "address_councildis": "D",
    "status": "Assigned to Contractor",
    "contractor": "Metro Disposal",
    "rowid": "870629",
    "final_x": "3686060.05225",
    "final_y": "538277.770057",
    "longitude": "-90.05343299762539",
    "latitude": "29.973937967176425",
    "geocoded_column": {
      "latitude": "29.973937967176425",
      "longitude": "-90.05343299762539"
    }
  },
  {
    "service_request": "2022-870627",
    "request_type": "Trash/Recycling",
    "request_reason": "Request a Large Item Pick Up",
    "date_created": "2022-03-29T22:56:38.000",
    "date_modified": "2022-03-29T22:56:39.000",
    "request_status": "Pending",
    "responsible_agency": "Department of Sanitation",
    "final_address": "2345 N Claiborne Ave",
    "address_councildis": "D",
    "status": "Assigned to Contractor",
    "contractor": "Metro Disposal",
    "rowid": "870627",
    "final_x": "3686031.36354",
    "final_y": "538271.316553",
    "longitude": "-90.0535238304416",
    "latitude": "29.973921103400723",
    "geocoded_column": {
      "latitude": "29.973921103400723",
      "longitude": "-90.0535238304416"
    }
  },
  {
    "service_request": "2022-870626",
    "request_type": "Health Related Questions",
    "request_reason": "Noise Ordinance Complaint",
    "date_created": "2022-03-29T22:43:29.000",
    "date_modified": "2022-03-29T22:43:29.000",
    "request_status": "Pending",
    "responsible_agency": "Health Department",
    "final_address": "711 Bourbon St, New Orleans, Louisiana, 70116",
    "address_councildis": "C",
    "status": "Pending",
    "rowid": "870626",
    "final_x": "3682299.38447",
    "final_y": "532765.705988",
    "longitude": "-90.06550263299877",
    "latitude": "29.95889665479323",
    "geocoded_column": {
      "latitude": "29.95889665479323",
      "longitude": "-90.06550263299877"
    }
  },
  {
    "service_request": "2022-870625",
    "request_type": "Trash/Recycling",
    "request_reason": "MIssed Recycling Pick-Up",
    "date_created": "2022-03-29T22:30:52.000",
    "date_modified": "2022-03-29T22:30:53.000",
    "request_status": "Pending",
    "responsible_agency": "Department of Sanitation",
    "final_address": "2126 Valmont St",
    "address_councildis": "B",
    "status": "Assigned to Contractor",
    "contractor": "Richards Disposal",
    "rowid": "870625",
    "final_x": "3668093.53377",
    "final_y": "523466.683195",
    "longitude": "-90.11067459983748",
    "latitude": "29.93375191420886",
    "geocoded_column": {
      "latitude": "29.93375191420886",
      "longitude": "-90.11067459983748"
    }
  },
  {
    "service_request": "2022-870624",
    "request_type": "Roads/Drainage",
    "request_reason": "Pothole",
    "date_created": "2022-03-29T22:29:55.000",
    "date_modified": "2022-03-29T22:29:55.000",
    "request_status": "Pending",
    "responsible_agency": "Department of Public Works",
    "final_address": "11021 Lake Forest Blvd",
    "address_councildis": "E",
    "status": "Pending",
    "rowid": "870624",
    "final_x": "3714405.61515",
    "final_y": "560590.509406",
    "longitude": "-89.96306966566267",
    "latitude": "30.034388319484936",
    "geocoded_column": {
      "latitude": "30.034388319484936",
      "longitude": "-89.96306966566267"
    }
  },
  {
    "service_request": "2022-870623",
    "request_type": "Health Related Questions",
    "request_reason": "Noise Ordinance Complaint",
    "date_created": "2022-03-29T22:26:32.000",
    "date_modified": "2022-03-29T22:26:32.000",
    "request_status": "Pending",
    "responsible_agency": "Health Department",
    "final_address": "711 Bourbon St, New Orleans, Louisiana, 70116",
    "address_councildis": "C",
    "status": "Pending",
    "rowid": "870623",
    "final_x": "3682299.38447",
    "final_y": "532765.705988",
    "longitude": "-90.06550263299877",
    "latitude": "29.95889665479323",
    "geocoded_column": {
      "latitude": "29.95889665479323",
      "longitude": "-90.06550263299877"
    }
  },
  {
    "service_request": "2022-870622",
    "request_type": "Health Related Questions",
    "request_reason": "Noise Ordinance Complaint",
    "date_created": "2022-03-29T22:26:08.000",
    "date_modified": "2022-03-29T22:26:08.000",
    "request_status": "Pending",
    "responsible_agency": "Health Department",
    "final_address": "711 Bourbon St, New Orleans, Louisiana, 70116",
    "address_councildis": "C",
    "status": "Pending",
    "rowid": "870622",
    "final_x": "3682299.38447",
    "final_y": "532765.705988",
    "longitude": "-90.06550263299877",
    "latitude": "29.95889665479323",
    "geocoded_column": {
      "latitude": "29.95889665479323",
      "longitude": "-90.06550263299877"
    }
  },
  {
    "service_request": "2022-870621",
    "request_type": "Roads/Drainage",
    "request_reason": "Pothole",
    "date_created": "2022-03-29T22:18:31.000",
    "date_modified": "2022-03-29T22:18:31.000",
    "request_status": "Pending",
    "responsible_agency": "Department of Public Works",
    "final_address": "10101 Lake Forest Blvd",
    "address_councildis": "E",
    "status": "Pending",
    "rowid": "870621",
    "final_x": "3711938.26546",
    "final_y": "560199.761309",
    "longitude": "-89.97088143346714",
    "latitude": "30.03339481735599",
    "geocoded_column": {
      "latitude": "30.03339481735599",
      "longitude": "-89.97088143346714"
    }
  },
  {
    "service_request": "2022-870620",
    "request_type": "Roads/Drainage",
    "request_reason": "Pothole",
    "date_created": "2022-03-29T22:15:26.000",
    "date_modified": "2022-03-29T22:15:26.000",
    "request_status": "Pending",
    "responsible_agency": "Department of Public Works",
    "final_address": "10911 Lake Forest Blvd",
    "address_councildis": "E",
    "status": "Pending",
    "rowid": "870620",
    "final_x": "3713785.40063",
    "final_y": "560368.857566",
    "longitude": "-89.96503797213117",
    "latitude": "30.033799244623992",
    "geocoded_column": {
      "latitude": "30.033799244623992",
      "longitude": "-89.96503797213117"
    }
  },
  {
    "service_request": "2022-870619",
    "request_type": "Roads/Drainage",
    "request_reason": "Pothole",
    "date_created": "2022-03-29T22:12:19.000",
    "date_modified": "2022-03-29T22:12:19.000",
    "request_status": "Pending",
    "responsible_agency": "Department of Public Works",
    "final_address": "10545 Lake Forest Blvd",
    "address_councildis": "E",
    "status": "Pending",
    "rowid": "870619",
    "final_x": "3712628.35858",
    "final_y": "560148.191197",
    "longitude": "-89.968702629458",
    "latitude": "30.03323044004656",
    "geocoded_column": {
      "latitude": "30.03323044004656",
      "longitude": "-89.968702629458"
    }
  },
  {
    "service_request": "2022-870618",
    "request_type": "Health Related Questions",
    "request_reason": "Noise Ordinance Complaint",
    "date_created": "2022-03-29T22:02:42.000",
    "date_modified": "2022-03-29T22:02:42.000",
    "request_status": "Pending",
    "responsible_agency": "Health Department",
    "final_address": "711 Bourbon St, New Orleans, Louisiana, 70116",
    "address_councildis": "C",
    "status": "Pending",
    "rowid": "870618",
    "final_x": "3682299.38447",
    "final_y": "532765.705988",
    "longitude": "-90.06550263299877",
    "latitude": "29.95889665479323",
    "geocoded_column": {
      "latitude": "29.95889665479323",
      "longitude": "-90.06550263299877"
    }
  },
  {
    "service_request": "2022-870617",
    "request_type": "Health Related Questions",
    "request_reason": "Noise Ordinance Complaint",
    "date_created": "2022-03-29T22:02:14.000",
    "date_modified": "2022-03-29T22:02:14.000",
    "request_status": "Pending",
    "responsible_agency": "Health Department",
    "final_address": "711 Bourbon St, New Orleans, Louisiana, 70116",
    "address_councildis": "C",
    "status": "Pending",
    "rowid": "870617",
    "final_x": "3682299.38447",
    "final_y": "532765.705988",
    "longitude": "-90.06550263299877",
    "latitude": "29.95889665479323",
    "geocoded_column": {
      "latitude": "29.95889665479323",
      "longitude": "-90.06550263299877"
    }
  },
  {
    "service_request": "2022-870616",
    "request_type": "Health Related Questions",
    "request_reason": "Noise Ordinance Complaint",
    "date_created": "2022-03-29T21:47:19.000",
    "date_modified": "2022-03-29T21:47:19.000",
    "request_status": "Pending",
    "responsible_agency": "Health Department",
    "final_address": "711 Bourbon St, New Orleans, Louisiana, 70116",
    "address_councildis": "C",
    "status": "Pending",
    "rowid": "870616",
    "final_x": "3682299.38447",
    "final_y": "532765.705988",
    "longitude": "-90.06550263299877",
    "latitude": "29.95889665479323",
    "geocoded_column": {
      "latitude": "29.95889665479323",
      "longitude": "-90.06550263299877"
    }
  },
  {
    "service_request": "2022-870615",
    "request_type": "Health Related Questions",
    "request_reason": "Noise Ordinance Complaint",
    "date_created": "2022-03-29T21:43:02.000",
    "date_modified": "2022-03-29T21:43:02.000",
    "request_status": "Pending",
    "responsible_agency": "Health Department",
    "final_address": "711 Bourbon St, New Orleans, Louisiana, 70116",
    "address_councildis": "C",
    "status": "Pending",
    "rowid": "870615",
    "final_x": "3682299.38447",
    "final_y": "532765.705988",
    "longitude": "-90.06550263299877",
    "latitude": "29.95889665479323",
    "geocoded_column": {
      "latitude": "29.95889665479323",
      "longitude": "-90.06550263299877"
    }
  },
  {
    "service_request": "2022-870614",
    "request_type": "Health Related Questions",
    "request_reason": "Noise Ordinance Complaint",
    "date_created": "2022-03-29T21:42:58.000",
    "date_modified": "2022-03-29T21:42:58.000",
    "request_status": "Pending",
    "responsible_agency": "Health Department",
    "final_address": "711 Bourbon St, New Orleans, Louisiana, 70116",
    "address_councildis": "C",
    "status": "Pending",
    "rowid": "870614",
    "final_x": "3682299.38447",
    "final_y": "532765.705988",
    "longitude": "-90.06550263299877",
    "latitude": "29.95889665479323",
    "geocoded_column": {
      "latitude": "29.95889665479323",
      "longitude": "-90.06550263299877"
    }
  },
  {
    "service_request": "2022-870613",
    "request_type": "Abandoned Vehicles",
    "request_reason": "Abandoned/Junk Vehicles",
    "date_created": "2022-03-29T21:27:21.000",
    "date_modified": "2022-03-29T21:27:21.000",
    "request_status": "Pending",
    "responsible_agency": "Department of Public Works",
    "final_address": "1926 Fern St",
    "address_councildis": "A",
    "status": "Pending",
    "rowid": "870613",
    "final_x": "3664309.86516",
    "final_y": "529864.030529",
    "longitude": "-90.12240607939155",
    "latitude": "29.951453042279255",
    "geocoded_column": {
      "latitude": "29.951453042279255",
      "longitude": "-90.12240607939155"
    }
  },
  {
    "service_request": "2022-870612",
    "request_type": "Trash/Recycling",
    "request_reason": "Missed Trash Pick-Up",
    "date_created": "2022-03-29T21:24:05.000",
    "date_modified": "2022-03-29T21:24:06.000",
    "request_status": "Pending",
    "responsible_agency": "Department of Sanitation",
    "final_address": "N WHITE ST & FORTIN ST",
    "address_councildis": "A",
    "status": "Assigned to Contractor",
    "contractor": "Metro Disposal",
    "rowid": "870612",
    "final_x": "3677724.7",
    "final_y": "540911.98",
    "longitude": "-90.0796668921155",
    "latitude": "29.981434512080998",
    "geocoded_column": {
      "latitude": "29.981434512080998",
      "longitude": "-90.0796668921155"
    }
  },
  {
    "service_request": "2022-870611",
    "request_type": "Traffic Signals/Signs/Striping/Streetlights",
    "request_reason": "Street Light Outage/Malfunction",
    "date_created": "2022-03-29T21:03:01.000",
    "date_modified": "2022-03-29T21:03:01.000",
    "request_status": "Pending",
    "responsible_agency": "Department of Public Works",
    "final_address": "7500 Surf St",
    "address_councildis": "E",
    "status": "Pending",
    "contractor": "Royal Engineering",
    "rowid": "870611",
    "final_x": "3715900.75237",
    "final_y": "568589.648613",
    "longitude": "-89.95804147866413",
    "latitude": "30.05633344941775",
    "geocoded_column": {
      "latitude": "30.05633344941775",
      "longitude": "-89.95804147866413"
    }
  },
  {
    "service_request": "2022-870610",
    "request_type": "Trash/Recycling",
    "request_reason": "Request a Large Item Pick Up",
    "date_created": "2022-03-29T20:56:23.000",
    "date_modified": "2022-03-29T20:56:24.000",
    "request_status": "Pending",
    "responsible_agency": "Department of Sanitation",
    "final_address": "6811 Louis Xiv St",
    "address_councildis": "A",
    "status": "Assigned to Contractor",
    "contractor": "Metro Disposal",
    "rowid": "870610",
    "final_x": "3668677.22068",
    "final_y": "552812.38479",
    "longitude": "-90.10784109222101",
    "latitude": "30.014425594623713",
    "geocoded_column": {
      "latitude": "30.014425594623713",
      "longitude": "-90.10784109222101"
    }
  },
  {
    "service_request": "2022-870609",
    "request_type": "Abandoned Vehicles",
    "request_reason": "Abandoned/Junk Vehicles",
    "date_created": "2022-03-29T20:51:39.000",
    "date_modified": "2022-03-29T20:51:39.000",
    "request_status": "Pending",
    "responsible_agency": "Department of Public Works",
    "final_address": "11970 Hayne Blvd",
    "address_councildis": "E",
    "status": "Pending",
    "rowid": "870609",
    "final_x": "3712404.67467",
    "final_y": "568906.504933",
    "longitude": "-89.96907995894705",
    "latitude": "30.05731958908702",
    "geocoded_column": {
      "latitude": "30.05731958908702",
      "longitude": "-89.96907995894705"
    }
  },
  {
    "service_request": "2022-870608",
    "request_type": "Traffic Signals/Signs/Striping/Streetlights",
    "request_reason": "Street Light Outage/Malfunction",
    "date_created": "2022-03-29T20:47:41.000",
    "date_modified": "2022-03-29T20:47:41.000",
    "request_status": "Pending",
    "responsible_agency": "Department of Public Works",
    "final_address": "7600 Bullard Ave",
    "address_councildis": "E",
    "status": "Pending",
    "contractor": "Royal Engineering",
    "rowid": "870608",
    "final_x": "3713150.5724",
    "final_y": "567214.285412",
    "longitude": "-89.96678609349951",
    "latitude": "30.05264223771682",
    "geocoded_column": {
      "latitude": "30.05264223771682",
      "longitude": "-89.96678609349951"
    }
  },
  {
    "service_request": "2022-870607",
    "request_type": "Trash/Recycling",
    "request_reason": "Missed Trash Pick-Up",
    "date_created": "2022-03-29T20:43:20.000",
    "date_modified": "2022-03-29T20:43:21.000",
    "request_status": "Pending",
    "responsible_agency": "Department of Sanitation",
    "final_address": "1927 Marengo St",
    "address_councildis": "B",
    "status": "Assigned to Contractor",
    "contractor": "Richards Disposal",
    "rowid": "870607",
    "final_x": "3671901.55585",
    "final_y": "522286.386874",
    "longitude": "-90.09869297941121",
    "latitude": "29.93039420264244",
    "geocoded_column": {
      "latitude": "29.93039420264244",
      "longitude": "-90.09869297941121"
    }
  },
  {
    "service_request": "2022-870606",
    "request_type": "Traffic Signals/Signs/Striping/Streetlights",
    "request_reason": "Street Light Outage/Malfunction",
    "date_created": "2022-03-29T20:17:55.000",
    "date_modified": "2022-03-29T20:17:56.000",
    "request_status": "Pending",
    "responsible_agency": "Department of Public Works",
    "final_address": "8640 Hayne Blvd",
    "address_councildis": "E",
    "status": "Pending",
    "contractor": "Royal Engineering",
    "rowid": "870606",
    "final_x": "3703719.25438",
    "final_y": "563691.145505",
    "longitude": "-89.99672548618732",
    "latitude": "30.04326090438546",
    "geocoded_column": {
      "latitude": "30.04326090438546",
      "longitude": "-89.99672548618732"
    }
  },
  {
    "service_request": "2022-870605",
    "request_type": "Abandoned Vehicles",
    "request_reason": "Abandoned/Junk Vehicles",
    "date_created": "2022-03-29T20:08:25.000",
    "date_modified": "2022-03-29T20:08:25.000",
    "request_status": "Pending",
    "responsible_agency": "Department of Public Works",
    "final_address": "3843 Desire Prkwy",
    "address_councildis": "D",
    "status": "Pending",
    "rowid": "870605",
    "final_x": "3692634.88457",
    "final_y": "546961.797585",
    "longitude": "-90.03235690082039",
    "latitude": "29.997612337818445",
    "geocoded_column": {
      "latitude": "29.997612337818445",
      "longitude": "-90.03235690082039"
    }
  },
  {
    "service_request": "2022-870604",
    "request_type": "Trash/Recycling",
    "request_reason": "Request a Large Item Pick Up",
    "date_created": "2022-03-29T20:04:40.000",
    "date_modified": "2022-03-29T20:04:41.000",
    "request_status": "Pending",
    "responsible_agency": "Department of Sanitation",
    "final_address": "1400 Governor Nicholls St",
    "address_councildis": "C",
    "status": "Assigned to Contractor",
    "contractor": "Richards Disposal",
    "rowid": "870604",
    "final_x": "3681649.47573",
    "final_y": "535486.706694",
    "longitude": "-90.06745995603487",
    "latitude": "29.96639823303778",
    "geocoded_column": {
      "latitude": "29.96639823303778",
      "longitude": "-90.06745995603487"
    }
  },
  {
    "service_request": "2022-870603",
    "request_type": "Traffic Signals/Signs/Striping/Streetlights",
    "request_reason": "Street Light Outage/Malfunction",
    "date_created": "2022-03-29T20:03:53.000",
    "date_modified": "2022-03-29T20:03:54.000",
    "request_status": "Pending",
    "responsible_agency": "Department of Public Works",
    "final_address": "MANDOLIN ST & ST ANTHONY AVE",
    "address_councildis": "D",
    "status": "Pending",
    "contractor": "Royal Engineering",
    "rowid": "870603",
    "final_x": "3682510.1",
    "final_y": "548337.68",
    "longitude": "-90.06429265394442",
    "latitude": "30.001707724431682",
    "geocoded_column": {
      "latitude": "30.001707724431682",
      "longitude": "-90.06429265394442"
    }
  },
  {
    "service_request": "2022-870602",
    "request_type": "Roads/Drainage",
    "request_reason": "Damaged Sidewalk",
    "date_created": "2022-03-29T19:54:25.000",
    "date_modified": "2022-03-29T19:54:25.000",
    "request_status": "Pending",
    "responsible_agency": "Department of Public Works",
    "final_address": "2762 Iberville St",
    "address_councildis": "B",
    "status": "Pending",
    "rowid": "870602",
    "final_x": "3675150.91758",
    "final_y": "535753.751751",
    "longitude": "-90.08797316403795",
    "latitude": "29.967328323150884",
    "geocoded_column": {
      "latitude": "29.967328323150884",
      "longitude": "-90.08797316403795"
    }
  },
  {
    "service_request": "2022-870601",
    "request_type": "Roads/Drainage",
    "request_reason": "Pothole",
    "date_created": "2022-03-29T19:52:17.000",
    "date_modified": "2022-03-29T19:52:17.000",
    "request_status": "Pending",
    "responsible_agency": "Department of Public Works",
    "final_address": "100 BLK Burgundy St",
    "address_councildis": "C",
    "status": "Pending",
    "rowid": "870601",
    "final_x": "3680474.56355",
    "final_y": "531510.788472",
    "longitude": "-90.07130859970957",
    "latitude": "29.95550144907972",
    "geocoded_column": {
      "latitude": "29.95550144907972",
      "longitude": "-90.07130859970957"
    }
  },
  {
    "service_request": "2022-870600",
    "request_type": "Trash/Recycling",
    "request_reason": "Request a Large Item Pick Up",
    "date_created": "2022-03-29T19:45:54.000",
    "date_modified": "2022-03-29T19:45:55.000",
    "request_status": "Pending",
    "responsible_agency": "Department of Sanitation",
    "final_address": "5179 De Montluzin St",
    "address_councildis": "D",
    "status": "Assigned to Contractor",
    "contractor": "Metro Disposal",
    "rowid": "870600",
    "final_x": "3687096.15894",
    "final_y": "551753.854677",
    "longitude": "-90.04968395762869",
    "latitude": "30.010960504454975",
    "geocoded_column": {
      "latitude": "30.010960504454975",
      "longitude": "-90.04968395762869"
    }
  },
  {
    "service_request": "2022-870599",
    "request_type": "Property Maintenance",
    "request_reason": "Property Maintenance",
    "date_created": "2022-03-29T19:32:33.000",
    "date_modified": "2022-03-29T19:32:33.000",
    "request_status": "Pending",
    "responsible_agency": "Department of Code Enforcement",
    "final_address": "3839 Frenchmen St",
    "address_councildis": "D",
    "status": "Pending",
    "rowid": "870599",
    "final_x": "3683771.36962",
    "final_y": "546912.645713",
    "longitude": "-90.06035819229871",
    "latitude": "29.99775092184955",
    "geocoded_column": {
      "latitude": "29.99775092184955",
      "longitude": "-90.06035819229871"
    }
  },
  {
    "service_request": "2022-870598",
    "request_type": "Traffic Signals/Signs/Striping/Streetlights",
    "request_reason": "Disabled Parking Sign ",
    "date_created": "2022-03-29T19:30:26.000",
    "date_modified": "2022-03-29T19:30:26.000",
    "request_status": "Pending",
    "responsible_agency": "Department of Public Works",
    "final_address": "807 Spain St",
    "address_councildis": "C",
    "status": "Pending",
    "rowid": "870598",
    "final_x": "3686244.16188",
    "final_y": "535403.58759",
    "longitude": "-90.052952970744",
    "latitude": "29.966029311725457",
    "geocoded_column": {
      "latitude": "29.966029311725457",
      "longitude": "-90.052952970744"
    }
  },
  {
    "service_request": "2022-870597",
    "request_type": "Property Maintenance",
    "request_reason": "Property Maintenance",
    "date_created": "2022-03-29T19:17:58.000",
    "date_modified": "2022-03-29T19:17:58.000",
    "request_status": "Pending",
    "responsible_agency": "Department of Code Enforcement",
    "final_address": "3151 N Rocheblave St",
    "address_councildis": "D",
    "status": "Pending",
    "rowid": "870597",
    "final_x": "3690638.18576",
    "final_y": "540841.157323",
    "longitude": "-90.03888282223237",
    "latitude": "29.980844966249673",
    "geocoded_column": {
      "latitude": "29.980844966249673",
      "longitude": "-90.03888282223237"
    }
  },
  {
    "service_request": "2022-870596",
    "request_type": "Trash/Recycling",
    "request_reason": "Order Recycling Cart",
    "date_created": "2022-03-29T19:01:50.000",
    "date_modified": "2022-03-29T19:01:50.000",
    "request_status": "Pending",
    "responsible_agency": "Department of Sanitation",
    "final_address": "1927 Burdette St",
    "address_councildis": "A",
    "status": "Pending",
    "rowid": "870596",
    "final_x": "3664625.09095",
    "final_y": "529540.809793",
    "longitude": "-90.12142154009877",
    "latitude": "29.95055512605686",
    "geocoded_column": {
      "latitude": "29.95055512605686",
      "longitude": "-90.12142154009877"
    }
  },
  {
    "service_request": "2022-870595",
    "request_type": "Roads/Drainage",
    "request_reason": "Damaged Sidewalk",
    "date_created": "2022-03-29T18:57:34.000",
    "date_modified": "2022-03-29T18:57:34.000",
    "request_status": "Pending",
    "responsible_agency": "Department of Public Works",
    "final_address": "124 Baronne St",
    "address_councildis": "B",
    "status": "Pending",
    "rowid": "870595",
    "final_x": "3680455.9373",
    "final_y": "530887.210882",
    "longitude": "-90.07138910016289",
    "latitude": "29.95378738548055",
    "geocoded_column": {
      "latitude": "29.95378738548055",
      "longitude": "-90.07138910016289"
    }
  },
  {
    "service_request": "2022-870594",
    "request_type": "Trash/Recycling",
    "request_reason": "Order Trash Cart",
    "date_created": "2022-03-29T18:48:17.000",
    "date_modified": "2022-03-29T18:48:18.000",
    "request_status": "Pending",
    "responsible_agency": "Department of Sanitation",
    "final_address": "2216 Clouet St",
    "address_councildis": "D",
    "status": "Assigned to Contractor",
    "contractor": "Metro Disposal",
    "rowid": "870594",
    "final_x": "3690038.90633",
    "final_y": "540298.268299",
    "longitude": "-90.0407949474407",
    "latitude": "29.97937081630536",
    "geocoded_column": {
      "latitude": "29.97937081630536",
      "longitude": "-90.0407949474407"
    }
  },
  {
    "service_request": "2022-870593",
    "request_type": "Trash/Recycling",
    "request_reason": "Start Trash Service",
    "date_created": "2022-03-29T18:47:39.000",
    "date_modified": "2022-03-29T18:47:40.000",
    "request_status": "Pending",
    "responsible_agency": "Department of Sanitation",
    "final_address": "2216 Clouet St",
    "address_councildis": "D",
    "status": "Assigned to Contractor",
    "contractor": "Metro Disposal",
    "rowid": "870593",
    "final_x": "3690038.90633",
    "final_y": "540298.268299",
    "longitude": "-90.0407949474407",
    "latitude": "29.97937081630536",
    "geocoded_column": {
      "latitude": "29.97937081630536",
      "longitude": "-90.0407949474407"
    }
  },
  {
    "service_request": "2022-870592",
    "request_type": "Trash/Recycling",
    "request_reason": "Request a Large Item Pick Up",
    "date_created": "2022-03-29T18:45:31.000",
    "date_modified": "2022-03-29T19:01:05.000",
    "case_close_date": "2022-03-28T19:00:00.000",
    "request_status": "Closed",
    "responsible_agency": "Department of Sanitation",
    "final_address": "3011 Sullen Pl",
    "address_councildis": "C",
    "status": "Canceled By Citizen",
    "contractor": "Richards Disposal",
    "rowid": "870592",
    "final_x": "3707785.08331",
    "final_y": "519617.937592",
    "longitude": "-89.98551429608008",
    "latitude": "29.921944987773887",
    "geocoded_column": {
      "latitude": "29.921944987773887",
      "longitude": "-89.98551429608008"
    }
  },
  {
    "service_request": "2022-870591",
    "request_type": "Traffic Signals/Signs/Striping/Streetlights",
    "request_reason": "Traffic Sign Missing/Damaged",
    "date_created": "2022-03-29T18:23:39.000",
    "date_modified": "2022-03-29T18:23:39.000",
    "request_status": "Pending",
    "responsible_agency": "Department of Public Works",
    "final_address": "1476 N Derbigny St",
    "address_councildis": "D",
    "status": "Pending",
    "rowid": "870591",
    "final_x": "3681408.80444",
    "final_y": "537324.730952",
    "longitude": "-90.0681559020888",
    "latitude": "29.97145947571705",
    "geocoded_column": {
      "latitude": "29.97145947571705",
      "longitude": "-90.0681559020888"
    }
  },
  {
    "service_request": "2022-870590",
    "request_type": "Traffic Signals/Signs/Striping/Streetlights",
    "request_reason": "Traffic Sign Missing/Damaged",
    "date_created": "2022-03-29T18:15:14.000",
    "date_modified": "2022-03-29T18:15:14.000",
    "request_status": "Pending",
    "responsible_agency": "Department of Public Works",
    "final_address": "333 Girod St",
    "address_councildis": "B",
    "status": "Pending",
    "rowid": "870590",
    "final_x": "3681881.54223",
    "final_y": "528244.71168",
    "longitude": "-90.06697984864125",
    "latitude": "29.94647815587424",
    "geocoded_column": {
      "latitude": "29.94647815587424",
      "longitude": "-90.06697984864125"
    }
  },
  {
    "service_request": "2022-870589",
    "request_type": "Trash/Recycling",
    "request_reason": "Order Trash Cart",
    "date_created": "2022-03-29T18:12:59.000",
    "date_modified": "2022-03-29T18:59:10.000",
    "request_status": "Pending",
    "responsible_agency": "Department of Sanitation",
    "final_address": "4431 San Remo Road, New Orleans 70129",
    "address_councildis": "E",
    "status": "Assigned to Contractor",
    "contractor": "Metro Disposal",
    "rowid": "870589",
    "final_x": "3760592.13116",
    "final_y": "574176.668714",
    "longitude": "-89.81654950465938",
    "latitude": "30.07014454561395",
    "geocoded_column": {
      "latitude": "30.07014454561395",
      "longitude": "-89.81654950465938"
    }
  },
  {
    "service_request": "2022-870588",
    "request_type": "Trash/Recycling",
    "request_reason": "MIssed Recycling Pick-Up",
    "date_created": "2022-03-29T18:03:08.000",
    "date_modified": "2022-03-29T18:03:09.000",
    "request_status": "Pending",
    "responsible_agency": "Department of Sanitation",
    "final_address": "2611 Palmyra St",
    "address_councildis": "B",
    "status": "Assigned to Contractor",
    "contractor": "Richards Disposal",
    "rowid": "870588",
    "final_x": "3675256.9691",
    "final_y": "534222.639941",
    "longitude": "-90.08769081566376",
    "latitude": "29.96311511292509",
    "geocoded_column": {
      "latitude": "29.96311511292509",
      "longitude": "-90.08769081566376"
    }
  },
  {
    "service_request": "2022-870587",
    "request_type": "Traffic Signals/Signs/Striping/Streetlights",
    "request_reason": "Traffic Signal Malfunctioning/Damaged",
    "date_created": "2022-03-29T17:49:20.000",
    "date_modified": "2022-03-29T17:49:20.000",
    "request_status": "Pending",
    "responsible_agency": "Department of Public Works",
    "final_address": "333 Girod St",
    "address_councildis": "B",
    "status": "Pending",
    "rowid": "870587",
    "final_x": "3681881.54223",
    "final_y": "528244.71168",
    "longitude": "-90.06697984864125",
    "latitude": "29.94647815587424",
    "geocoded_column": {
      "latitude": "29.94647815587424",
      "longitude": "-90.06697984864125"
    }
  },
  {
    "service_request": "2022-870586",
    "request_type": "Traffic Signals/Signs/Striping/Streetlights",
    "request_reason": "Traffic Sign Missing/Damaged",
    "date_created": "2022-03-29T17:45:28.000",
    "date_modified": "2022-03-29T17:45:28.000",
    "request_status": "Pending",
    "responsible_agency": "Department of Public Works",
    "final_address": "333 Girod St",
    "address_councildis": "B",
    "status": "Pending",
    "rowid": "870586",
    "final_x": "3681881.54223",
    "final_y": "528244.71168",
    "longitude": "-90.06697984864125",
    "latitude": "29.94647815587424",
    "geocoded_column": {
      "latitude": "29.94647815587424",
      "longitude": "-90.06697984864125"
    }
  },
  {
    "service_request": "2022-870585",
    "request_type": "Traffic Signals/Signs/Striping/Streetlights",
    "request_reason": "Traffic Sign Missing/Damaged",
    "date_created": "2022-03-29T17:44:52.000",
    "date_modified": "2022-03-29T17:44:52.000",
    "request_status": "Pending",
    "responsible_agency": "Department of Public Works",
    "final_address": "700 Tchoupitoulas St",
    "address_councildis": "B",
    "status": "Pending",
    "rowid": "870585",
    "final_x": "3681790.4134",
    "final_y": "528093.443135",
    "longitude": "-90.06727285162965",
    "latitude": "29.946064987138072",
    "geocoded_column": {
      "latitude": "29.946064987138072",
      "longitude": "-90.06727285162965"
    }
  },
  {
    "service_request": "2022-870584",
    "request_type": "Abandoned Vehicles",
    "request_reason": "Abandoned/Junk Vehicles",
    "date_created": "2022-03-29T17:44:13.000",
    "date_modified": "2022-03-29T17:44:13.000",
    "request_status": "Pending",
    "responsible_agency": "Department of Public Works",
    "final_address": "8338 Nelson St",
    "address_councildis": "A",
    "status": "Pending",
    "rowid": "870584",
    "final_x": "3664325.1641",
    "final_y": "532519.562436",
    "longitude": "-90.12226915087253",
    "latitude": "29.958754447747705",
    "geocoded_column": {
      "latitude": "29.958754447747705",
      "longitude": "-90.12226915087253"
    }
  },
  {
    "service_request": "2022-870583",
    "request_type": "Abandoned Vehicles",
    "request_reason": "Abandoned/Junk Vehicles",
    "date_created": "2022-03-29T17:44:07.000",
    "date_modified": "2022-03-29T17:44:07.000",
    "request_status": "Pending",
    "responsible_agency": "Department of Public Works",
    "final_address": "2014 N Villere St",
    "address_councildis": "C",
    "status": "Pending",
    "rowid": "870583",
    "final_x": "3684277.3917",
    "final_y": "537318.990216",
    "longitude": "-90.05909670290659",
    "latitude": "29.971356287802006",
    "geocoded_column": {
      "latitude": "29.971356287802006",
      "longitude": "-90.05909670290659"
    }
  },
  {
    "service_request": "2022-870582",
    "request_type": "Trash/Recycling",
    "request_reason": "Request a Large Item Pick Up",
    "date_created": "2022-03-29T17:43:55.000",
    "date_modified": "2022-03-29T17:43:55.000",
    "case_close_date": "2020-12-13T18:00:00.000",
    "request_status": "Pending",
    "responsible_agency": "Department of Sanitation",
    "final_address": "4835 Lancelot Dr",
    "address_councildis": "E",
    "status": "Assigned to Contractor",
    "contractor": "Metro Disposal",
    "rowid": "870582",
    "final_x": "3707446.9258",
    "final_y": "556226.186202",
    "longitude": "-89.98522215531592",
    "latitude": "30.022615117403255",
    "geocoded_column": {
      "latitude": "30.022615117403255",
      "longitude": "-89.98522215531592"
    }
  },
  {
    "service_request": "2022-870581",
    "request_type": "Trash/Recycling",
    "request_reason": "Illegal Dumping",
    "date_created": "2022-03-29T17:42:37.000",
    "date_modified": "2022-03-29T17:42:37.000",
    "request_status": "Pending",
    "responsible_agency": "Department of Sanitation",
    "final_address": "939 St Mary St",
    "address_councildis": "B",
    "status": "Pending",
    "rowid": "870581",
    "final_x": "3680060.53045",
    "final_y": "522525.12217",
    "longitude": "-90.0729280706318",
    "latitude": "29.930806393476256",
    "geocoded_column": {
      "latitude": "29.930806393476256",
      "longitude": "-90.0729280706318"
    }
  },
  {
    "service_request": "2022-870580",
    "request_type": "Abandoned Vehicles",
    "request_reason": "Abandoned/Junk Vehicles",
    "date_created": "2022-03-29T17:40:52.000",
    "date_modified": "2022-03-29T17:40:52.000",
    "request_status": "Pending",
    "responsible_agency": "Department of Public Works",
    "final_address": "1405 Touro St",
    "address_councildis": "C",
    "status": "Pending",
    "rowid": "870580",
    "final_x": "3684165.46844",
    "final_y": "537412.647816",
    "longitude": "-90.05944688352908",
    "latitude": "29.97161723552688",
    "geocoded_column": {
      "latitude": "29.97161723552688",
      "longitude": "-90.05944688352908"
    }
  },
  {
    "service_request": "2022-870579",
    "request_type": "Abandoned Vehicles",
    "request_reason": "Abandoned/Junk Vehicles",
    "date_created": "2022-03-29T17:39:22.000",
    "date_modified": "2022-03-29T17:39:22.000",
    "request_status": "Pending",
    "responsible_agency": "Department of Public Works",
    "final_address": "1436 Touro St",
    "address_councildis": "C",
    "status": "Pending",
    "rowid": "870579",
    "final_x": "3684093.57186",
    "final_y": "537644.169608",
    "longitude": "-90.05966581589317",
    "latitude": "29.972256037589407",
    "geocoded_column": {
      "latitude": "29.972256037589407",
      "longitude": "-90.05966581589317"
    }
  },
  {
    "service_request": "2022-870578",
    "request_type": "Abandoned Vehicles",
    "request_reason": "Abandoned/Junk Vehicles",
    "date_created": "2022-03-29T17:32:26.000",
    "date_modified": "2022-03-29T17:32:26.000",
    "request_status": "Pending",
    "responsible_agency": "Department of Public Works",
    "final_address": "741 Second St",
    "address_councildis": "B",
    "status": "Pending",
    "rowid": "870578",
    "final_x": "3678489.77038",
    "final_y": "520400.108344",
    "longitude": "-90.07796023596877",
    "latitude": "29.925010714555395",
    "geocoded_column": {
      "latitude": "29.925010714555395",
      "longitude": "-90.07796023596877"
    }
  },
  {
    "service_request": "2022-870577",
    "request_type": "Trash/Recycling",
    "request_reason": "Request a Large Item Pick Up",
    "date_created": "2022-03-29T17:31:05.000",
    "date_modified": "2022-03-29T17:31:06.000",
    "request_status": "Pending",
    "responsible_agency": "Department of Sanitation",
    "final_address": "1116 Crete St",
    "address_councildis": "A",
    "status": "Assigned to Contractor",
    "contractor": "Richards Disposal",
    "rowid": "870577",
    "final_x": "3677703.04008",
    "final_y": "538834.381705",
    "longitude": "-90.07980709125921",
    "latitude": "29.975722485118784",
    "geocoded_column": {
      "latitude": "29.975722485118784",
      "longitude": "-90.07980709125921"
    }
  },
  {
    "service_request": "2022-870576",
    "request_type": "Trash/Recycling",
    "request_reason": "MIssed Recycling Pick-Up",
    "date_created": "2022-03-29T17:25:51.000",
    "date_modified": "2022-03-29T18:56:40.000",
    "request_status": "Pending",
    "responsible_agency": "Department of Sanitation",
    "final_address": "New Orleans,LA",
    "address_councildis": "A",
    "status": "Assigned to Contractor",
    "contractor": "Richards Disposal",
    "rowid": "870576",
    "final_x": "3669684.00743",
    "final_y": "537605.832264",
    "longitude": "-90.10517510291825",
    "latitude": "29.972583168970633",
    "geocoded_column": {
      "latitude": "29.972583168970633",
      "longitude": "-90.10517510291825"
    }
  },
  {
    "service_request": "2022-870575",
    "request_type": "Roads/Drainage",
    "request_reason": "Debris in Roadway",
    "date_created": "2022-03-29T17:17:36.000",
    "date_modified": "2022-03-29T17:17:36.000",
    "request_status": "Pending",
    "responsible_agency": "Department of Public Works",
    "final_address": "729 Second St",
    "address_councildis": "B",
    "status": "Pending",
    "rowid": "870575",
    "final_x": "3678552.49499",
    "final_y": "520320.456696",
    "longitude": "-90.0777649898052",
    "latitude": "29.92478980869324",
    "geocoded_column": {
      "latitude": "29.92478980869324",
      "longitude": "-90.0777649898052"
    }
  },
  {
    "service_request": "2022-870574",
    "request_type": "Traffic Signals/Signs/Striping/Streetlights",
    "request_reason": "Street Light Outage/Malfunction",
    "date_created": "2022-03-29T17:10:02.000",
    "date_modified": "2022-03-29T17:10:03.000",
    "request_status": "Pending",
    "responsible_agency": "Department of Public Works",
    "final_address": "1025 Sumner St",
    "address_councildis": "C",
    "status": "Pending",
    "contractor": "Royal Engineering",
    "rowid": "870574",
    "final_x": "3691054.8543",
    "final_y": "527559.709759",
    "longitude": "-90.03804100337928",
    "latitude": "29.94431268391831",
    "geocoded_column": {
      "latitude": "29.94431268391831",
      "longitude": "-90.03804100337928"
    }
  },
  {
    "service_request": "2022-870573",
    "request_type": "Traffic Signals/Signs/Striping/Streetlights",
    "request_reason": "Street Name Sign Damaged or Missing",
    "date_created": "2022-03-29T17:03:07.000",
    "date_modified": "2022-03-29T17:03:07.000",
    "request_status": "Pending",
    "responsible_agency": "Department of Public Works",
    "final_address": "7928 Mackenzie St",
    "address_councildis": "E",
    "status": "Pending",
    "rowid": "870573",
    "final_x": "3710322.12849",
    "final_y": "567068.034276",
    "longitude": "-89.97573139276935",
    "latitude": "30.052332554180254",
    "geocoded_column": {
      "latitude": "30.052332554180254",
      "longitude": "-89.97573139276935"
    }
  },
  {
    "service_request": "2022-870572",
    "request_type": "Trash/Recycling",
    "request_reason": "Request a Large Item Pick Up",
    "date_created": "2022-03-29T17:00:15.000",
    "date_modified": "2022-03-29T17:00:18.000",
    "request_status": "Pending",
    "responsible_agency": "Department of Sanitation",
    "final_address": "3108 Fortin St",
    "address_councildis": "A",
    "status": "Assigned to Contractor",
    "contractor": "Metro Disposal",
    "rowid": "870572",
    "final_x": "3676521.12027",
    "final_y": "540920.508555",
    "longitude": "-90.08346806082521",
    "latitude": "29.981494116274778",
    "geocoded_column": {
      "latitude": "29.981494116274778",
      "longitude": "-90.08346806082521"
    }
  },
  {
    "service_request": "2022-870571",
    "request_type": "Trash/Recycling",
    "request_reason": "Replace Trash Cart",
    "date_created": "2022-03-29T16:59:40.000",
    "date_modified": "2022-03-29T16:59:41.000",
    "request_status": "Pending",
    "responsible_agency": "Department of Sanitation",
    "final_address": "741 Philip St",
    "address_councildis": "B",
    "status": "Assigned to Contractor",
    "contractor": "Richards Disposal",
    "rowid": "870571",
    "final_x": "3679256.29154",
    "final_y": "520963.976825",
    "longitude": "-90.07552103848303",
    "latitude": "29.926538055096756",
    "geocoded_column": {
      "latitude": "29.926538055096756",
      "longitude": "-90.07552103848303"
    }
  },
  {
    "service_request": "2022-870570",
    "request_type": "Trash/Recycling",
    "request_reason": "Order Recycling Cart",
    "date_created": "2022-03-29T16:57:00.000",
    "date_modified": "2022-03-29T16:57:00.000",
    "request_status": "Pending",
    "responsible_agency": "Department of Sanitation",
    "final_address": "2616 Lowerline St",
    "address_councildis": "A",
    "status": "Pending",
    "rowid": "870570",
    "final_x": "3666589.23521",
    "final_y": "531294.514434",
    "longitude": "-90.11516089510992",
    "latitude": "29.95531997459411",
    "geocoded_column": {
      "latitude": "29.95531997459411",
      "longitude": "-90.11516089510992"
    }
  },
  {
    "service_request": "2022-870569",
    "request_type": "Trash/Recycling",
    "request_reason": "Request a Large Item Pick Up",
    "date_created": "2022-03-29T16:55:31.000",
    "date_modified": "2022-03-29T17:15:36.000",
    "request_status": "Pending",
    "responsible_agency": "Department of Sanitation",
    "final_address": "New Orleans,LA",
    "address_councildis": "A",
    "status": "Assigned to Contractor",
    "contractor": "Metro Disposal",
    "rowid": "870569",
    "final_x": "3667669.93799",
    "final_y": "552902.921431",
    "longitude": "-90.1110205670779",
    "latitude": "30.014704122040722",
    "geocoded_column": {
      "latitude": "30.014704122040722",
      "longitude": "-90.1110205670779"
    }
  },
  {
    "service_request": "2022-870568",
    "request_type": "Trash/Recycling",
    "request_reason": "Repair Recycling Cart",
    "date_created": "2022-03-29T16:53:35.000",
    "date_modified": "2022-03-29T16:53:35.000",
    "request_status": "Pending",
    "responsible_agency": "Department of Sanitation",
    "final_address": "2616 Lowerline St",
    "address_councildis": "A",
    "status": "Pending",
    "rowid": "870568",
    "final_x": "3666589.23521",
    "final_y": "531294.514434",
    "longitude": "-90.11516089510992",
    "latitude": "29.95531997459411",
    "geocoded_column": {
      "latitude": "29.95531997459411",
      "longitude": "-90.11516089510992"
    }
  },
  {
    "service_request": "2022-870567",
    "request_type": "Trash/Recycling",
    "request_reason": "Request a Large Item Pick Up",
    "date_created": "2022-03-29T16:50:52.000",
    "date_modified": "2022-03-29T16:50:53.000",
    "request_status": "Pending",
    "responsible_agency": "Department of Sanitation",
    "final_address": "7440 Alabama St",
    "address_councildis": "D",
    "status": "Assigned to Contractor",
    "contractor": "Metro Disposal",
    "rowid": "870567",
    "final_x": "3695001.17603",
    "final_y": "558056.641883",
    "longitude": "-90.02448154306744",
    "latitude": "30.028044924776378",
    "geocoded_column": {
      "latitude": "30.028044924776378",
      "longitude": "-90.02448154306744"
    }
  },
  {
    "service_request": "2022-870566",
    "request_type": "Trash/Recycling",
    "request_reason": "Missed Trash Pick-Up",
    "date_created": "2022-03-29T16:50:02.000",
    "date_modified": "2022-03-29T16:50:03.000",
    "request_status": "Pending",
    "responsible_agency": "Department of Sanitation",
    "final_address": "7072 E Tamaron Blvd",
    "address_councildis": "E",
    "status": "Assigned to Contractor",
    "contractor": "Metro Disposal",
    "rowid": "870566",
    "final_x": "3718729.58245",
    "final_y": "568605.228069",
    "longitude": "-89.94909953457669",
    "latitude": "30.056282625632136",
    "geocoded_column": {
      "latitude": "30.056282625632136",
      "longitude": "-89.94909953457669"
    }
  },
  {
    "service_request": "2022-870565",
    "request_type": "Trash/Recycling",
    "request_reason": "Request a Large Item Pick Up",
    "date_created": "2022-03-29T16:45:34.000",
    "date_modified": "2022-03-29T16:45:35.000",
    "request_status": "Pending",
    "responsible_agency": "Department of Sanitation",
    "final_address": "7201 Restgate Rd",
    "address_councildis": "E",
    "status": "Assigned to Contractor",
    "contractor": "Metro Disposal",
    "rowid": "870565",
    "final_x": "3710767.1939",
    "final_y": "563371.55248",
    "longitude": "-89.97446324136814",
    "latitude": "30.04215421302514",
    "geocoded_column": {
      "latitude": "30.04215421302514",
      "longitude": "-89.97446324136814"
    }
  },
  {
    "service_request": "2022-870564",
    "request_type": "Trash/Recycling",
    "request_reason": "Order Trash Cart",
    "date_created": "2022-03-29T16:45:07.000",
    "date_modified": "2022-03-29T16:45:08.000",
    "request_status": "Pending",
    "responsible_agency": "Department of Sanitation",
    "final_address": "7201 Restgate Rd",
    "address_councildis": "E",
    "status": "Assigned to Contractor",
    "contractor": "Metro Disposal",
    "rowid": "870564",
    "final_x": "3710767.1939",
    "final_y": "563371.55248",
    "longitude": "-89.97446324136814",
    "latitude": "30.04215421302514",
    "geocoded_column": {
      "latitude": "30.04215421302514",
      "longitude": "-89.97446324136814"
    }
  },
  {
    "service_request": "2022-870563",
    "request_type": "Trash/Recycling",
    "request_reason": "Request a Large Item Pick Up",
    "date_created": "2022-03-29T16:44:27.000",
    "date_modified": "2022-03-29T16:44:28.000",
    "request_status": "Pending",
    "responsible_agency": "Department of Sanitation",
    "final_address": "2008 Broadway St",
    "address_councildis": "A",
    "status": "Assigned to Contractor",
    "contractor": "Richards Disposal",
    "rowid": "870563",
    "final_x": "3665754.91892",
    "final_y": "528959.224192",
    "longitude": "-90.1178735917795",
    "latitude": "29.948923047830057",
    "geocoded_column": {
      "latitude": "29.948923047830057",
      "longitude": "-90.1178735917795"
    }
  },
  {
    "service_request": "2022-870562",
    "request_type": "Trash/Recycling",
    "request_reason": "Repair Trash Cart",
    "date_created": "2022-03-29T16:41:30.000",
    "date_modified": "2022-03-29T16:41:30.000",
    "request_status": "Pending",
    "responsible_agency": "Department of Sanitation",
    "final_address": "1760 Gentilly Blvd",
    "address_councildis": "D",
    "status": "Assigned to Contractor",
    "contractor": "Metro Disposal",
    "rowid": "870562",
    "final_x": "3678720.00699",
    "final_y": "541887.242956",
    "longitude": "-90.07648946612909",
    "latitude": "29.984086165921628",
    "geocoded_column": {
      "latitude": "29.984086165921628",
      "longitude": "-90.07648946612909"
    }
  },
  {
    "service_request": "2022-870561",
    "request_type": "Trash/Recycling",
    "request_reason": "Request a Large Item Pick Up",
    "date_created": "2022-03-29T16:40:53.000",
    "date_modified": "2022-03-29T16:40:55.000",
    "request_status": "Pending",
    "responsible_agency": "Department of Sanitation",
    "final_address": "1711 Jackson Ave",
    "address_councildis": "B",
    "status": "Assigned to Contractor",
    "contractor": "Richards Disposal",
    "rowid": "870561",
    "final_x": "3677355.30536",
    "final_y": "524119.561596",
    "longitude": "-90.0814130952019",
    "latitude": "29.935272124965394",
    "geocoded_column": {
      "latitude": "29.935272124965394",
      "longitude": "-90.0814130952019"
    }
  },
  {
    "service_request": "2022-870560",
    "request_type": "Trash/Recycling",
    "request_reason": "Order Trash Cart",
    "date_created": "2022-03-29T16:37:31.000",
    "date_modified": "2022-03-29T16:37:32.000",
    "request_status": "Pending",
    "responsible_agency": "Department of Sanitation",
    "final_address": "New Orleans,LA",
    "status": "Assigned to Contractor",
    "rowid": "870560",
    "longitude": "0.0",
    "latitude": "0.0",
    "geocoded_column": {
      "latitude": "0.0",
      "longitude": "0.0"
    }
  },
  {
    "service_request": "2022-870559",
    "request_type": "Abandoned Vehicles",
    "request_reason": "Abandoned/Junk Vehicles",
    "date_created": "2022-03-29T16:37:21.000",
    "date_modified": "2022-03-29T16:37:21.000",
    "request_status": "Pending",
    "responsible_agency": "Department of Public Works",
    "final_address": "4322 Cleveland Ave",
    "address_councildis": "A",
    "status": "Pending",
    "rowid": "870559",
    "final_x": "3669870.36218",
    "final_y": "538694.261833",
    "longitude": "-90.10454969645373",
    "latitude": "29.9755704901982",
    "geocoded_column": {
      "latitude": "29.9755704901982",
      "longitude": "-90.10454969645373"
    }
  },
  {
    "service_request": "2022-870558",
    "request_type": "Trash/Recycling",
    "request_reason": "Missed Trash Pick-Up",
    "date_created": "2022-03-29T16:36:13.000",
    "date_modified": "2022-03-29T16:36:14.000",
    "request_status": "Pending",
    "responsible_agency": "Department of Sanitation",
    "final_address": "717 Antonine St",
    "address_councildis": "B",
    "status": "Assigned to Contractor",
    "contractor": "Richards Disposal",
    "rowid": "870558",
    "final_x": "3674352.20654",
    "final_y": "517952.924406",
    "longitude": "-90.09110494997314",
    "latitude": "29.918405740116842",
    "geocoded_column": {
      "latitude": "29.918405740116842",
      "longitude": "-90.09110494997314"
    }
  },
  {
    "service_request": "2022-870557",
    "request_type": "Trash/Recycling",
    "request_reason": "Missed Trash Pick-Up",
    "date_created": "2022-03-29T16:35:21.000",
    "date_modified": "2022-03-29T16:35:22.000",
    "request_status": "Pending",
    "responsible_agency": "Department of Sanitation",
    "final_address": "2215 Chartres St",
    "address_councildis": "C",
    "status": "Assigned to Contractor",
    "contractor": "Metro Disposal",
    "rowid": "870557",
    "final_x": "3685343.34415",
    "final_y": "534553.897093",
    "longitude": "-90.05582763998844",
    "latitude": "29.963720603780544",
    "geocoded_column": {
      "latitude": "29.963720603780544",
      "longitude": "-90.05582763998844"
    }
  },
  {
    "service_request": "2022-870556",
    "request_type": "Trash/Recycling",
    "request_reason": "Missed Trash Pick-Up",
    "date_created": "2022-03-29T16:35:12.000",
    "date_modified": "2022-03-29T16:35:12.000",
    "request_status": "Pending",
    "responsible_agency": "Department of Sanitation",
    "final_address": "715 Antonine St",
    "address_councildis": "B",
    "status": "Assigned to Contractor",
    "contractor": "Richards Disposal",
    "rowid": "870556",
    "final_x": "3674355.43291",
    "final_y": "517941.82655",
    "longitude": "-90.09109514579909",
    "latitude": "29.918375128380973",
    "geocoded_column": {
      "latitude": "29.918375128380973",
      "longitude": "-90.09109514579909"
    }
  },
  {
    "service_request": "2022-870555",
    "request_type": "Parks & Parkways",
    "request_reason": "Request Tree Service (Right of Way/Public Property)",
    "date_created": "2022-03-29T16:27:45.000",
    "date_modified": "2022-03-29T16:36:33.000",
    "case_close_date": "2022-03-29T11:36:33.000",
    "request_status": "Closed",
    "responsible_agency": "Department of Parks & Parkway",
    "final_address": "2514 Danneel St",
    "address_councildis": "B",
    "status": "Referred to Property Owner",
    "rowid": "870555",
    "final_x": "3675801.02081",
    "final_y": "524140.11238",
    "longitude": "-90.08631927069474",
    "latitude": "29.93537523568702",
    "geocoded_column": {
      "latitude": "29.93537523568702",
      "longitude": "-90.08631927069474"
    }
  },
  {
    "service_request": "2022-870554",
    "request_type": "Trash/Recycling",
    "request_reason": "Replace Trash Cart",
    "date_created": "2022-03-29T16:23:36.000",
    "date_modified": "2022-03-29T16:23:37.000",
    "request_status": "Pending",
    "responsible_agency": "Department of Sanitation",
    "final_address": "1518 Simon Bolivar Ave",
    "address_councildis": "B",
    "status": "Assigned to Contractor",
    "contractor": "Richards Disposal",
    "rowid": "870554",
    "final_x": "3677266.96194",
    "final_y": "526520.972094",
    "longitude": "-90.08160917739548",
    "latitude": "29.941877867042155",
    "geocoded_column": {
      "latitude": "29.941877867042155",
      "longitude": "-90.08160917739548"
    }
  },
  {
    "service_request": "2022-870553",
    "request_type": "Traffic Signals/Signs/Striping/Streetlights",
    "request_reason": "Street Light Outage/Malfunction",
    "date_created": "2022-03-29T16:19:14.000",
    "date_modified": "2022-03-29T16:19:14.000",
    "request_status": "Pending",
    "responsible_agency": "Department of Public Works",
    "final_address": "2200 BLK Laurel St",
    "address_councildis": "B",
    "status": "Pending",
    "contractor": "Royal Engineering",
    "rowid": "870553",
    "final_x": "3679140.21091",
    "final_y": "521371.322203",
    "longitude": "-90.07587336161367",
    "latitude": "29.92766162509428",
    "geocoded_column": {
      "latitude": "29.92766162509428",
      "longitude": "-90.07587336161367"
    }
  },
  {
    "service_request": "2022-870552",
    "request_type": "Trash/Recycling",
    "request_reason": "Repair Trash Cart",
    "date_created": "2022-03-29T16:16:13.000",
    "date_modified": "2022-03-29T16:16:14.000",
    "request_status": "Pending",
    "responsible_agency": "Department of Sanitation",
    "final_address": "511 Belleville St",
    "address_councildis": "C",
    "status": "Assigned to Contractor",
    "contractor": "Richards Disposal",
    "rowid": "870552",
    "final_x": "3687799.02383",
    "final_y": "529822.213057",
    "longitude": "-90.04824044971082",
    "latitude": "29.95063459513839",
    "geocoded_column": {
      "latitude": "29.95063459513839",
      "longitude": "-90.04824044971082"
    }
  },
  {
    "service_request": "2022-870551",
    "request_type": "Trash/Recycling",
    "request_reason": "Request a Large Item Pick Up",
    "date_created": "2022-03-29T16:14:15.000",
    "date_modified": "2022-03-29T16:23:48.000",
    "request_status": "Pending",
    "responsible_agency": "Department of Sanitation",
    "final_address": "426 38Th St",
    "address_councildis": "A",
    "status": "Assigned to Contractor",
    "contractor": "Metro Disposal",
    "rowid": "870551",
    "final_x": "3664758.57261",
    "final_y": "552652.730006",
    "longitude": "-90.12022747647777",
    "latitude": "30.014101256457497",
    "geocoded_column": {
      "latitude": "30.014101256457497",
      "longitude": "-90.12022747647777"
    }
  },
  {
    "service_request": "2022-870550",
    "request_type": "Trash/Recycling",
    "request_reason": "Order Trash Cart",
    "date_created": "2022-03-29T16:11:16.000",
    "date_modified": "2022-03-29T16:11:16.000",
    "request_status": "Pending",
    "responsible_agency": "Department of Sanitation",
    "final_address": "6003 Mandeville St",
    "address_councildis": "D",
    "status": "Assigned to Contractor",
    "contractor": "Metro Disposal",
    "rowid": "870550",
    "final_x": "3684320.27189",
    "final_y": "555078.707225",
    "longitude": "-90.05833718431359",
    "latitude": "30.020187846514442",
    "geocoded_column": {
      "latitude": "30.020187846514442",
      "longitude": "-90.05833718431359"
    }
  },
  {
    "service_request": "2022-870549",
    "request_type": "Trash/Recycling",
    "request_reason": "Request a Large Item Pick Up",
    "date_created": "2022-03-29T16:08:29.000",
    "date_modified": "2022-03-29T16:08:30.000",
    "request_status": "Pending",
    "responsible_agency": "Department of Sanitation",
    "final_address": "5025 St Bernard Ave",
    "address_councildis": "D",
    "status": "Assigned to Contractor",
    "contractor": "Metro Disposal",
    "rowid": "870549",
    "final_x": "3676795.66369",
    "final_y": "550715.236757",
    "longitude": "-90.08226315140675",
    "latitude": "30.008417944025044",
    "geocoded_column": {
      "latitude": "30.008417944025044",
      "longitude": "-90.08226315140675"
    }
  },
  {
    "service_request": "2022-870548",
    "request_type": "Trash/Recycling",
    "request_reason": "Repair Recycling Cart",
    "date_created": "2022-03-29T16:06:11.000",
    "date_modified": "2022-03-29T16:13:53.000",
    "request_status": "Pending",
    "responsible_agency": "Department of Sanitation",
    "final_address": "New Orleans,LA",
    "address_councildis": "A",
    "rowid": "870548",
    "final_x": "3672769.30158",
    "final_y": "540667.146635",
    "longitude": "-90.09532670930233",
    "latitude": "29.980909451771037",
    "geocoded_column": {
      "latitude": "29.980909451771037",
      "longitude": "-90.09532670930233"
    }
  },
  {
    "service_request": "2022-870547",
    "request_type": "Property Maintenance",
    "request_reason": "Property Maintenance",
    "date_created": "2022-03-29T16:00:46.000",
    "date_modified": "2022-03-29T16:00:47.000",
    "request_status": "Pending",
    "responsible_agency": "Department of Code Enforcement",
    "final_address": "13256 St Helena Pl",
    "address_councildis": "E",
    "status": "Pending",
    "rowid": "870547",
    "final_x": "3727202.41734",
    "final_y": "564341.662945",
    "longitude": "-89.92248466938325",
    "latitude": "30.044275448852165",
    "geocoded_column": {
      "latitude": "30.044275448852165",
      "longitude": "-89.92248466938325"
    }
  },
  {
    "service_request": "2022-870546",
    "request_type": "Mosquito, Termite & Rodent Control",
    "request_reason": "Mosquito Complaint",
    "date_created": "2022-03-29T15:56:13.000",
    "date_modified": "2022-03-29T15:56:13.000",
    "request_status": "Pending",
    "responsible_agency": "Mosquito, Termite & Rodent Control Board",
    "final_address": "6208 Bertha Dr",
    "address_councildis": "D",
    "status": "Pending",
    "rowid": "870546",
    "final_x": "3678605.59202",
    "final_y": "555848.861657",
    "longitude": "-90.07636709951662",
    "latitude": "30.02247909739619",
    "geocoded_column": {
      "latitude": "30.02247909739619",
      "longitude": "-90.07636709951662"
    }
  },
  {
    "service_request": "2022-870544",
    "request_type": "Roads/Drainage",
    "request_reason": "Damaged Sidewalk",
    "date_created": "2022-03-29T15:54:35.000",
    "date_modified": "2022-03-29T16:01:11.000",
    "request_status": "Pending",
    "responsible_agency": "Department of Public Works",
    "final_address": "FELICITY ST & MARKET ST",
    "address_councildis": "B",
    "status": "Inspected",
    "rowid": "870544",
    "final_x": "3680406.5",
    "final_y": "522642.68",
    "longitude": "-90.07183180824093",
    "latitude": "29.93111917012682",
    "geocoded_column": {
      "latitude": "29.93111917012682",
      "longitude": "-90.07183180824093"
    }
  },
  {
    "service_request": "2022-870543",
    "request_type": "Trash/Recycling",
    "request_reason": "Request a Large Item Pick Up",
    "date_created": "2022-03-29T15:53:34.000",
    "date_modified": "2022-03-29T15:53:34.000",
    "request_status": "Pending",
    "responsible_agency": "Department of Sanitation",
    "final_address": "1007 Opelousas Ave",
    "address_councildis": "C",
    "status": "Assigned to Contractor",
    "contractor": "Richards Disposal",
    "rowid": "870543",
    "final_x": "3688544.86511",
    "final_y": "529012.791232",
    "longitude": "-90.04591418815663",
    "latitude": "29.948385941031432",
    "geocoded_column": {
      "latitude": "29.948385941031432",
      "longitude": "-90.04591418815663"
    }
  },
  {
    "service_request": "2022-870542",
    "request_type": "Abandoned Vehicles",
    "request_reason": "Abandoned/Junk Vehicles",
    "date_created": "2022-03-29T15:52:47.000",
    "date_modified": "2022-03-29T15:52:47.000",
    "request_status": "Pending",
    "responsible_agency": "Department of Public Works",
    "final_address": "1414 Louisa St Apt A",
    "address_councildis": "C",
    "status": "Pending",
    "rowid": "870542",
    "final_x": "3689837.8431",
    "final_y": "537111.450504",
    "longitude": "-90.04154345518127",
    "latitude": "29.97061442957106",
    "geocoded_column": {
      "latitude": "29.97061442957106",
      "longitude": "-90.04154345518127"
    }
  },
  {
    "service_request": "2022-870541",
    "request_type": "Trash/Recycling",
    "request_reason": "Missed Trash Pick-Up",
    "date_created": "2022-03-29T15:49:50.000",
    "date_modified": "2022-03-29T15:49:51.000",
    "request_status": "Pending",
    "responsible_agency": "Department of Sanitation",
    "final_address": "2605 Royal St",
    "address_councildis": "C",
    "status": "Assigned to Contractor",
    "contractor": "Metro Disposal",
    "rowid": "870541",
    "final_x": "3686808.94966",
    "final_y": "534984.37511",
    "longitude": "-90.0511842036601",
    "latitude": "29.964859257793595",
    "geocoded_column": {
      "latitude": "29.964859257793595",
      "longitude": "-90.0511842036601"
    }
  },
  {
    "service_request": "2022-870540",
    "request_type": "Roads/Drainage",
    "request_reason": "Pothole",
    "date_created": "2022-03-29T15:48:12.000",
    "date_modified": "2022-03-29T15:48:12.000",
    "request_status": "Pending",
    "responsible_agency": "Department of Public Works",
    "final_address": "1442 Louisa St",
    "address_councildis": "C",
    "status": "Pending",
    "rowid": "870540",
    "final_x": "3689890.12803",
    "final_y": "537323.821896",
    "longitude": "-90.04137077149866",
    "latitude": "29.97119675522851",
    "geocoded_column": {
      "latitude": "29.97119675522851",
      "longitude": "-90.04137077149866"
    }
  },
  {
    "service_request": "2022-870538",
    "request_type": "Abandoned Vehicles",
    "request_reason": "Abandoned/Junk Vehicles",
    "date_created": "2022-03-29T15:43:55.000",
    "date_modified": "2022-03-29T15:43:55.000",
    "request_status": "Pending",
    "responsible_agency": "Department of Public Works",
    "final_address": "2215 Terpsichore St",
    "address_councildis": "B",
    "status": "Pending",
    "rowid": "870538",
    "final_x": "3676697.10625",
    "final_y": "526793.547006",
    "longitude": "-90.0833989447593",
    "latitude": "29.942644462854982",
    "geocoded_column": {
      "latitude": "29.942644462854982",
      "longitude": "-90.0833989447593"
    }
  },
  {
    "service_request": "2022-870537",
    "request_type": "Trash/Recycling",
    "request_reason": "Order Recycling Cart",
    "date_created": "2022-03-29T15:42:28.000",
    "date_modified": "2022-03-29T15:42:28.000",
    "request_status": "Pending",
    "responsible_agency": "Department of Sanitation",
    "final_address": "524 S Cortez St",
    "address_councildis": "B",
    "status": "Pending",
    "rowid": "870537",
    "final_x": "3671003.79355",
    "final_y": "536123.419783",
    "longitude": "-90.10105731858384",
    "latitude": "29.96846807044097",
    "geocoded_column": {
      "latitude": "29.96846807044097",
      "longitude": "-90.10105731858384"
    }
  },
  {
    "service_request": "2022-870535",
    "request_type": "Trash/Recycling",
    "request_reason": "Request a Large Item Pick Up",
    "date_created": "2022-03-29T15:40:11.000",
    "date_modified": "2022-03-29T15:40:12.000",
    "request_status": "Pending",
    "responsible_agency": "Department of Sanitation",
    "final_address": "7401 Weaver Ave",
    "address_councildis": "E",
    "status": "Assigned to Contractor",
    "contractor": "Metro Disposal",
    "rowid": "870535",
    "final_x": "3707806.08728",
    "final_y": "563752.008097",
    "longitude": "-89.98380723093095",
    "latitude": "30.04329653808313",
    "geocoded_column": {
      "latitude": "30.04329653808313",
      "longitude": "-89.98380723093095"
    }
  },
  {
    "service_request": "2022-870534",
    "request_type": "Trash/Recycling",
    "request_reason": "Repair Recycling Cart",
    "date_created": "2022-03-29T15:32:16.000",
    "date_modified": "2022-03-29T15:32:16.000",
    "request_status": "Pending",
    "responsible_agency": "Department of Sanitation",
    "final_address": "860 Taft Pl",
    "address_councildis": "A",
    "status": "Pending",
    "rowid": "870534",
    "final_x": "3673862.46452",
    "final_y": "539858.93569",
    "longitude": "-90.09190166604417",
    "latitude": "29.978654627086406",
    "geocoded_column": {
      "latitude": "29.978654627086406",
      "longitude": "-90.09190166604417"
    }
  },
  {
    "service_request": "2022-870533",
    "request_type": "Trash/Recycling",
    "request_reason": "Order Trash Cart",
    "date_created": "2022-03-29T15:31:39.000",
    "date_modified": "2022-03-29T15:31:40.000",
    "request_status": "Pending",
    "responsible_agency": "Department of Sanitation",
    "final_address": "524 S Cortez St",
    "address_councildis": "B",
    "status": "Assigned to Contractor",
    "contractor": "Richards Disposal",
    "rowid": "870533",
    "final_x": "3671003.79355",
    "final_y": "536123.419783",
    "longitude": "-90.10105731858384",
    "latitude": "29.96846807044097",
    "geocoded_column": {
      "latitude": "29.96846807044097",
      "longitude": "-90.10105731858384"
    }
  },
  {
    "service_request": "2022-870532",
    "request_type": "Roads/Drainage",
    "request_reason": "Debris in Roadway",
    "date_created": "2022-03-29T15:26:11.000",
    "date_modified": "2022-03-29T15:26:11.000",
    "request_status": "Pending",
    "responsible_agency": "Department of Public Works",
    "final_address": "819 Pontalba St",
    "address_councildis": "A",
    "status": "Pending",
    "rowid": "870532",
    "final_x": "3668859.89383",
    "final_y": "544441.621839",
    "longitude": "-90.1075468611759",
    "latitude": "29.991403534562384",
    "geocoded_column": {
      "latitude": "29.991403534562384",
      "longitude": "-90.1075468611759"
    }
  },
  {
    "service_request": "2022-870531",
    "request_type": "Roads/Drainage",
    "request_reason": "Pothole",
    "date_created": "2022-03-29T15:25:07.000",
    "date_modified": "2022-03-29T15:25:07.000",
    "request_status": "Pending",
    "responsible_agency": "Department of Public Works",
    "final_address": "8200 BLK Maple St",
    "address_councildis": "A",
    "status": "Pending",
    "rowid": "870531",
    "final_x": "3660610.37625",
    "final_y": "527707.380725",
    "longitude": "-90.13415859049503",
    "latitude": "29.945629927592083",
    "geocoded_column": {
      "latitude": "29.945629927592083",
      "longitude": "-90.13415859049503"
    }
  },
  {
    "service_request": "2022-870530",
    "request_type": "Trash/Recycling",
    "request_reason": "Replace Trash Cart",
    "date_created": "2022-03-29T15:23:53.000",
    "date_modified": "2022-03-29T15:23:54.000",
    "request_status": "Pending",
    "responsible_agency": "Department of Sanitation",
    "final_address": "819 Pontalba St",
    "address_councildis": "A",
    "status": "Assigned to Contractor",
    "contractor": "Metro Disposal",
    "rowid": "870530",
    "final_x": "3668859.89383",
    "final_y": "544441.621839",
    "longitude": "-90.1075468611759",
    "latitude": "29.991403534562384",
    "geocoded_column": {
      "latitude": "29.991403534562384",
      "longitude": "-90.1075468611759"
    }
  },
  {
    "service_request": "2022-870529",
    "request_type": "Property Maintenance",
    "request_reason": "Property Maintenance",
    "date_created": "2022-03-29T15:23:31.000",
    "date_modified": "2022-03-29T15:23:31.000",
    "request_status": "Pending",
    "responsible_agency": "Department of Code Enforcement",
    "final_address": "5143 St Ferdinand Dr",
    "address_councildis": "D",
    "status": "Pending",
    "rowid": "870529",
    "final_x": "3689108.85385",
    "final_y": "552387.758422",
    "longitude": "-90.04330252926833",
    "latitude": "30.012641354933873",
    "geocoded_column": {
      "latitude": "30.012641354933873",
      "longitude": "-90.04330252926833"
    }
  },
  {
    "service_request": "2022-870528",
    "request_type": "Abandoned Vehicles",
    "request_reason": "Abandoned/Junk Vehicles",
    "date_created": "2022-03-29T15:23:26.000",
    "date_modified": "2022-03-29T15:23:26.000",
    "request_status": "Pending",
    "responsible_agency": "Department of Public Works",
    "final_address": "319 26Th St",
    "address_councildis": "A",
    "status": "Pending",
    "rowid": "870528",
    "final_x": "3665083.55239",
    "final_y": "549983.488596",
    "longitude": "-90.11929005450872",
    "latitude": "30.006752306943117",
    "geocoded_column": {
      "latitude": "30.006752306943117",
      "longitude": "-90.11929005450872"
    }
  },
  {
    "service_request": "2022-870527",
    "request_type": "Abandoned Vehicles",
    "request_reason": "Abandoned/Junk Vehicles",
    "date_created": "2022-03-29T15:19:32.000",
    "date_modified": "2022-03-29T15:19:32.000",
    "request_status": "Pending",
    "responsible_agency": "Department of Public Works",
    "final_address": "1920 Harmony St",
    "address_councildis": "B",
    "status": "Pending",
    "rowid": "870527",
    "final_x": "3674259.15304",
    "final_y": "522964.834171",
    "longitude": "-90.09122718051972",
    "latitude": "29.93218965222322",
    "geocoded_column": {
      "latitude": "29.93218965222322",
      "longitude": "-90.09122718051972"
    }
  },
  {
    "service_request": "2022-870524",
    "request_type": "Property Maintenance",
    "request_reason": "Property Maintenance",
    "date_created": "2022-03-29T15:08:24.000",
    "date_modified": "2022-03-29T15:08:24.000",
    "request_status": "Pending",
    "responsible_agency": "Department of Code Enforcement",
    "final_address": "4120 Urquhart St",
    "address_councildis": "D",
    "status": "Pending",
    "rowid": "870524",
    "final_x": "3692416.7512",
    "final_y": "535869.022791",
    "longitude": "-90.03344350368955",
    "latitude": "29.967117997370618",
    "geocoded_column": {
      "latitude": "29.967117997370618",
      "longitude": "-90.03344350368955"
    }
  },
  {
    "service_request": "2022-870523",
    "request_type": "Trash/Recycling",
    "request_reason": "Request a Large Item Pick Up",
    "date_created": "2022-03-29T15:07:34.000",
    "date_modified": "2022-03-29T15:07:35.000",
    "request_status": "Pending",
    "responsible_agency": "Department of Sanitation",
    "final_address": "2752 Marengo St",
    "address_councildis": "B",
    "status": "Assigned to Contractor",
    "contractor": "Richards Disposal",
    "rowid": "870523",
    "final_x": "3671496.52987",
    "final_y": "525059.926397",
    "longitude": "-90.09987733559473",
    "latitude": "29.938032534637298",
    "geocoded_column": {
      "latitude": "29.938032534637298",
      "longitude": "-90.09987733559473"
    }
  },
  {
    "service_request": "2022-870522",
    "request_type": "Abandoned Vehicles",
    "request_reason": "Vehicle Blocking Your Driveway",
    "date_created": "2022-03-29T15:04:45.000",
    "date_modified": "2022-03-29T15:04:45.000",
    "request_status": "Pending",
    "responsible_agency": "Department of Public Works",
    "final_address": "1943 N Rampart",
    "address_councildis": "C",
    "status": "Pending",
    "rowid": "870522",
    "final_x": "3684229.0758",
    "final_y": "535901.470151",
    "longitude": "-90.05929906686211",
    "latitude": "29.967460076499936",
    "geocoded_column": {
      "latitude": "29.967460076499936",
      "longitude": "-90.05929906686211"
    }
  },
  {
    "service_request": "2022-870521",
    "request_type": "Trash/Recycling",
    "request_reason": "Order Recycling Cart",
    "date_created": "2022-03-29T14:55:03.000",
    "date_modified": "2022-03-29T14:55:03.000",
    "request_status": "Pending",
    "responsible_agency": "Department of Sanitation",
    "final_address": "3401 Pleasure St",
    "address_councildis": "D",
    "status": "Pending",
    "rowid": "870521",
    "final_x": "3692510.9464",
    "final_y": "544792.582927",
    "longitude": "-90.03282619092592",
    "latitude": "29.99165165592955",
    "geocoded_column": {
      "latitude": "29.99165165592955",
      "longitude": "-90.03282619092592"
    }
  },
  {
    "service_request": "2022-870520",
    "request_type": "Trash/Recycling",
    "request_reason": "Request a Large Item Pick Up",
    "date_created": "2022-03-29T14:54:42.000",
    "date_modified": "2022-03-29T14:54:43.000",
    "request_status": "Pending",
    "responsible_agency": "Department of Sanitation",
    "final_address": "4335 Plum Orchard St",
    "address_councildis": "E",
    "status": "Assigned to Contractor",
    "contractor": "Metro Disposal",
    "rowid": "870520",
    "final_x": "3701931.5242",
    "final_y": "552609.363798",
    "longitude": "-90.00278211088688",
    "latitude": "30.012847508478025",
    "geocoded_column": {
      "latitude": "30.012847508478025",
      "longitude": "-90.00278211088688"
    }
  },
  {
    "service_request": "2022-870519",
    "request_type": "Trash/Recycling",
    "request_reason": "Order Trash Cart",
    "date_created": "2022-03-29T14:53:56.000",
    "date_modified": "2022-03-29T14:53:58.000",
    "request_status": "Pending",
    "responsible_agency": "Department of Sanitation",
    "final_address": "3401 Pleasure St",
    "address_councildis": "D",
    "status": "Assigned to Contractor",
    "contractor": "Metro Disposal",
    "rowid": "870519",
    "final_x": "3692510.9464",
    "final_y": "544792.582927",
    "longitude": "-90.03282619092592",
    "latitude": "29.99165165592955",
    "geocoded_column": {
      "latitude": "29.99165165592955",
      "longitude": "-90.03282619092592"
    }
  },
  {
    "service_request": "2022-870518",
    "request_type": "Abandoned Vehicles",
    "request_reason": "Abandoned/Junk Vehicles",
    "date_created": "2022-03-29T14:50:45.000",
    "date_modified": "2022-03-29T14:50:45.000",
    "request_status": "Pending",
    "responsible_agency": "Department of Public Works",
    "final_address": "4321 Paris Ave",
    "address_councildis": "D",
    "status": "Pending",
    "rowid": "870518",
    "final_x": "3679560.51707",
    "final_y": "548052.368466",
    "longitude": "-90.0736205976197",
    "latitude": "30.001012712682407",
    "geocoded_column": {
      "latitude": "30.001012712682407",
      "longitude": "-90.0736205976197"
    }
  },
  {
    "service_request": "2022-870517",
    "request_type": "Abandoned Vehicles",
    "request_reason": "Abandoned/Junk Vehicles",
    "date_created": "2022-03-29T14:48:34.000",
    "date_modified": "2022-03-29T14:48:34.000",
    "request_status": "Pending",
    "responsible_agency": "Department of Public Works",
    "final_address": "4326 Paris Ave",
    "address_councildis": "D",
    "status": "Pending",
    "rowid": "870517",
    "final_x": "3679314.50997",
    "final_y": "548345.280914",
    "longitude": "-90.07438758715956",
    "latitude": "30.001825551969432",
    "geocoded_column": {
      "latitude": "30.001825551969432",
      "longitude": "-90.07438758715956"
    }
  },
  {
    "service_request": "2022-870516",
    "request_type": "Trash/Recycling",
    "request_reason": "Replace Trash Cart",
    "date_created": "2022-03-29T14:46:58.000",
    "date_modified": "2022-03-29T14:46:59.000",
    "request_status": "Pending",
    "responsible_agency": "Department of Sanitation",
    "final_address": "4859 Laurel St",
    "address_councildis": "B",
    "status": "Assigned to Contractor",
    "contractor": "Richards Disposal",
    "rowid": "870516",
    "final_x": "3669144.28218",
    "final_y": "517940.46719",
    "longitude": "-90.10754406024338",
    "latitude": "29.918525706720946",
    "geocoded_column": {
      "latitude": "29.918525706720946",
      "longitude": "-90.10754406024338"
    }
  },
  {
    "service_request": "2022-870515",
    "request_type": "Trash/Recycling",
    "request_reason": "Request a Large Item Pick Up",
    "date_created": "2022-03-29T14:43:21.000",
    "date_modified": "2022-03-29T14:43:22.000",
    "request_status": "Pending",
    "responsible_agency": "Department of Sanitation",
    "final_address": "12 Yellowstone Dr",
    "address_councildis": "C",
    "status": "Assigned to Contractor",
    "contractor": "Richards Disposal",
    "rowid": "870515",
    "final_x": "3699743.028",
    "final_y": "518026.022326",
    "longitude": "-90.01095750681782",
    "latitude": "29.91782542376298",
    "geocoded_column": {
      "latitude": "29.91782542376298",
      "longitude": "-90.01095750681782"
    }
  },
  {
    "service_request": "2022-870514",
    "request_type": "Property Maintenance",
    "request_reason": "Property Maintenance",
    "date_created": "2022-03-29T14:41:40.000",
    "date_modified": "2022-03-29T14:41:40.000",
    "request_status": "Pending",
    "responsible_agency": "Department of Code Enforcement",
    "final_address": "4322 DHemecourt St",
    "address_councildis": "A",
    "status": "Pending",
    "rowid": "870514",
    "final_x": "3668887.61082",
    "final_y": "537473.951112",
    "longitude": "-90.10769473015509",
    "latitude": "29.97224398735593",
    "geocoded_column": {
      "latitude": "29.97224398735593",
      "longitude": "-90.10769473015509"
    }
  },
  {
    "service_request": "2022-870513",
    "request_type": "Trash/Recycling",
    "request_reason": "Missed Trash Pick-Up",
    "date_created": "2022-03-29T14:40:53.000",
    "date_modified": "2022-03-29T14:40:54.000",
    "request_status": "Pending",
    "responsible_agency": "Department of Sanitation",
    "final_address": "2028 Delachaise St",
    "address_councildis": "B",
    "status": "Assigned to Contractor",
    "contractor": "Richards Disposal",
    "rowid": "870513",
    "final_x": "3673135.66408",
    "final_y": "522912.524731",
    "longitude": "-90.09477571723296",
    "latitude": "29.93207925800144",
    "geocoded_column": {
      "latitude": "29.93207925800144",
      "longitude": "-90.09477571723296"
    }
  },
  {
    "service_request": "2022-870512",
    "request_type": "Trash/Recycling",
    "request_reason": "Request a Large Item Pick Up",
    "date_created": "2022-03-29T14:39:58.000",
    "date_modified": "2022-03-29T14:39:59.000",
    "request_status": "Pending",
    "responsible_agency": "Department of Sanitation",
    "final_address": "2608 St Philip St",
    "address_councildis": "D",
    "status": "Assigned to Contractor",
    "contractor": "Richards Disposal",
    "rowid": "870512",
    "final_x": "3677739.16898",
    "final_y": "537548.064456",
    "longitude": "-90.07973743197607",
    "latitude": "29.972184467272466",
    "geocoded_column": {
      "latitude": "29.972184467272466",
      "longitude": "-90.07973743197607"
    }
  },
  {
    "service_request": "2022-870511",
    "request_type": "Traffic Signals/Signs/Striping/Streetlights",
    "request_reason": "Street Light Outage/Malfunction",
    "date_created": "2022-03-29T14:38:20.000",
    "date_modified": "2022-03-29T14:38:21.000",
    "request_status": "Pending",
    "responsible_agency": "Department of Public Works",
    "final_address": "5037 Madrid St",
    "address_councildis": "D",
    "status": "Pending",
    "contractor": "Royal Engineering",
    "rowid": "870511",
    "final_x": "3691387.29379",
    "final_y": "556353.599834",
    "longitude": "-90.03596207271735",
    "latitude": "30.02347521002634",
    "geocoded_column": {
      "latitude": "30.02347521002634",
      "longitude": "-90.03596207271735"
    }
  },
  {
    "service_request": "2022-870510",
    "request_type": "Property Maintenance",
    "request_reason": "Property Maintenance",
    "date_created": "2022-03-29T14:36:52.000",
    "date_modified": "2022-03-29T14:44:54.000",
    "case_close_date": "2022-03-29T09:44:54.000",
    "request_status": "Closed",
    "responsible_agency": "Department of Code Enforcement",
    "final_address": "616 S Alexander St",
    "address_councildis": "A",
    "status": "Referred to Code Enforcement",
    "rowid": "870510",
    "final_x": "3668743.22081",
    "final_y": "537464.497608",
    "longitude": "-90.10815105899853",
    "latitude": "29.9722222393243",
    "geocoded_column": {
      "latitude": "29.9722222393243",
      "longitude": "-90.10815105899853"
    }
  },
  {
    "service_request": "2022-870509",
    "request_type": "Property Maintenance",
    "request_reason": "Property Maintenance",
    "date_created": "2022-03-29T14:36:06.000",
    "date_modified": "2022-03-29T14:39:52.000",
    "case_close_date": "2022-03-29T09:39:52.000",
    "request_status": "Closed",
    "responsible_agency": "Department of Code Enforcement",
    "final_address": "3636 St Ferdinand St",
    "address_councildis": "D",
    "status": "Referred to Code Enforcement",
    "rowid": "870509",
    "final_x": "3689904.83696",
    "final_y": "546567.724561",
    "longitude": "-90.04099505967355",
    "latitude": "29.996613727369088",
    "geocoded_column": {
      "latitude": "29.996613727369088",
      "longitude": "-90.04099505967355"
    }
  },
  {
    "service_request": "2022-870508",
    "request_type": "Abandoned Vehicles",
    "request_reason": "Abandoned/Junk Vehicles",
    "date_created": "2022-03-29T14:36:05.000",
    "date_modified": "2022-03-29T14:37:43.000",
    "request_status": "Pending",
    "responsible_agency": "Department of Public Works",
    "final_address": "1202 Marengo St",
    "address_councildis": "B",
    "status": "Pending",
    "rowid": "870508",
    "final_x": "3671958.78644",
    "final_y": "519964.080248",
    "longitude": "-90.0985913105435",
    "latitude": "29.924006908430712",
    "geocoded_column": {
      "latitude": "29.924006908430712",
      "longitude": "-90.0985913105435"
    }
  },
  {
    "service_request": "2022-870506",
    "request_type": "Roads/Drainage",
    "request_reason": "Pothole",
    "date_created": "2022-03-29T14:32:57.000",
    "date_modified": "2022-03-29T14:32:58.000",
    "request_status": "Pending",
    "responsible_agency": "Department of Public Works",
    "final_address": "NEW YORK ST & BACCICH ST",
    "address_councildis": "D",
    "status": "Pending",
    "rowid": "870506",
    "final_x": "3687369.2",
    "final_y": "556834.28",
    "longitude": "-90.04864135391159",
    "latitude": "30.024921382902992",
    "geocoded_column": {
      "latitude": "30.024921382902992",
      "longitude": "-90.04864135391159"
    }
  },
  {
    "service_request": "2022-870505",
    "request_type": "Trash/Recycling",
    "request_reason": "Order Trash Cart",
    "date_created": "2022-03-29T14:26:11.000",
    "date_modified": "2022-03-29T14:26:12.000",
    "request_status": "Pending",
    "responsible_agency": "Department of Sanitation",
    "final_address": "7342 Heather Ct",
    "address_councildis": "E",
    "status": "Assigned to Contractor",
    "contractor": "Metro Disposal",
    "rowid": "870505",
    "final_x": "3705452.5482",
    "final_y": "562248.958815",
    "longitude": "-89.9913009789484",
    "latitude": "30.03923975418223",
    "geocoded_column": {
      "latitude": "30.03923975418223",
      "longitude": "-89.9913009789484"
    }
  },