[
  {
    "service_request": "2025-1228873",
    "request_type": "Trash/Recycling",
    "request_reason": "Missed Trash Pick-Up",
    "date_created": "2025-09-24T22:54:48.000",
    "date_modified": "2025-09-24T22:54:50.000",
    "request_status": "Pending",
    "responsible_agency": "Department of Sanitation",
    "final_address": "7120 W Renaissance Ct",
    "address_councildis": "E",
    "status": "Assigned to Contractor",
    "contractor": "Waste Pro",
    "rowid": "1228873",
    "final_x": "3716660.61516",
    "final_y": "567588.90634",
    "longitude": "-89.95567773832853",
    "latitude": "30.05355672162546",
    "geocoded_column": {
      "latitude": "30.05355672162546",
      "longitude": "-89.95567773832853"
    }
  },
  {
    "service_request": "2025-1228872",
    "request_type": "Trash/Recycling",
    "request_reason": "Return Trash Cart",
    "date_created": "2025-09-24T22:37:02.000",
    "date_modified": "2025-09-24T22:37:05.000",
    "request_status": "Pending",
    "responsible_agency": "Department of Sanitation",
    "final_address": "4523 Chestnut St",
    "address_councildis": "B",
    "status": "Assigned to Contractor",
    "contractor": "IV Waste",
    "rowid": "1228872",
    "final_x": "3670380.4793",
    "final_y": "519496.593271",
    "longitude": "-90.1035893147488",
    "latitude": "29.922768139038762",
    "geocoded_column": {
      "latitude": "29.922768139038762",
      "longitude": "-90.1035893147488"
    }
  },
  {
    "service_request": "2025-1228871",
    "request_type": "Trash/Recycling",
    "request_reason": "Request a Large Item Pick Up",
    "date_created": "2025-09-24T22:22:28.000",
    "date_modified": "2025-09-24T22:22:30.000",
    "request_status": "Pending",
    "responsible_agency": "Department of Sanitation",
    "final_address": "1008 Toledano St",
    "address_councildis": "B",
    "status": "Assigned to Contractor",
    "contractor": "IV Waste",
    "rowid": "1228871",
    "final_x": "3675488.39553",
    "final_y": "519500.694007",
    "longitude": "-90.08746548349757",
    "latitude": "29.922627690924173",
    "geocoded_column": {
      "latitude": "29.922627690924173",
      "longitude": "-90.08746548349757"
    }
  },
  {
    "service_request": "2025-1228870",
    "request_type": "Trash/Recycling",
    "request_reason": "Replace Trash Cart",
    "date_created": "2025-09-24T22:11:44.000",
    "date_modified": "2025-09-24T22:11:46.000",
    "request_status": "Pending",
    "responsible_agency": "Department of Sanitation",
    "final_address": "4628 Cleveland Ave",
    "address_councildis": "A",
    "status": "Assigned to Contractor",
    "contractor": "IV Waste",
    "rowid": "1228870",
    "final_x": "3668876.72897",
    "final_y": "539451.272266",
    "longitude": "-90.10766229907482",
    "latitude": "29.97768127559951",
    "geocoded_column": {
      "latitude": "29.97768127559951",
      "longitude": "-90.10766229907482"
    }
  },
  {
    "service_request": "2025-1228869",
    "request_type": "Trash/Recycling",
    "request_reason": "Repair Trash Cart",
    "date_created": "2025-09-24T21:59:17.000",
    "date_modified": "2025-09-24T21:59:19.000",
    "request_status": "Pending",
    "responsible_agency": "Department of Sanitation",
    "final_address": "6102 Morrison Rd, New Orleans, Louisiana, 70126",
    "address_councildis": "D",
    "status": "Assigned to Contractor",
    "contractor": "Waste Pro",
    "rowid": "1228869",
    "final_x": "3695965.9112",
    "final_y": "557557.563995",
    "longitude": "-90.02145111219285",
    "latitude": "30.02664231510327",
    "geocoded_column": {
      "latitude": "30.02664231510327",
      "longitude": "-90.02145111219285"
    }
  },
  {
    "service_request": "2025-1228868",
    "request_type": "Streetlights",
    "request_reason": "Streetlight Outage/Malfunction",
    "date_created": "2025-09-24T21:48:34.000",
    "date_modified": "2025-09-24T21:48:36.000",
    "request_status": "Pending",
    "responsible_agency": "Department of Public Works",
    "final_address": "1301 Pine St",
    "address_councildis": "A",
    "status": "Pending",
    "rowid": "1228868",
    "final_x": "3664168.13364",
    "final_y": "526962.422718",
    "longitude": "-90.12295037978565",
    "latitude": "29.943478672427396",
    "geocoded_column": {
      "latitude": "29.943478672427396",
      "longitude": "-90.12295037978565"
    }
  },
  {
    "service_request": "2025-1228867",
    "request_type": "Trash/Recycling",
    "request_reason": "Request a Large Item Pick Up",
    "date_created": "2025-09-24T21:33:48.000",
    "date_modified": "2025-09-24T21:33:50.000",
    "request_status": "Pending",
    "responsible_agency": "Department of Sanitation",
    "final_address": "4634 Lafaye St",
    "address_councildis": "D",
    "status": "Assigned to Contractor",
    "contractor": "IV Waste",
    "rowid": "1228867",
    "final_x": "3687440.89417",
    "final_y": "549996.20546",
    "longitude": "-90.04865706478533",
    "latitude": "30.006116988213215",
    "geocoded_column": {
      "latitude": "30.006116988213215",
      "longitude": "-90.04865706478533"
    }
  },
  {
    "service_request": "2025-1228866",
    "request_type": "Streetlights",
    "request_reason": "Streetlight Outage/Malfunction",
    "date_created": "2025-09-24T21:28:21.000",
    "date_modified": "2025-09-24T21:28:23.000",
    "request_status": "Pending",
    "responsible_agency": "Department of Public Works",
    "final_address": "3934 Laurel St",
    "address_councildis": "B",
    "status": "Pending",
    "rowid": "1228866",
    "final_x": "3672995.01268",
    "final_y": "518196.48831",
    "longitude": "-90.09538058922962",
    "latitude": "29.91911585118878",
    "geocoded_column": {
      "latitude": "29.91911585118878",
      "longitude": "-90.09538058922962"
    }
  },
  {
    "service_request": "2025-1228865",
    "request_type": "Streetlights",
    "request_reason": "Streetlight Outage/Malfunction",
    "date_created": "2025-09-24T21:25:38.000",
    "date_modified": "2025-09-24T21:26:12.000",
    "request_status": "Pending",
    "responsible_agency": "Department of Public Works",
    "final_address": "3017 Lafitte Ave",
    "address_councildis": "A",
    "status": "Pending",
    "rowid": "1228865",
    "final_x": "3675188.15841",
    "final_y": "537223.564168",
    "longitude": "-90.08780510165865",
    "latitude": "29.97136869570758",
    "geocoded_column": {
      "latitude": "29.97136869570758",
      "longitude": "-90.08780510165865"
    }
  },
  {
    "service_request": "2025-1228864",
    "request_type": "Street and Traffic Signs",
    "request_reason": "Street Name Sign Damaged or Missing",
    "date_created": "2025-09-24T21:17:49.000",
    "date_modified": "2025-09-24T21:17:51.000",
    "request_status": "Pending",
    "responsible_agency": "Department of Public Works",
    "final_address": "2609 Frankfort St",
    "address_councildis": "D",
    "status": "Pending",
    "rowid": "1228864",
    "final_x": "3686383.15548",
    "final_y": "557171.278875",
    "longitude": "-90.05174517800839",
    "latitude": "30.025878365634544",
    "geocoded_column": {
      "latitude": "30.025878365634544",
      "longitude": "-90.05174517800839"
    }
  },
  {
    "service_request": "2025-1228863",
    "request_type": "Trash/Recycling",
    "request_reason": "Change Size of Trash Cart",
    "date_created": "2025-09-24T21:09:50.000",
    "date_modified": "2025-09-24T21:09:52.000",
    "request_status": "Pending",
    "responsible_agency": "Department of Sanitation",
    "final_address": "3215 Cherry St",
    "address_councildis": "A",
    "status": "Assigned to Contractor",
    "contractor": "IV Waste",
    "rowid": "1228863",
    "final_x": "3663758.11635",
    "final_y": "536570.515207",
    "longitude": "-90.12392473466345",
    "latitude": "29.9699097064629",
    "geocoded_column": {
      "latitude": "29.9699097064629",
      "longitude": "-90.12392473466345"
    }
  },
  {
    "service_request": "2025-1228862",
    "request_type": "Trash/Recycling",
    "request_reason": "Order Second Trash Cart",
    "date_created": "2025-09-24T21:07:32.000",
    "date_modified": "2025-09-24T21:07:34.000",
    "request_status": "Pending",
    "responsible_agency": "Department of Sanitation",
    "final_address": "8901 Dinkins St",
    "address_councildis": "E",
    "status": "Assigned to Contractor",
    "contractor": "Waste Pro",
    "rowid": "1228862",
    "final_x": "3704710.54161",
    "final_y": "563474.586464",
    "longitude": "-89.99360063011659",
    "latitude": "30.042633620990088",
    "geocoded_column": {
      "latitude": "30.042633620990088",
      "longitude": "-89.99360063011659"
    }
  },
  {
    "service_request": "2025-1228861",
    "request_type": "Streetlights",
    "request_reason": "Streetlight Outage/Malfunction",
    "date_created": "2025-09-24T20:59:36.000",
    "date_modified": "2025-09-24T20:59:37.000",
    "request_status": "Pending",
    "responsible_agency": "Department of Public Works",
    "final_address": "2515 Dante St",
    "address_councildis": "A",
    "status": "Pending",
    "rowid": "1228861",
    "final_x": "3664721.12295",
    "final_y": "532430.889731",
    "longitude": "-90.12102177169251",
    "latitude": "29.958499113536806",
    "geocoded_column": {
      "latitude": "29.958499113536806",
      "longitude": "-90.12102177169251"
    }
  },
  {
    "service_request": "2025-1228860",
    "request_type": "Trash/Recycling",
    "request_reason": "Illegal Dumping",
    "date_created": "2025-09-24T20:36:06.000",
    "date_modified": "2025-09-24T20:36:08.000",
    "request_status": "Pending",
    "responsible_agency": "Department of Sanitation",
    "final_address": "8949 Jeannette St A",
    "address_councildis": "A",
    "status": "Pending",
    "rowid": "1228860",
    "final_x": "3660290.02822",
    "final_y": "531380.093378",
    "longitude": "-90.13504877269831",
    "latitude": "29.95573792684112",
    "geocoded_column": {
      "latitude": "29.95573792684112",
      "longitude": "-90.13504877269831"
    }
  },
  {
    "service_request": "2025-1228859",
    "request_type": "Streetlights",
    "request_reason": "Streetlight Outage/Malfunction",
    "date_created": "2025-09-24T20:23:51.000",
    "date_modified": "2025-09-24T20:23:54.000",
    "request_status": "Pending",
    "responsible_agency": "Department of Public Works",
    "final_address": "2513 Dante St",
    "address_councildis": "A",
    "status": "Pending",
    "rowid": "1228859",
    "final_x": "3664711.81812",
    "final_y": "532420.379203",
    "longitude": "-90.12105150514576",
    "latitude": "29.958470483706847",
    "geocoded_column": {
      "latitude": "29.958470483706847",
      "longitude": "-90.12105150514576"
    }
  },
  {
    "service_request": "2025-1228858",
    "request_type": "Roads and Streets",
    "request_reason": "Sidewalk Damaged or Missing",
    "date_created": "2025-09-24T20:07:52.000",
    "date_modified": "2025-09-24T20:07:55.000",
    "request_status": "Pending",
    "responsible_agency": "Department of Public Works",
    "final_address": "3316 Elysian Fields Ave",
    "address_councildis": "D",
    "status": "Pending",
    "rowid": "1228858",
    "final_x": "3684175.51484",
    "final_y": "544927.151247",
    "longitude": "-90.05915125506478",
    "latitude": "29.992279169426656",
    "geocoded_column": {
      "latitude": "29.992279169426656",
      "longitude": "-90.05915125506478"
    }
  },
  {
    "service_request": "2025-1228857",
    "request_type": "Parks & Parkways",
    "request_reason": "Request Tree Service (Right of Way/Public Property)",
    "date_created": "2025-09-24T19:45:11.000",
    "date_modified": "2025-09-24T19:45:13.000",
    "request_status": "Pending",
    "responsible_agency": "Department of Parks & Parkway",
    "final_address": "2112 Mirabeau Ave",
    "address_councildis": "D",
    "status": "Pending",
    "rowid": "1228857",
    "final_x": "3683235.42773",
    "final_y": "550563.494676",
    "longitude": "-90.06192325045829",
    "latitude": "30.00780580430185",
    "geocoded_column": {
      "latitude": "30.00780580430185",
      "longitude": "-90.06192325045829"
    }
  },
  {
    "service_request": "2025-1228856",
    "request_type": "Trash/Recycling",
    "request_reason": "Illegal Dumping",
    "date_created": "2025-09-24T19:41:12.000",
    "date_modified": "2025-09-24T19:41:14.000",
    "request_status": "Pending",
    "responsible_agency": "Department of Sanitation",
    "final_address": "3900 Downman Rd",
    "address_councildis": "D",
    "status": "Pending",
    "rowid": "1228856",
    "final_x": "3696170.28298",
    "final_y": "551538.395989",
    "longitude": "-90.0210231540397",
    "latitude": "30.01008543914053",
    "geocoded_column": {
      "latitude": "30.01008543914053",
      "longitude": "-90.0210231540397"
    }
  },
  {
    "service_request": "2025-1228855",
    "request_type": "Trash/Recycling",
    "request_reason": "Order Trash Cart",
    "date_created": "2025-09-24T19:34:45.000",
    "date_modified": "2025-09-24T19:34:48.000",
    "request_status": "Pending",
    "responsible_agency": "Department of Sanitation",
    "final_address": "2711 DAbadie St",
    "address_councildis": "D",
    "status": "Assigned to Contractor",
    "contractor": "IV Waste",
    "rowid": "1228855",
    "final_x": "3679187.47355",
    "final_y": "541066.158348",
    "longitude": "-90.07504143153608",
    "latitude": "29.981814361789255",
    "geocoded_column": {
      "latitude": "29.981814361789255",
      "longitude": "-90.07504143153608"
    }
  },
  {
    "service_request": "2025-1228854",
    "request_type": "Street and Traffic Signs",
    "request_reason": "Crosswalk Signage Damaged or Missing",
    "date_created": "2025-09-24T19:32:01.000",
    "date_modified": "2025-09-24T19:32:03.000",
    "request_status": "Pending",
    "responsible_agency": "Department of Public Works",
    "final_address": "3300 BLK Elysian Fields Ave",
    "address_councildis": "D",
    "status": "Pending",
    "rowid": "1228854",
    "final_x": "3684269.33418",
    "final_y": "544953.312768",
    "longitude": "-90.05885397943013",
    "latitude": "29.99234823531619",
    "geocoded_column": {
      "latitude": "29.99234823531619",
      "longitude": "-90.05885397943013"
    }
  },
  {
    "service_request": "2025-1228853",
    "request_type": "Street and Traffic Signs",
    "request_reason": "Traffic or Parking Sign Damaged or Missing",
    "date_created": "2025-09-24T19:20:03.000",
    "date_modified": "2025-09-24T19:20:04.000",
    "request_status": "Pending",
    "responsible_agency": "Department of Public Works",
    "final_address": "541 Decatur St",
    "address_councildis": "C",
    "status": "Pending",
    "rowid": "1228853",
    "final_x": "3682884.65788",
    "final_y": "531703.621763",
    "longitude": "-90.06369165090109",
    "latitude": "29.95595846599303",
    "geocoded_column": {
      "latitude": "29.95595846599303",
      "longitude": "-90.06369165090109"
    }
  },
  {
    "service_request": "2025-1228852",
    "request_type": "Street and Traffic Signs",
    "request_reason": "Street Name Sign Damaged or Missing",
    "date_created": "2025-09-24T19:15:12.000",
    "date_modified": "2025-09-24T19:15:14.000",
    "request_status": "Pending",
    "responsible_agency": "Department of Public Works",
    "final_address": "TCHOUPITOULAS ST & LAFAYETTE ST",
    "address_councildis": "B",
    "status": "Pending",
    "rowid": "1228852",
    "final_x": "3681793.0",
    "final_y": "528646.78",
    "longitude": "-90.06724538070267",
    "latitude": "29.94758639899074",
    "geocoded_column": {
      "latitude": "29.94758639899074",
      "longitude": "-90.06724538070267"
    }
  },
  {
    "service_request": "2025-1228851",
    "request_type": "Trash/Recycling",
    "request_reason": "Order Recycling Cart",
    "date_created": "2025-09-24T19:13:19.000",
    "date_modified": "2025-09-24T19:13:21.000",
    "request_status": "Pending",
    "responsible_agency": "Department of Sanitation",
    "final_address": "7809 Maple St",
    "address_councildis": "A",
    "status": "Pending",
    "rowid": "1228851",
    "final_x": "3661806.49133",
    "final_y": "526678.15475",
    "longitude": "-90.13041615847355",
    "latitude": "29.94276540990869",
    "geocoded_column": {
      "latitude": "29.94276540990869",
      "longitude": "-90.13041615847355"
    }
  },
  {
    "service_request": "2025-1228850",
    "request_type": "Street and Traffic Signs",
    "request_reason": "Street Name Sign Damaged or Missing",
    "date_created": "2025-09-24T19:08:34.000",
    "date_modified": "2025-09-24T19:08:36.000",
    "request_status": "Pending",
    "responsible_agency": "Department of Public Works",
    "final_address": "N MAESTRI ST & CAMP ST",
    "address_councildis": "B",
    "status": "Pending",
    "rowid": "1228850",
    "final_x": "3681054.8",
    "final_y": "529033.38",
    "longitude": "-90.06956270168321",
    "latitude": "29.94867182663888",
    "geocoded_column": {
      "latitude": "29.94867182663888",
      "longitude": "-90.06956270168321"
    }
  },
  {
    "service_request": "2025-1228849",
    "request_type": "Street and Traffic Signs",
    "request_reason": "Street Name Sign Damaged or Missing",
    "date_created": "2025-09-24T19:07:02.000",
    "date_modified": "2025-09-24T19:07:03.000",
    "request_status": "Pending",
    "responsible_agency": "Department of Public Works",
    "final_address": "NOTRE DAME ST & MAGAZINE ST",
    "address_councildis": "B",
    "status": "Pending",
    "rowid": "1228849",
    "final_x": "3681246.8",
    "final_y": "528095.58",
    "longitude": "-90.06898914928632",
    "latitude": "29.946087367433268",
    "geocoded_column": {
      "latitude": "29.946087367433268",
      "longitude": "-90.06898914928632"
    }
  },
  {
    "service_request": "2025-1228848",
    "request_type": "Street and Traffic Signs",
    "request_reason": "Street Name Sign Damaged or Missing",
    "date_created": "2025-09-24T19:05:14.000",
    "date_modified": "2025-09-24T19:05:16.000",
    "request_status": "Pending",
    "responsible_agency": "Department of Public Works",
    "final_address": "POYDRAS ST & TCHOUPITOULAS ST",
    "address_councildis": "B",
    "status": "Pending",
    "rowid": "1228848",
    "final_x": "3681871.8",
    "final_y": "529047.58",
    "longitude": "-90.0669825928533",
    "latitude": "29.94868606972945",
    "geocoded_column": {
      "latitude": "29.94868606972945",
      "longitude": "-90.0669825928533"
    }
  },
  {
    "service_request": "2025-1228847",
    "request_type": "Property Maintenance",
    "request_reason": "Property Maintenance",
    "date_created": "2025-09-24T19:00:22.000",
    "date_modified": "2025-09-24T19:00:23.000",
    "request_status": "Pending",
    "responsible_agency": "Department of Code Enforcement",
    "final_address": "8532 Cohn St",
    "address_councildis": "A",
    "status": "Pending",
    "rowid": "1228847",
    "final_x": "3662337.62541",
    "final_y": "531297.698498",
    "longitude": "-90.12858588560752",
    "latitude": "29.955452329710724",
    "geocoded_column": {
      "latitude": "29.955452329710724",
      "longitude": "-90.12858588560752"
    }
  },
  {
    "service_request": "2025-1228846",
    "request_type": "Street and Traffic Signs",
    "request_reason": "Street Name Sign Damaged or Missing",
    "date_created": "2025-09-24T18:57:48.000",
    "date_modified": "2025-09-24T18:57:50.000",
    "request_status": "Pending",
    "responsible_agency": "Department of Public Works",
    "final_address": "DAUPHINE ST & ST LOUIS ST",
    "address_councildis": "C",
    "status": "Pending",
    "rowid": "1228846",
    "final_x": "3681528.8",
    "final_y": "532300.18",
    "longitude": "-90.06795217621693",
    "latitude": "29.957640038446165",
    "geocoded_column": {
      "latitude": "29.957640038446165",
      "longitude": "-90.06795217621693"
    }
  },
  {
    "service_request": "2025-1228845",
    "request_type": "Street and Traffic Signs",
    "request_reason": "Street Name Sign Damaged or Missing",
    "date_created": "2025-09-24T18:55:05.000",
    "date_modified": "2025-09-24T18:55:07.000",
    "request_status": "Pending",
    "responsible_agency": "Department of Public Works",
    "final_address": "CONTI ST & DAUPHINE ST",
    "address_councildis": "C",
    "status": "Pending",
    "rowid": "1228845",
    "final_x": "3681318.4",
    "final_y": "532024.98",
    "longitude": "-90.06862614899319",
    "latitude": "29.956889719071757",
    "geocoded_column": {
      "latitude": "29.956889719071757",
      "longitude": "-90.06862614899319"
    }
  },
  {
    "service_request": "2025-1228844",
    "request_type": "General Services",
    "request_reason": "General Service Request",
    "date_created": "2025-09-24T18:50:38.000",
    "date_modified": "2025-09-24T18:50:40.000",
    "request_status": "Pending",
    "responsible_agency": "Orleans Parish Communication District",
    "final_address": "8224 Spruce St",
    "address_councildis": "A",
    "status": "Pending",
    "rowid": "1228844",
    "final_x": "3663403.06951",
    "final_y": "530806.048834",
    "longitude": "-90.12523795050471",
    "latitude": "29.954069607151137",
    "geocoded_column": {
      "latitude": "29.954069607151137",
      "longitude": "-90.12523795050471"
    }
  },
  {
    "service_request": "2025-1228843",
    "request_type": "Abandoned Vehicles",
    "request_reason": "Abandoned/Junk Vehicles",
    "date_created": "2025-09-24T18:32:25.000",
    "date_modified": "2025-09-24T18:32:27.000",
    "request_status": "Pending",
    "responsible_agency": "Department of Public Works",
    "final_address": "4538 S Johnson St",
    "address_councildis": "B",
    "status": "Pending",
    "rowid": "1228843",
    "final_x": "3669514.51406",
    "final_y": "527115.167615",
    "longitude": "-90.10606525405707",
    "latitude": "29.94374230001293",
    "geocoded_column": {
      "latitude": "29.94374230001293",
      "longitude": "-90.10606525405707"
    }
  },
  {
    "service_request": "2025-1228842",
    "request_type": "Trash/Recycling",
    "request_reason": "Illegal Dumping",
    "date_created": "2025-09-24T18:17:46.000",
    "date_modified": "2025-09-24T18:17:47.000",
    "request_status": "Pending",
    "responsible_agency": "Department of Sanitation",
    "final_address": "1439 N Robertson St",
    "address_councildis": "C",
    "status": "Pending",
    "rowid": "1228842",
    "final_x": "3681725.14613",
    "final_y": "536668.553095",
    "longitude": "-90.06717974885534",
    "latitude": "29.969645605068088",
    "geocoded_column": {
      "latitude": "29.969645605068088",
      "longitude": "-90.06717974885534"
    }
  },
  {
    "service_request": "2025-1228841",
    "request_type": "Trash/Recycling",
    "request_reason": "Replace Trash Cart",
    "date_created": "2025-09-24T18:13:33.000",
    "date_modified": "2025-09-24T18:13:35.000",
    "request_status": "Pending",
    "responsible_agency": "Department of Sanitation",
    "final_address": "635 Pine St",
    "address_councildis": "A",
    "status": "Assigned to Contractor",
    "contractor": "IV Waste",
    "rowid": "1228841",
    "final_x": "3662972.71808",
    "final_y": "525095.164605",
    "longitude": "-90.12678671300979",
    "latitude": "29.938378974611016",
    "geocoded_column": {
      "latitude": "29.938378974611016",
      "longitude": "-90.12678671300979"
    }
  },
  {
    "service_request": "2025-1228840",
    "request_type": "Abandoned Vehicles",
    "request_reason": "Abandoned/Junk Vehicles",
    "date_created": "2025-09-24T18:13:30.000",
    "date_modified": "2025-09-24T18:13:32.000",
    "request_status": "Pending",
    "responsible_agency": "Department of Public Works",
    "final_address": "1431 Josephine St",
    "address_councildis": "B",
    "status": "Pending",
    "rowid": "1228840",
    "final_x": "3678390.65806",
    "final_y": "523377.928827",
    "longitude": "-90.07817013295201",
    "latitude": "29.933201733515354",
    "geocoded_column": {
      "latitude": "29.933201733515354",
      "longitude": "-90.07817013295201"
    }
  },
  {
    "service_request": "2025-1228839",
    "request_type": "Abandoned Vehicles",
    "request_reason": "Abandoned/Junk Vehicles",
    "date_created": "2025-09-24T18:10:42.000",
    "date_modified": "2025-09-24T18:10:44.000",
    "request_status": "Pending",
    "responsible_agency": "Department of Public Works",
    "final_address": "1436 Josephine St",
    "address_councildis": "B",
    "status": "Pending",
    "rowid": "1228839",
    "final_x": "3678328.17704",
    "final_y": "523342.823931",
    "longitude": "-90.07836859528354",
    "latitude": "29.93310708835733",
    "geocoded_column": {
      "latitude": "29.93310708835733",
      "longitude": "-90.07836859528354"
    }
  },
  {
    "service_request": "2025-1228838",
    "request_type": "Trash/Recycling",
    "request_reason": "Illegal Dumping",
    "date_created": "2025-09-24T18:07:15.000",
    "date_modified": "2025-09-24T18:07:17.000",
    "request_status": "Pending",
    "responsible_agency": "Department of Sanitation",
    "final_address": "1450 N Robertson St",
    "address_councildis": "C",
    "status": "Pending",
    "rowid": "1228838",
    "final_x": "3681894.88495",
    "final_y": "536707.153479",
    "longitude": "-90.06664235161246",
    "latitude": "29.9697465844238",
    "geocoded_column": {
      "latitude": "29.9697465844238",
      "longitude": "-90.06664235161246"
    }
  },
  {
    "service_request": "2025-1228836",
    "request_type": "Abandoned Vehicles",
    "request_reason": "Abandoned/Junk Vehicles",
    "date_created": "2025-09-24T18:05:08.000",
    "date_modified": "2025-09-24T18:05:10.000",
    "request_status": "Pending",
    "responsible_agency": "Department of Public Works",
    "final_address": "3400 BLK Bruxelles St",
    "address_councildis": "D",
    "status": "Pending",
    "rowid": "1228836",
    "final_x": "3680133.91233",
    "final_y": "544992.245433",
    "longitude": "-90.07191561889209",
    "latitude": "29.992581113474756",
    "geocoded_column": {
      "latitude": "29.992581113474756",
      "longitude": "-90.07191561889209"
    }
  },
  {
    "service_request": "2025-1228835",
    "request_type": "Trash/Recycling",
    "request_reason": "Request a Large Item Pick Up",
    "date_created": "2025-09-24T17:58:06.000",
    "date_modified": "2025-09-24T17:58:07.000",
    "request_status": "Pending",
    "responsible_agency": "Department of Sanitation",
    "final_address": "4201 St Charles Ave",
    "address_councildis": "B",
    "status": "Assigned to Contractor",
    "contractor": "IV Waste",
    "rowid": "1228835",
    "final_x": "3671538.67374",
    "final_y": "521004.851257",
    "longitude": "-90.09988209433777",
    "latitude": "29.926881137262566",
    "geocoded_column": {
      "latitude": "29.926881137262566",
      "longitude": "-90.09988209433777"
    }
  },
  {
    "service_request": "2025-1228834",
    "request_type": "Traffic Signals",
    "request_reason": "Traffic Signal Malfunctioning or Damaged",
    "date_created": "2025-09-24T17:57:31.000",
    "date_modified": "2025-09-24T17:57:33.000",
    "request_status": "Pending",
    "responsible_agency": "Department of Public Works",
    "final_address": "5950 Chef Menteur Hwy",
    "address_councildis": "E",
    "status": "Pending",
    "rowid": "1228834",
    "final_x": "3696520.0312",
    "final_y": "551430.003349",
    "longitude": "-90.0199221019063",
    "latitude": "30.00977638133447",
    "geocoded_column": {
      "latitude": "30.00977638133447",
      "longitude": "-90.0199221019063"
    }
  },
  {
    "service_request": "2025-1228833",
    "request_type": "Roads and Streets",
    "request_reason": "Street Subsidence (Sinking)",
    "date_created": "2025-09-24T17:48:15.000",
    "date_modified": "2025-09-24T17:48:18.000",
    "request_status": "Pending",
    "responsible_agency": "Sewerage & Water Board",
    "final_address": "1239 Constance St",
    "address_councildis": "B",
    "status": "Pending",
    "rowid": "1228833",
    "final_x": "3680891.55976",
    "final_y": "525230.147517",
    "longitude": "-90.07021049543229",
    "latitude": "29.938219157181614",
    "geocoded_column": {
      "latitude": "29.938219157181614",
      "longitude": "-90.07021049543229"
    }
  },
  {
    "service_request": "2025-1228832",
    "request_type": "Trash/Recycling",
    "request_reason": "Replace Trash Cart",
    "date_created": "2025-09-24T17:40:06.000",
    "date_modified": "2025-09-24T17:40:08.000",
    "request_status": "Pending",
    "responsible_agency": "Department of Sanitation",
    "final_address": "3631 Post Oak Ave",
    "address_councildis": "C",
    "status": "Assigned to Contractor",
    "contractor": "Richards Disposal",
    "rowid": "1228832",
    "final_x": "3703762.7091",
    "final_y": "514476.367731",
    "longitude": "-89.9984002202659",
    "latitude": "29.90793692128833",
    "geocoded_column": {
      "latitude": "29.90793692128833",
      "longitude": "-89.9984002202659"
    }
  },
  {
    "service_request": "2025-1228831",
    "request_type": "Trash/Recycling",
    "request_reason": "Request a Large Item Pick Up",
    "date_created": "2025-09-24T17:38:24.000",
    "date_modified": "2025-09-24T17:38:28.000",
    "request_status": "Pending",
    "responsible_agency": "Department of Sanitation",
    "final_address": "6951 Louisville St",
    "address_councildis": "A",
    "status": "Assigned to Contractor",
    "contractor": "IV Waste",
    "rowid": "1228831",
    "final_x": "3668428.18452",
    "final_y": "553796.663127",
    "longitude": "-90.10859468622132",
    "latitude": "30.017139333909427",
    "geocoded_column": {
      "latitude": "30.017139333909427",
      "longitude": "-90.10859468622132"
    }
  },
  {
    "service_request": "2025-1228830",
    "request_type": "Street and Traffic Signs",
    "request_reason": "Stop Sign Missing or Damaged",
    "date_created": "2025-09-24T17:33:28.000",
    "date_modified": "2025-09-24T17:33:29.000",
    "request_status": "Pending",
    "responsible_agency": "Department of Public Works",
    "final_address": "2901 St Ann St",
    "address_councildis": "A",
    "status": "Pending",
    "rowid": "1228830",
    "final_x": "3676196.55067",
    "final_y": "537816.204169",
    "longitude": "-90.08460005550835",
    "latitude": "29.972968075382184",
    "geocoded_column": {
      "latitude": "29.972968075382184",
      "longitude": "-90.08460005550835"
    }
  },
  {
    "service_request": "2025-1228829",
    "request_type": "Trash/Recycling",
    "request_reason": "Illegal Dumping",
    "date_created": "2025-09-24T17:27:31.000",
    "date_modified": "2025-09-24T17:27:32.000",
    "request_status": "Pending",
    "responsible_agency": "Department of Sanitation",
    "final_address": "9424 Lincoln Beach Blvd",
    "address_councildis": "E",
    "status": "Pending",
    "rowid": "1228829",
    "final_x": "3705810.72491",
    "final_y": "564813.026466",
    "longitude": "-89.99007405252702",
    "latitude": "30.046278383359994",
    "geocoded_column": {
      "latitude": "30.046278383359994",
      "longitude": "-89.99007405252702"
    }
  },
  {
    "service_request": "2025-1228828",
    "request_type": "Parks & Parkways",
    "request_reason": "Park Maintenance/Clean Up",
    "date_created": "2025-09-24T17:26:54.000",
    "date_modified": "2025-09-24T17:26:57.000",
    "request_status": "Pending",
    "responsible_agency": "Department of Parks & Parkway",
    "final_address": "800 BLK N Derbigny St",
    "address_councildis": "D",
    "status": "Pending",
    "rowid": "1228828",
    "final_x": "3679774.11679",
    "final_y": "535288.759591",
    "longitude": "-90.07338918388304",
    "latitude": "29.96591078066911",
    "geocoded_column": {
      "latitude": "29.96591078066911",
      "longitude": "-90.07338918388304"
    }
  },
  {
    "service_request": "2025-1228827",
    "request_type": "Trash/Recycling",
    "request_reason": "Illegal Dumping",
    "date_created": "2025-09-24T17:21:43.000",
    "date_modified": "2025-09-24T17:21:44.000",
    "request_status": "Pending",
    "responsible_agency": "Department of Sanitation",
    "final_address": "9424 Lincoln Beach Blvd",
    "address_councildis": "E",
    "status": "Pending",
    "rowid": "1228827",
    "final_x": "3705810.72491",
    "final_y": "564813.026466",
    "longitude": "-89.99007405252702",
    "latitude": "30.046278383359994",
    "geocoded_column": {
      "latitude": "30.046278383359994",
      "longitude": "-89.99007405252702"
    }
  },
  {
    "service_request": "2025-1228826",
    "request_type": "Trash/Recycling",
    "request_reason": "Request a Large Item Pick Up",
    "date_created": "2025-09-24T16:56:15.000",
    "date_modified": "2025-09-24T16:56:17.000",
    "request_status": "Pending",
    "responsible_agency": "Department of Sanitation",
    "final_address": "316 Joseph St",
    "address_councildis": "A",
    "status": "Assigned to Contractor",
    "contractor": "IV Waste",
    "rowid": "1228826",
    "final_x": "3665727.89037",
    "final_y": "517295.545717",
    "longitude": "-90.11834942884146",
    "latitude": "29.916852426319352",
    "geocoded_column": {
      "latitude": "29.916852426319352",
      "longitude": "-90.11834942884146"
    }
  },
  {
    "service_request": "2025-1228825",
    "request_type": "Abandoned Vehicles",
    "request_reason": "Abandoned/Junk Vehicles",
    "date_created": "2025-09-24T16:53:41.000",
    "date_modified": "2025-09-24T16:53:43.000",
    "request_status": "Pending",
    "responsible_agency": "Department of Public Works",
    "final_address": "809 Roosevelt Pl",
    "address_councildis": "A",
    "status": "Pending",
    "rowid": "1228825",
    "final_x": "3673517.18868",
    "final_y": "539777.193098",
    "longitude": "-90.09299497240089",
    "latitude": "29.978440144276952",
    "geocoded_column": {
      "latitude": "29.978440144276952",
      "longitude": "-90.09299497240089"
    }
  },
  {
    "service_request": "2025-1228824",
    "request_type": "Trash/Recycling",
    "request_reason": "Request a Large Item Pick Up",
    "date_created": "2025-09-24T16:53:00.000",
    "date_modified": "2025-09-24T16:53:03.000",
    "request_status": "Pending",
    "responsible_agency": "Department of Sanitation",
    "final_address": "338 West Robert E Lee Blvd",
    "address_councildis": "A",
    "status": "Assigned to Contractor",
    "contractor": "IV Waste",
    "rowid": "1228824",
    "final_x": "3665263.07904",
    "final_y": "554885.895896",
    "longitude": "-90.1185586825572",
    "latitude": "30.020226982721734",
    "geocoded_column": {
      "latitude": "30.020226982721734",
      "longitude": "-90.1185586825572"
    }
  },
  {
    "service_request": "2025-1228823",
    "request_type": "Trash/Recycling",
    "request_reason": "Request a Large Item Pick Up",
    "date_created": "2025-09-24T16:49:55.000",
    "date_modified": "2025-09-24T16:50:26.000",
    "request_status": "Pending",
    "responsible_agency": "Department of Sanitation",
    "final_address": "2129 Delachaise St",
    "address_councildis": "B",
    "status": "Assigned to Contractor",
    "contractor": "IV Waste",
    "rowid": "1228823",
    "final_x": "3673056.48078",
    "final_y": "523266.849083",
    "longitude": "-90.09501360293714",
    "latitude": "29.93305588855753",
    "geocoded_column": {
      "latitude": "29.93305588855753",
      "longitude": "-90.09501360293714"
    }
  },
  {
    "service_request": "2025-1228822",
    "request_type": "Roads and Streets",
    "request_reason": "Pothole",
    "date_created": "2025-09-24T16:49:25.000",
    "date_modified": "2025-09-24T16:50:30.000",
    "request_status": "Pending",
    "responsible_agency": "Department of Public Works",
    "final_address": "2500 BLK Mendez St",
    "address_councildis": "D",
    "status": "Pending",
    "rowid": "1228822",
    "final_x": "3686008.46784",
    "final_y": "553596.569432",
    "longitude": "-90.0530553480104",
    "latitude": "30.016060754279888",
    "geocoded_column": {
      "latitude": "30.016060754279888",
      "longitude": "-90.0530553480104"
    }
  },
  {
    "service_request": "2025-1228821",
    "request_type": "Streetlights",
    "request_reason": "Streetlight Outage/Malfunction",
    "date_created": "2025-09-24T16:43:08.000",
    "date_modified": "2025-09-24T16:43:10.000",
    "request_status": "Pending",
    "responsible_agency": "Department of Public Works",
    "final_address": "0 BLK Audubon Blvd",
    "address_councildis": "A",
    "status": "Pending",
    "rowid": "1228821",
    "final_x": "3665405.01594",
    "final_y": "526946.754949",
    "longitude": "-90.11904572932777",
    "latitude": "29.94339960723005",
    "geocoded_column": {
      "latitude": "29.94339960723005",
      "longitude": "-90.11904572932777"
    }
  },
  {
    "service_request": "2025-1228820",
    "request_type": "Property Maintenance",
    "request_reason": "Property Maintenance",
    "date_created": "2025-09-24T16:41:59.000",
    "date_modified": "2025-09-24T16:45:04.000",
    "request_status": "Pending",
    "responsible_agency": "Department of Code Enforcement",
    "final_address": "3632 Clermont Dr",
    "address_councildis": "D",
    "status": "Pending",
    "rowid": "1228820",
    "final_x": "3685726.61078",
    "final_y": "545828.13864",
    "longitude": "-90.05421988580976",
    "latitude": "29.994709044502027",
    "geocoded_column": {
      "latitude": "29.994709044502027",
      "longitude": "-90.05421988580976"
    }
  },
  {
    "service_request": "2025-1228819",
    "request_type": "Trash/Recycling",
    "request_reason": "Replace Recycling Cart",
    "date_created": "2025-09-24T16:40:20.000",
    "date_modified": "2025-09-24T16:40:22.000",
    "request_status": "Pending",
    "responsible_agency": "Department of Sanitation",
    "final_address": "439 Pacific Ave",
    "address_councildis": "C",
    "status": "Pending",
    "rowid": "1228819",
    "final_x": "3688473.55907",
    "final_y": "529995.750657",
    "longitude": "-90.04610446456928",
    "latitude": "29.951090945258198",
    "geocoded_column": {
      "latitude": "29.951090945258198",
      "longitude": "-90.04610446456928"
    }
  },
  {
    "service_request": "2025-1228818",
    "request_type": "General Services",
    "request_reason": "General Service Request",
    "date_created": "2025-09-24T16:24:58.000",
    "date_modified": "2025-09-24T16:25:00.000",
    "request_status": "Pending",
    "responsible_agency": "Orleans Parish Communication District",
    "final_address": "3023 Iberville St",
    "address_councildis": "B",
    "status": "Pending",
    "rowid": "1228818",
    "final_x": "3674492.50593",
    "final_y": "536349.738887",
    "longitude": "-90.09003201817453",
    "latitude": "29.968986746263102",
    "geocoded_column": {
      "latitude": "29.968986746263102",
      "longitude": "-90.09003201817453"
    }
  },
  {
    "service_request": "2025-1228817",
    "request_type": "Trash/Recycling",
    "request_reason": "Request a Large Item Pick Up",
    "date_created": "2025-09-24T16:23:38.000",
    "date_modified": "2025-09-24T16:23:39.000",
    "request_status": "Pending",
    "responsible_agency": "Department of Sanitation",
    "final_address": "7617 Primrose Dr",
    "address_councildis": "E",
    "status": "Assigned to Contractor",
    "contractor": "Waste Pro",
    "rowid": "1228817",
    "final_x": "3701816.4753",
    "final_y": "561278.735966",
    "longitude": "-90.00282755305687",
    "latitude": "30.036688616015297",
    "geocoded_column": {
      "latitude": "30.036688616015297",
      "longitude": "-90.00282755305687"
    }
  },
  {
    "service_request": "2025-1228816",
    "request_type": "Streetlights",
    "request_reason": "Streetlight Outage/Malfunction",
    "date_created": "2025-09-24T16:20:41.000",
    "date_modified": "2025-09-24T16:20:43.000",
    "request_status": "Pending",
    "responsible_agency": "Department of Public Works",
    "final_address": "3690 Louisiana Avenue Prkwy",
    "address_councildis": "B",
    "status": "Pending",
    "rowid": "1228816",
    "final_x": "3671341.52103",
    "final_y": "528459.44224",
    "longitude": "-90.10025121589811",
    "latitude": "29.947384682660115",
    "geocoded_column": {
      "latitude": "29.947384682660115",
      "longitude": "-90.10025121589811"
    }
  },
  {
    "service_request": "2025-1228815",
    "request_type": "Trash/Recycling",
    "request_reason": "Replace Trash Cart",
    "date_created": "2025-09-24T16:18:42.000",
    "date_modified": "2025-09-24T16:18:43.000",
    "request_status": "Pending",
    "responsible_agency": "Department of Sanitation",
    "final_address": "6314 Camp St",
    "address_councildis": "A",
    "status": "Assigned to Contractor",
    "contractor": "IV Waste",
    "rowid": "1228815",
    "final_x": "3663423.94829",
    "final_y": "520032.114936",
    "longitude": "-90.12553061764025",
    "latitude": "29.92444411210717",
    "geocoded_column": {
      "latitude": "29.92444411210717",
      "longitude": "-90.12553061764025"
    }
  },
  {
    "service_request": "2025-1228814",
    "request_type": "Trash/Recycling",
    "request_reason": "Request a Large Item Pick Up",
    "date_created": "2025-09-24T16:13:56.000",
    "date_modified": "2025-09-24T16:13:57.000",
    "request_status": "Pending",
    "responsible_agency": "Department of Sanitation",
    "final_address": "1724 N Robertson St",
    "address_councildis": "C",
    "status": "Assigned to Contractor",
    "contractor": "IV Waste",
    "rowid": "1228814",
    "final_x": "3683242.28751",
    "final_y": "537603.186632",
    "longitude": "-90.06235574921246",
    "latitude": "29.972169339820468",
    "geocoded_column": {
      "latitude": "29.972169339820468",
      "longitude": "-90.06235574921246"
    }
  },
  {
    "service_request": "2025-1228813",
    "request_type": "Trash/Recycling",
    "request_reason": "Repair Trash Cart",
    "date_created": "2025-09-24T16:10:21.000",
    "date_modified": "2025-09-24T16:10:23.000",
    "request_status": "Pending",
    "responsible_agency": "Department of Sanitation",
    "final_address": "5726 Press Dr",
    "address_councildis": "D",
    "status": "Assigned to Contractor",
    "contractor": "IV Waste",
    "rowid": "1228813",
    "final_x": "3688973.24227",
    "final_y": "554633.404824",
    "longitude": "-90.04365112925542",
    "latitude": "30.018820248974997",
    "geocoded_column": {
      "latitude": "30.018820248974997",
      "longitude": "-90.04365112925542"
    }
  },
  {
    "service_request": "2025-1228812",
    "request_type": "Streetlights",
    "request_reason": "Streetlight Outage/Malfunction",
    "date_created": "2025-09-24T16:07:16.000",
    "date_modified": "2025-09-24T16:07:19.000",
    "request_status": "Pending",
    "responsible_agency": "Department of Public Works",
    "final_address": "1616 Fats Domino Ave",
    "address_councildis": "E",
    "status": "Pending",
    "rowid": "1228812",
    "final_x": "3698472.09655",
    "final_y": "535826.659847",
    "longitude": "-90.01432233063797",
    "latitude": "29.966811239283324",
    "geocoded_column": {
      "latitude": "29.966811239283324",
      "longitude": "-90.01432233063797"
    }
  },
  {
    "service_request": "2025-1228811",
    "request_type": "Trash/Recycling",
    "request_reason": "Replace Trash Cart",
    "date_created": "2025-09-24T16:03:18.000",
    "date_modified": "2025-09-24T16:03:20.000",
    "request_status": "Pending",
    "responsible_agency": "Department of Sanitation",
    "final_address": "1435 Pine St",
    "address_councildis": "A",
    "status": "Assigned to Contractor",
    "contractor": "IV Waste",
    "rowid": "1228811",
    "final_x": "3664548.86036",
    "final_y": "527445.748351",
    "longitude": "-90.12173218577709",
    "latitude": "29.944796598915254",
    "geocoded_column": {
      "latitude": "29.944796598915254",
      "longitude": "-90.12173218577709"
    }
  },
  {
    "service_request": "2025-1228810",
    "request_type": "Traffic Signals",
    "request_reason": "Traffic Signal Malfunctioning or Damaged",
    "date_created": "2025-09-24T16:00:21.000",
    "date_modified": "2025-09-24T16:00:22.000",
    "request_status": "Pending",
    "responsible_agency": "Department of Public Works",
    "final_address": "1300 Poland Ave",
    "address_councildis": "D",
    "status": "Pending",
    "rowid": "1228810",
    "final_x": "3693164.56272",
    "final_y": "535769.587079",
    "longitude": "-90.0310854881299",
    "latitude": "29.966821236451207",
    "geocoded_column": {
      "latitude": "29.966821236451207",
      "longitude": "-90.0310854881299"
    }
  },
  {
    "service_request": "2025-1228809",
    "request_type": "Roads and Streets",
    "request_reason": "Pothole",
    "date_created": "2025-09-24T15:55:51.000",
    "date_modified": "2025-09-24T15:55:53.000",
    "request_status": "Pending",
    "responsible_agency": "Department of Public Works",
    "final_address": "2800 BLK Jefferson Ave",
    "address_councildis": "A",
    "status": "Pending",
    "rowid": "1228809",
    "final_x": "3668297.05313",
    "final_y": "525793.558765",
    "longitude": "-90.10995366752289",
    "latitude": "29.940144101645913",
    "geocoded_column": {
      "latitude": "29.940144101645913",
      "longitude": "-90.10995366752289"
    }
  },
  {
    "service_request": "2025-1228808",
    "request_type": "Trash/Recycling",
    "request_reason": "Request a Large Item Pick Up",
    "date_created": "2025-09-24T15:54:49.000",
    "date_modified": "2025-09-24T15:54:51.000",
    "request_status": "Pending",
    "responsible_agency": "Department of Sanitation",
    "final_address": "4818 Deanne St",
    "address_councildis": "D",
    "status": "Assigned to Contractor",
    "contractor": "Waste Pro",
    "rowid": "1228808",
    "final_x": "3696261.86986",
    "final_y": "554542.063128",
    "longitude": "-90.02062508242828",
    "latitude": "30.01834151101226",
    "geocoded_column": {
      "latitude": "30.01834151101226",
      "longitude": "-90.02062508242828"
    }
  },
  {
    "service_request": "2025-1228807",
    "request_type": "Abandoned Vehicles",
    "request_reason": "Abandoned/Junk Vehicles",
    "date_created": "2025-09-24T15:54:36.000",
    "date_modified": "2025-09-24T15:54:38.000",
    "request_status": "Pending",
    "responsible_agency": "Department of Public Works",
    "final_address": "1016 N Robertson St",
    "address_councildis": "C",
    "status": "Pending",
    "rowid": "1228807",
    "final_x": "3680867.77192",
    "final_y": "535346.294022",
    "longitude": "-90.06993345277151",
    "latitude": "29.966035868969666",
    "geocoded_column": {
      "latitude": "29.966035868969666",
      "longitude": "-90.06993345277151"
    }
  },
  {
    "service_request": "2025-1228806",
    "request_type": "Trash/Recycling",
    "request_reason": "Request a Large Item Pick Up",
    "date_created": "2025-09-24T15:53:23.000",
    "date_modified": "2025-09-24T15:53:25.000",
    "request_status": "Pending",
    "responsible_agency": "Department of Sanitation",
    "final_address": "7143 Parkside Ct",
    "address_councildis": "E",
    "status": "Assigned to Contractor",
    "contractor": "Waste Pro",
    "rowid": "1228806",
    "final_x": "3704551.06711",
    "final_y": "560257.163613",
    "longitude": "-89.99422346334715",
    "latitude": "30.033792100310418",
    "geocoded_column": {
      "latitude": "30.033792100310418",
      "longitude": "-89.99422346334715"
    }
  },
  {
    "service_request": "2025-1228805",
    "request_type": "Roads and Streets",
    "request_reason": "Abandoned Service Cut",
    "date_created": "2025-09-24T15:48:57.000",
    "date_modified": "2025-09-24T15:48:58.000",
    "request_status": "Pending",
    "responsible_agency": "Department of Public Works",
    "final_address": "447 Pacific Ave",
    "address_councildis": "C",
    "status": "Pending",
    "rowid": "1228805",
    "final_x": "3688464.55791",
    "final_y": "529927.752897",
    "longitude": "-90.04613529755372",
    "latitude": "29.950904252796267",
    "geocoded_column": {
      "latitude": "29.950904252796267",
      "longitude": "-90.04613529755372"
    }
  },
  {
    "service_request": "2025-1228804",
    "request_type": "Parks & Parkways",
    "request_reason": "Request Tree Service (Right of Way/Public Property)",
    "date_created": "2025-09-24T15:48:31.000",
    "date_modified": "2025-09-24T15:48:33.000",
    "request_status": "Pending",
    "responsible_agency": "Department of Parks & Parkway",
    "final_address": "127 Elk Pl",
    "address_councildis": "B",
    "status": "Pending",
    "rowid": "1228804",
    "final_x": "3679578.0884",
    "final_y": "531587.434243",
    "longitude": "-90.07413668563346",
    "latitude": "29.955739318102275",
    "geocoded_column": {
      "latitude": "29.955739318102275",
      "longitude": "-90.07413668563346"
    }
  },
  {
    "service_request": "2025-1228803",
    "request_type": "Trash/Recycling",
    "request_reason": "Repair Trash Cart",
    "date_created": "2025-09-24T15:47:55.000",
    "date_modified": "2025-09-24T15:47:57.000",
    "request_status": "Pending",
    "responsible_agency": "Department of Sanitation",
    "final_address": "2020 Lowerline St",
    "address_councildis": "A",
    "status": "Assigned to Contractor",
    "contractor": "IV Waste",
    "rowid": "1228803",
    "final_x": "3665295.6473",
    "final_y": "529395.046465",
    "longitude": "-90.1193091370064",
    "latitude": "29.950134805821023",
    "geocoded_column": {
      "latitude": "29.950134805821023",
      "longitude": "-90.1193091370064"
    }
  },
  {
    "service_request": "2025-1228802",
    "request_type": "Trash/Recycling",
    "request_reason": "Replace Recycling Cart",
    "date_created": "2025-09-24T15:47:45.000",
    "date_modified": "2025-09-24T15:47:46.000",
    "request_status": "Pending",
    "responsible_agency": "Department of Sanitation",
    "final_address": "47 Kings Canyon Dr",
    "address_councildis": "C",
    "status": "Pending",
    "rowid": "1228802",
    "final_x": "3700553.99588",
    "final_y": "515698.875572",
    "longitude": "-90.00848267608802",
    "latitude": "29.911400803036305",
    "geocoded_column": {
      "latitude": "29.911400803036305",
      "longitude": "-90.00848267608802"
    }
  },
  {
    "service_request": "2025-1228801",
    "request_type": "Abandoned Vehicles",
    "request_reason": "Abandoned/Junk Vehicles",
    "date_created": "2025-09-24T15:47:24.000",
    "date_modified": "2025-09-24T15:47:26.000",
    "request_status": "Pending",
    "responsible_agency": "Department of Public Works",
    "final_address": "3300 BLK Saint Ann St",
    "address_councildis": "A",
    "status": "Pending",
    "rowid": "1228801",
    "final_x": "3674691.79133",
    "final_y": "538917.226743",
    "longitude": "-90.0893146303148",
    "latitude": "29.9760405174746",
    "geocoded_column": {
      "latitude": "29.9760405174746",
      "longitude": "-90.0893146303148"
    }
  },
  {
    "service_request": "2025-1228800",
    "request_type": "Trash/Recycling",
    "request_reason": "Repair Recycling Cart",
    "date_created": "2025-09-24T15:46:06.000",
    "date_modified": "2025-09-24T15:46:08.000",
    "request_status": "Pending",
    "responsible_agency": "Department of Sanitation",
    "final_address": "819 Marigny St",
    "address_councildis": "C",
    "status": "Pending",
    "rowid": "1228800",
    "final_x": "3685531.49711",
    "final_y": "535428.236102",
    "longitude": "-90.05520267440781",
    "latitude": "29.966118964045297",
    "geocoded_column": {
      "latitude": "29.966118964045297",
      "longitude": "-90.05520267440781"
    }
  },
  {
    "service_request": "2025-1228799",
    "request_type": "Abandoned Vehicles",
    "request_reason": "Abandoned/Junk Vehicles",
    "date_created": "2025-09-24T15:45:04.000",
    "date_modified": "2025-09-24T15:46:05.000",
    "request_status": "Pending",
    "responsible_agency": "Department of Public Works",
    "final_address": "7340 Northgate Dr",
    "address_councildis": "E",
    "status": "Inspected",
    "rowid": "1228799",
    "final_x": "3713160.50194",
    "final_y": "565657.340258",
    "longitude": "-89.96681339735625",
    "latitude": "30.048360946421287",
    "geocoded_column": {
      "latitude": "30.048360946421287",
      "longitude": "-89.96681339735625"
    }
  },
  {
    "service_request": "2025-1228798",
    "request_type": "Streetlights",
    "request_reason": "Streetlight Knocked Down/Leaning",
    "date_created": "2025-09-24T15:40:52.000",
    "date_modified": "2025-09-24T15:40:53.000",
    "request_status": "Pending",
    "responsible_agency": "Department of Public Works",
    "final_address": "DWYER BLVD & PALACE ST",
    "address_councildis": "E",
    "status": "Pending",
    "rowid": "1228798",
    "final_x": "3728939.3",
    "final_y": "563100.38",
    "longitude": "-89.9170439130948",
    "latitude": "30.040803522080896",
    "geocoded_column": {
      "latitude": "30.040803522080896",
      "longitude": "-89.9170439130948"
    }
  },
  {
    "service_request": "2025-1228797",
    "request_type": "Trash/Recycling",
    "request_reason": "Request a Large Item Pick Up",
    "date_created": "2025-09-24T15:40:06.000",
    "date_modified": "2025-09-24T15:40:08.000",
    "request_status": "Pending",
    "responsible_agency": "Department of Sanitation",
    "final_address": "2023 Valence St",
    "address_councildis": "B",
    "status": "Assigned to Contractor",
    "contractor": "IV Waste",
    "rowid": "1228797",
    "final_x": "3669630.72474",
    "final_y": "522373.202938",
    "longitude": "-90.10585872781093",
    "latitude": "29.93070000316226",
    "geocoded_column": {
      "latitude": "29.93070000316226",
      "longitude": "-90.10585872781093"
    }
  },
  {
    "service_request": "2025-1228796",
    "request_type": "Parks & Parkways",
    "request_reason": "Request Tree Service (Right of Way/Public Property)",
    "date_created": "2025-09-24T15:39:33.000",
    "date_modified": "2025-09-24T15:39:34.000",
    "request_status": "Pending",
    "responsible_agency": "Department of Parks & Parkway",
    "final_address": "1301 Basin St",
    "address_councildis": "C",
    "status": "Pending",
    "rowid": "1228796",
    "final_x": "3680662.61685",
    "final_y": "533950.041669",
    "longitude": "-90.07062991704471",
    "latitude": "29.96220287034815",
    "geocoded_column": {
      "latitude": "29.96220287034815",
      "longitude": "-90.07062991704471"
    }
  },
  {
    "service_request": "2025-1228795",
    "request_type": "Abandoned Vehicles",
    "request_reason": "Abandoned/Junk Vehicles",
    "date_created": "2025-09-24T15:37:57.000",
    "date_modified": "2025-09-24T15:37:59.000",
    "request_status": "Pending",
    "responsible_agency": "Department of Public Works",
    "final_address": "6601 E Hermes St",
    "address_councildis": "D",
    "status": "Pending",
    "rowid": "1228795",
    "final_x": "3697911.24848",
    "final_y": "555822.100313",
    "longitude": "-90.01536716722067",
    "latitude": "30.021809067831796",
    "geocoded_column": {
      "latitude": "30.021809067831796",
      "longitude": "-90.01536716722067"
    }
  },
  {
    "service_request": "2025-1228794",
    "request_type": "Trash/Recycling",
    "request_reason": "Start Trash Service",
    "date_created": "2025-09-24T15:37:03.000",
    "date_modified": "2025-09-24T15:37:05.000",
    "request_status": "Pending",
    "responsible_agency": "Department of Sanitation",
    "final_address": "3050 N Derbigny St",
    "address_councildis": "D",
    "status": "Assigned to Contractor",
    "contractor": "IV Waste",
    "rowid": "1228794",
    "final_x": "3689364.02755",
    "final_y": "538268.353993",
    "longitude": "-90.0429986724028",
    "latitude": "29.973810185876598",
    "geocoded_column": {
      "latitude": "29.973810185876598",
      "longitude": "-90.0429986724028"
    }
  },
  {
    "service_request": "2025-1228793",
    "request_type": "Trash/Recycling",
    "request_reason": "Replace Trash Cart",
    "date_created": "2025-09-24T15:34:11.000",
    "date_modified": "2025-09-24T15:34:13.000",
    "request_status": "Pending",
    "responsible_agency": "Department of Sanitation",
    "final_address": "3050 N Derbigny St",
    "address_councildis": "D",
    "status": "Assigned to Contractor",
    "contractor": "IV Waste",
    "rowid": "1228793",
    "final_x": "3689364.02755",
    "final_y": "538268.353993",
    "longitude": "-90.0429986724028",
    "latitude": "29.973810185876598",
    "geocoded_column": {
      "latitude": "29.973810185876598",
      "longitude": "-90.0429986724028"
    }
  },
  {
    "service_request": "2025-1228792",
    "request_type": "Healthy Homes",
    "request_reason": "Healthy Homes",
    "date_created": "2025-09-24T15:34:00.000",
    "date_modified": "2025-09-24T15:34:02.000",
    "request_status": "Pending",
    "responsible_agency": "Department of Code Enforcement",
    "final_address": "1224 Broadway St",
    "address_councildis": "A",
    "status": "Pending",
    "rowid": "1228792",
    "final_x": "3664243.29786",
    "final_y": "526699.798014",
    "longitude": "-90.12272182623276",
    "latitude": "29.94275435520438",
    "geocoded_column": {
      "latitude": "29.94275435520438",
      "longitude": "-90.12272182623276"
    }
  },
  {
    "service_request": "2025-1228791",
    "request_type": "Trash/Recycling",
    "request_reason": "Request a Large Item Pick Up",
    "date_created": "2025-09-24T15:32:42.000",
    "date_modified": "2025-09-24T15:32:44.000",
    "request_status": "Pending",
    "responsible_agency": "Department of Sanitation",
    "final_address": "2228 Tricou St",
    "address_councildis": "E",
    "status": "Assigned to Contractor",
    "contractor": "Waste Pro",
    "rowid": "1228791",
    "final_x": "3701787.41732",
    "final_y": "537221.405896",
    "longitude": "-90.00380152094841",
    "latitude": "29.970540933358343",
    "geocoded_column": {
      "latitude": "29.970540933358343",
      "longitude": "-90.00380152094841"
    }
  },
  {
    "service_request": "2025-1228790",
    "request_type": "Drainage",
    "request_reason": "Drainage Manhole Cover Missing or Damaged",
    "date_created": "2025-09-24T15:32:38.000",
    "date_modified": "2025-09-24T15:32:40.000",
    "request_status": "Pending",
    "responsible_agency": "Sewerage & Water Board",
    "final_address": "204 S Saratoga St",
    "address_councildis": "B",
    "status": "Pending",
    "rowid": "1228790",
    "final_x": "3679306.11765",
    "final_y": "531395.903427",
    "longitude": "-90.07500211500289",
    "latitude": "29.955220888241254",
    "geocoded_column": {
      "latitude": "29.955220888241254",
      "longitude": "-90.07500211500289"
    }
  },
  {
    "service_request": "2025-1228789",
    "request_type": "Trash/Recycling",
    "request_reason": "Order Trash Cart",
    "date_created": "2025-09-24T15:31:25.000",
    "date_modified": "2025-09-24T15:31:27.000",
    "request_status": "Pending",
    "responsible_agency": "Department of Sanitation",
    "final_address": "2108 Louisiana Ave",
    "address_councildis": "B",
    "status": "Assigned to Contractor",
    "contractor": "IV Waste",
    "rowid": "1228789",
    "final_x": "3673390.28276",
    "final_y": "523252.600059",
    "longitude": "-90.09396029814945",
    "latitude": "29.93300678489339",
    "geocoded_column": {
      "latitude": "29.93300678489339",
      "longitude": "-90.09396029814945"
    }
  },
  {
    "service_request": "2025-1228788",
    "request_type": "Traffic Signals",
    "request_reason": "Traffic Signal Malfunctioning or Damaged",
    "date_created": "2025-09-24T15:30:42.000",
    "date_modified": "2025-09-24T15:30:43.000",
    "request_status": "Pending",
    "responsible_agency": "Department of Public Works",
    "final_address": "CHEF MENTEUR HWY & DOWNMAN RD & CHEF MENTEUR BRIDGE",
    "address_councildis": "D",
    "status": "Pending",
    "rowid": "1228788",
    "final_x": "3696211.9",
    "final_y": "551507.88",
    "longitude": "-90.02089277553281",
    "latitude": "30.010000220946775",
    "geocoded_column": {
      "latitude": "30.010000220946775",
      "longitude": "-90.02089277553281"
    }
  },
  {
    "service_request": "2025-1228787",
    "request_type": "Trash/Recycling",
    "request_reason": "Request a Large Item Pick Up",
    "date_created": "2025-09-24T15:30:30.000",
    "date_modified": "2025-09-24T15:30:32.000",
    "request_status": "Pending",
    "responsible_agency": "Department of Sanitation",
    "final_address": "7851 Arcadia Ln",
    "address_councildis": "E",
    "status": "Assigned to Contractor",
    "contractor": "Waste Pro",
    "rowid": "1228787",
    "final_x": "3711942.15717",
    "final_y": "567781.825892",
    "longitude": "-89.97058417825644",
    "latitude": "30.054242314300815",
    "geocoded_column": {
      "latitude": "30.054242314300815",
      "longitude": "-89.97058417825644"
    }
  },
  {
    "service_request": "2025-1228786",
    "request_type": "Parks & Parkways",
    "request_reason": "Request Tree Service (Right of Way/Public Property)",
    "date_created": "2025-09-24T15:28:25.000",
    "date_modified": "2025-09-24T15:28:27.000",
    "request_status": "Pending",
    "responsible_agency": "Department of Parks & Parkway",
    "final_address": "4425 Carondelet St",
    "address_councildis": "B",
    "status": "Pending",
    "rowid": "1228786",
    "final_x": "3670559.75342",
    "final_y": "521267.794425",
    "longitude": "-90.10296338138075",
    "latitude": "29.927633085861046",
    "geocoded_column": {
      "latitude": "29.927633085861046",
      "longitude": "-90.10296338138075"
    }
  },
  {
    "service_request": "2025-1228785",
    "request_type": "Trash/Recycling",
    "request_reason": "Request a Large Item Pick Up",
    "date_created": "2025-09-24T15:25:38.000",
    "date_modified": "2025-09-24T15:25:40.000",
    "request_status": "Pending",
    "responsible_agency": "Department of Sanitation",
    "final_address": "7241 Queensway Dr",
    "address_councildis": "E",
    "status": "Assigned to Contractor",
    "contractor": "Waste Pro",
    "rowid": "1228785",
    "final_x": "3718597.39801",
    "final_y": "570323.436135",
    "longitude": "-89.94945175027061",
    "latitude": "30.061011373723385",
    "geocoded_column": {
      "latitude": "30.061011373723385",
      "longitude": "-89.94945175027061"
    }
  },
  {
    "service_request": "2025-1228784",
    "request_type": "Trash/Recycling",
    "request_reason": "Illegal Dumping",
    "date_created": "2025-09-24T15:23:41.000",
    "date_modified": "2025-09-24T15:23:42.000",
    "request_status": "Pending",
    "responsible_agency": "Department of Sanitation",
    "final_address": "5700 Wilton Dr",
    "address_councildis": "D",
    "status": "Pending",
    "rowid": "1228784",
    "final_x": "3681784.45807",
    "final_y": "553747.123287",
    "longitude": "-90.06639607942513",
    "latitude": "30.016603817971777",
    "geocoded_column": {
      "latitude": "30.016603817971777",
      "longitude": "-90.06639607942513"
    }
  },
  {
    "service_request": "2025-1228783",
    "request_type": "Trash/Recycling",
    "request_reason": "MIssed Recycling Pick-Up",
    "date_created": "2025-09-24T15:23:16.000",
    "date_modified": "2025-09-24T15:23:17.000",
    "request_status": "Pending",
    "responsible_agency": "Department of Sanitation",
    "final_address": "5151 Westgrove Park",
    "address_councildis": "C",
    "status": "Assigned to Contractor",
    "contractor": "Richards Disposal",
    "rowid": "1228783",
    "final_x": "3703386.85188",
    "final_y": "510928.732143",
    "longitude": "-89.99971678457645",
    "latitude": "29.89819416087974",
    "geocoded_column": {
      "latitude": "29.89819416087974",
      "longitude": "-89.99971678457645"
    }
  },
  {
    "service_request": "2025-1228782",
    "request_type": "Trash/Recycling",
    "request_reason": "Repair Trash Cart",
    "date_created": "2025-09-24T15:20:05.000",
    "date_modified": "2025-09-24T15:20:07.000",
    "request_status": "Pending",
    "responsible_agency": "Department of Sanitation",
    "final_address": "5700 Chamberlain Dr",
    "address_councildis": "D",
    "status": "Assigned to Contractor",
    "contractor": "IV Waste",
    "rowid": "1228782",
    "final_x": "3679284.75893",
    "final_y": "553559.545367",
    "longitude": "-90.07430057734828",
    "latitude": "30.01616380634053",
    "geocoded_column": {
      "latitude": "30.01616380634053",
      "longitude": "-90.07430057734828"
    }
  },
  {
    "service_request": "2025-1228781",
    "request_type": "Trash/Recycling",
    "request_reason": "Replace Trash Cart",
    "date_created": "2025-09-24T15:19:58.000",
    "date_modified": "2025-09-24T15:19:59.000",
    "request_status": "Pending",
    "responsible_agency": "Department of Sanitation",
    "final_address": "2615 S Prieur St",
    "address_councildis": "B",
    "status": "Assigned to Contractor",
    "contractor": "IV Waste",
    "rowid": "1228781",
    "final_x": "3672956.43368",
    "final_y": "527879.773439",
    "longitude": "-90.0951720851277",
    "latitude": "29.945742899536448",
    "geocoded_column": {
      "latitude": "29.945742899536448",
      "longitude": "-90.0951720851277"
    }
  },
  {
    "service_request": "2025-1228780",
    "request_type": "Trash/Recycling",
    "request_reason": "Repair Trash Cart",
    "date_created": "2025-09-24T15:19:21.000",
    "date_modified": "2025-09-24T15:21:16.000",
    "request_status": "Pending",
    "responsible_agency": "Department of Sanitation",
    "final_address": "225 N Alexander St",
    "address_councildis": "A",
    "status": "Assigned to Contractor",
    "contractor": "IV Waste",
    "rowid": "1228780",
    "final_x": "3670337.80666",
    "final_y": "539738.21313",
    "longitude": "-90.10303797319794",
    "latitude": "29.978427211303515",
    "geocoded_column": {
      "latitude": "29.978427211303515",
      "longitude": "-90.10303797319794"
    }
  },
  {
    "service_request": "2025-1228779",
    "request_type": "Drainage",
    "request_reason": "Catch Basin Frame and Cover Missing or Damaged",
    "date_created": "2025-09-24T15:18:25.000",
    "date_modified": "2025-09-24T15:18:26.000",
    "request_status": "Pending",
    "responsible_agency": "Sewerage & Water Board",
    "final_address": "2040 St Charles Ave",
    "address_councildis": "B",
    "status": "Pending",
    "rowid": "1228779",
    "final_x": "3678049.93326",
    "final_y": "523942.318268",
    "longitude": "-90.07922627833999",
    "latitude": "29.934763877545684",
    "geocoded_column": {
      "latitude": "29.934763877545684",
      "longitude": "-90.07922627833999"
    }
  },
  {
    "service_request": "2025-1228778",
    "request_type": "Traffic Signals",
    "request_reason": "Traffic Signal Malfunctioning or Damaged",
    "date_created": "2025-09-24T15:17:55.000",
    "date_modified": "2025-09-24T15:17:57.000",
    "request_status": "Pending",
    "responsible_agency": "Department of Public Works",
    "final_address": "DOWNMAN RD & CHEF MENTEUR HWY & CHEF MENTEUR BRIDGE",
    "address_councildis": "E",
    "status": "Pending",
    "rowid": "1228778",
    "final_x": "3696226.0",
    "final_y": "551412.88",
    "longitude": "-90.02085166660345",
    "latitude": "30.009738562374903",
    "geocoded_column": {
      "latitude": "30.009738562374903",
      "longitude": "-90.02085166660345"
    }
  },
  {
    "service_request": "2025-1228777",
    "request_type": "Trash/Recycling",
    "request_reason": "Return Trash Cart",
    "date_created": "2025-09-24T15:17:27.000",
    "date_modified": "2025-09-24T15:20:50.000",
    "request_status": "Pending",
    "responsible_agency": "Department of Sanitation",
    "final_address": "225 N Alexander St",
    "address_councildis": "A",
    "status": "Assigned to Contractor",
    "contractor": "IV Waste",
    "rowid": "1228777",
    "final_x": "3670337.80666",
    "final_y": "539738.21313",
    "longitude": "-90.10303797319794",
    "latitude": "29.978427211303515",
    "geocoded_column": {
      "latitude": "29.978427211303515",
      "longitude": "-90.10303797319794"
    }
  },
  {
    "service_request": "2025-1228776",
    "request_type": "Trash/Recycling",
    "request_reason": "Repair Recycling Cart",
    "date_created": "2025-09-24T15:16:23.000",
    "date_modified": "2025-09-24T15:21:48.000",
    "request_status": "Pending",
    "responsible_agency": "Department of Sanitation",
    "final_address": "225 N Alexander St",
    "address_councildis": "A",
    "status": "Pending",
    "rowid": "1228776",
    "final_x": "3670337.80666",
    "final_y": "539738.21313",
    "longitude": "-90.10303797319794",
    "latitude": "29.978427211303515",
    "geocoded_column": {
      "latitude": "29.978427211303515",
      "longitude": "-90.10303797319794"
    }
  },
  {
    "service_request": "2025-1228775",
    "request_type": "Trash/Recycling",
    "request_reason": "Request a Large Item Pick Up",
    "date_created": "2025-09-24T15:16:17.000",
    "date_modified": "2025-09-24T15:16:19.000",
    "request_status": "Pending",
    "responsible_agency": "Department of Sanitation",
    "final_address": "4526 Shalimar Dr",
    "address_councildis": "D",
    "status": "Assigned to Contractor",
    "contractor": "Waste Pro",
    "rowid": "1228775",
    "final_x": "3697185.15005",
    "final_y": "553141.259223",
    "longitude": "-90.01775869159687",
    "latitude": "30.014460712717643",
    "geocoded_column": {
      "latitude": "30.014460712717643",
      "longitude": "-90.01775869159687"
    }
  },
  {
    "service_request": "2025-1228774",
    "request_type": "Abandoned Vehicles",
    "request_reason": "Abandoned/Junk Vehicles",
    "date_created": "2025-09-24T15:05:15.000",
    "date_modified": "2025-09-24T15:05:17.000",
    "request_status": "Pending",
    "responsible_agency": "Department of Public Works",
    "final_address": "3817 Urquhart St",
    "address_councildis": "D",
    "status": "Pending",
    "rowid": "1228774",
    "final_x": "3691536.67056",
    "final_y": "536203.410055",
    "longitude": "-90.03621084041629",
    "latitude": "29.968064867768213",
    "geocoded_column": {
      "latitude": "29.968064867768213",
      "longitude": "-90.03621084041629"
    }
  },
  {
    "service_request": "2025-1228773",
    "request_type": "Trash/Recycling",
    "request_reason": "Repair Trash Cart",
    "date_created": "2025-09-24T14:59:52.000",
    "date_modified": "2025-09-24T14:59:54.000",
    "request_status": "Pending",
    "responsible_agency": "Department of Sanitation",
    "final_address": "2316 Wisteria St",
    "address_councildis": "D",
    "status": "Assigned to Contractor",
    "contractor": "IV Waste",
    "rowid": "1228773",
    "final_x": "3685328.94249",
    "final_y": "548209.628242",
    "longitude": "-90.05539216906844",
    "latitude": "30.0012694853782",
    "geocoded_column": {
      "latitude": "30.0012694853782",
      "longitude": "-90.05539216906844"
    }
  },
  {
    "service_request": "2025-1228772",
    "request_type": "Trash/Recycling",
    "request_reason": "Request a Large Item Pick Up",
    "date_created": "2025-09-24T14:59:30.000",
    "date_modified": "2025-09-24T14:59:32.000",
    "request_status": "Pending",
    "responsible_agency": "Department of Sanitation",
    "final_address": "420 Amethyst St",
    "address_councildis": "D",
    "status": "Assigned to Contractor",
    "contractor": "IV Waste",
    "rowid": "1228772",
    "final_x": "3667779.60026",
    "final_y": "556550.343194",
    "longitude": "-90.1105511071345",
    "latitude": "30.02473002319986",
    "geocoded_column": {
      "latitude": "30.02473002319986",
      "longitude": "-90.1105511071345"
    }
  },
  {
    "service_request": "2025-1228771",
    "request_type": "Trash/Recycling",
    "request_reason": "Request a Large Item Pick Up",
    "date_created": "2025-09-24T14:59:11.000",
    "date_modified": "2025-09-24T14:59:13.000",
    "request_status": "Pending",
    "responsible_agency": "Department of Sanitation",
    "final_address": "5140 Norgate Dr",
    "address_councildis": "E",
    "status": "Assigned to Contractor",
    "contractor": "Waste Pro",
    "rowid": "1228771",
    "final_x": "3707429.22692",
    "final_y": "557237.108187",
    "longitude": "-89.98524049825426",
    "latitude": "30.0253953314112",
    "geocoded_column": {
      "latitude": "30.0253953314112",
      "longitude": "-89.98524049825426"
    }
  },
  {
    "service_request": "2025-1228770",
    "request_type": "Trash/Recycling",
    "request_reason": "Illegal Dumping",
    "date_created": "2025-09-24T14:54:13.000",
    "date_modified": "2025-09-24T14:54:14.000",
    "request_status": "Pending",
    "responsible_agency": "Department of Sanitation",
    "final_address": "WALES ST & SWIFT ST",
    "address_councildis": "E",
    "status": "Pending",
    "rowid": "1228770",
    "final_x": "3695206.8",
    "final_y": "559468.58",
    "longitude": "-90.02378079662675",
    "latitude": "30.031920755897495",
    "geocoded_column": {
      "latitude": "30.031920755897495",
      "longitude": "-90.02378079662675"
    }
  },
  {
    "service_request": "2025-1228769",
    "request_type": "Property Maintenance",
    "request_reason": "Property Maintenance",
    "date_created": "2025-09-24T14:51:02.000",
    "date_modified": "2025-09-24T15:13:15.000",
    "case_close_date": "2025-09-24T10:13:13.000",
    "request_status": "Closed",
    "responsible_agency": "Department of Code Enforcement",
    "final_address": "1324 Nashville Avenue Orleans",
    "address_councildis": "A",
    "status": "Referred to Code Enforcement",
    "rowid": "1228769",
    "final_x": "3665885.30586",
    "final_y": "520885.663737",
    "longitude": "-90.11773233953126",
    "latitude": "29.92671953359914",
    "geocoded_column": {
      "latitude": "29.92671953359914",
      "longitude": "-90.11773233953126"
    }
  },
  {
    "service_request": "2025-1228768",
    "request_type": "Abandoned Vehicles",
    "request_reason": "Abandoned/Junk Vehicles",
    "date_created": "2025-09-24T14:50:17.000",
    "date_modified": "2025-09-24T14:51:31.000",
    "request_status": "Pending",
    "responsible_agency": "Department of Public Works",
    "final_address": "1200 BLK N Roman St",
    "address_councildis": "D",
    "status": "Inspected",
    "rowid": "1228768",
    "final_x": "3680400.44231",
    "final_y": "536629.33565",
    "longitude": "-90.07136464220295",
    "latitude": "29.96957795348718",
    "geocoded_column": {
      "latitude": "29.96957795348718",
      "longitude": "-90.07136464220295"
    }
  },
  {
    "service_request": "2025-1228767",
    "request_type": "Trash/Recycling",
    "request_reason": "Request a Large Item Pick Up",
    "date_created": "2025-09-24T14:48:24.000",
    "date_modified": "2025-09-24T14:48:26.000",
    "request_status": "Pending",
    "responsible_agency": "Department of Sanitation",
    "final_address": "7831 Mackenzie St",
    "address_councildis": "E",
    "status": "Assigned to Contractor",
    "contractor": "Waste Pro",
    "rowid": "1228767",
    "final_x": "3710545.61054",
    "final_y": "566860.460516",
    "longitude": "-89.97503281574762",
    "latitude": "30.051754528041265",
    "geocoded_column": {
      "latitude": "30.051754528041265",
      "longitude": "-89.97503281574762"
    }
  },
  {
    "service_request": "2025-1228766",
    "request_type": "Trash/Recycling",
    "request_reason": "Request a Large Item Pick Up",
    "date_created": "2025-09-24T14:45:51.000",
    "date_modified": "2025-09-24T14:45:53.000",
    "request_status": "Pending",
    "responsible_agency": "Department of Sanitation",
    "final_address": "806 Wagner St",
    "address_councildis": "C",
    "status": "Assigned to Contractor",
    "contractor": "Richards Disposal",
    "rowid": "1228766",
    "final_x": "3690614.99632",
    "final_y": "528540.70272",
    "longitude": "-90.039394780105",
    "latitude": "29.947023742796567",
    "geocoded_column": {
      "latitude": "29.947023742796567",
      "longitude": "-90.039394780105"
    }
  },
  {
    "service_request": "2025-1228765",
    "request_type": "Abandoned Vehicles",
    "request_reason": "Abandoned/Junk Vehicles",
    "date_created": "2025-09-24T14:44:57.000",
    "date_modified": "2025-09-24T14:45:32.000",
    "request_status": "Pending",
    "responsible_agency": "Department of Public Works",
    "final_address": "3100 BLK Laurel St",
    "address_councildis": "B",
    "status": "Inspected",
    "rowid": "1228765",
    "final_x": "3676201.84014",
    "final_y": "519386.152288",
    "longitude": "-90.08521736036221",
    "latitude": "29.92229138891816",
    "geocoded_column": {
      "latitude": "29.92229138891816",
      "longitude": "-90.08521736036221"
    }
  },
  {
    "service_request": "2025-1228764",
    "request_type": "Abandoned Vehicles",
    "request_reason": "Abandoned/Junk Vehicles",
    "date_created": "2025-09-24T14:44:23.000",
    "date_modified": "2025-09-24T14:44:26.000",
    "request_status": "Pending",
    "responsible_agency": "Department of Public Works",
    "final_address": "2716 St Philip St",
    "address_councildis": "A",
    "status": "Pending",
    "rowid": "1228764",
    "final_x": "3677219.49525",
    "final_y": "537938.192521",
    "longitude": "-90.08136518786057",
    "latitude": "29.973272808708654",
    "geocoded_column": {
      "latitude": "29.973272808708654",
      "longitude": "-90.08136518786057"
    }
  },
  {
    "service_request": "2025-1228763",
    "request_type": "Property Maintenance",
    "request_reason": "Property Maintenance",
    "date_created": "2025-09-24T14:39:09.000",
    "date_modified": "2025-09-24T14:39:11.000",
    "request_status": "Pending",
    "responsible_agency": "Department of Code Enforcement",
    "final_address": "2645 Jonquil St",
    "address_councildis": "D",
    "status": "Pending",
    "rowid": "1228763",
    "final_x": "3687449.21442",
    "final_y": "547335.214417",
    "longitude": "-90.04872502726134",
    "latitude": "29.998799972362995",
    "geocoded_column": {
      "latitude": "29.998799972362995",
      "longitude": "-90.04872502726134"
    }
  },
  {
    "service_request": "2025-1228762",
    "request_type": "Trash/Recycling",
    "request_reason": "Request a Large Item Pick Up",
    "date_created": "2025-09-24T14:35:43.000",
    "date_modified": "2025-09-24T14:35:44.000",
    "request_status": "Pending",
    "responsible_agency": "Department of Sanitation",
    "final_address": "1700 Alabo St",
    "address_councildis": "E",
    "status": "Assigned to Contractor",
    "contractor": "Waste Pro",
    "rowid": "1228762",
    "final_x": "3699461.13412",
    "final_y": "535826.624135",
    "longitude": "-90.0111989729258",
    "latitude": "29.96677979893641",
    "geocoded_column": {
      "latitude": "29.96677979893641",
      "longitude": "-90.0111989729258"
    }
  },
  {
    "service_request": "2025-1228761",
    "request_type": "Property Maintenance",
    "request_reason": "Property Maintenance",
    "date_created": "2025-09-24T14:35:35.000",
    "date_modified": "2025-09-24T14:35:37.000",
    "request_status": "Pending",
    "responsible_agency": "Department of Code Enforcement",
    "final_address": "2101 Fats Domino Ave",
    "address_councildis": "E",
    "status": "Pending",
    "rowid": "1228761",
    "final_x": "3699096.77104",
    "final_y": "537515.39444",
    "longitude": "-90.01228813751293",
    "latitude": "29.97143486540345",
    "geocoded_column": {
      "latitude": "29.97143486540345",
      "longitude": "-90.01228813751293"
    }
  },
  {
    "service_request": "2025-1228760",
    "request_type": "Health Related Request",
    "request_reason": "Homeless Encampment Complaint",
    "date_created": "2025-09-24T14:32:35.000",
    "date_modified": "2025-09-24T14:32:38.000",
    "request_status": "Pending",
    "responsible_agency": "Office Of Homeless Services And Strategy",
    "final_address": "10 Elysian Fields Ave",
    "address_councildis": "D",
    "status": "Pending",
    "rowid": "1228760",
    "final_x": "3683547.89602",
    "final_y": "552090.847318",
    "longitude": "-90.06088248659371",
    "latitude": "30.011995932794086",
    "geocoded_column": {
      "latitude": "30.011995932794086",
      "longitude": "-90.06088248659371"
    }
  },
  {
    "service_request": "2025-1228759",
    "request_type": "Street and Traffic Signs",
    "request_reason": "One Way Sign Missing or Damaged",
    "date_created": "2025-09-24T14:30:52.000",
    "date_modified": "2025-09-24T14:30:54.000",
    "request_status": "Pending",
    "responsible_agency": "Department of Public Works",
    "final_address": "1413 Annette St",
    "address_councildis": "C",
    "status": "Pending",
    "rowid": "1228759",
    "final_x": "3683133.31464",
    "final_y": "537407.104776",
    "longitude": "-90.06270677037112",
    "latitude": "29.971633505890363",
    "geocoded_column": {
      "latitude": "29.971633505890363",
      "longitude": "-90.06270677037112"
    }
  },
  {
    "service_request": "2025-1228758",
    "request_type": "Abandoned Vehicles",
    "request_reason": "Abandoned/Junk Vehicles",
    "date_created": "2025-09-24T14:30:46.000",
    "date_modified": "2025-09-24T14:30:48.000",
    "request_status": "Pending",
    "responsible_agency": "Department of Public Works",
    "final_address": "1428 Poland Ave",
    "address_councildis": "D",
    "status": "Pending",
    "rowid": "1228758",
    "final_x": "3693317.09603",
    "final_y": "536366.265671",
    "longitude": "-90.03058236686347",
    "latitude": "29.96845712393352",
    "geocoded_column": {
      "latitude": "29.96845712393352",
      "longitude": "-90.03058236686347"
    }
  },
  {
    "service_request": "2025-1228757",
    "request_type": "Trash/Recycling",
    "request_reason": "Repair Trash Cart",
    "date_created": "2025-09-24T14:29:21.000",
    "date_modified": "2025-09-24T14:29:23.000",
    "request_status": "Pending",
    "responsible_agency": "Department of Sanitation",
    "final_address": "5707 W Louis Prima Dr",
    "address_councildis": "E",
    "status": "Assigned to Contractor",
    "contractor": "Waste Pro",
    "rowid": "1228757",
    "final_x": "3715986.22751",
    "final_y": "561710.069215",
    "longitude": "-89.95803230609305",
    "latitude": "30.037414590302394",
    "geocoded_column": {
      "latitude": "30.037414590302394",
      "longitude": "-89.95803230609305"
    }
  },
  {
    "service_request": "2025-1228756",
    "request_type": "Trash/Recycling",
    "request_reason": "Request a Large Item Pick Up",
    "date_created": "2025-09-24T14:28:18.000",
    "date_modified": "2025-09-24T14:28:21.000",
    "request_status": "Pending",
    "responsible_agency": "Department of Sanitation",
    "final_address": "6601 Bamberry St",
    "address_councildis": "E",
    "status": "Assigned to Contractor",
    "contractor": "Waste Pro",
    "rowid": "1228756",
    "final_x": "3697810.14448",
    "final_y": "558709.188188",
    "longitude": "-90.015581716959",
    "latitude": "30.029750653695086",
    "geocoded_column": {
      "latitude": "30.029750653695086",
      "longitude": "-90.015581716959"
    }
  },
  {
    "service_request": "2025-1228755",
    "request_type": "Trash/Recycling",
    "request_reason": "Request a Large Item Pick Up",
    "date_created": "2025-09-24T14:26:24.000",
    "date_modified": "2025-09-24T16:33:39.000",
    "request_status": "Pending",
    "responsible_agency": "Department of Sanitation",
    "final_address": "7619 Berg St, New Orleans, Louisiana, 70128",
    "address_councildis": "E",
    "status": "Assigned to Contractor",
    "contractor": "Waste Pro",
    "rowid": "1228755",
    "final_x": "3712050.79979",
    "final_y": "566656.154275",
    "longitude": "-89.97028311212557",
    "latitude": "30.05114362220001",
    "geocoded_column": {
      "latitude": "30.05114362220001",
      "longitude": "-89.97028311212557"
    }
  },
  {
    "service_request": "2025-1228754",
    "request_type": "Trash/Recycling",
    "request_reason": "Missed Trash Pick-Up",
    "date_created": "2025-09-24T14:24:30.000",
    "date_modified": "2025-09-24T15:05:32.000",
    "case_close_date": "2025-09-24T10:05:31.000",
    "request_status": "Closed",
    "responsible_agency": "Department of Sanitation",
    "final_address": "5312 Canal Blvd",
    "address_councildis": "A",
    "status": "Invalid Request",
    "contractor": "IV Waste",
    "contractor_action": "Invalid",
    "rowid": "1228754",
    "final_x": "3667963.80167",
    "final_y": "542902.986701",
    "longitude": "-90.11042929636312",
    "latitude": "29.987199141279614",
    "geocoded_column": {
      "latitude": "29.987199141279614",
      "longitude": "-90.11042929636312"
    }
  },
  {
    "service_request": "2025-1228753",
    "request_type": "Abandoned Vehicles",
    "request_reason": "Abandoned/Junk Vehicles",
    "date_created": "2025-09-24T14:21:21.000",
    "date_modified": "2025-09-24T14:21:23.000",
    "request_status": "Pending",
    "responsible_agency": "Department of Public Works",
    "final_address": "7711 S Coronet Ct",
    "address_councildis": "E",
    "status": "Pending",
    "rowid": "1228753",
    "final_x": "3702526.00324",
    "final_y": "557254.156251",
    "longitude": "-90.00073322598531",
    "latitude": "30.025599913022052",
    "geocoded_column": {
      "latitude": "30.025599913022052",
      "longitude": "-90.00073322598531"
    }
  },
  {
    "service_request": "2025-1228752",
    "request_type": "Trash/Recycling",
    "request_reason": "Request a Large Item Pick Up",
    "date_created": "2025-09-24T14:20:43.000",
    "date_modified": "2025-09-24T14:20:45.000",
    "request_status": "Pending",
    "responsible_agency": "Department of Sanitation",
    "final_address": "726 St Ferdinand St",
    "address_councildis": "C",
    "status": "Assigned to Contractor",
    "contractor": "IV Waste",
    "rowid": "1228752",
    "final_x": "3687360.51638",
    "final_y": "535026.744518",
    "longitude": "-90.04944089628853",
    "latitude": "29.96495877705165",
    "geocoded_column": {
      "latitude": "29.96495877705165",
      "longitude": "-90.04944089628853"
    }
  },
  {
    "service_request": "2025-1228751",
    "request_type": "Trash/Recycling",
    "request_reason": "Request a Large Item Pick Up",
    "date_created": "2025-09-24T14:16:00.000",
    "date_modified": "2025-09-24T14:16:02.000",
    "request_status": "Pending",
    "responsible_agency": "Department of Sanitation",
    "final_address": "607 Forstall St",
    "address_councildis": "E",
    "status": "Assigned to Contractor",
    "contractor": "Waste Pro",
    "rowid": "1228751",
    "final_x": "3695795.34762",
    "final_y": "532490.119876",
    "longitude": "-90.02289595860255",
    "latitude": "29.957721388313033",
    "geocoded_column": {
      "latitude": "29.957721388313033",
      "longitude": "-90.02289595860255"
    }
  },
  {
    "service_request": "2025-1228750",
    "request_type": "Abandoned Vehicles",
    "request_reason": "Abandoned/Junk Vehicles",
    "date_created": "2025-09-24T14:04:31.000",
    "date_modified": "2025-09-24T14:04:32.000",
    "request_status": "Pending",
    "responsible_agency": "Department of Public Works",
    "final_address": "4826 Francis Dr",
    "address_councildis": "D",
    "status": "Pending",
    "rowid": "1228750",
    "final_x": "3698153.7121",
    "final_y": "554784.674584",
    "longitude": "-90.01463877468512",
    "latitude": "30.01894887069592",
    "geocoded_column": {
      "latitude": "30.01894887069592",
      "longitude": "-90.01463877468512"
    }
  },
  {
    "service_request": "2025-1228749",
    "request_type": "Trash/Recycling",
    "request_reason": "Illegal Dumping",
    "date_created": "2025-09-24T14:03:18.000",
    "date_modified": "2025-09-24T14:03:19.000",
    "request_status": "Pending",
    "responsible_agency": "Department of Sanitation",
    "final_address": "4554 Stemway Dr",
    "address_councildis": "D",
    "status": "Pending",
    "rowid": "1228749",
    "final_x": "3696957.48554",
    "final_y": "553317.550679",
    "longitude": "-90.01847160365101",
    "latitude": "30.01495263312174",
    "geocoded_column": {
      "latitude": "30.01495263312174",
      "longitude": "-90.01847160365101"
    }
  },
  {
    "service_request": "2025-1228748",
    "request_type": "Trash/Recycling",
    "request_reason": "Request a Large Item Pick Up",
    "date_created": "2025-09-24T14:02:23.000",
    "date_modified": "2025-09-24T14:02:26.000",
    "request_status": "Pending",
    "responsible_agency": "Department of Sanitation",
    "final_address": "1253 Columbus St",
    "address_councildis": "C",
    "status": "Assigned to Contractor",
    "contractor": "IV Waste",
    "rowid": "1228748",
    "final_x": "3682713.05877",
    "final_y": "536367.376711",
    "longitude": "-90.06407037335524",
    "latitude": "29.96878742062326",
    "geocoded_column": {
      "latitude": "29.96878742062326",
      "longitude": "-90.06407037335524"
    }
  },
  {
    "service_request": "2025-1228747",
    "request_type": "Trash/Recycling",
    "request_reason": "Request a Large Item Pick Up",
    "date_created": "2025-09-24T14:00:39.000",
    "date_modified": "2025-09-24T14:00:40.000",
    "request_status": "Pending",
    "responsible_agency": "Department of Sanitation",
    "final_address": "7217 Suffolk Dr",
    "address_councildis": "E",
    "status": "Assigned to Contractor",
    "contractor": "Waste Pro",
    "rowid": "1228747",
    "final_x": "3696256.70423",
    "final_y": "558248.053916",
    "longitude": "-90.02050724389159",
    "latitude": "30.028531741389962",
    "geocoded_column": {
      "latitude": "30.028531741389962",
      "longitude": "-90.02050724389159"
    }
  },
  {
    "service_request": "2025-1228746",
    "request_type": "Trash/Recycling",
    "request_reason": "Return Trash Cart",
    "date_created": "2025-09-24T13:59:47.000",
    "date_modified": "2025-09-24T13:59:48.000",
    "request_status": "Pending",
    "responsible_agency": "Department of Sanitation",
    "final_address": "1415 Columbus St",
    "address_councildis": "C",
    "status": "Assigned to Contractor",
    "contractor": "IV Waste",
    "rowid": "1228746",
    "final_x": "3682195.45615",
    "final_y": "536866.221",
    "longitude": "-90.06568756380582",
    "latitude": "29.97017482541654",
    "geocoded_column": {
      "latitude": "29.97017482541654",
      "longitude": "-90.06568756380582"
    }
  },
  {
    "service_request": "2025-1228745",
    "request_type": "Trash/Recycling",
    "request_reason": "Request a Large Item Pick Up",
    "date_created": "2025-09-24T13:57:40.000",
    "date_modified": "2025-09-24T13:58:31.000",
    "request_status": "Pending",
    "responsible_agency": "Department of Sanitation",
    "final_address": "2601 Egania St",
    "address_councildis": "E",
    "status": "Assigned to Contractor",
    "contractor": "Waste Pro",
    "rowid": "1228745",
    "final_x": "3698418.26756",
    "final_y": "539713.661834",
    "longitude": "-90.01435102198471",
    "latitude": "29.977500798929924",
    "geocoded_column": {
      "latitude": "29.977500798929924",
      "longitude": "-90.01435102198471"
    }
  },
  {
    "service_request": "2025-1228744",
    "request_type": "Property Maintenance",
    "request_reason": "Property Maintenance",
    "date_created": "2025-09-24T13:57:18.000",
    "date_modified": "2025-09-24T13:57:20.000",
    "request_status": "Pending",
    "responsible_agency": "Department of Code Enforcement",
    "final_address": "6246 Music St",
    "address_councildis": "D",
    "status": "Pending",
    "rowid": "1228744",
    "final_x": "3685173.79036",
    "final_y": "556239.140186",
    "longitude": "-90.05559945049026",
    "latitude": "30.023352466901",
    "geocoded_column": {
      "latitude": "30.023352466901",
      "longitude": "-90.05559945049026"
    }
  },
  {
    "service_request": "2025-1228743",
    "request_type": "Trash/Recycling",
    "request_reason": "Request a Large Item Pick Up",
    "date_created": "2025-09-24T13:56:20.000",
    "date_modified": "2025-09-24T13:56:23.000",
    "request_status": "Pending",
    "responsible_agency": "Department of Sanitation",
    "final_address": "2741 Orleans Ave",
    "address_councildis": "A",
    "status": "Assigned to Contractor",
    "contractor": "IV Waste",
    "rowid": "1228743",
    "final_x": "3676523.06945",
    "final_y": "537348.57588",
    "longitude": "-90.08358495326227",
    "latitude": "29.97167246889072",
    "geocoded_column": {
      "latitude": "29.97167246889072",
      "longitude": "-90.08358495326227"
    }
  },
  {
    "service_request": "2025-1228742",
    "request_type": "Parks & Parkways",
    "request_reason": "Request Tree Service (Right of Way/Public Property)",
    "date_created": "2025-09-24T13:46:36.000",
    "date_modified": "2025-09-24T13:46:37.000",
    "request_status": "Pending",
    "responsible_agency": "Department of Parks & Parkway",
    "final_address": "1840 Marengo St",
    "address_councildis": "B",
    "status": "Pending",
    "rowid": "1228742",
    "final_x": "3671783.5179",
    "final_y": "522006.739834",
    "longitude": "-90.09907511709385",
    "latitude": "29.929628759868",
    "geocoded_column": {
      "latitude": "29.929628759868",
      "longitude": "-90.09907511709385"
    }
  },
  {
    "service_request": "2025-1228741",
    "request_type": "Trash/Recycling",
    "request_reason": "Illegal Dumping",
    "date_created": "2025-09-24T13:43:41.000",
    "date_modified": "2025-09-24T13:43:42.000",
    "request_status": "Pending",
    "responsible_agency": "Department of Sanitation",
    "final_address": "6116 N Johnson St",
    "address_councildis": "E",
    "status": "Pending",
    "rowid": "1228741",
    "final_x": "3700945.20868",
    "final_y": "536403.121607",
    "longitude": "-90.00649122004363",
    "latitude": "29.968317790488754",
    "geocoded_column": {
      "latitude": "29.968317790488754",
      "longitude": "-90.00649122004363"
    }
  },
  {
    "service_request": "2025-1228740",
    "request_type": "Trash/Recycling",
    "request_reason": "Illegal Dumping",
    "date_created": "2025-09-24T13:43:38.000",
    "date_modified": "2025-09-24T13:43:47.000",
    "request_status": "Pending",
    "responsible_agency": "Department of Sanitation",
    "final_address": "6116 N Johnson St",
    "address_councildis": "E",
    "status": "Pending",
    "rowid": "1228740",
    "final_x": "3700945.20868",
    "final_y": "536403.121607",
    "longitude": "-90.00649122004363",
    "latitude": "29.968317790488754",
    "geocoded_column": {
      "latitude": "29.968317790488754",
      "longitude": "-90.00649122004363"
    }
  },
  {
    "service_request": "2025-1228739",
    "request_type": "Trash/Recycling",
    "request_reason": "Illegal Dumping",
    "date_created": "2025-09-24T13:43:19.000",
    "date_modified": "2025-09-24T13:43:20.000",
    "request_status": "Pending",
    "responsible_agency": "Department of Sanitation",
    "final_address": "6116 N Johnson St",
    "address_councildis": "E",
    "status": "Pending",
    "rowid": "1228739",
    "final_x": "3700945.20868",
    "final_y": "536403.121607",
    "longitude": "-90.00649122004363",
    "latitude": "29.968317790488754",
    "geocoded_column": {
      "latitude": "29.968317790488754",
      "longitude": "-90.00649122004363"
    }
  },
  {
    "service_request": "2025-1228738",
    "request_type": "Trash/Recycling",
    "request_reason": "Request a Large Item Pick Up",
    "date_created": "2025-09-24T13:43:16.000",
    "date_modified": "2025-09-24T13:43:17.000",
    "request_status": "Pending",
    "responsible_agency": "Department of Sanitation",
    "final_address": "4509 Rosemont Pl",
    "address_councildis": "E",
    "status": "Assigned to Contractor",
    "contractor": "Waste Pro",
    "rowid": "1228738",
    "final_x": "3702929.58039",
    "final_y": "553623.002071",
    "longitude": "-89.99959154291491",
    "latitude": "30.015602722593886",
    "geocoded_column": {
      "latitude": "30.015602722593886",
      "longitude": "-89.99959154291491"
    }
  },
  {
    "service_request": "2025-1228737",
    "request_type": "Property Maintenance",
    "request_reason": "Property Maintenance",
    "date_created": "2025-09-24T13:42:57.000",
    "date_modified": "2025-09-24T13:56:56.000",
    "case_close_date": "2025-09-24T08:56:54.000",
    "request_status": "Closed",
    "responsible_agency": "Department of Code Enforcement",
    "final_address": "7980 Crowder Blvd",
    "address_councildis": "E",
    "status": "Referred to Code Enforcement",
    "rowid": "1228737",
    "final_x": "3702918.84113",
    "final_y": "562635.355808",
    "longitude": "-89.99929395672366",
    "latitude": "30.04038354654559",
    "geocoded_column": {
      "latitude": "30.04038354654559",
      "longitude": "-89.99929395672366"
    }
  },
  {
    "service_request": "2025-1228736",
    "request_type": "Trash/Recycling",
    "request_reason": "Repair Recycling Cart",
    "date_created": "2025-09-24T13:41:59.000",
    "date_modified": "2025-09-24T13:43:42.000",
    "request_status": "Pending",
    "responsible_agency": "Department of Sanitation",
    "final_address": "4614 Stemway Dr",
    "address_councildis": "D",
    "status": "Pending",
    "rowid": "1228736",
    "final_x": "3696910.53859",
    "final_y": "553498.957847",
    "longitude": "-90.01861335643464",
    "latitude": "30.015452915711446",
    "geocoded_column": {
      "latitude": "30.015452915711446",
      "longitude": "-90.01861335643464"
    }
  },
  {
    "service_request": "2025-1228735",
    "request_type": "Trash/Recycling",
    "request_reason": "Request a Large Item Pick Up",
    "date_created": "2025-09-24T13:35:27.000",
    "date_modified": "2025-09-24T13:35:29.000",
    "request_status": "Pending",
    "responsible_agency": "Department of Sanitation",
    "final_address": "7554 Michigan St",
    "address_councildis": "E",
    "status": "Assigned to Contractor",
    "contractor": "Waste Pro",
    "rowid": "1228735",
    "final_x": "3711962.55947",
    "final_y": "566183.517091",
    "longitude": "-89.97057977407458",
    "latitude": "30.049846947643445",
    "geocoded_column": {
      "latitude": "30.049846947643445",
      "longitude": "-89.97057977407458"
    }
  },
  {
    "service_request": "2025-1228734",
    "request_type": "Roads and Streets",
    "request_reason": "Debris in Driving Lanes",
    "date_created": "2025-09-24T13:32:53.000",
    "date_modified": "2025-09-24T13:32:55.000",
    "request_status": "Pending",
    "responsible_agency": "Department of Public Works",
    "final_address": "ST ANN ST & BOURBON ST",
    "address_councildis": "C",
    "status": "Pending",
    "rowid": "1228734",
    "final_x": "3682497.6",
    "final_y": "532982.48",
    "longitude": "-90.06486914130842",
    "latitude": "29.95948667733661",
    "geocoded_column": {
      "latitude": "29.95948667733661",
      "longitude": "-90.06486914130842"
    }
  },