[
  {
    "service_request": "2022-874751",
    "request_type": "Roads/Drainage",
    "request_reason": "Street Flooding / Drainage",
    "date_created": "2022-04-14T00:41:35.000",
    "date_modified": "2022-04-14T00:41:35.000",
    "request_status": "Pending",
    "responsible_agency": "Department of Public Works",
    "final_address": "3420 Palmyra St",
    "address_councildis": "B",
    "status": "Pending",
    "rowid": "874751",
    "final_x": "3672494.32961",
    "final_y": "536227.587783",
    "longitude": "-90.09634656972055",
    "latitude": "29.96871033686516",
    "geocoded_column": {
      "latitude": "29.96871033686516",
      "longitude": "-90.09634656972055"
    }
  },
  {
    "service_request": "2022-874750",
    "request_type": "Roads/Drainage",
    "request_reason": "Catch Basin - Clogged",
    "date_created": "2022-04-14T00:12:06.000",
    "date_modified": "2022-04-14T00:12:06.000",
    "request_status": "Pending",
    "responsible_agency": "Department of Public Works",
    "final_address": "837 Washington Ave",
    "address_councildis": "B",
    "status": "Pending",
    "rowid": "874750",
    "final_x": "3677531.77646",
    "final_y": "520175.600504",
    "longitude": "-90.08099205923831",
    "latitude": "29.92442221582028",
    "geocoded_column": {
      "latitude": "29.92442221582028",
      "longitude": "-90.08099205923831"
    }
  },
  {
    "service_request": "2022-874749",
    "request_type": "Traffic Signals/Signs/Striping/Streetlights",
    "request_reason": "Traffic Signal Malfunctioning/Damaged",
    "date_created": "2022-04-13T23:06:36.000",
    "date_modified": "2022-04-13T23:06:36.000",
    "request_status": "Pending",
    "responsible_agency": "Department of Public Works",
    "final_address": "900 Poydras St",
    "address_councildis": "B",
    "status": "Pending",
    "rowid": "874749",
    "final_x": "3679877.72443",
    "final_y": "529493.088449",
    "longitude": "-90.07326326562955",
    "latitude": "29.949971514920346",
    "geocoded_column": {
      "latitude": "29.949971514920346",
      "longitude": "-90.07326326562955"
    }
  },
  {
    "service_request": "2022-874748",
    "request_type": "Traffic Signals/Signs/Striping/Streetlights",
    "request_reason": "Street Light Outage/Malfunction",
    "date_created": "2022-04-13T23:03:46.000",
    "date_modified": "2022-04-13T23:03:47.000",
    "request_status": "Pending",
    "responsible_agency": "Department of Public Works",
    "final_address": "900 Poydras St",
    "address_councildis": "B",
    "status": "Pending",
    "contractor": "Royal Engineering",
    "rowid": "874748",
    "final_x": "3679877.72443",
    "final_y": "529493.088449",
    "longitude": "-90.07326326562955",
    "latitude": "29.949971514920346",
    "geocoded_column": {
      "latitude": "29.949971514920346",
      "longitude": "-90.07326326562955"
    }
  },
  {
    "service_request": "2022-874747",
    "request_type": "Trash/Recycling",
    "request_reason": "MIssed Recycling Pick-Up",
    "date_created": "2022-04-13T23:00:21.000",
    "date_modified": "2022-04-13T23:00:21.000",
    "request_status": "Pending",
    "responsible_agency": "Department of Sanitation",
    "final_address": "100 Royal St",
    "address_councildis": "C",
    "status": "Assigned to Contractor",
    "contractor": "Empire Services",
    "rowid": "874747",
    "final_x": "3681301.39701",
    "final_y": "530756.489858",
    "longitude": "-90.06872404570724",
    "latitude": "29.95340231693619",
    "geocoded_column": {
      "latitude": "29.95340231693619",
      "longitude": "-90.06872404570724"
    }
  },
  {
    "service_request": "2022-874746",
    "request_type": "Traffic Signals/Signs/Striping/Streetlights",
    "request_reason": "Street Light Outage/Malfunction",
    "date_created": "2022-04-13T22:29:31.000",
    "date_modified": "2022-04-13T22:29:31.000",
    "request_status": "Pending",
    "responsible_agency": "Department of Public Works",
    "final_address": "1614 Farragut St",
    "address_councildis": "C",
    "status": "Pending",
    "contractor": "Royal Engineering",
    "rowid": "874746",
    "final_x": "3692339.47325",
    "final_y": "525277.426749",
    "longitude": "-90.03406681673523",
    "latitude": "29.937997195785368",
    "geocoded_column": {
      "latitude": "29.937997195785368",
      "longitude": "-90.03406681673523"
    }
  },
  {
    "service_request": "2022-874745",
    "request_type": "Mosquito, Termite & Rodent Control",
    "request_reason": "Mosquito Complaint",
    "date_created": "2022-04-13T22:25:49.000",
    "date_modified": "2022-04-13T22:25:49.000",
    "request_status": "Pending",
    "responsible_agency": "Mosquito, Termite & Rodent Control Board",
    "final_address": "130 Horseshoe Bend",
    "address_councildis": "E",
    "status": "Pending",
    "rowid": "874745",
    "final_x": "3720124.63052",
    "final_y": "561626.157791",
    "longitude": "-89.9449573675473",
    "latitude": "30.037046641322327",
    "geocoded_column": {
      "latitude": "30.037046641322327",
      "longitude": "-89.9449573675473"
    }
  },
  {
    "service_request": "2022-874744",
    "request_type": "Trash/Recycling",
    "request_reason": "Start Trash Service",
    "date_created": "2022-04-13T22:23:15.000",
    "date_modified": "2022-04-13T22:23:16.000",
    "request_status": "Pending",
    "responsible_agency": "Department of Sanitation",
    "final_address": "4211 S Broad St",
    "address_councildis": "B",
    "status": "Assigned to Contractor",
    "contractor": "Richards Disposal",
    "rowid": "874744",
    "final_x": "3670501.98574",
    "final_y": "529393.949441",
    "longitude": "-90.10287027240601",
    "latitude": "29.949979086816178",
    "geocoded_column": {
      "latitude": "29.949979086816178",
      "longitude": "-90.10287027240601"
    }
  },
  {
    "service_request": "2022-874743",
    "request_type": "Traffic Signals/Signs/Striping/Streetlights",
    "request_reason": "Street Light Outage/Malfunction",
    "date_created": "2022-04-13T22:11:42.000",
    "date_modified": "2022-04-13T22:11:42.000",
    "request_status": "Pending",
    "responsible_agency": "Department of Public Works",
    "final_address": "2416 Broadway St",
    "address_councildis": "A",
    "status": "Pending",
    "contractor": "Royal Engineering",
    "rowid": "874743",
    "final_x": "3666634.66746",
    "final_y": "530275.214657",
    "longitude": "-90.11505165675878",
    "latitude": "29.952515904601903",
    "geocoded_column": {
      "latitude": "29.952515904601903",
      "longitude": "-90.11505165675878"
    }
  },
  {
    "service_request": "2022-874742",
    "request_type": "Trash/Recycling",
    "request_reason": "Missed Trash Pick-Up",
    "date_created": "2022-04-13T21:59:17.000",
    "date_modified": "2022-04-13T21:59:18.000",
    "request_status": "Pending",
    "responsible_agency": "Department of Sanitation",
    "final_address": "4815 Walmsley Ave",
    "address_councildis": "B",
    "status": "Assigned to Contractor",
    "contractor": "Richards Disposal",
    "rowid": "874742",
    "final_x": "3668173.76909",
    "final_y": "530634.130626",
    "longitude": "-90.11017975954138",
    "latitude": "29.95345772065518",
    "geocoded_column": {
      "latitude": "29.95345772065518",
      "longitude": "-90.11017975954138"
    }
  },
  {
    "service_request": "2022-874741",
    "request_type": "Roads/Drainage",
    "request_reason": "Damaged Sidewalk",
    "date_created": "2022-04-13T21:55:11.000",
    "date_modified": "2022-04-13T21:55:11.000",
    "request_status": "Pending",
    "responsible_agency": "Department of Public Works",
    "final_address": "301 Magazine St HM",
    "address_councildis": "B",
    "status": "Pending",
    "rowid": "874741",
    "final_x": "3681599.49813",
    "final_y": "529698.210625",
    "longitude": "-90.06781967608714",
    "latitude": "29.95048335678312",
    "geocoded_column": {
      "latitude": "29.95048335678312",
      "longitude": "-90.06781967608714"
    }
  },
  {
    "service_request": "2022-874740",
    "request_type": "Traffic Signals/Signs/Striping/Streetlights",
    "request_reason": "Street Light Outage/Malfunction",
    "date_created": "2022-04-13T21:52:34.000",
    "date_modified": "2022-04-13T21:52:35.000",
    "request_status": "Pending",
    "responsible_agency": "Department of Public Works",
    "final_address": "301 Magazine St Apt 301",
    "address_councildis": "B",
    "status": "Pending",
    "contractor": "Royal Engineering",
    "rowid": "874740",
    "final_x": "3681591.9981",
    "final_y": "529689.877313",
    "longitude": "-90.06784364787268",
    "latitude": "29.950460670747464",
    "geocoded_column": {
      "latitude": "29.950460670747464",
      "longitude": "-90.06784364787268"
    }
  },
  {
    "service_request": "2022-874739",
    "request_type": "Property Maintenance",
    "request_reason": "Property Maintenance",
    "date_created": "2022-04-13T21:44:08.000",
    "date_modified": "2022-04-13T21:44:08.000",
    "request_status": "Pending",
    "responsible_agency": "Department of Code Enforcement",
    "final_address": "1750 N Rocheblave St",
    "address_councildis": "D",
    "status": "Pending",
    "rowid": "874739",
    "final_x": "3680690.23829",
    "final_y": "540438.141579",
    "longitude": "-90.07031685617373",
    "latitude": "29.980042072921652",
    "geocoded_column": {
      "latitude": "29.980042072921652",
      "longitude": "-90.07031685617373"
    }
  },
  {
    "service_request": "2022-874738",
    "request_type": "Trash/Recycling",
    "request_reason": "Repair Trash Cart",
    "date_created": "2022-04-13T21:21:53.000",
    "date_modified": "2022-04-13T21:21:54.000",
    "request_status": "Pending",
    "responsible_agency": "Department of Sanitation",
    "final_address": "3914 Orleans Ave",
    "address_councildis": "A",
    "status": "Assigned to Contractor",
    "contractor": "Richards Disposal",
    "rowid": "874738",
    "final_x": "3673083.7218",
    "final_y": "539707.334282",
    "longitude": "-90.09436640771986",
    "latitude": "29.978260951038376",
    "geocoded_column": {
      "latitude": "29.978260951038376",
      "longitude": "-90.09436640771986"
    }
  },
  {
    "service_request": "2022-874737",
    "request_type": "Roads/Drainage",
    "request_reason": "Street Subsidence (Sinking)",
    "date_created": "2022-04-13T21:08:39.000",
    "date_modified": "2022-04-13T21:08:39.000",
    "request_status": "Pending",
    "responsible_agency": "Department of Public Works",
    "final_address": "1107 S Peters St",
    "address_councildis": "B",
    "status": "Pending",
    "rowid": "874737",
    "final_x": "3682275.04309",
    "final_y": "526052.262206",
    "longitude": "-90.06581400237685",
    "latitude": "29.940437690874344",
    "geocoded_column": {
      "latitude": "29.940437690874344",
      "longitude": "-90.06581400237685"
    }
  },
  {
    "service_request": "2022-874736",
    "request_type": "Roads/Drainage",
    "request_reason": "Street Subsidence (Sinking)",
    "date_created": "2022-04-13T21:05:26.000",
    "date_modified": "2022-04-13T21:05:26.000",
    "request_status": "Pending",
    "responsible_agency": "Department of Public Works",
    "final_address": "938 Lafayette St",
    "address_councildis": "B",
    "status": "Pending",
    "rowid": "874736",
    "final_x": "3679537.96507",
    "final_y": "529140.656832",
    "longitude": "-90.07434827056733",
    "latitude": "29.949012715299247",
    "geocoded_column": {
      "latitude": "29.949012715299247",
      "longitude": "-90.07434827056733"
    }
  },
  {
    "service_request": "2022-874735",
    "request_type": "Roads/Drainage",
    "request_reason": "Street Subsidence (Sinking)",
    "date_created": "2022-04-13T21:02:37.000",
    "date_modified": "2022-04-13T21:02:37.000",
    "request_status": "Pending",
    "responsible_agency": "Department of Public Works",
    "final_address": "719 OKeefe Ave",
    "address_councildis": "B",
    "status": "Pending",
    "rowid": "874735",
    "final_x": "3679282.53461",
    "final_y": "528699.979712",
    "longitude": "-90.07517005361278",
    "latitude": "29.947808715178574",
    "geocoded_column": {
      "latitude": "29.947808715178574",
      "longitude": "-90.07517005361278"
    }
  },
  {
    "service_request": "2022-874734",
    "request_type": "Roads/Drainage",
    "request_reason": "Pothole",
    "date_created": "2022-04-13T21:00:46.000",
    "date_modified": "2022-04-13T21:00:46.000",
    "request_status": "Pending",
    "responsible_agency": "Department of Public Works",
    "final_address": "611 OKeefe Ave",
    "address_councildis": "B",
    "status": "Pending",
    "rowid": "874734",
    "final_x": "3679355.91375",
    "final_y": "529017.045504",
    "longitude": "-90.07492737207814",
    "latitude": "29.948678324365698",
    "geocoded_column": {
      "latitude": "29.948678324365698",
      "longitude": "-90.07492737207814"
    }
  },
  {
    "service_request": "2022-874733",
    "request_type": "Traffic Signals/Signs/Striping/Streetlights",
    "request_reason": "Street Light Outage/Malfunction",
    "date_created": "2022-04-13T20:33:57.000",
    "date_modified": "2022-04-13T20:33:58.000",
    "request_status": "Pending",
    "responsible_agency": "Department of Public Works",
    "final_address": "1527 De Battista Pl",
    "address_councildis": "C",
    "status": "Pending",
    "contractor": "Royal Engineering",
    "rowid": "874733",
    "final_x": "3699714.98384",
    "final_y": "525536.219325",
    "longitude": "-90.01077241074624",
    "latitude": "29.93847676805832",
    "geocoded_column": {
      "latitude": "29.93847676805832",
      "longitude": "-90.01077241074624"
    }
  },
  {
    "service_request": "2022-874732",
    "request_type": "Traffic Signals/Signs/Striping/Streetlights",
    "request_reason": "Street Light Knocked Down/Leaning",
    "date_created": "2022-04-13T20:28:34.000",
    "date_modified": "2022-04-13T20:28:35.000",
    "request_status": "Pending",
    "responsible_agency": "Department of Public Works",
    "final_address": "1412 De Battista Pl",
    "address_councildis": "C",
    "status": "Pending",
    "contractor": "Royal Engineering",
    "rowid": "874732",
    "final_x": "3699833.50845",
    "final_y": "525946.212349",
    "longitude": "-90.01038327435029",
    "latitude": "29.939600343768642",
    "geocoded_column": {
      "latitude": "29.939600343768642",
      "longitude": "-90.01038327435029"
    }
  },
  {
    "service_request": "2022-874731",
    "request_type": "Property Maintenance",
    "request_reason": "Property Maintenance",
    "date_created": "2022-04-13T20:26:11.000",
    "date_modified": "2022-04-13T20:26:11.000",
    "request_status": "Pending",
    "responsible_agency": "Department of Code Enforcement",
    "final_address": "1639 Painters St",
    "address_councildis": "D",
    "status": "Pending",
    "rowid": "874731",
    "final_x": "3687419.12585",
    "final_y": "538686.645769",
    "longitude": "-90.04912627763123",
    "latitude": "29.975020419704695",
    "geocoded_column": {
      "latitude": "29.975020419704695",
      "longitude": "-90.04912627763123"
    }
  },
  {
    "service_request": "2022-874730",
    "request_type": "Property Maintenance",
    "request_reason": "Property Maintenance",
    "date_created": "2022-04-13T20:17:41.000",
    "date_modified": "2022-04-13T20:17:41.000",
    "request_status": "Pending",
    "responsible_agency": "Department of Code Enforcement",
    "final_address": "1639 Painters St",
    "address_councildis": "D",
    "status": "Pending",
    "rowid": "874730",
    "final_x": "3687419.12585",
    "final_y": "538686.645769",
    "longitude": "-90.04912627763123",
    "latitude": "29.975020419704695",
    "geocoded_column": {
      "latitude": "29.975020419704695",
      "longitude": "-90.04912627763123"
    }
  },
  {
    "service_request": "2022-874729",
    "request_type": "Trash/Recycling",
    "request_reason": "MIssed Recycling Pick-Up",
    "date_created": "2022-04-13T20:16:29.000",
    "date_modified": "2022-04-13T20:16:29.000",
    "request_status": "Pending",
    "responsible_agency": "Department of Sanitation",
    "final_address": "2519 Loyola Ave",
    "address_councildis": "B",
    "status": "Assigned to Contractor",
    "contractor": "Richards Disposal",
    "rowid": "874729",
    "final_x": "3675325.86101",
    "final_y": "524742.52422",
    "longitude": "-90.08779868069543",
    "latitude": "29.937045881826396",
    "geocoded_column": {
      "latitude": "29.937045881826396",
      "longitude": "-90.08779868069543"
    }
  },
  {
    "service_request": "2022-874728",
    "request_type": "Traffic Signals/Signs/Striping/Streetlights",
    "request_reason": "Street Light Outage/Malfunction",
    "date_created": "2022-04-13T20:11:34.000",
    "date_modified": "2022-04-13T20:11:35.000",
    "request_status": "Pending",
    "responsible_agency": "Department of Public Works",
    "final_address": "2900 BLK Dublin St",
    "address_councildis": "A",
    "status": "Pending",
    "contractor": "Royal Engineering",
    "rowid": "874728",
    "final_x": "3665923.66484",
    "final_y": "533244.219388",
    "longitude": "-90.11719718972303",
    "latitude": "29.960700464578014",
    "geocoded_column": {
      "latitude": "29.960700464578014",
      "longitude": "-90.11719718972303"
    }
  },
  {
    "service_request": "2022-874727",
    "request_type": "Traffic Signals/Signs/Striping/Streetlights",
    "request_reason": "Traffic Signal Malfunctioning/Damaged",
    "date_created": "2022-04-13T20:05:24.000",
    "date_modified": "2022-04-13T20:05:24.000",
    "request_status": "Pending",
    "responsible_agency": "Department of Public Works",
    "final_address": "1200 Poydras St",
    "address_councildis": "B",
    "status": "Pending",
    "rowid": "874727",
    "final_x": "3678906.30728",
    "final_y": "529701.251393",
    "longitude": "-90.0763232713192",
    "latitude": "29.950573231070752",
    "geocoded_column": {
      "latitude": "29.950573231070752",
      "longitude": "-90.0763232713192"
    }
  },
  {
    "service_request": "2022-874724",
    "request_type": "Trash/Recycling",
    "request_reason": "Request a Large Item Pick Up",
    "date_created": "2022-04-13T18:45:51.000",
    "date_modified": "2022-04-13T18:45:52.000",
    "request_status": "Pending",
    "responsible_agency": "Department of Sanitation",
    "final_address": "1619 New York St",
    "address_councildis": "D",
    "status": "Assigned to Contractor",
    "contractor": "Metro Disposal",
    "rowid": "874724",
    "final_x": "3679145.72463",
    "final_y": "555979.908825",
    "longitude": "-90.0746558611159",
    "latitude": "30.022823126227024",
    "geocoded_column": {
      "latitude": "30.022823126227024",
      "longitude": "-90.0746558611159"
    }
  },
  {
    "service_request": "2022-874723",
    "request_type": "Tax and Revenue",
    "request_reason": "Occupational License Tax",
    "date_created": "2022-04-13T18:45:10.000",
    "date_modified": "2022-04-13T18:45:10.000",
    "request_status": "Pending",
    "responsible_agency": "Bureau of Revenue",
    "status": "Pending",
    "rowid": "874723",
    "longitude": "0.0",
    "latitude": "0.0",
    "geocoded_column": {
      "latitude": "0.0",
      "longitude": "0.0"
    }
  },
  {
    "service_request": "2022-874720",
    "request_type": "Tax and Revenue",
    "request_reason": "General Tax Question",
    "date_created": "2022-04-13T18:43:05.000",
    "date_modified": "2022-04-13T18:43:05.000",
    "request_status": "Pending",
    "responsible_agency": "Bureau of Revenue",
    "status": "Pending",
    "rowid": "874720",
    "longitude": "0.0",
    "latitude": "0.0",
    "geocoded_column": {
      "latitude": "0.0",
      "longitude": "0.0"
    }
  },
  {
    "service_request": "2022-874719",
    "request_type": "Property Maintenance",
    "request_reason": "Property Maintenance",
    "date_created": "2022-04-13T18:41:18.000",
    "date_modified": "2022-04-13T18:41:18.000",
    "request_status": "Pending",
    "responsible_agency": "Department of Code Enforcement",
    "final_address": "1822 Mercedes Blvd",
    "address_councildis": "C",
    "status": "Pending",
    "rowid": "874719",
    "final_x": "3698226.59485",
    "final_y": "524124.165884",
    "longitude": "-90.01552264871364",
    "latitude": "29.934641263696495",
    "geocoded_column": {
      "latitude": "29.934641263696495",
      "longitude": "-90.01552264871364"
    }
  },
  {
    "service_request": "2022-874718",
    "request_type": "Trash/Recycling",
    "request_reason": "Request a Large Item Pick Up",
    "date_created": "2022-04-13T18:31:25.000",
    "date_modified": "2022-04-13T18:31:26.000",
    "request_status": "Pending",
    "responsible_agency": "Department of Sanitation",
    "final_address": "6419 Canal Blvd",
    "address_councildis": "A",
    "status": "Assigned to Contractor",
    "contractor": "Metro Disposal",
    "rowid": "874718",
    "final_x": "3668883.66138",
    "final_y": "550183.471956",
    "longitude": "-90.10727771509868",
    "latitude": "30.00719093493055",
    "geocoded_column": {
      "latitude": "30.00719093493055",
      "longitude": "-90.10727771509868"
    }
  },
  {
    "service_request": "2022-874717",
    "request_type": "Roads/Drainage",
    "request_reason": "Street Flooding / Drainage",
    "date_created": "2022-04-13T18:24:34.000",
    "date_modified": "2022-04-13T18:24:34.000",
    "request_status": "Pending",
    "responsible_agency": "Department of Public Works",
    "final_address": "1329 S Saratoga St",
    "address_councildis": "B",
    "status": "Pending",
    "rowid": "874717",
    "final_x": "3677721.59605",
    "final_y": "526915.390974",
    "longitude": "-90.08016018272734",
    "latitude": "29.942948724479045",
    "geocoded_column": {
      "latitude": "29.942948724479045",
      "longitude": "-90.08016018272734"
    }
  },
  {
    "service_request": "2022-874716",
    "request_type": "Trash/Recycling",
    "request_reason": "Illegal Dumping",
    "date_created": "2022-04-13T18:20:36.000",
    "date_modified": "2022-04-13T18:20:36.000",
    "request_status": "Pending",
    "responsible_agency": "Department of Sanitation",
    "final_address": "2600 BLK Monticello Ave",
    "address_councildis": "A",
    "status": "Pending",
    "rowid": "874716",
    "final_x": "3662201.83042",
    "final_y": "535209.18101",
    "longitude": "-90.12888485118305",
    "latitude": "29.966211559062085",
    "geocoded_column": {
      "latitude": "29.966211559062085",
      "longitude": "-90.12888485118305"
    }
  },
  {
    "service_request": "2022-874715",
    "request_type": "Roads/Drainage",
    "request_reason": "Street Subsidence (Sinking)",
    "date_created": "2022-04-13T18:19:50.000",
    "date_modified": "2022-04-13T18:19:50.000",
    "request_status": "Pending",
    "responsible_agency": "Department of Public Works",
    "final_address": "444 St Charles Ave",
    "address_councildis": "B",
    "status": "Pending",
    "rowid": "874715",
    "final_x": "3680823.64776",
    "final_y": "529600.982337",
    "longitude": "-90.0702727919551",
    "latitude": "29.950239550267344",
    "geocoded_column": {
      "latitude": "29.950239550267344",
      "longitude": "-90.0702727919551"
    }
  },
  {
    "service_request": "2022-874714",
    "request_type": "Roads/Drainage",
    "request_reason": "Street Subsidence (Sinking)",
    "date_created": "2022-04-13T18:19:49.000",
    "date_modified": "2022-04-13T18:19:49.000",
    "request_status": "Pending",
    "responsible_agency": "Department of Public Works",
    "final_address": "444 St Charles Ave",
    "address_councildis": "B",
    "status": "Pending",
    "rowid": "874714",
    "final_x": "3680823.64776",
    "final_y": "529600.982337",
    "longitude": "-90.0702727919551",
    "latitude": "29.950239550267344",
    "geocoded_column": {
      "latitude": "29.950239550267344",
      "longitude": "-90.0702727919551"
    }
  },
  {
    "service_request": "2022-874713",
    "request_type": "Roads/Drainage",
    "request_reason": "Street Subsidence (Sinking)",
    "date_created": "2022-04-13T18:19:48.000",
    "date_modified": "2022-04-13T18:19:48.000",
    "request_status": "Pending",
    "responsible_agency": "Department of Public Works",
    "final_address": "444 St Charles Ave",
    "address_councildis": "B",
    "status": "Pending",
    "rowid": "874713",
    "final_x": "3680823.64776",
    "final_y": "529600.982337",
    "longitude": "-90.0702727919551",
    "latitude": "29.950239550267344",
    "geocoded_column": {
      "latitude": "29.950239550267344",
      "longitude": "-90.0702727919551"
    }
  },
  {
    "service_request": "2022-874711",
    "request_type": "Roads/Drainage",
    "request_reason": "Street Subsidence (Sinking)",
    "date_created": "2022-04-13T18:19:47.000",
    "date_modified": "2022-04-13T18:19:47.000",
    "request_status": "Pending",
    "responsible_agency": "Department of Public Works",
    "final_address": "444 St Charles Ave",
    "address_councildis": "B",
    "status": "Pending",
    "rowid": "874711",
    "final_x": "3680823.64776",
    "final_y": "529600.982337",
    "longitude": "-90.0702727919551",
    "latitude": "29.950239550267344",
    "geocoded_column": {
      "latitude": "29.950239550267344",
      "longitude": "-90.0702727919551"
    }
  },
  {
    "service_request": "2022-874712",
    "request_type": "Roads/Drainage",
    "request_reason": "Street Subsidence (Sinking)",
    "date_created": "2022-04-13T18:19:47.000",
    "date_modified": "2022-04-13T18:19:47.000",
    "request_status": "Pending",
    "responsible_agency": "Department of Public Works",
    "final_address": "444 St Charles Ave",
    "address_councildis": "B",
    "status": "Pending",
    "rowid": "874712",
    "final_x": "3680823.64776",
    "final_y": "529600.982337",
    "longitude": "-90.0702727919551",
    "latitude": "29.950239550267344",
    "geocoded_column": {
      "latitude": "29.950239550267344",
      "longitude": "-90.0702727919551"
    }
  },
  {
    "service_request": "2022-874710",
    "request_type": "Property Maintenance",
    "request_reason": "Property Maintenance",
    "date_created": "2022-04-13T18:17:45.000",
    "date_modified": "2022-04-13T18:17:45.000",
    "request_status": "Pending",
    "responsible_agency": "Department of Code Enforcement",
    "final_address": "13123 N Interstate 10 Service Rd",
    "address_councildis": "E",
    "status": "Pending",
    "rowid": "874710",
    "final_x": "3718298.12172",
    "final_y": "567913.663269",
    "longitude": "-89.9504896729805",
    "latitude": "30.054395433243684",
    "geocoded_column": {
      "latitude": "30.054395433243684",
      "longitude": "-89.9504896729805"
    }
  },
  {
    "service_request": "2022-874709",
    "request_type": "Traffic Signals/Signs/Striping/Streetlights",
    "request_reason": "Street Light Outage/Malfunction",
    "date_created": "2022-04-13T18:10:25.000",
    "date_modified": "2022-04-13T18:10:25.000",
    "request_status": "Pending",
    "responsible_agency": "Department of Public Works",
    "final_address": "400 St Charles Ave",
    "address_councildis": "B",
    "status": "Pending",
    "contractor": "Royal Engineering",
    "rowid": "874709",
    "final_x": "3680841.04437",
    "final_y": "529671.332417",
    "longitude": "-90.07021541401092",
    "latitude": "29.950432462014902",
    "geocoded_column": {
      "latitude": "29.950432462014902",
      "longitude": "-90.07021541401092"
    }
  },
  {
    "service_request": "2022-874708",
    "request_type": "Trash/Recycling",
    "request_reason": "Missed Trash Pick-Up",
    "date_created": "2022-04-13T18:08:08.000",
    "date_modified": "2022-04-13T18:08:09.000",
    "request_status": "Pending",
    "responsible_agency": "Department of Sanitation",
    "final_address": "6955 Fleur-De-Lis Dr",
    "address_councildis": "A",
    "status": "Assigned to Contractor",
    "contractor": "Metro Disposal",
    "rowid": "874708",
    "final_x": "3665600.5897",
    "final_y": "554103.91068",
    "longitude": "-90.1175184666077",
    "latitude": "30.018066955776238",
    "geocoded_column": {
      "latitude": "30.018066955776238",
      "longitude": "-90.1175184666077"
    }
  },
  {
    "service_request": "2022-874707",
    "request_type": "Trash/Recycling",
    "request_reason": "Request a Large Item Pick Up",
    "date_created": "2022-04-13T17:58:33.000",
    "date_modified": "2022-04-13T17:58:33.000",
    "request_status": "Pending",
    "responsible_agency": "Department of Sanitation",
    "final_address": "1415 Broadway St",
    "address_councildis": "A",
    "status": "Assigned to Contractor",
    "contractor": "Richards Disposal",
    "rowid": "874707",
    "final_x": "3664704.13805",
    "final_y": "527179.366911",
    "longitude": "-90.12125082189009",
    "latitude": "29.94405961992344",
    "geocoded_column": {
      "latitude": "29.94405961992344",
      "longitude": "-90.12125082189009"
    }
  },
  {
    "service_request": "2022-874706",
    "request_type": "Abandoned Vehicles",
    "request_reason": "Abandoned/Junk Vehicles",
    "date_created": "2022-04-13T17:45:08.000",
    "date_modified": "2022-04-13T17:59:01.000",
    "request_status": "Pending",
    "responsible_agency": "Department of Public Works",
    "final_address": "1333 St Philip St",
    "address_councildis": "C",
    "status": "Pending",
    "rowid": "874706",
    "final_x": "3681281.38069",
    "final_y": "534882.141318",
    "longitude": "-90.06864346624302",
    "latitude": "29.964747061988664",
    "geocoded_column": {
      "latitude": "29.964747061988664",
      "longitude": "-90.06864346624302"
    }
  },
  {
    "service_request": "2022-874705",
    "request_type": "Trash/Recycling",
    "request_reason": "Request a Large Item Pick Up",
    "date_created": "2022-04-13T17:43:38.000",
    "date_modified": "2022-04-13T17:43:38.000",
    "request_status": "Pending",
    "responsible_agency": "Department of Sanitation",
    "final_address": "5334 Tullis Dr",
    "address_councildis": "C",
    "status": "Assigned to Contractor",
    "contractor": "Richards Disposal",
    "rowid": "874705",
    "final_x": "3703548.15486",
    "final_y": "511979.035952",
    "longitude": "-89.99916915066947",
    "latitude": "29.901076978296985",
    "geocoded_column": {
      "latitude": "29.901076978296985",
      "longitude": "-89.99916915066947"
    }
  },
  {
    "service_request": "2022-874704",
    "request_type": "Trash/Recycling",
    "request_reason": "Request a Large Item Pick Up",
    "date_created": "2022-04-13T17:41:23.000",
    "date_modified": "2022-04-13T17:41:24.000",
    "request_status": "Pending",
    "responsible_agency": "Department of Sanitation",
    "final_address": "3239 DHemecourt St",
    "address_councildis": "B",
    "status": "Assigned to Contractor",
    "contractor": "Richards Disposal",
    "rowid": "874704",
    "final_x": "3672446.20103",
    "final_y": "534897.544902",
    "longitude": "-90.09654390039054",
    "latitude": "29.965054594400435",
    "geocoded_column": {
      "latitude": "29.965054594400435",
      "longitude": "-90.09654390039054"
    }
  },
  {
    "service_request": "2022-874703",
    "request_type": "Abandoned Vehicles",
    "request_reason": "Abandoned/Junk Vehicles",
    "date_created": "2022-04-13T17:40:08.000",
    "date_modified": "2022-04-13T17:40:08.000",
    "request_status": "Pending",
    "responsible_agency": "Department of Public Works",
    "final_address": "6137 Arts St",
    "address_councildis": "D",
    "status": "Pending",
    "rowid": "874703",
    "final_x": "3685698.66294",
    "final_y": "555789.657689",
    "longitude": "-90.05395682533387",
    "latitude": "30.022100452732122",
    "geocoded_column": {
      "latitude": "30.022100452732122",
      "longitude": "-90.05395682533387"
    }
  },
  {
    "service_request": "2022-874702",
    "request_type": "Trash/Recycling",
    "request_reason": "Repair Trash Cart",
    "date_created": "2022-04-13T17:29:45.000",
    "date_modified": "2022-04-13T17:31:05.000",
    "request_status": "Pending",
    "responsible_agency": "Department of Sanitation",
    "final_address": "6936 W Laverne St",
    "address_councildis": "D",
    "status": "Assigned to Contractor",
    "contractor": "Metro Disposal",
    "rowid": "874702",
    "final_x": "3695900.55082",
    "final_y": "556345.036058",
    "longitude": "-90.02170150114867",
    "latitude": "30.02331038149821",
    "geocoded_column": {
      "latitude": "30.02331038149821",
      "longitude": "-90.02170150114867"
    }
  },
  {
    "service_request": "2022-874701",
    "request_type": "Traffic Signals/Signs/Striping/Streetlights",
    "request_reason": "Street Light Outage/Malfunction",
    "date_created": "2022-04-13T17:22:04.000",
    "date_modified": "2022-04-13T17:22:05.000",
    "request_status": "Pending",
    "responsible_agency": "Department of Public Works",
    "final_address": "7620 Hansbrough Ave",
    "address_councildis": "E",
    "status": "Pending",
    "contractor": "Royal Engineering",
    "rowid": "874701",
    "final_x": "3707578.44171",
    "final_y": "564487.094049",
    "longitude": "-89.98449933284098",
    "latitude": "30.0453251012345",
    "geocoded_column": {
      "latitude": "30.0453251012345",
      "longitude": "-89.98449933284098"
    }
  },
  {
    "service_request": "2022-874700",
    "request_type": "Abandoned Vehicles",
    "request_reason": "Abandoned/Junk Vehicles",
    "date_created": "2022-04-13T17:17:46.000",
    "date_modified": "2022-04-13T17:17:46.000",
    "request_status": "Pending",
    "responsible_agency": "Department of Public Works",
    "final_address": "2408 St Andrew St",
    "address_councildis": "B",
    "status": "Pending",
    "rowid": "874700",
    "final_x": "3676191.63368",
    "final_y": "526475.527934",
    "longitude": "-90.08500577972045",
    "latitude": "29.941785167023703",
    "geocoded_column": {
      "latitude": "29.941785167023703",
      "longitude": "-90.08500577972045"
    }
  },
  {
    "service_request": "2022-874699",
    "request_type": "Abandoned Vehicles",
    "request_reason": "Abandoned/Junk Vehicles",
    "date_created": "2022-04-13T17:15:13.000",
    "date_modified": "2022-04-13T17:15:13.000",
    "request_status": "Pending",
    "responsible_agency": "Department of Public Works",
    "final_address": "1444 N Johnson St",
    "address_councildis": "D",
    "status": "Pending",
    "rowid": "874699",
    "final_x": "3680455.86095",
    "final_y": "537797.528776",
    "longitude": "-90.07114898701577",
    "latitude": "29.972788403971855",
    "geocoded_column": {
      "latitude": "29.972788403971855",
      "longitude": "-90.07114898701577"
    }
  },
  {
    "service_request": "2022-874698",
    "request_type": "Trash/Recycling",
    "request_reason": "Repair Trash Cart",
    "date_created": "2022-04-13T17:03:50.000",
    "date_modified": "2022-04-13T17:03:51.000",
    "request_status": "Pending",
    "responsible_agency": "Department of Sanitation",
    "final_address": "2611 Magazine St",
    "address_councildis": "B",
    "status": "Assigned to Contractor",
    "contractor": "Richards Disposal",
    "rowid": "874698",
    "final_x": "3677413.97282",
    "final_y": "521149.930937",
    "longitude": "-90.08133031926926",
    "latitude": "29.92710484794721",
    "geocoded_column": {
      "latitude": "29.92710484794721",
      "longitude": "-90.08133031926926"
    }
  },
  {
    "service_request": "2022-874696",
    "request_type": "Traffic Signals/Signs/Striping/Streetlights",
    "request_reason": "Street Light Outage/Malfunction",
    "date_created": "2022-04-13T16:47:56.000",
    "date_modified": "2022-04-13T16:47:57.000",
    "request_status": "Pending",
    "responsible_agency": "Department of Public Works",
    "final_address": "1800 BLK Jackson Ave",
    "address_councildis": "B",
    "status": "Pending",
    "contractor": "Royal Engineering",
    "rowid": "874696",
    "final_x": "3676914.87514",
    "final_y": "524615.409218",
    "longitude": "-90.0827864500631",
    "latitude": "29.936648767505908",
    "geocoded_column": {
      "latitude": "29.936648767505908",
      "longitude": "-90.0827864500631"
    }
  },
  {
    "service_request": "2022-874695",
    "request_type": "Roads/Drainage",
    "request_reason": "Pothole",
    "date_created": "2022-04-13T16:45:35.000",
    "date_modified": "2022-04-13T16:45:35.000",
    "request_status": "Pending",
    "responsible_agency": "Department of Public Works",
    "final_address": "762 St Charles Ave",
    "address_councildis": "B",
    "status": "Pending",
    "rowid": "874695",
    "final_x": "3680443.50741",
    "final_y": "528059.378239",
    "longitude": "-90.07152667665403",
    "latitude": "29.946012172465643",
    "geocoded_column": {
      "latitude": "29.946012172465643",
      "longitude": "-90.07152667665403"
    }
  },
  {
    "service_request": "2022-874693",
    "request_type": "Roads/Drainage",
    "request_reason": "Pothole",
    "date_created": "2022-04-13T16:40:45.000",
    "date_modified": "2022-04-13T16:40:45.000",
    "request_status": "Pending",
    "responsible_agency": "Department of Public Works",
    "final_address": "835 Julia St Unit 1",
    "address_councildis": "B",
    "status": "Pending",
    "rowid": "874693",
    "final_x": "3679701.45397",
    "final_y": "528235.046912",
    "longitude": "-90.07386349472478",
    "latitude": "29.946517650771757",
    "geocoded_column": {
      "latitude": "29.946517650771757",
      "longitude": "-90.07386349472478"
    }
  },
  {
    "service_request": "2022-874691",
    "request_type": "Trash/Recycling",
    "request_reason": "Request a Large Item Pick Up",
    "date_created": "2022-04-13T16:39:25.000",
    "date_modified": "2022-04-13T16:39:26.000",
    "request_status": "Pending",
    "responsible_agency": "Department of Sanitation",
    "final_address": "1842 Burgundy St",
    "address_councildis": "C",
    "status": "Assigned to Contractor",
    "contractor": "Metro Disposal",
    "rowid": "874691",
    "final_x": "3683731.38012",
    "final_y": "535448.844486",
    "longitude": "-90.06088667023889",
    "latitude": "29.966230718813623",
    "geocoded_column": {
      "latitude": "29.966230718813623",
      "longitude": "-90.06088667023889"
    }
  },
  {
    "service_request": "2022-874690",
    "request_type": "Trash/Recycling",
    "request_reason": "Missed Trash Pick-Up",
    "date_created": "2022-04-13T16:33:09.000",
    "date_modified": "2022-04-13T16:33:09.000",
    "request_status": "Pending",
    "responsible_agency": "Department of Sanitation",
    "final_address": "8561 Huntington Park Dr",
    "address_councildis": "E",
    "status": "Assigned to Contractor",
    "contractor": "Metro Disposal",
    "rowid": "874690",
    "final_x": "3705389.43895",
    "final_y": "560301.809629",
    "longitude": "-89.99157247797525",
    "latitude": "30.033887892423074",
    "geocoded_column": {
      "latitude": "30.033887892423074",
      "longitude": "-89.99157247797525"
    }
  },
  {
    "service_request": "2022-874689",
    "request_type": "Trash/Recycling",
    "request_reason": "Request a Large Item Pick Up",
    "date_created": "2022-04-13T16:23:16.000",
    "date_modified": "2022-04-13T16:23:17.000",
    "request_status": "Pending",
    "responsible_agency": "Department of Sanitation",
    "final_address": "3418 Washington Ave",
    "address_councildis": "B",
    "status": "Assigned to Contractor",
    "contractor": "Richards Disposal",
    "rowid": "874689",
    "final_x": "3672255.13019",
    "final_y": "527987.915519",
    "longitude": "-90.09738265431268",
    "latitude": "29.94606107337526",
    "geocoded_column": {
      "latitude": "29.94606107337526",
      "longitude": "-90.09738265431268"
    }
  },
  {
    "service_request": "2022-874688",
    "request_type": "Trash/Recycling",
    "request_reason": "Request a Large Item Pick Up",
    "date_created": "2022-04-13T16:22:21.000",
    "date_modified": "2022-04-13T17:11:50.000",
    "request_status": "Pending",
    "responsible_agency": "Department of Sanitation",
    "final_address": "New Orleans,LA",
    "status": "Assigned to Contractor",
    "rowid": "874688",
    "longitude": "0.0",
    "latitude": "0.0",
    "geocoded_column": {
      "latitude": "0.0",
      "longitude": "0.0"
    }
  },
  {
    "service_request": "2022-874687",
    "request_type": "Roads/Drainage",
    "request_reason": "Damaged Sidewalk",
    "date_created": "2022-04-13T16:16:35.000",
    "date_modified": "2022-04-13T16:16:35.000",
    "request_status": "Pending",
    "responsible_agency": "Department of Public Works",
    "final_address": "939 Girod St",
    "address_councildis": "B",
    "status": "Pending",
    "rowid": "874687",
    "final_x": "3679540.74101",
    "final_y": "528908.080576",
    "longitude": "-90.07434757428565",
    "latitude": "29.94837312460903",
    "geocoded_column": {
      "latitude": "29.94837312460903",
      "longitude": "-90.07434757428565"
    }
  },
  {
    "service_request": "2022-874685",
    "request_type": "Trash/Recycling",
    "request_reason": "Replace Trash Cart",
    "date_created": "2022-04-13T16:14:08.000",
    "date_modified": "2022-04-13T16:14:09.000",
    "request_status": "Pending",
    "responsible_agency": "Department of Sanitation",
    "final_address": "6600 Dorian St",
    "address_councildis": "D",
    "status": "Assigned to Contractor",
    "contractor": "Metro Disposal",
    "rowid": "874685",
    "final_x": "3696413.09655",
    "final_y": "555429.090521",
    "longitude": "-90.02011514392258",
    "latitude": "30.020775736372833",
    "geocoded_column": {
      "latitude": "30.020775736372833",
      "longitude": "-90.02011514392258"
    }
  },
  {
    "service_request": "2022-874684",
    "request_type": "Trash/Recycling",
    "request_reason": "Repair Trash Cart",
    "date_created": "2022-04-13T16:13:39.000",
    "date_modified": "2022-04-13T16:13:40.000",
    "request_status": "Pending",
    "responsible_agency": "Department of Sanitation",
    "final_address": "5351 Paris Ave, New Orleans, Louisiana, 70122",
    "address_councildis": "D",
    "status": "Assigned to Contractor",
    "contractor": "Metro Disposal",
    "rowid": "874684",
    "final_x": "3679282.89832",
    "final_y": "551992.204374",
    "longitude": "-90.07436086650455",
    "latitude": "30.011854240783084",
    "geocoded_column": {
      "latitude": "30.011854240783084",
      "longitude": "-90.07436086650455"
    }
  },
  {
    "service_request": "2022-874683",
    "request_type": "Safety & Permits",
    "request_reason": "Licenses & Permits",
    "date_created": "2022-04-13T16:07:07.000",
    "date_modified": "2022-04-13T16:08:49.000",
    "request_status": "Pending",
    "responsible_agency": "Safety and Permits",
    "final_address": "2417 Annunciation St",
    "address_councildis": "B",
    "status": "Pending",
    "rowid": "874683",
    "final_x": "3678548.66171",
    "final_y": "520542.998904",
    "longitude": "-90.07776939258918",
    "latitude": "29.925401842854487",
    "geocoded_column": {
      "latitude": "29.925401842854487",
      "longitude": "-90.07776939258918"
    }
  },
  {
    "service_request": "2022-874682",
    "request_type": "Trash/Recycling",
    "request_reason": "Missed Trash Pick-Up",
    "date_created": "2022-04-13T16:02:19.000",
    "date_modified": "2022-04-13T16:02:19.000",
    "request_status": "Pending",
    "responsible_agency": "Department of Sanitation",
    "final_address": "6841 Dorchester St",
    "address_councildis": "E",
    "status": "Assigned to Contractor",
    "contractor": "Metro Disposal",
    "rowid": "874682",
    "final_x": "3698781.45143",
    "final_y": "559559.671197",
    "longitude": "-90.01248143429052",
    "latitude": "30.032058404394803",
    "geocoded_column": {
      "latitude": "30.032058404394803",
      "longitude": "-90.01248143429052"
    }
  },
  {
    "service_request": "2022-874681",
    "request_type": "Roads/Drainage",
    "request_reason": "Pothole",
    "date_created": "2022-04-13T16:01:08.000",
    "date_modified": "2022-04-13T16:01:08.000",
    "request_status": "Pending",
    "responsible_agency": "Department of Public Works",
    "final_address": "426 Hay Pl",
    "address_councildis": "A",
    "status": "Pending",
    "rowid": "874681",
    "final_x": "3664925.09607",
    "final_y": "554214.226264",
    "longitude": "-90.11964908758338",
    "latitude": "30.018389975502856",
    "geocoded_column": {
      "latitude": "30.018389975502856",
      "longitude": "-90.11964908758338"
    }
  },
  {
    "service_request": "2022-874680",
    "request_type": "Trash/Recycling",
    "request_reason": "Repair Trash Cart",
    "date_created": "2022-04-13T15:57:56.000",
    "date_modified": "2022-04-13T15:57:57.000",
    "request_status": "Pending",
    "responsible_agency": "Department of Sanitation",
    "final_address": "1953 N Rocheblave St",
    "address_councildis": "D",
    "status": "Assigned to Contractor",
    "contractor": "Metro Disposal",
    "rowid": "874680",
    "final_x": "3682123.69109",
    "final_y": "540929.084299",
    "longitude": "-90.06577226564437",
    "latitude": "29.981348470310532",
    "geocoded_column": {
      "latitude": "29.981348470310532",
      "longitude": "-90.06577226564437"
    }
  },
  {
    "service_request": "2022-874679",
    "request_type": "Trash/Recycling",
    "request_reason": "Order Recycling Cart",
    "date_created": "2022-04-13T15:53:59.000",
    "date_modified": "2022-04-13T17:05:55.000",
    "request_status": "Pending",
    "responsible_agency": "Department of Sanitation",
    "final_address": "2845 Livaudais St. 70115",
    "address_councildis": "B",
    "rowid": "874679",
    "final_x": "3677872.17358",
    "final_y": "518890.910647",
    "longitude": "-90.07996190080806",
    "latitude": "29.920879500703133",
    "geocoded_column": {
      "latitude": "29.920879500703133",
      "longitude": "-90.07996190080806"
    }
  },
  {
    "service_request": "2022-874678",
    "request_type": "Trash/Recycling",
    "request_reason": "Request a Large Item Pick Up",
    "date_created": "2022-04-13T15:53:49.000",
    "date_modified": "2022-04-13T15:53:50.000",
    "request_status": "Pending",
    "responsible_agency": "Department of Sanitation",
    "final_address": "2108 Urquhart St",
    "address_councildis": "C",
    "status": "Assigned to Contractor",
    "contractor": "Metro Disposal",
    "rowid": "874678",
    "final_x": "3684645.92085",
    "final_y": "536988.55316",
    "longitude": "-90.05794445302988",
    "latitude": "29.97043642689578",
    "geocoded_column": {
      "latitude": "29.97043642689578",
      "longitude": "-90.05794445302988"
    }
  },
  {
    "service_request": "2022-874677",
    "request_type": "Trash/Recycling",
    "request_reason": "Missed Trash Pick-Up",
    "date_created": "2022-04-13T15:53:24.000",
    "date_modified": "2022-04-13T15:53:24.000",
    "request_status": "Pending",
    "responsible_agency": "Department of Sanitation",
    "final_address": "4816 N Robertson St",
    "address_councildis": "E",
    "status": "Assigned to Contractor",
    "contractor": "Metro Disposal",
    "rowid": "874677",
    "final_x": "3695606.38787",
    "final_y": "535903.018375",
    "longitude": "-90.0233694302266",
    "latitude": "29.967111592547",
    "geocoded_column": {
      "latitude": "29.967111592547",
      "longitude": "-90.0233694302266"
    }
  },
  {
    "service_request": "2022-874676",
    "request_type": "Abandoned Vehicles",
    "request_reason": "Abandoned/Junk Vehicles",
    "date_created": "2022-04-13T15:53:21.000",
    "date_modified": "2022-04-13T15:53:21.000",
    "request_status": "Pending",
    "responsible_agency": "Department of Public Works",
    "final_address": "1219 Esplanade Ave",
    "address_councildis": "C",
    "status": "Pending",
    "rowid": "874676",
    "final_x": "3682489.90127",
    "final_y": "535727.523463",
    "longitude": "-90.06479748822903",
    "latitude": "29.96703483988659",
    "geocoded_column": {
      "latitude": "29.96703483988659",
      "longitude": "-90.06479748822903"
    }
  },
  {
    "service_request": "2022-874675",
    "request_type": "Traffic Signals/Signs/Striping/Streetlights",
    "request_reason": "Street Light Outage/Malfunction",
    "date_created": "2022-04-13T15:48:46.000",
    "date_modified": "2022-04-13T15:48:47.000",
    "request_status": "Pending",
    "responsible_agency": "Department of Public Works",
    "final_address": "FELICIANA ST & PLEASURE ST",
    "address_councildis": "D",
    "status": "Pending",
    "contractor": "Royal Engineering",
    "rowid": "874675",
    "final_x": "3691005.2",
    "final_y": "545120.08",
    "longitude": "-90.03757080336985",
    "latitude": "29.99259905973348",
    "geocoded_column": {
      "latitude": "29.99259905973348",
      "longitude": "-90.03757080336985"
    }
  },
  {
    "service_request": "2022-874674",
    "request_type": "Trash/Recycling",
    "request_reason": "Request a Large Item Pick Up",
    "date_created": "2022-04-13T15:47:08.000",
    "date_modified": "2022-04-13T15:47:09.000",
    "request_status": "Pending",
    "responsible_agency": "Department of Sanitation",
    "final_address": "217 S Rocheblave St, New Orleans, Louisiana, 70119",
    "address_councildis": "B",
    "status": "Assigned to Contractor",
    "contractor": "Richards Disposal",
    "rowid": "874674",
    "final_x": "3670690.52295",
    "final_y": "528576.623744",
    "longitude": "-90.10230269664149",
    "latitude": "29.947726140578695",
    "geocoded_column": {
      "latitude": "29.947726140578695",
      "longitude": "-90.10230269664149"
    }
  },
  {
    "service_request": "2022-874673",
    "request_type": "Property Maintenance",
    "request_reason": "Property Maintenance",
    "date_created": "2022-04-13T15:46:53.000",
    "date_modified": "2022-04-13T15:46:53.000",
    "request_status": "Pending",
    "responsible_agency": "Department of Code Enforcement",
    "final_address": "3339 Feliciana St",
    "address_councildis": "D",
    "status": "Pending",
    "rowid": "874673",
    "final_x": "3691027.30108",
    "final_y": "545056.725839",
    "longitude": "-90.03750325361358",
    "latitude": "29.992424171488153",
    "geocoded_column": {
      "latitude": "29.992424171488153",
      "longitude": "-90.03750325361358"
    }
  },
  {
    "service_request": "2022-874672",
    "request_type": "Trash/Recycling",
    "request_reason": "Replace Trash Cart",
    "date_created": "2022-04-13T15:45:42.000",
    "date_modified": "2022-04-13T15:45:43.000",
    "request_status": "Pending",
    "responsible_agency": "Department of Sanitation",
    "final_address": "3719 Laurel St",
    "address_councildis": "B",
    "status": "Assigned to Contractor",
    "contractor": "Richards Disposal",
    "rowid": "874672",
    "final_x": "3673653.02523",
    "final_y": "518396.215414",
    "longitude": "-90.0932967536133",
    "latitude": "29.91964547284583",
    "geocoded_column": {
      "latitude": "29.91964547284583",
      "longitude": "-90.0932967536133"
    }
  },
  {
    "service_request": "2022-874671",
    "request_type": "Trash/Recycling",
    "request_reason": "Missed Trash Pick-Up",
    "date_created": "2022-04-13T15:43:21.000",
    "date_modified": "2022-04-13T15:43:22.000",
    "request_status": "Pending",
    "responsible_agency": "Department of Sanitation",
    "final_address": "5351 Tchoupitoulas St",
    "address_councildis": "B",
    "status": "Assigned to Contractor",
    "contractor": "Richards Disposal",
    "rowid": "874671",
    "final_x": "3666843.49517",
    "final_y": "517212.276725",
    "longitude": "-90.11483089618059",
    "latitude": "29.916590888881792",
    "geocoded_column": {
      "latitude": "29.916590888881792",
      "longitude": "-90.11483089618059"
    }
  },
  {
    "service_request": "2022-874670",
    "request_type": "Trash/Recycling",
    "request_reason": "Order Recycling Cart",
    "date_created": "2022-04-13T15:41:36.000",
    "date_modified": "2022-04-13T15:41:36.000",
    "request_status": "Pending",
    "responsible_agency": "Department of Sanitation",
    "final_address": "8132 Hampson St",
    "address_councildis": "A",
    "status": "Pending",
    "rowid": "874670",
    "final_x": "3660591.63891",
    "final_y": "527239.374143",
    "longitude": "-90.13423321409884",
    "latitude": "29.944343597531283",
    "geocoded_column": {
      "latitude": "29.944343597531283",
      "longitude": "-90.13423321409884"
    }
  },
  {
    "service_request": "2022-874669",
    "request_type": "Trash/Recycling",
    "request_reason": "Order Trash Cart",
    "date_created": "2022-04-13T15:40:17.000",
    "date_modified": "2022-04-13T15:40:18.000",
    "request_status": "Pending",
    "responsible_agency": "Department of Sanitation",
    "final_address": "8132 Hampson St",
    "address_councildis": "A",
    "status": "Assigned to Contractor",
    "contractor": "Richards Disposal",
    "rowid": "874669",
    "final_x": "3660591.63891",
    "final_y": "527239.374143",
    "longitude": "-90.13423321409884",
    "latitude": "29.944343597531283",
    "geocoded_column": {
      "latitude": "29.944343597531283",
      "longitude": "-90.13423321409884"
    }
  },
  {
    "service_request": "2022-874667",
    "request_type": "Trash/Recycling",
    "request_reason": "MIssed Recycling Pick-Up",
    "date_created": "2022-04-13T15:36:28.000",
    "date_modified": "2022-04-13T15:36:29.000",
    "request_status": "Pending",
    "responsible_agency": "Department of Sanitation",
    "final_address": "1618 S Liberty St",
    "address_councildis": "B",
    "status": "Assigned to Contractor",
    "contractor": "Richards Disposal",
    "rowid": "874667",
    "final_x": "3676745.19873",
    "final_y": "526531.537982",
    "longitude": "-90.08325613022687",
    "latitude": "29.941922581934552",
    "geocoded_column": {
      "latitude": "29.941922581934552",
      "longitude": "-90.08325613022687"
    }
  },
  {
    "service_request": "2022-874666",
    "request_type": "Property Maintenance",
    "request_reason": "Property Maintenance",
    "date_created": "2022-04-13T15:31:30.000",
    "date_modified": "2022-04-13T15:31:30.000",
    "request_status": "Pending",
    "responsible_agency": "Department of Code Enforcement",
    "final_address": "2837 Milan St",
    "address_councildis": "B",
    "status": "Pending",
    "rowid": "874666",
    "final_x": "3671183.03867",
    "final_y": "525465.503805",
    "longitude": "-90.10085328448618",
    "latitude": "29.93915701639153",
    "geocoded_column": {
      "latitude": "29.93915701639153",
      "longitude": "-90.10085328448618"
    }
  },
  {
    "service_request": "2022-874665",
    "request_type": "Abandoned Vehicles",
    "request_reason": "Abandoned/Junk Vehicles",
    "date_created": "2022-04-13T15:30:09.000",
    "date_modified": "2022-04-13T15:30:09.000",
    "request_status": "Pending",
    "responsible_agency": "Department of Public Works",
    "final_address": "641 Seguin St",
    "address_councildis": "C",
    "status": "Pending",
    "rowid": "874665",
    "final_x": "3686802.07497",
    "final_y": "529363.710849",
    "longitude": "-90.05140449112055",
    "latitude": "29.94940457713459",
    "geocoded_column": {
      "latitude": "29.94940457713459",
      "longitude": "-90.05140449112055"
    }
  },
  {
    "service_request": "2022-874664",
    "request_type": "Trash/Recycling",
    "request_reason": "Request a Large Item Pick Up",
    "date_created": "2022-04-13T15:10:03.000",
    "date_modified": "2022-04-13T15:10:04.000",
    "request_status": "Pending",
    "responsible_agency": "Department of Sanitation",
    "final_address": "1402 Constance St",
    "address_councildis": "B",
    "status": "Assigned to Contractor",
    "contractor": "Richards Disposal",
    "rowid": "874664",
    "final_x": "3680749.53909",
    "final_y": "524395.909884",
    "longitude": "-90.0706878902072",
    "latitude": "29.93592958431235",
    "geocoded_column": {
      "latitude": "29.93592958431235",
      "longitude": "-90.0706878902072"
    }
  },
  {
    "service_request": "2022-874663",
    "request_type": "Trash/Recycling",
    "request_reason": "Missed Trash Pick-Up",
    "date_created": "2022-04-13T15:00:14.000",
    "date_modified": "2022-04-13T18:48:21.000",
    "request_status": "Pending",
    "responsible_agency": "Department of Sanitation",
    "final_address": "2822 General Pershing St",
    "address_councildis": "B",
    "status": "Assigned to Contractor",
    "contractor": "Richards Disposal",
    "rowid": "874663",
    "final_x": "3670760.12379",
    "final_y": "525336.208637",
    "longitude": "-90.1021928680501",
    "latitude": "29.938813997842935",
    "geocoded_column": {
      "latitude": "29.938813997842935",
      "longitude": "-90.1021928680501"
    }
  },
  {
    "service_request": "2022-874662",
    "request_type": "Roads/Drainage",
    "request_reason": "Street Subsidence (Sinking)",
    "date_created": "2022-04-13T15:00:10.000",
    "date_modified": "2022-04-13T15:00:10.000",
    "request_status": "Pending",
    "responsible_agency": "Department of Public Works",
    "final_address": "6126 Delord St",
    "address_councildis": "A",
    "status": "Pending",
    "rowid": "874662",
    "final_x": "3666699.13658",
    "final_y": "526137.912574",
    "longitude": "-90.11498699557329",
    "latitude": "29.94113777795818",
    "geocoded_column": {
      "latitude": "29.94113777795818",
      "longitude": "-90.11498699557329"
    }
  },
  {
    "service_request": "2022-874661",
    "request_type": "Trash/Recycling",
    "request_reason": "Request a Large Item Pick Up",
    "date_created": "2022-04-13T14:56:19.000",
    "date_modified": "2022-04-13T14:56:21.000",
    "request_status": "Pending",
    "responsible_agency": "Department of Sanitation",
    "final_address": "533 Philip St",
    "address_councildis": "B",
    "status": "Assigned to Contractor",
    "contractor": "Richards Disposal",
    "rowid": "874661",
    "final_x": "3679773.70146",
    "final_y": "520290.95852",
    "longitude": "-90.07391106976867",
    "latitude": "29.924671847040774",
    "geocoded_column": {
      "latitude": "29.924671847040774",
      "longitude": "-90.07391106976867"
    }
  },
  {
    "service_request": "2022-874660",
    "request_type": "Trash/Recycling",
    "request_reason": "Request a Large Item Pick Up",
    "date_created": "2022-04-13T14:53:52.000",
    "date_modified": "2022-04-13T14:53:53.000",
    "request_status": "Pending",
    "responsible_agency": "Department of Sanitation",
    "final_address": "531 Philip St",
    "address_councildis": "B",
    "status": "Assigned to Contractor",
    "contractor": "Richards Disposal",
    "rowid": "874660",
    "final_x": "3679784.13871",
    "final_y": "520280.556856",
    "longitude": "-90.07387848377603",
    "latitude": "29.92464293041562",
    "geocoded_column": {
      "latitude": "29.92464293041562",
      "longitude": "-90.07387848377603"
    }
  },
  {
    "service_request": "2022-874659",
    "request_type": "Abandoned Vehicles",
    "request_reason": "Abandoned/Junk Vehicles",
    "date_created": "2022-04-13T14:51:37.000",
    "date_modified": "2022-04-13T14:51:37.000",
    "request_status": "Pending",
    "responsible_agency": "Department of Public Works",
    "final_address": "1500 Prentiss Ave",
    "address_councildis": "D",
    "status": "Pending",
    "rowid": "874659",
    "final_x": "3678447.74114",
    "final_y": "553383.780055",
    "longitude": "-90.07695127561928",
    "latitude": "30.015705777169636",
    "geocoded_column": {
      "latitude": "30.015705777169636",
      "longitude": "-90.07695127561928"
    }
  },
  {
    "service_request": "2022-874658",
    "request_type": "Trash/Recycling",
    "request_reason": "Repair Trash Cart",
    "date_created": "2022-04-13T14:50:59.000",
    "date_modified": "2022-04-13T14:51:00.000",
    "request_status": "Pending",
    "responsible_agency": "Department of Sanitation",
    "final_address": "921 St Ferdinand St",
    "address_councildis": "C",
    "status": "Assigned to Contractor",
    "contractor": "Metro Disposal",
    "rowid": "874658",
    "final_x": "3687586.77321",
    "final_y": "535692.699719",
    "longitude": "-90.0487028150161",
    "latitude": "29.966782949173012",
    "geocoded_column": {
      "latitude": "29.966782949173012",
      "longitude": "-90.0487028150161"
    }
  },
  {
    "service_request": "2022-874657",
    "request_type": "Trash/Recycling",
    "request_reason": "Missed Trash Pick-Up",
    "date_created": "2022-04-13T14:43:58.000",
    "date_modified": "2022-04-13T14:43:59.000",
    "request_status": "Pending",
    "responsible_agency": "Department of Sanitation",
    "final_address": "2500 BLK Dumaine St",
    "address_councildis": "D",
    "status": "Assigned to Contractor",
    "contractor": "Richards Disposal",
    "rowid": "874657",
    "final_x": "3677778.68345",
    "final_y": "537043.016581",
    "longitude": "-90.07963009031403",
    "latitude": "29.970794569704964",
    "geocoded_column": {
      "latitude": "29.970794569704964",
      "longitude": "-90.07963009031403"
    }
  },
  {
    "service_request": "2022-874656",
    "request_type": "Traffic Signals/Signs/Striping/Streetlights",
    "request_reason": "Street Light Outage/Malfunction",
    "date_created": "2022-04-13T14:40:15.000",
    "date_modified": "2022-04-13T14:40:16.000",
    "request_status": "Pending",
    "responsible_agency": "Department of Public Works",
    "final_address": "2570 Benefit St",
    "address_councildis": "D",
    "status": "Pending",
    "contractor": "Royal Engineering",
    "rowid": "874656",
    "final_x": "3686840.55516",
    "final_y": "544559.407055",
    "longitude": "-90.0507459367528",
    "latitude": "29.991186248432616",
    "geocoded_column": {
      "latitude": "29.991186248432616",
      "longitude": "-90.0507459367528"
    }
  },
  {
    "service_request": "2022-874655",
    "request_type": "Trash/Recycling",
    "request_reason": "Missed Trash Pick-Up",
    "date_created": "2022-04-13T14:32:12.000",
    "date_modified": "2022-04-13T14:32:14.000",
    "request_status": "Pending",
    "responsible_agency": "Department of Sanitation",
    "final_address": "5525 Pratt Dr, New Orleans, Louisiana, 70122",
    "address_councildis": "D",
    "status": "Assigned to Contractor",
    "contractor": "Metro Disposal",
    "rowid": "874655",
    "final_x": "3680443.88514",
    "final_y": "552873.514519",
    "longitude": "-90.07066213472915",
    "latitude": "30.0142423990705",
    "geocoded_column": {
      "latitude": "30.0142423990705",
      "longitude": "-90.07066213472915"
    }
  },
  {
    "service_request": "2022-874653",
    "request_type": "Parks & Parkways",
    "request_reason": "Request Tree Service (Right of Way/Public Property)",
    "date_created": "2022-04-13T14:22:31.000",
    "date_modified": "2022-04-13T16:15:10.000",
    "request_status": "Pending",
    "responsible_agency": "Department of Parks & Parkway",
    "final_address": "4400 Dreux Ave",
    "address_councildis": "D",
    "status": "Pending",
    "rowid": "874653",
    "final_x": "3690032.15952",
    "final_y": "552735.39759",
    "longitude": "-90.04037300801264",
    "latitude": "30.013568619509233",
    "geocoded_column": {
      "latitude": "30.013568619509233",
      "longitude": "-90.04037300801264"
    }
  },
  {
    "service_request": "2022-874652",
    "request_type": "Property Maintenance",
    "request_reason": "Property Maintenance",
    "date_created": "2022-04-13T14:17:23.000",
    "date_modified": "2022-04-13T14:17:23.000",
    "request_status": "Pending",
    "responsible_agency": "Department of Code Enforcement",
    "final_address": "1810 Governor Nicholls St",
    "address_councildis": "D",
    "status": "Pending",
    "rowid": "874652",
    "final_x": "3680480.70792",
    "final_y": "536323.670727",
    "longitude": "-90.07112179016744",
    "latitude": "29.968735049007595",
    "geocoded_column": {
      "latitude": "29.968735049007595",
      "longitude": "-90.07112179016744"
    }
  },
  {
    "service_request": "2022-874651",
    "request_type": "Trash/Recycling",
    "request_reason": "Request a Large Item Pick Up",
    "date_created": "2022-04-13T14:17:07.000",
    "date_modified": "2022-04-13T14:17:09.000",
    "request_status": "Pending",
    "responsible_agency": "Department of Sanitation",
    "final_address": "14 Five Oaks Dr",
    "address_councildis": "C",
    "status": "Assigned to Contractor",
    "contractor": "Richards Disposal",
    "rowid": "874651",
    "final_x": "3699347.15236",
    "final_y": "526200.957118",
    "longitude": "-90.01190948254175",
    "latitude": "29.940316234353215",
    "geocoded_column": {
      "latitude": "29.940316234353215",
      "longitude": "-90.01190948254175"
    }
  },
  {
    "service_request": "2022-874650",
    "request_type": "Trash/Recycling",
    "request_reason": "Start Trash Service",
    "date_created": "2022-04-13T14:12:07.000",
    "date_modified": "2022-04-13T14:12:08.000",
    "request_status": "Pending",
    "responsible_agency": "Department of Sanitation",
    "final_address": "1613 Pauger St",
    "address_councildis": "C",
    "status": "Assigned to Contractor",
    "contractor": "Metro Disposal",
    "rowid": "874650",
    "final_x": "3683962.23893",
    "final_y": "535615.851398",
    "longitude": "-90.06015176371747",
    "latitude": "29.966682878907957",
    "geocoded_column": {
      "latitude": "29.966682878907957",
      "longitude": "-90.06015176371747"
    }
  },
  {
    "service_request": "2022-874649",
    "request_type": "Trash/Recycling",
    "request_reason": "Replace Trash Cart",
    "date_created": "2022-04-13T14:12:01.000",
    "date_modified": "2022-04-13T14:12:01.000",
    "request_status": "Pending",
    "responsible_agency": "Department of Sanitation",
    "final_address": "1624 Agriculture St",
    "address_councildis": "D",
    "status": "Assigned to Contractor",
    "contractor": "Metro Disposal",
    "rowid": "874649",
    "final_x": "3680142.76501",
    "final_y": "542920.906637",
    "longitude": "-90.07195968183379",
    "latitude": "29.986885392017246",
    "geocoded_column": {
      "latitude": "29.986885392017246",
      "longitude": "-90.07195968183379"
    }
  },
  {
    "service_request": "2022-874648",
    "request_type": "Traffic Signals/Signs/Striping/Streetlights",
    "request_reason": "Street Light Outage/Malfunction",
    "date_created": "2022-04-13T14:11:22.000",
    "date_modified": "2022-04-13T14:11:23.000",
    "request_status": "Pending",
    "responsible_agency": "Department of Public Works",
    "final_address": "2220 S Salcedo St",
    "address_councildis": "A",
    "status": "Pending",
    "contractor": "Royal Engineering",
    "rowid": "874648",
    "final_x": "3669269.57678",
    "final_y": "528835.445824",
    "longitude": "-90.10678044931095",
    "latitude": "29.948479716532137",
    "geocoded_column": {
      "latitude": "29.948479716532137",
      "longitude": "-90.10678044931095"
    }
  },
  {
    "service_request": "2022-874647",
    "request_type": "Property Maintenance",
    "request_reason": "Property Maintenance",
    "date_created": "2022-04-13T14:06:32.000",
    "date_modified": "2022-04-13T14:06:32.000",
    "request_status": "Pending",
    "responsible_agency": "Department of Code Enforcement",
    "final_address": "2729 Marigny St",
    "address_councildis": "D",
    "status": "Pending",
    "rowid": "874647",
    "final_x": "3684927.60661",
    "final_y": "542870.706509",
    "longitude": "-90.05684791398998",
    "latitude": "29.98660165978345",
    "geocoded_column": {
      "latitude": "29.98660165978345",
      "longitude": "-90.05684791398998"
    }
  },
  {
    "service_request": "2022-874646",
    "request_type": "Roads/Drainage",
    "request_reason": "Pothole",
    "date_created": "2022-04-13T14:06:22.000",
    "date_modified": "2022-04-13T14:06:22.000",
    "request_status": "Pending",
    "responsible_agency": "Department of Public Works",
    "final_address": "1600 BLK France St",
    "address_councildis": "D",
    "status": "Pending",
    "rowid": "874646",
    "final_x": "3692900.05576",
    "final_y": "537215.846944",
    "longitude": "-90.03186892121921",
    "latitude": "29.97080620233703",
    "geocoded_column": {
      "latitude": "29.97080620233703",
      "longitude": "-90.03186892121921"
    }
  },
  {
    "service_request": "2022-874645",
    "request_type": "Traffic Signals/Signs/Striping/Streetlights",
    "request_reason": "Traffic Signal Malfunctioning/Damaged",
    "date_created": "2022-04-13T14:06:05.000",
    "date_modified": "2022-04-13T14:06:05.000",
    "request_status": "Pending",
    "responsible_agency": "Department of Public Works",
    "final_address": "2502 Napoleon Ave, New Orleans, Louisiana, 70115",
    "address_councildis": "B",
    "status": "Pending",
    "rowid": "874645",
    "final_x": "3670433.4635",
    "final_y": "524073.618044",
    "longitude": "-90.10326696541658",
    "latitude": "29.935351928277665",
    "geocoded_column": {
      "latitude": "29.935351928277665",
      "longitude": "-90.10326696541658"
    }
  },
  {
    "service_request": "2022-874643",
    "request_type": "Trash/Recycling",
    "request_reason": "Return Trash Cart",
    "date_created": "2022-04-13T14:00:19.000",
    "date_modified": "2022-04-13T14:00:20.000",
    "request_status": "Pending",
    "responsible_agency": "Department of Sanitation",
    "final_address": "2331 Caffin Ave",
    "address_councildis": "E",
    "status": "Assigned to Contractor",
    "contractor": "Metro Disposal",
    "rowid": "874643",
    "final_x": "3699347.86634",
    "final_y": "538459.946697",
    "longitude": "-90.01146073428038",
    "latitude": "29.974024080722366",
    "geocoded_column": {
      "latitude": "29.974024080722366",
      "longitude": "-90.01146073428038"
    }
  },
  {
    "service_request": "2022-874642",
    "request_type": "Trash/Recycling",
    "request_reason": "Order Trash Cart",
    "date_created": "2022-04-13T13:57:48.000",
    "date_modified": "2022-04-13T13:57:48.000",
    "request_status": "Pending",
    "responsible_agency": "Department of Sanitation",
    "final_address": "1807 S Liberty St",
    "address_councildis": "B",
    "status": "Assigned to Contractor",
    "contractor": "Richards Disposal",
    "rowid": "874642",
    "final_x": "3676593.92897",
    "final_y": "526349.530878",
    "longitude": "-90.08373998774235",
    "latitude": "29.941426659353194",
    "geocoded_column": {
      "latitude": "29.941426659353194",
      "longitude": "-90.08373998774235"
    }
  },
  {
    "service_request": "2022-874641",
    "request_type": "Trash/Recycling",
    "request_reason": "Order Recycling Cart",
    "date_created": "2022-04-13T13:57:24.000",
    "date_modified": "2022-04-13T13:57:24.000",
    "request_status": "Pending",
    "responsible_agency": "Department of Sanitation",
    "final_address": "1807 S Liberty St",
    "address_councildis": "B",
    "status": "Pending",
    "rowid": "874641",
    "final_x": "3676593.92897",
    "final_y": "526349.530878",
    "longitude": "-90.08373998774235",
    "latitude": "29.941426659353194",
    "geocoded_column": {
      "latitude": "29.941426659353194",
      "longitude": "-90.08373998774235"
    }
  },
  {
    "service_request": "2022-874640",
    "request_type": "Trash/Recycling",
    "request_reason": "Order Recycling Cart",
    "date_created": "2022-04-13T13:56:52.000",
    "date_modified": "2022-04-13T13:56:52.000",
    "request_status": "Pending",
    "responsible_agency": "Department of Sanitation",
    "final_address": "1805 S Liberty St",
    "address_councildis": "B",
    "status": "Pending",
    "rowid": "874640",
    "final_x": "3676602.72443",
    "final_y": "526355.56627",
    "longitude": "-90.08371201093242",
    "latitude": "29.941442990943816",
    "geocoded_column": {
      "latitude": "29.941442990943816",
      "longitude": "-90.08371201093242"
    }
  },
  {
    "service_request": "2022-874639",
    "request_type": "Trash/Recycling",
    "request_reason": "Order Trash Cart",
    "date_created": "2022-04-13T13:56:24.000",
    "date_modified": "2022-04-13T13:56:25.000",
    "request_status": "Pending",
    "responsible_agency": "Department of Sanitation",
    "final_address": "1805 S Liberty St",
    "address_councildis": "B",
    "status": "Assigned to Contractor",
    "contractor": "Richards Disposal",
    "rowid": "874639",
    "final_x": "3676602.72443",
    "final_y": "526355.56627",
    "longitude": "-90.08371201093242",
    "latitude": "29.941442990943816",
    "geocoded_column": {
      "latitude": "29.941442990943816",
      "longitude": "-90.08371201093242"
    }
  },
  {
    "service_request": "2022-874638",
    "request_type": "Trash/Recycling",
    "request_reason": "Missed Trash Pick-Up",
    "date_created": "2022-04-13T13:54:22.000",
    "date_modified": "2022-04-13T13:54:23.000",
    "request_status": "Pending",
    "responsible_agency": "Department of Sanitation",
    "final_address": "875 Filmore Ave",
    "address_councildis": "A",
    "status": "Assigned to Contractor",
    "contractor": "Metro Disposal",
    "rowid": "874638",
    "final_x": "3670168.50708",
    "final_y": "552000.410966",
    "longitude": "-90.10315689428745",
    "latitude": "30.012149013695623",
    "geocoded_column": {
      "latitude": "30.012149013695623",
      "longitude": "-90.10315689428745"
    }
  },
  {
    "service_request": "2022-874637",
    "request_type": "Trash/Recycling",
    "request_reason": "Missed Trash Pick-Up",
    "date_created": "2022-04-13T13:51:01.000",
    "date_modified": "2022-04-13T13:51:02.000",
    "request_status": "Pending",
    "responsible_agency": "Department of Sanitation",
    "final_address": "3731 Tall Pines Dr",
    "address_councildis": "C",
    "status": "Assigned to Contractor",
    "contractor": "Richards Disposal",
    "rowid": "874637",
    "final_x": "3703859.33329",
    "final_y": "513441.793842",
    "longitude": "-89.99813331210304",
    "latitude": "29.905089099748448",
    "geocoded_column": {
      "latitude": "29.905089099748448",
      "longitude": "-89.99813331210304"
    }
  },
  {
    "service_request": "2022-874636",
    "request_type": "Trash/Recycling",
    "request_reason": "Repair Trash Cart",
    "date_created": "2022-04-13T13:46:11.000",
    "date_modified": "2022-04-13T13:46:14.000",
    "request_status": "Pending",
    "responsible_agency": "Department of Sanitation",
    "final_address": "8418 Spruce St",
    "address_councildis": "A",
    "status": "Assigned to Contractor",
    "contractor": "Richards Disposal",
    "rowid": "874636",
    "final_x": "3662911.36608",
    "final_y": "531258.205506",
    "longitude": "-90.12677552434074",
    "latitude": "29.95532713730806",
    "geocoded_column": {
      "latitude": "29.95532713730806",
      "longitude": "-90.12677552434074"
    }
  },
  {
    "service_request": "2022-874635",
    "request_type": "Trash/Recycling",
    "request_reason": "Return Trash Cart",
    "date_created": "2022-04-13T13:38:16.000",
    "date_modified": "2022-04-13T13:38:17.000",
    "request_status": "Pending",
    "responsible_agency": "Department of Sanitation",
    "final_address": "7514 Willow St",
    "address_councildis": "A",
    "status": "Assigned to Contractor",
    "contractor": "Richards Disposal",
    "rowid": "874635",
    "final_x": "3663903.04058",
    "final_y": "527463.415679",
    "longitude": "-90.12377065390213",
    "latitude": "29.94486393966146",
    "geocoded_column": {
      "latitude": "29.94486393966146",
      "longitude": "-90.12377065390213"
    }
  },
  {
    "service_request": "2022-874634",
    "request_type": "Trash/Recycling",
    "request_reason": "Missed Trash Pick-Up",
    "date_created": "2022-04-13T13:37:01.000",
    "date_modified": "2022-04-13T13:37:02.000",
    "request_status": "Pending",
    "responsible_agency": "Department of Sanitation",
    "final_address": "7514 Willow St",
    "address_councildis": "A",
    "status": "Assigned to Contractor",
    "contractor": "Richards Disposal",
    "rowid": "874634",
    "final_x": "3663903.04058",
    "final_y": "527463.415679",
    "longitude": "-90.12377065390213",
    "latitude": "29.94486393966146",
    "geocoded_column": {
      "latitude": "29.94486393966146",
      "longitude": "-90.12377065390213"
    }
  },
  {
    "service_request": "2022-874633",
    "request_type": "Trash/Recycling",
    "request_reason": "Return Recycling Cart",
    "date_created": "2022-04-13T13:36:09.000",
    "date_modified": "2022-04-13T13:36:09.000",
    "request_status": "Pending",
    "responsible_agency": "Department of Sanitation",
    "final_address": "1302 N Gayoso St",
    "address_councildis": "A",
    "status": "Pending",
    "rowid": "874633",
    "final_x": "3676826.99598",
    "final_y": "539729.997066",
    "longitude": "-90.08254300899915",
    "latitude": "29.978211442524255",
    "geocoded_column": {
      "latitude": "29.978211442524255",
      "longitude": "-90.08254300899915"
    }
  },
  {
    "service_request": "2022-874632",
    "request_type": "Trash/Recycling",
    "request_reason": "Request a Large Item Pick Up",
    "date_created": "2022-04-13T13:27:30.000",
    "date_modified": "2022-04-13T13:27:30.000",
    "request_status": "Pending",
    "responsible_agency": "Department of Sanitation",
    "final_address": "1114 Flanders St",
    "address_councildis": "C",
    "status": "Assigned to Contractor",
    "contractor": "Richards Disposal",
    "rowid": "874632",
    "final_x": "3696807.98096",
    "final_y": "527238.167999",
    "longitude": "-90.0198884722369",
    "latitude": "29.943248477515798",
    "geocoded_column": {
      "latitude": "29.943248477515798",
      "longitude": "-90.0198884722369"
    }
  },
  {
    "service_request": "2022-874631",
    "request_type": "Trash/Recycling",
    "request_reason": "Repair Trash Cart",
    "date_created": "2022-04-13T13:22:48.000",
    "date_modified": "2022-04-13T13:22:48.000",
    "request_status": "Pending",
    "responsible_agency": "Department of Sanitation",
    "final_address": "5505 Camp St",
    "address_councildis": "A",
    "status": "Assigned to Contractor",
    "contractor": "Richards Disposal",
    "rowid": "874631",
    "final_x": "3666475.20897",
    "final_y": "519289.602423",
    "longitude": "-90.1159236981757",
    "latitude": "29.922313647058605",
    "geocoded_column": {
      "latitude": "29.922313647058605",
      "longitude": "-90.1159236981757"
    }
  },
  {
    "service_request": "2022-874627",
    "request_type": "Traffic Signals/Signs/Striping/Streetlights",
    "request_reason": "Traffic Sign Missing/Damaged",
    "date_created": "2022-04-13T13:15:04.000",
    "date_modified": "2022-04-13T13:15:04.000",
    "request_status": "Pending",
    "responsible_agency": "Department of Public Works",
    "final_address": "500 N Claiborne Ave",
    "address_councildis": "C",
    "status": "Pending",
    "rowid": "874627",
    "final_x": "3679583.72693",
    "final_y": "534013.152389",
    "longitude": "-90.07403470121584",
    "latitude": "29.962409050645526",
    "geocoded_column": {
      "latitude": "29.962409050645526",
      "longitude": "-90.07403470121584"
    }
  },
  {
    "service_request": "2022-874626",
    "request_type": "Trash/Recycling",
    "request_reason": "Request a Large Item Pick Up",
    "date_created": "2022-04-13T13:11:27.000",
    "date_modified": "2022-04-13T13:11:27.000",
    "request_status": "Pending",
    "responsible_agency": "Department of Sanitation",
    "final_address": "2520 Dublin St",
    "address_councildis": "A",
    "status": "Assigned to Contractor",
    "contractor": "Richards Disposal",
    "rowid": "874626",
    "final_x": "3664949.56903",
    "final_y": "532224.174275",
    "longitude": "-90.120307306741",
    "latitude": "29.957924065662453",
    "geocoded_column": {
      "latitude": "29.957924065662453",
      "longitude": "-90.120307306741"
    }
  },
  {
    "service_request": "2022-874624",
    "request_type": "Traffic Signals/Signs/Striping/Streetlights",
    "request_reason": "Street Light Knocked Down/Leaning",
    "date_created": "2022-04-13T13:03:31.000",
    "date_modified": "2022-04-13T13:03:34.000",
    "request_status": "Pending",
    "responsible_agency": "Department of Public Works",
    "final_address": "1555 Poydras St",
    "address_councildis": "B",
    "status": "Pending",
    "contractor": "Royal Engineering",
    "rowid": "874624",
    "final_x": "3677963.7917",
    "final_y": "530354.310466",
    "longitude": "-90.079276682772",
    "latitude": "29.95239732174202",
    "geocoded_column": {
      "latitude": "29.95239732174202",
      "longitude": "-90.079276682772"
    }
  },
  {
    "service_request": "2022-874622",
    "request_type": "Abandoned Vehicles",
    "request_reason": "Abandoned/Junk Vehicles",
    "date_created": "2022-04-13T12:59:36.000",
    "date_modified": "2022-04-13T12:59:36.000",
    "request_status": "Pending",
    "responsible_agency": "Department of Public Works",
    "final_address": "5710 Foxcroft Dr",
    "address_councildis": "E",
    "status": "Pending",
    "rowid": "874622",
    "final_x": "3715385.67179",
    "final_y": "561337.780766",
    "longitude": "-89.95994428251791",
    "latitude": "30.03641075310734",
    "geocoded_column": {
      "latitude": "30.03641075310734",
      "longitude": "-89.95994428251791"
    }
  },
  {
    "service_request": "2022-874621",
    "request_type": "Parks & Parkways",
    "request_reason": "Request Tree Service (Right of Way/Public Property)",
    "date_created": "2022-04-13T12:53:00.000",
    "date_modified": "2022-04-13T13:08:16.000",
    "request_status": "Pending",
    "responsible_agency": "Department of Parks & Parkway",
    "final_address": "5526 Chamberlain Dr",
    "address_councildis": "D",
    "status": "Pending",
    "rowid": "874621",
    "final_x": "3679349.62882",
    "final_y": "552772.197462",
    "longitude": "-90.07412295505243",
    "latitude": "30.013996924268685",
    "geocoded_column": {
      "latitude": "30.013996924268685",
      "longitude": "-90.07412295505243"
    }
  },
  {
    "service_request": "2022-874620",
    "request_type": "Safety & Permits",
    "request_reason": "Licenses & Permits",
    "date_created": "2022-04-13T12:51:50.000",
    "date_modified": "2022-04-13T12:51:50.000",
    "request_status": "Pending",
    "responsible_agency": "Safety and Permits",
    "final_address": "N DORGENOIS ST & ELYSIAN FIELDS AVE",
    "address_councildis": "D",
    "status": "Pending",
    "rowid": "874620",
    "final_x": "3684538.1",
    "final_y": "541456.78",
    "longitude": "-90.05812791986351",
    "latitude": "29.982725786686974",
    "geocoded_column": {
      "latitude": "29.982725786686974",
      "longitude": "-90.05812791986351"
    }
  },
  {
    "service_request": "2022-874619",
    "request_type": "Trash/Recycling",
    "request_reason": "Request a Large Item Pick Up",
    "date_created": "2022-04-13T12:47:21.000",
    "date_modified": "2022-04-13T12:47:23.000",
    "request_status": "Pending",
    "responsible_agency": "Department of Sanitation",
    "final_address": "3426 Upperline St, New Orleans, Louisiana, 70125",
    "address_councildis": "B",
    "status": "Assigned to Contractor",
    "contractor": "Richards Disposal",
    "rowid": "874619",
    "final_x": "3669233.40942",
    "final_y": "527613.173567",
    "longitude": "-90.10693595058689",
    "latitude": "29.945119930373345",
    "geocoded_column": {
      "latitude": "29.945119930373345",
      "longitude": "-90.10693595058689"
    }
  },
  {
    "service_request": "2022-874618",
    "request_type": "Trash/Recycling",
    "request_reason": "Illegal Dumping",
    "date_created": "2022-04-13T12:47:07.000",
    "date_modified": "2022-04-13T12:47:07.000",
    "request_status": "Pending",
    "responsible_agency": "Department of Sanitation",
    "final_address": "2500 New Orleans St",
    "address_councildis": "D",
    "status": "Pending",
    "rowid": "874618",
    "final_x": "3681949.2742",
    "final_y": "541292.19214",
    "longitude": "-90.06631047211904",
    "latitude": "29.98235219399944",
    "geocoded_column": {
      "latitude": "29.98235219399944",
      "longitude": "-90.06631047211904"
    }
  },
  {
    "service_request": "2022-874617",
    "request_type": "Trash/Recycling",
    "request_reason": "Replace Trash Cart",
    "date_created": "2022-04-13T12:46:43.000",
    "date_modified": "2022-04-13T12:46:46.000",
    "request_status": "Pending",
    "responsible_agency": "Department of Sanitation",
    "final_address": "3853 S Inwood Ave",
    "address_councildis": "C",
    "status": "Assigned to Contractor",
    "contractor": "Richards Disposal",
    "rowid": "874617",
    "final_x": "3704984.79697",
    "final_y": "514258.828787",
    "longitude": "-89.99455119790257",
    "latitude": "29.907299558180608",
    "geocoded_column": {
      "latitude": "29.907299558180608",
      "longitude": "-89.99455119790257"
    }
  },
  {
    "service_request": "2022-874615",
    "request_type": "Trash/Recycling",
    "request_reason": "Illegal Dumping",
    "date_created": "2022-04-13T12:46:26.000",
    "date_modified": "2022-04-13T12:46:26.000",
    "request_status": "Pending",
    "responsible_agency": "Department of Sanitation",
    "final_address": "1618 Spain St",
    "address_councildis": "D",
    "status": "Pending",
    "rowid": "874615",
    "final_x": "3685942.02332",
    "final_y": "538398.380681",
    "longitude": "-90.05380150501972",
    "latitude": "29.974273228726236",
    "geocoded_column": {
      "latitude": "29.974273228726236",
      "longitude": "-90.05380150501972"
    }
  },
  {
    "service_request": "2022-874614",
    "request_type": "Trash/Recycling",
    "request_reason": "Missed Trash Pick-Up",
    "date_created": "2022-04-13T12:46:07.000",
    "date_modified": "2022-04-13T12:46:11.000",
    "request_status": "Pending",
    "responsible_agency": "Department of Sanitation",
    "final_address": "7331 Spring Lake Dr",
    "address_councildis": "E",
    "status": "Assigned to Contractor",
    "contractor": "Metro Disposal",
    "rowid": "874614",
    "final_x": "3700624.79581",
    "final_y": "559126.510556",
    "longitude": "-90.00667223452412",
    "latitude": "30.030808824922318",
    "geocoded_column": {
      "latitude": "30.030808824922318",
      "longitude": "-90.00667223452412"
    }
  },
  {
    "service_request": "2022-874613",
    "request_type": "Trash/Recycling",
    "request_reason": "Request a Large Item Pick Up",
    "date_created": "2022-04-13T12:45:32.000",
    "date_modified": "2022-04-13T12:45:33.000",
    "request_status": "Pending",
    "responsible_agency": "Department of Sanitation",
    "final_address": "6120 General Diaz St",
    "address_councildis": "A",
    "status": "Assigned to Contractor",
    "contractor": "Metro Disposal",
    "rowid": "874613",
    "final_x": "3669490.18945",
    "final_y": "548022.907858",
    "longitude": "-90.10543466617516",
    "latitude": "30.00123227853017",
    "geocoded_column": {
      "latitude": "30.00123227853017",
      "longitude": "-90.10543466617516"
    }
  },
  {
    "service_request": "2022-874612",
    "request_type": "Trash/Recycling",
    "request_reason": "Order Recycling Cart",
    "date_created": "2022-04-13T12:44:19.000",
    "date_modified": "2022-04-13T12:44:19.000",
    "request_status": "Pending",
    "responsible_agency": "Department of Sanitation",
    "final_address": "4000 S Post Oak Ave",
    "address_councildis": "C",
    "status": "Pending",
    "rowid": "874612",
    "final_x": "3704722.0227",
    "final_y": "513421.93253",
    "longitude": "-89.99541137840194",
    "latitude": "29.905006818467946",
    "geocoded_column": {
      "latitude": "29.905006818467946",
      "longitude": "-89.99541137840194"
    }
  },
  {
    "service_request": "2022-874611",
    "request_type": "Trash/Recycling",
    "request_reason": "Order Trash Cart",
    "date_created": "2022-04-13T12:41:18.000",
    "date_modified": "2022-04-13T16:31:53.000",
    "request_status": "Pending",
    "responsible_agency": "Department of Sanitation",
    "final_address": "1826 Elysian Fields Ave, New Orleans, Louisiana, 70117",
    "address_councildis": "D",
    "status": "Assigned to Contractor",
    "contractor": "Metro Disposal",
    "rowid": "874611",
    "final_x": "3684680.17276",
    "final_y": "539093.63905",
    "longitude": "-90.05776227398209",
    "latitude": "29.976223630665476",
    "geocoded_column": {
      "latitude": "29.976223630665476",
      "longitude": "-90.05776227398209"
    }
  },
  {
    "service_request": "2022-874610",
    "request_type": "Trash/Recycling",
    "request_reason": "Illegal Dumping",
    "date_created": "2022-04-13T12:32:55.000",
    "date_modified": "2022-04-13T12:32:55.000",
    "request_status": "Pending",
    "responsible_agency": "Department of Sanitation",
    "final_address": "1900 BLK Harmony St",
    "address_councildis": "B",
    "status": "Pending",
    "rowid": "874610",
    "final_x": "3674291.74324",
    "final_y": "522970.645776",
    "longitude": "-90.09112409738223",
    "latitude": "29.932204660801325",
    "geocoded_column": {
      "latitude": "29.932204660801325",
      "longitude": "-90.09112409738223"
    }
  },
  {
    "service_request": "2022-874609",
    "request_type": "Trash/Recycling",
    "request_reason": "Request a Large Item Pick Up",
    "date_created": "2022-04-13T12:28:23.000",
    "date_modified": "2022-04-13T12:28:24.000",
    "request_status": "Pending",
    "responsible_agency": "Department of Sanitation",
    "final_address": "1331 Touro St",
    "address_councildis": "C",
    "status": "Assigned to Contractor",
    "contractor": "Metro Disposal",
    "rowid": "874609",
    "final_x": "3684181.82076",
    "final_y": "537237.985864",
    "longitude": "-90.05940137324365",
    "latitude": "29.97113647597014",
    "geocoded_column": {
      "latitude": "29.97113647597014",
      "longitude": "-90.05940137324365"
    }
  },
  {
    "service_request": "2022-874608",
    "request_type": "Roads/Drainage",
    "request_reason": "Catch Basin - Broken/Damage",
    "date_created": "2022-04-13T12:28:18.000",
    "date_modified": "2022-04-13T14:30:55.000",
    "case_close_date": "2022-04-13T09:30:55.000",
    "request_status": "Closed",
    "responsible_agency": "Department of Public Works",
    "final_address": "3632 Franklin Ave",
    "address_councildis": "D",
    "status": "Duplicate Case",
    "rowid": "874608",
    "final_x": "3687058.24943",
    "final_y": "546376.899408",
    "longitude": "-90.04999399287264",
    "latitude": "29.99617699791581",
    "geocoded_column": {
      "latitude": "29.99617699791581",
      "longitude": "-90.04999399287264"
    }
  },
  {
    "service_request": "2022-874607",
    "request_type": "Trash/Recycling",
    "request_reason": "Request a Large Item Pick Up",
    "date_created": "2022-04-13T12:27:42.000",
    "date_modified": "2022-04-13T12:27:43.000",
    "request_status": "Pending",
    "responsible_agency": "Department of Sanitation",
    "final_address": "5519 Camp St",
    "address_councildis": "A",
    "status": "Assigned to Contractor",
    "contractor": "Richards Disposal",
    "rowid": "874607",
    "final_x": "3666377.76173",
    "final_y": "519365.298679",
    "longitude": "-90.11622876233471",
    "latitude": "29.922524634445995",
    "geocoded_column": {
      "latitude": "29.922524634445995",
      "longitude": "-90.11622876233471"
    }
  },
  {
    "service_request": "2022-874606",
    "request_type": "Traffic Signals/Signs/Striping/Streetlights",
    "request_reason": "Street Light Outage/Malfunction",
    "date_created": "2022-04-13T12:21:00.000",
    "date_modified": "2022-04-13T12:21:01.000",
    "request_status": "Pending",
    "responsible_agency": "Department of Public Works",
    "final_address": "6514 Pratt Dr",
    "address_councildis": "D",
    "status": "Pending",
    "contractor": "Royal Engineering",
    "rowid": "874606",
    "final_x": "3678877.65838",
    "final_y": "558547.06166",
    "longitude": "-90.07541383887693",
    "latitude": "30.029889950488815",
    "geocoded_column": {
      "latitude": "30.029889950488815",
      "longitude": "-90.07541383887693"
    }
  },
  {
    "service_request": "2022-874605",
    "request_type": "Trash/Recycling",
    "request_reason": "Request a Large Item Pick Up",
    "date_created": "2022-04-13T12:20:10.000",
    "date_modified": "2022-04-13T12:20:19.000",
    "request_status": "Pending",
    "responsible_agency": "Department of Sanitation",
    "final_address": "1020 Music St",
    "address_councildis": "C",
    "status": "Assigned to Contractor",
    "contractor": "Metro Disposal",
    "rowid": "874605",
    "final_x": "3686824.17468",
    "final_y": "536280.714375",
    "longitude": "-90.05109031332998",
    "latitude": "29.968423271342054",
    "geocoded_column": {
      "latitude": "29.968423271342054",
      "longitude": "-90.05109031332998"
    }
  },
  {
    "service_request": "2022-874604",
    "request_type": "Traffic Signals/Signs/Striping/Streetlights",
    "request_reason": "Traffic Sign Missing/Damaged",
    "date_created": "2022-04-13T12:19:51.000",
    "date_modified": "2022-04-13T14:19:17.000",
    "request_status": "Pending",
    "responsible_agency": "Department of Public Works",
    "final_address": "New Orleans,LA",
    "address_councildis": "A",
    "rowid": "874604",
    "final_x": "3664896.6",
    "final_y": "530929.18",
    "longitude": "-90.12051785113283",
    "latitude": "29.954364794982695",
    "geocoded_column": {
      "latitude": "29.954364794982695",
      "longitude": "-90.12051785113283"
    }
  },
  {
    "service_request": "2022-874603",
    "request_type": "Traffic Signals/Signs/Striping/Streetlights",
    "request_reason": "Street Light Outage/Malfunction",
    "date_created": "2022-04-13T12:17:29.000",
    "date_modified": "2022-04-13T12:17:40.000",
    "request_status": "Pending",
    "responsible_agency": "Department of Public Works",
    "final_address": "5937 Elysian Fields Ave",
    "address_councildis": "D",
    "status": "Pending",
    "contractor": "Royal Engineering",
    "rowid": "874603",
    "final_x": "3683674.38927",
    "final_y": "554914.52668",
    "longitude": "-90.06038373226562",
    "latitude": "30.019756155718678",
    "geocoded_column": {
      "latitude": "30.019756155718678",
      "longitude": "-90.06038373226562"
    }
  },
  {
    "service_request": "2022-874602",
    "request_type": "Traffic Signals/Signs/Striping/Streetlights",
    "request_reason": "Street Light Outage/Malfunction",
    "date_created": "2022-04-13T12:15:39.000",
    "date_modified": "2022-04-13T12:15:40.000",
    "request_status": "Pending",
    "responsible_agency": "Department of Public Works",
    "final_address": "5421 Garfield St",
    "address_councildis": "A",
    "status": "Pending",
    "contractor": "Royal Engineering",
    "rowid": "874602",
    "final_x": "3667098.82612",
    "final_y": "521166.980601",
    "longitude": "-90.11389211949019",
    "latitude": "29.927457610729693",
    "geocoded_column": {
      "latitude": "29.927457610729693",
      "longitude": "-90.11389211949019"
    }
  },
  {
    "service_request": "2022-874601",
    "request_type": "Traffic Signals/Signs/Striping/Streetlights",
    "request_reason": "Street Light Outage/Malfunction",
    "date_created": "2022-04-13T12:14:40.000",
    "date_modified": "2022-04-13T12:14:40.000",
    "request_status": "Pending",
    "responsible_agency": "Department of Public Works",
    "final_address": "6433 Paris Ave",
    "address_councildis": "D",
    "status": "Pending",
    "contractor": "Royal Engineering",
    "rowid": "874601",
    "final_x": "3678067.39714",
    "final_y": "557294.230363",
    "longitude": "-90.07801763356282",
    "latitude": "30.026469556863926",
    "geocoded_column": {
      "latitude": "30.026469556863926",
      "longitude": "-90.07801763356282"
    }
  },
  {
    "service_request": "2022-874600",
    "request_type": "Safety & Permits",
    "request_reason": "Licenses & Permits",
    "date_created": "2022-04-13T12:14:00.000",
    "date_modified": "2022-04-13T12:14:00.000",
    "request_status": "Pending",
    "responsible_agency": "Safety and Permits",
    "final_address": "979 Harding Dr",
    "address_councildis": "A",
    "status": "Pending",
    "rowid": "874600",
    "final_x": "3674354.35662",
    "final_y": "540322.535691",
    "longitude": "-90.09033220132643",
    "latitude": "29.9799147054534",
    "geocoded_column": {
      "latitude": "29.9799147054534",
      "longitude": "-90.09033220132643"
    }
  },
  {
    "service_request": "2022-874599",
    "request_type": "Parks & Parkways",
    "request_reason": "Request Tree Service (Right of Way/Public Property)",
    "date_created": "2022-04-13T12:11:10.000",
    "date_modified": "2022-04-13T12:11:10.000",
    "request_status": "Pending",
    "responsible_agency": "Department of Parks & Parkway",
    "final_address": "6129 Vicksburg St",
    "address_councildis": "A",
    "status": "Pending",
    "rowid": "874599",
    "final_x": "3669015.99418",
    "final_y": "548144.727634",
    "longitude": "-90.10692857621628",
    "latitude": "30.001581204536482",
    "geocoded_column": {
      "latitude": "30.001581204536482",
      "longitude": "-90.10692857621628"
    }
  },
  {
    "service_request": "2022-874598",
    "request_type": "Trash/Recycling",
    "request_reason": "Missed Trash Pick-Up",
    "date_created": "2022-04-13T12:10:51.000",
    "date_modified": "2022-04-13T12:10:51.000",
    "request_status": "Pending",
    "responsible_agency": "Department of Sanitation",
    "final_address": "1129 N Miro St",
    "address_councildis": "D",
    "status": "Assigned to Contractor",
    "contractor": "Richards Disposal",
    "rowid": "874598",
    "final_x": "3679110.13282",
    "final_y": "537324.419912",
    "longitude": "-90.07541545158738",
    "latitude": "29.971528208544346",
    "geocoded_column": {
      "latitude": "29.971528208544346",
      "longitude": "-90.07541545158738"
    }
  },
  {
    "service_request": "2022-874597",
    "request_type": "Property Maintenance",
    "request_reason": "Property Maintenance",
    "date_created": "2022-04-13T12:06:07.000",
    "date_modified": "2022-04-13T12:06:07.000",
    "request_status": "Pending",
    "responsible_agency": "Department of Code Enforcement",
    "final_address": "626 St Philip St",
    "address_councildis": "C",
    "status": "Pending",
    "rowid": "874597",
    "final_x": "3683332.23529",
    "final_y": "533212.205444",
    "longitude": "-90.06222551427918",
    "latitude": "29.960092911664336",
    "geocoded_column": {
      "latitude": "29.960092911664336",
      "longitude": "-90.06222551427918"
    }
  },