[
  {
    "service_request": "2022-938717",
    "request_type": "Trash/Recycling",
    "request_reason": "Order Recycling Cart",
    "date_created": "2022-11-06T01:29:24.000",
    "date_modified": "2022-11-06T01:29:24.000",
    "request_status": "Pending",
    "responsible_agency": "Department of Sanitation",
    "final_address": "6736 Dorian St",
    "address_councildis": "D",
    "status": "Pending",
    "rowid": "938717",
    "final_x": "3696327.93149",
    "final_y": "556039.715545",
    "longitude": "-90.02036213100162",
    "latitude": "30.022457407328954",
    "geocoded_column": {
      "latitude": "30.022457407328954",
      "longitude": "-90.02036213100162"
    }
  },
  {
    "service_request": "2022-938716",
    "request_type": "Trash/Recycling",
    "request_reason": "Request a Large Item Pick Up",
    "date_created": "2022-11-06T01:27:42.000",
    "date_modified": "2022-11-06T01:27:43.000",
    "request_status": "Pending",
    "responsible_agency": "Department of Sanitation",
    "final_address": "4529 Duplessis Street ",
    "address_councildis": "D",
    "status": "Assigned to Contractor",
    "contractor": "Metro Disposal",
    "rowid": "938716",
    "final_x": "3678298.13237",
    "final_y": "549316.310355",
    "longitude": "-90.07756481433321",
    "latitude": "30.00452620381254",
    "geocoded_column": {
      "latitude": "30.00452620381254",
      "longitude": "-90.07756481433321"
    }
  },
  {
    "service_request": "2022-938713",
    "request_type": "Traffic Signals/Signs/Striping/Streetlights",
    "request_reason": "Traffic Signal Malfunctioning/Damaged",
    "date_created": "2022-11-06T00:00:48.000",
    "date_modified": "2022-11-06T00:00:48.000",
    "request_status": "Pending",
    "responsible_agency": "Department of Public Works",
    "final_address": "S Claiborne Ave & Toledano St, New Orleans, Louisiana, 70125",
    "address_councildis": "B",
    "status": "Pending",
    "rowid": "938713",
    "final_x": "3672686.1",
    "final_y": "526316.28",
    "longitude": "-90.09607892276615",
    "latitude": "29.941451833708907",
    "geocoded_column": {
      "latitude": "29.941451833708907",
      "longitude": "-90.09607892276615"
    }
  },
  {
    "service_request": "2022-938712",
    "request_type": "Traffic Signals/Signs/Striping/Streetlights",
    "request_reason": "Traffic Signal Malfunctioning/Damaged",
    "date_created": "2022-11-06T00:00:11.000",
    "date_modified": "2022-11-06T00:00:11.000",
    "request_status": "Pending",
    "responsible_agency": "Department of Public Works",
    "final_address": "S Claiborne Ave & Broadway St, New Orleans, Louisiana, 70125",
    "address_councildis": "A",
    "status": "Pending",
    "rowid": "938712",
    "final_x": "3666300.7",
    "final_y": "529691.68",
    "longitude": "-90.11612575129924",
    "latitude": "29.95092113336769",
    "geocoded_column": {
      "latitude": "29.95092113336769",
      "longitude": "-90.11612575129924"
    }
  },
  {
    "service_request": "2022-938711",
    "request_type": "Trash/Recycling",
    "request_reason": "Order Recycling Cart",
    "date_created": "2022-11-05T23:45:56.000",
    "date_modified": "2022-11-05T23:45:56.000",
    "request_status": "Pending",
    "responsible_agency": "Department of Sanitation",
    "final_address": "839 Roosevelt Pl",
    "address_councildis": "A",
    "status": "Pending",
    "rowid": "938711",
    "final_x": "3673543.10452",
    "final_y": "539952.155722",
    "longitude": "-90.09290713843701",
    "latitude": "29.978920460336294",
    "geocoded_column": {
      "latitude": "29.978920460336294",
      "longitude": "-90.09290713843701"
    }
  },
  {
    "service_request": "2022-938710",
    "request_type": "Trash/Recycling",
    "request_reason": "Order Recycling Cart",
    "date_created": "2022-11-05T23:33:34.000",
    "date_modified": "2022-11-05T23:33:34.000",
    "request_status": "Pending",
    "responsible_agency": "Department of Sanitation",
    "final_address": "8509 Stroelitz St",
    "address_councildis": "A",
    "status": "Pending",
    "rowid": "938710",
    "final_x": "3666848.85697",
    "final_y": "536005.454023",
    "longitude": "-90.1141828298921",
    "latitude": "29.96826591438642",
    "geocoded_column": {
      "latitude": "29.96826591438642",
      "longitude": "-90.1141828298921"
    }
  },
  {
    "service_request": "2022-938709",
    "request_type": "Trash/Recycling",
    "request_reason": "Request a Large Item Pick Up",
    "date_created": "2022-11-05T22:49:39.000",
    "date_modified": "2022-11-05T22:49:40.000",
    "request_status": "Pending",
    "responsible_agency": "Department of Sanitation",
    "final_address": "140 Harbour Town Ct",
    "address_councildis": "C",
    "status": "Assigned to Contractor",
    "contractor": "Richards Disposal",
    "rowid": "938709",
    "final_x": "3717940.72409",
    "final_y": "512976.980145",
    "longitude": "-89.95371000504754",
    "latitude": "29.903352338569494",
    "geocoded_column": {
      "latitude": "29.903352338569494",
      "longitude": "-89.95371000504754"
    }
  },
  {
    "service_request": "2022-938707",
    "request_type": "Trash/Recycling",
    "request_reason": "Order Recycling Cart",
    "date_created": "2022-11-05T22:46:27.000",
    "date_modified": "2022-11-05T22:46:27.000",
    "request_status": "Pending",
    "responsible_agency": "Department of Sanitation",
    "final_address": "4911 Gallier Dr",
    "address_councildis": "D",
    "status": "Pending",
    "rowid": "938707",
    "final_x": "3691973.59472",
    "final_y": "552134.924694",
    "longitude": "-90.03426061825252",
    "latitude": "30.01185716267688",
    "geocoded_column": {
      "latitude": "30.01185716267688",
      "longitude": "-90.03426061825252"
    }
  },
  {
    "service_request": "2022-938706",
    "request_type": "Trash/Recycling",
    "request_reason": "Order Trash Cart",
    "date_created": "2022-11-05T22:24:00.000",
    "date_modified": "2022-11-05T22:24:01.000",
    "request_status": "Pending",
    "responsible_agency": "Department of Sanitation",
    "final_address": "2333 Pauger St",
    "address_councildis": "D",
    "status": "Assigned to Contractor",
    "contractor": "Metro Disposal",
    "rowid": "938706",
    "final_x": "3683789.73026",
    "final_y": "538328.487049",
    "longitude": "-90.060601392848",
    "latitude": "29.974146955577375",
    "geocoded_column": {
      "latitude": "29.974146955577375",
      "longitude": "-90.060601392848"
    }
  },
  {
    "service_request": "2022-938705",
    "request_type": "Traffic Signals/Signs/Striping/Streetlights",
    "request_reason": "Traffic Signal Malfunctioning/Damaged",
    "date_created": "2022-11-05T21:50:32.000",
    "date_modified": "2022-11-05T21:50:48.000",
    "request_status": "Pending",
    "responsible_agency": "Department of Public Works",
    "final_address": "S CLAIBORNE AVE & TULANE AVE",
    "address_councildis": "B",
    "status": "Pending",
    "rowid": "938705",
    "final_x": "3677861.38",
    "final_y": "531973.19",
    "longitude": "-90.07954411965169",
    "latitude": "29.95685177850218",
    "geocoded_column": {
      "latitude": "29.95685177850218",
      "longitude": "-90.07954411965169"
    }
  },
  {
    "service_request": "2022-938704",
    "request_type": "Trash/Recycling",
    "request_reason": "Request a Large Item Pick Up",
    "date_created": "2022-11-05T21:42:59.000",
    "date_modified": "2022-11-05T21:43:00.000",
    "request_status": "Pending",
    "responsible_agency": "Department of Sanitation",
    "final_address": "708 Sumner St",
    "address_councildis": "C",
    "status": "Assigned to Contractor",
    "contractor": "Richards Disposal",
    "rowid": "938704",
    "final_x": "3691225.50441",
    "final_y": "528761.689792",
    "longitude": "-90.03745929518097",
    "latitude": "29.947612410463563",
    "geocoded_column": {
      "latitude": "29.947612410463563",
      "longitude": "-90.03745929518097"
    }
  },
  {
    "service_request": "2022-938703",
    "request_type": "Abandoned Vehicles",
    "request_reason": "Abandoned/Junk Vehicles",
    "date_created": "2022-11-05T21:21:50.000",
    "date_modified": "2022-11-05T21:21:50.000",
    "request_status": "Pending",
    "responsible_agency": "Department of Public Works",
    "final_address": "8220 Spruce St",
    "address_councildis": "A",
    "status": "Pending",
    "rowid": "938703",
    "final_x": "3663427.22381",
    "final_y": "530784.030722",
    "longitude": "-90.12516241371935",
    "latitude": "29.954008364201478",
    "geocoded_column": {
      "latitude": "29.954008364201478",
      "longitude": "-90.12516241371935"
    }
  },
  {
    "service_request": "2022-938702",
    "request_type": "Trash/Recycling",
    "request_reason": "Return Trash Cart",
    "date_created": "2022-11-05T21:15:03.000",
    "date_modified": "2022-11-05T21:15:04.000",
    "request_status": "Pending",
    "responsible_agency": "Department of Sanitation",
    "final_address": "524 Washington Ave",
    "address_councildis": "B",
    "status": "Assigned to Contractor",
    "contractor": "Richards Disposal",
    "rowid": "938702",
    "final_x": "3678061.82178",
    "final_y": "519219.996727",
    "longitude": "-90.07935189941102",
    "latitude": "29.921778675480546",
    "geocoded_column": {
      "latitude": "29.921778675480546",
      "longitude": "-90.07935189941102"
    }
  },
  {
    "service_request": "2022-938701",
    "request_type": "Trash/Recycling",
    "request_reason": "Replace Recycling Cart",
    "date_created": "2022-11-05T21:11:05.000",
    "date_modified": "2022-11-05T21:11:05.000",
    "request_status": "Pending",
    "responsible_agency": "Department of Sanitation",
    "final_address": "13026 Laval St",
    "address_councildis": "E",
    "status": "Pending",
    "rowid": "938701",
    "final_x": "3723818.83411",
    "final_y": "562361.092319",
    "longitude": "-89.93325465065008",
    "latitude": "30.038943815142815",
    "geocoded_column": {
      "latitude": "30.038943815142815",
      "longitude": "-89.93325465065008"
    }
  },
  {
    "service_request": "2022-938700",
    "request_type": "Traffic Signals/Signs/Striping/Streetlights",
    "request_reason": "Traffic Signal Malfunctioning/Damaged",
    "date_created": "2022-11-05T21:06:24.000",
    "date_modified": "2022-11-05T21:06:24.000",
    "request_status": "Pending",
    "responsible_agency": "Department of Public Works",
    "final_address": "GENERAL DE GAULLE DR & KABEL DR",
    "address_councildis": "C",
    "status": "Pending",
    "rowid": "938700",
    "final_x": "3700602.7",
    "final_y": "517489.68",
    "longitude": "-90.00826359187937",
    "latitude": "29.916323357455582",
    "geocoded_column": {
      "latitude": "29.916323357455582",
      "longitude": "-90.00826359187937"
    }
  },
  {
    "service_request": "2022-938699",
    "request_type": "Trash/Recycling",
    "request_reason": "Request a Large Item Pick Up",
    "date_created": "2022-11-05T20:43:37.000",
    "date_modified": "2022-11-05T20:43:37.000",
    "request_status": "Pending",
    "responsible_agency": "Department of Sanitation",
    "final_address": "2323 Valentine Ct",
    "address_councildis": "C",
    "status": "Assigned to Contractor",
    "contractor": "Richards Disposal",
    "rowid": "938699",
    "final_x": "3699309.32029",
    "final_y": "522577.630266",
    "longitude": "-90.0121608217806",
    "latitude": "29.930354541529315",
    "geocoded_column": {
      "latitude": "29.930354541529315",
      "longitude": "-90.0121608217806"
    }
  },
  {
    "service_request": "2022-938698",
    "request_type": "Trash/Recycling",
    "request_reason": "Repair Trash Cart",
    "date_created": "2022-11-05T20:42:18.000",
    "date_modified": "2022-11-05T20:44:21.000",
    "request_status": "Pending",
    "responsible_agency": "Department of Sanitation",
    "final_address": "701 Crystal St",
    "address_councildis": "D",
    "status": "Assigned to Contractor",
    "contractor": "Metro Disposal",
    "rowid": "938698",
    "final_x": "3669722.50401",
    "final_y": "556252.94057",
    "longitude": "-90.10442191881512",
    "latitude": "30.023855119168125",
    "geocoded_column": {
      "latitude": "30.023855119168125",
      "longitude": "-90.10442191881512"
    }
  },
  {
    "service_request": "2022-938697",
    "request_type": "Traffic Signals/Signs/Striping/Streetlights",
    "request_reason": "Traffic Signal Malfunctioning/Damaged",
    "date_created": "2022-11-05T20:42:02.000",
    "date_modified": "2022-11-05T20:42:03.000",
    "request_status": "Pending",
    "responsible_agency": "Department of Public Works",
    "final_address": "BROADWAY ST & S CLAIBORNE AVE",
    "address_councildis": "A",
    "status": "Pending",
    "rowid": "938697",
    "final_x": "3666401.6",
    "final_y": "529792.58",
    "longitude": "-90.11580377358062",
    "latitude": "29.951195627974403",
    "geocoded_column": {
      "latitude": "29.951195627974403",
      "longitude": "-90.11580377358062"
    }
  },
  {
    "service_request": "2022-938696",
    "request_type": "Property Maintenance",
    "request_reason": "Property Maintenance",
    "date_created": "2022-11-05T20:39:14.000",
    "date_modified": "2022-11-05T20:39:14.000",
    "request_status": "Pending",
    "responsible_agency": "Department of Code Enforcement",
    "final_address": "29 S Oak Ridge Ct",
    "address_councildis": "E",
    "status": "Pending",
    "rowid": "938696",
    "final_x": "3713853.86104",
    "final_y": "567820.232804",
    "longitude": "-89.96454034292587",
    "latitude": "30.054285264073794",
    "geocoded_column": {
      "latitude": "30.054285264073794",
      "longitude": "-89.96454034292587"
    }
  },
  {
    "service_request": "2022-938695",
    "request_type": "Trash/Recycling",
    "request_reason": "Order Trash Cart",
    "date_created": "2022-11-05T20:38:36.000",
    "date_modified": "2022-11-05T20:38:37.000",
    "request_status": "Pending",
    "responsible_agency": "Department of Sanitation",
    "final_address": "1461 N Derbigny St",
    "address_councildis": "D",
    "status": "Assigned to Contractor",
    "contractor": "Metro Disposal",
    "rowid": "938695",
    "final_x": "3681286.91957",
    "final_y": "537279.703112",
    "longitude": "-90.06854240161763",
    "latitude": "29.971339364591163",
    "geocoded_column": {
      "latitude": "29.971339364591163",
      "longitude": "-90.06854240161763"
    }
  },
  {
    "service_request": "2022-938694",
    "request_type": "Trash/Recycling",
    "request_reason": "Request a Large Item Pick Up",
    "date_created": "2022-11-05T20:32:07.000",
    "date_modified": "2022-11-05T20:32:08.000",
    "request_status": "Pending",
    "responsible_agency": "Department of Sanitation",
    "final_address": "7026 Louis Xiv St",
    "address_councildis": "A",
    "status": "Assigned to Contractor",
    "contractor": "Metro Disposal",
    "rowid": "938694",
    "final_x": "3668608.87681",
    "final_y": "554243.246424",
    "longitude": "-90.10800868155803",
    "latitude": "30.018361968180347",
    "geocoded_column": {
      "latitude": "30.018361968180347",
      "longitude": "-90.10800868155803"
    }
  },
  {
    "service_request": "2022-938693",
    "request_type": "Trash/Recycling",
    "request_reason": "Request a Large Item Pick Up",
    "date_created": "2022-11-05T20:16:04.000",
    "date_modified": "2022-11-05T20:16:05.000",
    "request_status": "Pending",
    "responsible_agency": "Department of Sanitation",
    "final_address": "436 Turquoise St",
    "address_councildis": "D",
    "status": "Assigned to Contractor",
    "contractor": "Metro Disposal",
    "rowid": "938693",
    "final_x": "3668114.40193",
    "final_y": "555284.141657",
    "longitude": "-90.10953591851649",
    "latitude": "30.021238591286437",
    "geocoded_column": {
      "latitude": "30.021238591286437",
      "longitude": "-90.10953591851649"
    }
  },
  {
    "service_request": "2022-938692",
    "request_type": "Trash/Recycling",
    "request_reason": "Order Recycling Cart",
    "date_created": "2022-11-05T20:07:30.000",
    "date_modified": "2022-11-05T20:08:34.000",
    "request_status": "Pending",
    "responsible_agency": "Department of Sanitation",
    "final_address": "3532 Mandeville St",
    "address_councildis": "D",
    "status": "Pending",
    "rowid": "938692",
    "final_x": "3684930.61173",
    "final_y": "545831.666768",
    "longitude": "-90.05673422364374",
    "latitude": "29.994743154429486",
    "geocoded_column": {
      "latitude": "29.994743154429486",
      "longitude": "-90.05673422364374"
    }
  },
  {
    "service_request": "2022-938691",
    "request_type": "Trash/Recycling",
    "request_reason": "Order Recycling Cart",
    "date_created": "2022-11-05T20:05:14.000",
    "date_modified": "2022-11-05T20:05:14.000",
    "request_status": "Pending",
    "responsible_agency": "Department of Sanitation",
    "final_address": "2439 Royal St",
    "address_councildis": "C",
    "status": "Pending",
    "rowid": "938691",
    "final_x": "3686216.91945",
    "final_y": "534987.481542",
    "longitude": "-90.0530536836827",
    "latitude": "29.96488600144405",
    "geocoded_column": {
      "latitude": "29.96488600144405",
      "longitude": "-90.0530536836827"
    }
  },
  {
    "service_request": "2022-938690",
    "request_type": "Trash/Recycling",
    "request_reason": "Order Recycling Cart",
    "date_created": "2022-11-05T19:56:04.000",
    "date_modified": "2022-11-05T19:56:04.000",
    "request_status": "Pending",
    "responsible_agency": "Department of Sanitation",
    "final_address": "1441 Elysian Fields Ave",
    "address_councildis": "C",
    "status": "Pending",
    "rowid": "938690",
    "final_x": "3685000.5094",
    "final_y": "537738.008392",
    "longitude": "-90.0567982561313",
    "latitude": "29.97248631073135",
    "geocoded_column": {
      "latitude": "29.97248631073135",
      "longitude": "-90.0567982561313"
    }
  },
  {
    "service_request": "2022-938689",
    "request_type": "Mosquito, Termite & Rodent Control",
    "request_reason": "Rodent Complaint (Rats)",
    "date_created": "2022-11-05T19:55:22.000",
    "date_modified": "2022-11-05T19:55:23.000",
    "request_status": "Pending",
    "responsible_agency": "Mosquito, Termite & Rodent Control Board",
    "final_address": "2300 New York St",
    "address_councildis": "D",
    "status": "Pending",
    "rowid": "938689",
    "final_x": "3684209.83765",
    "final_y": "556555.468314",
    "longitude": "-90.05863421312304",
    "latitude": "30.024251773216537",
    "geocoded_column": {
      "latitude": "30.024251773216537",
      "longitude": "-90.05863421312304"
    }
  },
  {
    "service_request": "2022-938688",
    "request_type": "Trash/Recycling",
    "request_reason": "Order Recycling Cart",
    "date_created": "2022-11-05T19:47:51.000",
    "date_modified": "2022-11-05T19:47:51.000",
    "request_status": "Pending",
    "responsible_agency": "Department of Sanitation",
    "final_address": "5720 St Bernard Ave",
    "address_councildis": "D",
    "status": "Pending",
    "rowid": "938688",
    "final_x": "3676758.17115",
    "final_y": "553475.906711",
    "longitude": "-90.08228637592075",
    "latitude": "30.016009922989028",
    "geocoded_column": {
      "latitude": "30.016009922989028",
      "longitude": "-90.08228637592075"
    }
  },
  {
    "service_request": "2022-938687",
    "request_type": "Trash/Recycling",
    "request_reason": "Repair Recycling Cart",
    "date_created": "2022-11-05T19:44:02.000",
    "date_modified": "2022-11-05T19:44:02.000",
    "request_status": "Pending",
    "responsible_agency": "Department of Sanitation",
    "final_address": "5473 Hawthorne Pl",
    "address_councildis": "A",
    "status": "Pending",
    "rowid": "938687",
    "final_x": "3667830.30804",
    "final_y": "543681.614862",
    "longitude": "-90.1108247168544",
    "latitude": "29.98934402013508",
    "geocoded_column": {
      "latitude": "29.98934402013508",
      "longitude": "-90.1108247168544"
    }
  },
  {
    "service_request": "2022-938686",
    "request_type": "Trash/Recycling",
    "request_reason": "Order Recycling Cart",
    "date_created": "2022-11-05T19:39:37.000",
    "date_modified": "2022-11-05T19:39:37.000",
    "request_status": "Pending",
    "responsible_agency": "Department of Sanitation",
    "final_address": "233 S White St",
    "address_councildis": "B",
    "status": "Pending",
    "rowid": "938686",
    "final_x": "3674432.66932",
    "final_y": "534925.377158",
    "longitude": "-90.09026978546875",
    "latitude": "29.965072017619",
    "geocoded_column": {
      "latitude": "29.965072017619",
      "longitude": "-90.09026978546875"
    }
  },
  {
    "service_request": "2022-938685",
    "request_type": "Trash/Recycling",
    "request_reason": "Order Recycling Cart",
    "date_created": "2022-11-05T19:37:27.000",
    "date_modified": "2022-11-05T19:37:27.000",
    "request_status": "Pending",
    "responsible_agency": "Department of Sanitation",
    "final_address": "1537 N Prieur St",
    "address_councildis": "D",
    "status": "Pending",
    "rowid": "938685",
    "final_x": "3680998.21845",
    "final_y": "538100.334153",
    "longitude": "-90.06942557291178",
    "latitude": "29.973604575806405",
    "geocoded_column": {
      "latitude": "29.973604575806405",
      "longitude": "-90.06942557291178"
    }
  },
  {
    "service_request": "2022-938684",
    "request_type": "Trash/Recycling",
    "request_reason": "Order Recycling Cart",
    "date_created": "2022-11-05T19:36:34.000",
    "date_modified": "2022-11-05T19:36:34.000",
    "request_status": "Pending",
    "responsible_agency": "Department of Sanitation",
    "final_address": "6316 Spain St",
    "address_councildis": "D",
    "status": "Pending",
    "rowid": "938684",
    "final_x": "3684477.16258",
    "final_y": "556394.788634",
    "longitude": "-90.05779516850828",
    "latitude": "30.023801783739632",
    "geocoded_column": {
      "latitude": "30.023801783739632",
      "longitude": "-90.05779516850828"
    }
  },
  {
    "service_request": "2022-938683",
    "request_type": "Trash/Recycling",
    "request_reason": "Request a Large Item Pick Up",
    "date_created": "2022-11-05T19:31:49.000",
    "date_modified": "2022-11-05T19:31:49.000",
    "request_status": "Pending",
    "responsible_agency": "Department of Sanitation",
    "final_address": "3600 Rue Delphine",
    "address_councildis": "C",
    "status": "Assigned to Contractor",
    "contractor": "Richards Disposal",
    "rowid": "938683",
    "final_x": "3703090.70135",
    "final_y": "517401.788405",
    "longitude": "-90.00041374763794",
    "latitude": "29.916002338661112",
    "geocoded_column": {
      "latitude": "29.916002338661112",
      "longitude": "-90.00041374763794"
    }
  },
  {
    "service_request": "2022-938682",
    "request_type": "Roads/Drainage",
    "request_reason": "Alley Way",
    "date_created": "2022-11-05T19:30:30.000",
    "date_modified": "2022-11-05T19:30:30.000",
    "request_status": "Pending",
    "responsible_agency": "Department of Public Works",
    "final_address": "6951 Argonne Blvd",
    "address_councildis": "A",
    "status": "Pending",
    "rowid": "938682",
    "final_x": "3670809.56852",
    "final_y": "553581.212759",
    "longitude": "-90.10107778716032",
    "latitude": "30.016476718798373",
    "geocoded_column": {
      "latitude": "30.016476718798373",
      "longitude": "-90.10107778716032"
    }
  },
  {
    "service_request": "2022-938681",
    "request_type": "Traffic Signals/Signs/Striping/Streetlights",
    "request_reason": "Traffic Signal Malfunctioning/Damaged",
    "date_created": "2022-11-05T19:02:46.000",
    "date_modified": "2022-11-05T19:02:46.000",
    "request_status": "Pending",
    "responsible_agency": "Department of Public Works",
    "final_address": "GENERAL DE GAULLE DR & KABEL DR",
    "address_councildis": "C",
    "status": "Pending",
    "rowid": "938681",
    "final_x": "3700602.7",
    "final_y": "517489.68",
    "longitude": "-90.00826359187937",
    "latitude": "29.916323357455582",
    "geocoded_column": {
      "latitude": "29.916323357455582",
      "longitude": "-90.00826359187937"
    }
  },
  {
    "service_request": "2022-938679",
    "request_type": "Trash/Recycling",
    "request_reason": "Replace Recycling Cart",
    "date_created": "2022-11-05T19:02:35.000",
    "date_modified": "2022-11-05T19:02:35.000",
    "request_status": "Pending",
    "responsible_agency": "Department of Sanitation",
    "final_address": "3430 Baronne St",
    "address_councildis": "B",
    "status": "Pending",
    "rowid": "938679",
    "final_x": "3673667.245",
    "final_y": "522088.526778",
    "longitude": "-90.09312572219564",
    "latitude": "29.929797719966434",
    "geocoded_column": {
      "latitude": "29.929797719966434",
      "longitude": "-90.09312572219564"
    }
  },
  {
    "service_request": "2022-938678",
    "request_type": "Trash/Recycling",
    "request_reason": "Replace Trash Cart",
    "date_created": "2022-11-05T19:01:08.000",
    "date_modified": "2022-11-05T19:01:09.000",
    "request_status": "Pending",
    "responsible_agency": "Department of Sanitation",
    "final_address": "3430 Baronne St",
    "address_councildis": "B",
    "status": "Assigned to Contractor",
    "contractor": "Richards Disposal",
    "rowid": "938678",
    "final_x": "3673667.245",
    "final_y": "522088.526778",
    "longitude": "-90.09312572219564",
    "latitude": "29.929797719966434",
    "geocoded_column": {
      "latitude": "29.929797719966434",
      "longitude": "-90.09312572219564"
    }
  },
  {
    "service_request": "2022-938677",
    "request_type": "Trash/Recycling",
    "request_reason": "Order Recycling Cart",
    "date_created": "2022-11-05T18:59:44.000",
    "date_modified": "2022-11-05T18:59:44.000",
    "request_status": "Pending",
    "responsible_agency": "Department of Sanitation",
    "final_address": "6641 Coveview Ct",
    "address_councildis": "E",
    "status": "Pending",
    "rowid": "938677",
    "final_x": "3699227.3306",
    "final_y": "555849.257433",
    "longitude": "-90.01120772626498",
    "latitude": "30.021842050501554",
    "geocoded_column": {
      "latitude": "30.021842050501554",
      "longitude": "-90.01120772626498"
    }
  },
  {
    "service_request": "2022-938676",
    "request_type": "Trash/Recycling",
    "request_reason": "Repair Recycling Cart",
    "date_created": "2022-11-05T18:50:32.000",
    "date_modified": "2022-11-05T18:50:32.000",
    "request_status": "Pending",
    "responsible_agency": "Department of Sanitation",
    "final_address": "5740 Durham Dr",
    "address_councildis": "C",
    "status": "Pending",
    "rowid": "938676",
    "final_x": "3705316.19799",
    "final_y": "518863.763383",
    "longitude": "-89.99333530318694",
    "latitude": "29.919950891935354",
    "geocoded_column": {
      "latitude": "29.919950891935354",
      "longitude": "-89.99333530318694"
    }
  },
  {
    "service_request": "2022-938675",
    "request_type": "Trash/Recycling",
    "request_reason": "Replace Trash Cart",
    "date_created": "2022-11-05T18:50:25.000",
    "date_modified": "2022-11-05T18:50:25.000",
    "request_status": "Pending",
    "responsible_agency": "Department of Sanitation",
    "final_address": "4814 Walmsley Ave, New Orleans, Louisiana, 70125",
    "address_councildis": "B",
    "status": "Assigned to Contractor",
    "contractor": "Richards Disposal",
    "rowid": "938675",
    "final_x": "3668219.68052",
    "final_y": "530542.170818",
    "longitude": "-90.11003789024738",
    "latitude": "29.953203513614355",
    "geocoded_column": {
      "latitude": "29.953203513614355",
      "longitude": "-90.11003789024738"
    }
  },
  {
    "service_request": "2022-938674",
    "request_type": "Trash/Recycling",
    "request_reason": "Replace Trash Cart",
    "date_created": "2022-11-05T18:49:11.000",
    "date_modified": "2022-11-05T18:49:12.000",
    "request_status": "Pending",
    "responsible_agency": "Department of Sanitation",
    "final_address": "4072 State Street Dr, New Orleans, Louisiana, 70125",
    "address_councildis": "B",
    "status": "Assigned to Contractor",
    "contractor": "Richards Disposal",
    "rowid": "938674",
    "final_x": "3668233.31969",
    "final_y": "530506.583618",
    "longitude": "-90.109996023198",
    "latitude": "29.953105260071304",
    "geocoded_column": {
      "latitude": "29.953105260071304",
      "longitude": "-90.109996023198"
    }
  },
  {
    "service_request": "2022-938673",
    "request_type": "Trash/Recycling",
    "request_reason": "Order Recycling Cart",
    "date_created": "2022-11-05T18:46:23.000",
    "date_modified": "2022-11-05T18:46:23.000",
    "request_status": "Pending",
    "responsible_agency": "Department of Sanitation",
    "final_address": "5622 Painters St",
    "address_councildis": "D",
    "status": "Pending",
    "rowid": "938673",
    "final_x": "3686126.4678",
    "final_y": "553787.306199",
    "longitude": "-90.05267578565932",
    "latitude": "30.01658158445548",
    "geocoded_column": {
      "latitude": "30.01658158445548",
      "longitude": "-90.05267578565932"
    }
  },
  {
    "service_request": "2022-938672",
    "request_type": "Roads/Drainage",
    "request_reason": "Pothole",
    "date_created": "2022-11-05T18:35:05.000",
    "date_modified": "2022-11-05T18:35:05.000",
    "request_status": "Pending",
    "responsible_agency": "Department of Public Works",
    "final_address": "5719 Memphis St",
    "address_councildis": "A",
    "status": "Pending",
    "rowid": "938672",
    "final_x": "3669123.87578",
    "final_y": "545509.718992",
    "longitude": "-90.10667688025902",
    "latitude": "29.994332666875078",
    "geocoded_column": {
      "latitude": "29.994332666875078",
      "longitude": "-90.10667688025902"
    }
  },
  {
    "service_request": "2022-938671",
    "request_type": "Trash/Recycling",
    "request_reason": "Repair Trash Cart",
    "date_created": "2022-11-05T18:31:07.000",
    "date_modified": "2022-11-05T18:31:08.000",
    "request_status": "Pending",
    "responsible_agency": "Department of Sanitation",
    "final_address": "2714 Cambronne St",
    "address_councildis": "A",
    "status": "Assigned to Contractor",
    "contractor": "Richards Disposal",
    "rowid": "938671",
    "final_x": "3664859.27476",
    "final_y": "533216.21626",
    "longitude": "-90.12055927587816",
    "latitude": "29.960654484875583",
    "geocoded_column": {
      "latitude": "29.960654484875583",
      "longitude": "-90.12055927587816"
    }
  },
  {
    "service_request": "2022-938670",
    "request_type": "Trash/Recycling",
    "request_reason": "Order Recycling Cart",
    "date_created": "2022-11-05T18:23:46.000",
    "date_modified": "2022-11-05T18:23:46.000",
    "request_status": "Pending",
    "responsible_agency": "Department of Sanitation",
    "final_address": "11245 Notaway Ln",
    "address_councildis": "E",
    "status": "Pending",
    "rowid": "938670",
    "final_x": "3717771.123",
    "final_y": "559482.461085",
    "longitude": "-89.95247652377336",
    "latitude": "30.031230540470748",
    "geocoded_column": {
      "latitude": "30.031230540470748",
      "longitude": "-89.95247652377336"
    }
  },
  {
    "service_request": "2022-938668",
    "request_type": "Trash/Recycling",
    "request_reason": "Order Recycling Cart",
    "date_created": "2022-11-05T18:16:11.000",
    "date_modified": "2022-11-05T18:16:11.000",
    "request_status": "Pending",
    "responsible_agency": "Department of Sanitation",
    "final_address": "14150 Kingswood Dr",
    "address_councildis": "E",
    "status": "Pending",
    "rowid": "938668",
    "final_x": "3720028.31634",
    "final_y": "568930.606757",
    "longitude": "-89.94498204683063",
    "latitude": "30.05713407807009",
    "geocoded_column": {
      "latitude": "30.05713407807009",
      "longitude": "-89.94498204683063"
    }
  },
  {
    "service_request": "2022-938667",
    "request_type": "Trash/Recycling",
    "request_reason": "MIssed Recycling Pick-Up",
    "date_created": "2022-11-05T18:13:17.000",
    "date_modified": "2022-11-05T18:13:18.000",
    "request_status": "Pending",
    "responsible_agency": "Department of Sanitation",
    "final_address": "128 S Scott St",
    "address_councildis": "A",
    "status": "Assigned to Contractor",
    "contractor": "Richards Disposal",
    "rowid": "938667",
    "final_x": "3671627.00603",
    "final_y": "537557.52404",
    "longitude": "-90.09904039180304",
    "latitude": "29.972392930638364",
    "geocoded_column": {
      "latitude": "29.972392930638364",
      "longitude": "-90.09904039180304"
    }
  },
  {
    "service_request": "2022-938666",
    "request_type": "Abandoned Vehicles",
    "request_reason": "Abandoned/Junk Vehicles",
    "date_created": "2022-11-05T18:08:37.000",
    "date_modified": "2022-11-05T18:08:37.000",
    "request_status": "Pending",
    "responsible_agency": "Department of Public Works",
    "final_address": "5901 Marigny St",
    "address_councildis": "D",
    "status": "Pending",
    "rowid": "938666",
    "final_x": "3683986.58082",
    "final_y": "554674.884824",
    "longitude": "-90.05940572834437",
    "latitude": "30.0190876885869",
    "geocoded_column": {
      "latitude": "30.0190876885869",
      "longitude": "-90.05940572834437"
    }
  },
  {
    "service_request": "2022-938665",
    "request_type": "Traffic Signals/Signs/Striping/Streetlights",
    "request_reason": "Street Light Outage/Malfunction",
    "date_created": "2022-11-05T18:07:18.000",
    "date_modified": "2022-11-05T18:07:18.000",
    "request_status": "Pending",
    "responsible_agency": "Department of Public Works",
    "final_address": "ELYSIAN FIELDS AVE & GENTILLY BLVD",
    "address_councildis": "D",
    "status": "Pending",
    "contractor": "Legacy Professional Services",
    "rowid": "938665",
    "final_x": "3684059.79",
    "final_y": "547584.11",
    "longitude": "-90.05942349799389",
    "latitude": "29.99958839427118",
    "geocoded_column": {
      "latitude": "29.99958839427118",
      "longitude": "-90.05942349799389"
    }
  },
  {
    "service_request": "2022-938664",
    "request_type": "Trash/Recycling",
    "request_reason": "Order Recycling Cart",
    "date_created": "2022-11-05T18:06:02.000",
    "date_modified": "2022-11-05T18:06:02.000",
    "request_status": "Pending",
    "responsible_agency": "Department of Sanitation",
    "final_address": "3935 Hamburg St",
    "address_councildis": "D",
    "status": "Pending",
    "rowid": "938664",
    "final_x": "3679202.73506",
    "final_y": "546874.520657",
    "longitude": "-90.07479172883089",
    "latitude": "29.99778485965441",
    "geocoded_column": {
      "latitude": "29.99778485965441",
      "longitude": "-90.07479172883089"
    }
  },
  {
    "service_request": "2022-938663",
    "request_type": "Trash/Recycling",
    "request_reason": "Order Recycling Cart",
    "date_created": "2022-11-05T17:53:00.000",
    "date_modified": "2022-11-05T17:53:00.000",
    "request_status": "Pending",
    "responsible_agency": "Department of Sanitation",
    "final_address": "433 Emerald St",
    "address_councildis": "D",
    "status": "Pending",
    "rowid": "938663",
    "final_x": "3668104.40973",
    "final_y": "555168.330329",
    "longitude": "-90.10957139935711",
    "latitude": "30.02092044468442",
    "geocoded_column": {
      "latitude": "30.02092044468442",
      "longitude": "-90.10957139935711"
    }
  },
  {
    "service_request": "2022-938662",
    "request_type": "Trash/Recycling",
    "request_reason": "Repair Recycling Cart",
    "date_created": "2022-11-05T17:40:10.000",
    "date_modified": "2022-11-05T17:40:10.000",
    "request_status": "Pending",
    "responsible_agency": "Department of Sanitation",
    "final_address": "200 18Th St",
    "address_councildis": "A",
    "status": "Pending",
    "rowid": "938662",
    "final_x": "3665647.75783",
    "final_y": "548651.309395",
    "longitude": "-90.11755223022452",
    "latitude": "30.00307282598994",
    "geocoded_column": {
      "latitude": "30.00307282598994",
      "longitude": "-90.11755223022452"
    }
  },
  {
    "service_request": "2022-938660",
    "request_type": "Trash/Recycling",
    "request_reason": "Order Recycling Cart",
    "date_created": "2022-11-05T17:34:13.000",
    "date_modified": "2022-11-05T17:34:13.000",
    "request_status": "Pending",
    "responsible_agency": "Department of Sanitation",
    "final_address": "7806 Breakwater Dr",
    "address_councildis": "A",
    "status": "Pending",
    "rowid": "938660",
    "final_x": "3664815.10087",
    "final_y": "557384.824795",
    "longitude": "-90.1198905435819",
    "latitude": "30.027111205096954",
    "geocoded_column": {
      "latitude": "30.027111205096954",
      "longitude": "-90.1198905435819"
    }
  },
  {
    "service_request": "2022-938659",
    "request_type": "Trash/Recycling",
    "request_reason": "Replace Recycling Cart",
    "date_created": "2022-11-05T17:27:21.000",
    "date_modified": "2022-11-05T17:27:21.000",
    "request_status": "Pending",
    "responsible_agency": "Department of Sanitation",
    "final_address": "1242 St Roch Ave",
    "address_councildis": "C",
    "status": "Pending",
    "rowid": "938659",
    "final_x": "3686356.78473",
    "final_y": "537120.051912",
    "longitude": "-90.05253672186006",
    "latitude": "29.970745530140288",
    "geocoded_column": {
      "latitude": "29.970745530140288",
      "longitude": "-90.05253672186006"
    }
  },
  {
    "service_request": "2022-938658",
    "request_type": "Trash/Recycling",
    "request_reason": "Order Recycling Cart",
    "date_created": "2022-11-05T17:21:17.000",
    "date_modified": "2022-11-05T17:21:17.000",
    "request_status": "Pending",
    "responsible_agency": "Department of Sanitation",
    "final_address": "7301 Jade St",
    "address_councildis": "D",
    "status": "Pending",
    "rowid": "938658",
    "final_x": "3671064.99969",
    "final_y": "555181.021785",
    "longitude": "-90.10021633515986",
    "latitude": "30.020868067945248",
    "geocoded_column": {
      "latitude": "30.020868067945248",
      "longitude": "-90.10021633515986"
    }
  },
  {
    "service_request": "2022-938657",
    "request_type": "Trash/Recycling",
    "request_reason": "Order Recycling Cart",
    "date_created": "2022-11-05T17:03:52.000",
    "date_modified": "2022-11-05T17:03:52.000",
    "request_status": "Pending",
    "responsible_agency": "Department of Sanitation",
    "final_address": "25 Rail St",
    "address_councildis": "D",
    "status": "Pending",
    "rowid": "938657",
    "final_x": "3673989.09902",
    "final_y": "557181.999579",
    "longitude": "-90.09090846116612",
    "latitude": "30.02628318440229",
    "geocoded_column": {
      "latitude": "30.02628318440229",
      "longitude": "-90.09090846116612"
    }
  },
  {
    "service_request": "2022-938656",
    "request_type": "Trash/Recycling",
    "request_reason": "Order Recycling Cart",
    "date_created": "2022-11-05T16:59:52.000",
    "date_modified": "2022-11-05T16:59:52.000",
    "request_status": "Pending",
    "responsible_agency": "Department of Sanitation",
    "final_address": "4935 Corsica Pl",
    "address_councildis": "E",
    "status": "Pending",
    "rowid": "938656",
    "final_x": "3727418.89581",
    "final_y": "562117.110303",
    "longitude": "-89.92188711264461",
    "latitude": "30.03815152313956",
    "geocoded_column": {
      "latitude": "30.03815152313956",
      "longitude": "-89.92188711264461"
    }
  },
  {
    "service_request": "2022-938655",
    "request_type": "Trash/Recycling",
    "request_reason": "Order Recycling Cart",
    "date_created": "2022-11-05T16:56:42.000",
    "date_modified": "2022-11-05T16:56:42.000",
    "request_status": "Pending",
    "responsible_agency": "Department of Sanitation",
    "final_address": "429 36Th St",
    "address_councildis": "A",
    "status": "Pending",
    "rowid": "938655",
    "final_x": "3664701.56756",
    "final_y": "551989.836374",
    "longitude": "-90.12042975437568",
    "latitude": "30.01228018952433",
    "geocoded_column": {
      "latitude": "30.01228018952433",
      "longitude": "-90.12042975437568"
    }
  },
  {
    "service_request": "2022-938654",
    "request_type": "Trash/Recycling",
    "request_reason": "Order Recycling Cart",
    "date_created": "2022-11-05T16:55:35.000",
    "date_modified": "2022-11-05T16:55:35.000",
    "request_status": "Pending",
    "responsible_agency": "Department of Sanitation",
    "final_address": "1727 Mendez Dr",
    "address_councildis": "D",
    "status": "Pending",
    "rowid": "938654",
    "final_x": "3679930.12431",
    "final_y": "553400.690711",
    "longitude": "-90.07226703054471",
    "latitude": "30.01570749964696",
    "geocoded_column": {
      "latitude": "30.01570749964696",
      "longitude": "-90.07226703054471"
    }
  },
  {
    "service_request": "2022-938653",
    "request_type": "Trash/Recycling",
    "request_reason": "Request a Large Item Pick Up",
    "date_created": "2022-11-05T16:51:57.000",
    "date_modified": "2022-11-05T16:51:58.000",
    "request_status": "Pending",
    "responsible_agency": "Department of Sanitation",
    "final_address": "822 Jena St",
    "address_councildis": "B",
    "status": "Assigned to Contractor",
    "contractor": "Richards Disposal",
    "rowid": "938653",
    "final_x": "3670636.04039",
    "final_y": "518561.896055",
    "longitude": "-90.10281429248332",
    "latitude": "29.92019047439104",
    "geocoded_column": {
      "latitude": "29.92019047439104",
      "longitude": "-90.10281429248332"
    }
  },
  {
    "service_request": "2022-938652",
    "request_type": "Roads/Drainage",
    "request_reason": "Catch Basin - Clogged",
    "date_created": "2022-11-05T16:48:19.000",
    "date_modified": "2022-11-05T16:48:19.000",
    "request_status": "Pending",
    "responsible_agency": "Department of Public Works",
    "final_address": "3000 Bienville Ave",
    "address_councildis": "B",
    "status": "Pending",
    "rowid": "938652",
    "final_x": "3674755.07745",
    "final_y": "536472.542023",
    "longitude": "-90.08919858776268",
    "latitude": "29.969316576758057",
    "geocoded_column": {
      "latitude": "29.969316576758057",
      "longitude": "-90.08919858776268"
    }
  },
  {
    "service_request": "2022-938651",
    "request_type": "Trash/Recycling",
    "request_reason": "Order Recycling Cart",
    "date_created": "2022-11-05T16:41:33.000",
    "date_modified": "2022-11-05T16:41:33.000",
    "request_status": "Pending",
    "responsible_agency": "Department of Sanitation",
    "final_address": "2268 Allen Toussaint Blvd",
    "address_councildis": "D",
    "status": "Pending",
    "rowid": "938651",
    "final_x": "3684142.33948",
    "final_y": "555708.110233",
    "longitude": "-90.05887727498666",
    "latitude": "30.021923915774792",
    "geocoded_column": {
      "latitude": "30.021923915774792",
      "longitude": "-90.05887727498666"
    }
  },
  {
    "service_request": "2022-938650",
    "request_type": "Trash/Recycling",
    "request_reason": "Missed Trash Pick-Up",
    "date_created": "2022-11-05T16:39:52.000",
    "date_modified": "2022-11-05T16:39:53.000",
    "request_status": "Pending",
    "responsible_agency": "Department of Sanitation",
    "final_address": "6554 Oakland Dr",
    "address_councildis": "A",
    "status": "Assigned to Contractor",
    "contractor": "Richards Disposal",
    "rowid": "938650",
    "final_x": "3666570.83668",
    "final_y": "540400.276683",
    "longitude": "-90.11491325164026",
    "latitude": "29.98035833880614",
    "geocoded_column": {
      "latitude": "29.98035833880614",
      "longitude": "-90.11491325164026"
    }
  },
  {
    "service_request": "2022-938649",
    "request_type": "Trash/Recycling",
    "request_reason": "Order Recycling Cart",
    "date_created": "2022-11-05T16:38:04.000",
    "date_modified": "2022-11-05T16:38:04.000",
    "request_status": "Pending",
    "responsible_agency": "Department of Sanitation",
    "final_address": "2414 N Villere St",
    "address_councildis": "C",
    "status": "Pending",
    "rowid": "938649",
    "final_x": "3686567.1894",
    "final_y": "537505.672968",
    "longitude": "-90.05185861969078",
    "latitude": "29.97179938479028",
    "geocoded_column": {
      "latitude": "29.97179938479028",
      "longitude": "-90.05185861969078"
    }
  },
  {
    "service_request": "2022-938648",
    "request_type": "Trash/Recycling",
    "request_reason": "Order Recycling Cart",
    "date_created": "2022-11-05T16:36:27.000",
    "date_modified": "2022-11-05T16:36:27.000",
    "request_status": "Pending",
    "responsible_agency": "Department of Sanitation",
    "final_address": "9807 E Rockton Cir",
    "address_councildis": "E",
    "status": "Pending",
    "rowid": "938648",
    "final_x": "3708381.13611",
    "final_y": "562887.005792",
    "longitude": "-89.98202209126472",
    "latitude": "30.04089949175433",
    "geocoded_column": {
      "latitude": "30.04089949175433",
      "longitude": "-89.98202209126472"
    }
  },
  {
    "service_request": "2022-938647",
    "request_type": "Trash/Recycling",
    "request_reason": "Order Recycling Cart",
    "date_created": "2022-11-05T16:28:12.000",
    "date_modified": "2022-11-05T16:28:12.000",
    "request_status": "Pending",
    "responsible_agency": "Department of Sanitation",
    "final_address": "2307 St Roch Ave",
    "address_councildis": "D",
    "status": "Pending",
    "rowid": "938647",
    "final_x": "3686209.0909",
    "final_y": "540916.015435",
    "longitude": "-90.05286919025826",
    "latitude": "29.98118763572229",
    "geocoded_column": {
      "latitude": "29.98118763572229",
      "longitude": "-90.05286919025826"
    }
  },
  {
    "service_request": "2022-938646",
    "request_type": "Roads/Drainage",
    "request_reason": "Man hole cover issue",
    "date_created": "2022-11-05T16:16:57.000",
    "date_modified": "2022-11-05T16:16:57.000",
    "request_status": "Pending",
    "responsible_agency": "Department of Public Works",
    "final_address": "720 Esplanade Ave",
    "address_councildis": "C",
    "status": "Pending",
    "rowid": "938646",
    "final_x": "3683855.15266",
    "final_y": "534481.110277",
    "longitude": "-90.06052974671549",
    "latitude": "29.963566003374325",
    "geocoded_column": {
      "latitude": "29.963566003374325",
      "longitude": "-90.06052974671549"
    }
  },
  {
    "service_request": "2022-938645",
    "request_type": "Roads/Drainage",
    "request_reason": "Man hole cover issue",
    "date_created": "2022-11-05T16:16:03.000",
    "date_modified": "2022-11-05T16:16:03.000",
    "request_status": "Pending",
    "responsible_agency": "Department of Public Works",
    "final_address": "720 Esplanade Ave",
    "address_councildis": "C",
    "status": "Pending",
    "rowid": "938645",
    "final_x": "3683855.15266",
    "final_y": "534481.110277",
    "longitude": "-90.06052974671549",
    "latitude": "29.963566003374325",
    "geocoded_column": {
      "latitude": "29.963566003374325",
      "longitude": "-90.06052974671549"
    }
  },
  {
    "service_request": "2022-938644",
    "request_type": "Trash/Recycling",
    "request_reason": "Order Recycling Cart",
    "date_created": "2022-11-05T16:04:13.000",
    "date_modified": "2022-11-05T16:04:13.000",
    "request_status": "Pending",
    "responsible_agency": "Department of Sanitation",
    "final_address": "216 16Th St",
    "address_councildis": "A",
    "status": "Pending",
    "rowid": "938644",
    "final_x": "3665518.82445",
    "final_y": "548358.595602",
    "longitude": "-90.11796935960247",
    "latitude": "30.002271725018293",
    "geocoded_column": {
      "latitude": "30.002271725018293",
      "longitude": "-90.11796935960247"
    }
  },
  {
    "service_request": "2022-938643",
    "request_type": "Trash/Recycling",
    "request_reason": "Missed Trash Pick-Up",
    "date_created": "2022-11-05T15:54:24.000",
    "date_modified": "2022-11-05T15:54:24.000",
    "request_status": "Pending",
    "responsible_agency": "Department of Sanitation",
    "final_address": "3402 Livingston St",
    "address_councildis": "A",
    "status": "Assigned to Contractor",
    "contractor": "Richards Disposal",
    "rowid": "938643",
    "final_x": "3663590.69216",
    "final_y": "537553.981896",
    "longitude": "-90.12442071029452",
    "latitude": "29.972618772680026",
    "geocoded_column": {
      "latitude": "29.972618772680026",
      "longitude": "-90.12442071029452"
    }
  },
  {
    "service_request": "2022-938642",
    "request_type": "Trash/Recycling",
    "request_reason": "Missed Trash Pick-Up",
    "date_created": "2022-11-05T15:46:15.000",
    "date_modified": "2022-11-05T15:46:16.000",
    "request_status": "Pending",
    "responsible_agency": "Department of Sanitation",
    "final_address": "2259 Oretha Castle Haley Blvd",
    "address_councildis": "B",
    "status": "Assigned to Contractor",
    "contractor": "Richards Disposal",
    "rowid": "938642",
    "final_x": "3676428.49864",
    "final_y": "524494.006396",
    "longitude": "-90.08432614102814",
    "latitude": "29.93632953641179",
    "geocoded_column": {
      "latitude": "29.93632953641179",
      "longitude": "-90.08432614102814"
    }
  },
  {
    "service_request": "2022-938641",
    "request_type": "Traffic Signals/Signs/Striping/Streetlights",
    "request_reason": "Street Light Outage/Malfunction",
    "date_created": "2022-11-05T15:36:45.000",
    "date_modified": "2022-11-05T15:36:45.000",
    "request_status": "Pending",
    "responsible_agency": "Department of Public Works",
    "final_address": "1909 Wildair Dr",
    "address_councildis": "D",
    "status": "Pending",
    "contractor": "Legacy Professional Services",
    "rowid": "938641",
    "final_x": "3681190.49986",
    "final_y": "551245.254549",
    "longitude": "-90.06836000064563",
    "latitude": "30.00974262976825",
    "geocoded_column": {
      "latitude": "30.00974262976825",
      "longitude": "-90.06836000064563"
    }
  },
  {
    "service_request": "2022-938640",
    "request_type": "Trash/Recycling",
    "request_reason": "Order Recycling Cart",
    "date_created": "2022-11-05T15:35:19.000",
    "date_modified": "2022-11-05T15:35:19.000",
    "request_status": "Pending",
    "responsible_agency": "Department of Sanitation",
    "final_address": "4532 Bancroft Dr",
    "address_councildis": "D",
    "status": "Pending",
    "rowid": "938640",
    "final_x": "3676177.68923",
    "final_y": "548886.892819",
    "longitude": "-90.08427849570641",
    "latitude": "30.003409185448753",
    "geocoded_column": {
      "latitude": "30.003409185448753",
      "longitude": "-90.08427849570641"
    }
  },
  {
    "service_request": "2022-938639",
    "request_type": "Trash/Recycling",
    "request_reason": "Order Trash Cart",
    "date_created": "2022-11-05T15:32:32.000",
    "date_modified": "2022-11-05T15:32:32.000",
    "request_status": "Pending",
    "responsible_agency": "Department of Sanitation",
    "final_address": "2718 New York St Apt A New Orleans 20122",
    "status": "Assigned to Contractor",
    "rowid": "938639",
    "longitude": "0.0",
    "latitude": "0.0",
    "geocoded_column": {
      "latitude": "0.0",
      "longitude": "0.0"
    }
  },
  {
    "service_request": "2022-938638",
    "request_type": "Trash/Recycling",
    "request_reason": "Order Recycling Cart",
    "date_created": "2022-11-05T15:31:38.000",
    "date_modified": "2022-11-05T15:31:38.000",
    "request_status": "Pending",
    "responsible_agency": "Department of Sanitation",
    "final_address": "325 Harrison Ave",
    "address_councildis": "A",
    "status": "Pending",
    "rowid": "938638",
    "final_x": "3667470.56954",
    "final_y": "549519.704403",
    "longitude": "-90.11176443471534",
    "latitude": "30.005407304599633",
    "geocoded_column": {
      "latitude": "30.005407304599633",
      "longitude": "-90.11176443471534"
    }
  },
  {
    "service_request": "2022-938637",
    "request_type": "Trash/Recycling",
    "request_reason": "Order Recycling Cart",
    "date_created": "2022-11-05T15:31:24.000",
    "date_modified": "2022-11-05T15:31:24.000",
    "request_status": "Pending",
    "responsible_agency": "Department of Sanitation",
    "final_address": "5142 Metropolitan Dr",
    "address_councildis": "D",
    "status": "Pending",
    "rowid": "938637",
    "final_x": "3690356.56259",
    "final_y": "552295.04335",
    "longitude": "-90.03936377848291",
    "latitude": "30.012347739114748",
    "geocoded_column": {
      "latitude": "30.012347739114748",
      "longitude": "-90.03936377848291"
    }
  },
  {
    "service_request": "2022-938636",
    "request_type": "Trash/Recycling",
    "request_reason": "Request a Large Item Pick Up",
    "date_created": "2022-11-05T15:27:15.000",
    "date_modified": "2022-11-05T15:27:32.000",
    "request_status": "Pending",
    "responsible_agency": "Department of Sanitation",
    "final_address": "5940 Marshal Foch St",
    "address_councildis": "A",
    "status": "Assigned to Contractor",
    "contractor": "Metro Disposal",
    "rowid": "938636",
    "final_x": "3669700.82964",
    "final_y": "546863.071313",
    "longitude": "-90.10480851771048",
    "latitude": "29.998036922264994",
    "geocoded_column": {
      "latitude": "29.998036922264994",
      "longitude": "-90.10480851771048"
    }
  },
  {
    "service_request": "2022-938635",
    "request_type": "Trash/Recycling",
    "request_reason": "Order Recycling Cart",
    "date_created": "2022-11-05T15:25:19.000",
    "date_modified": "2022-11-05T15:25:19.000",
    "request_status": "Pending",
    "responsible_agency": "Department of Sanitation",
    "final_address": "1816 Lizardi St",
    "address_councildis": "E",
    "status": "Pending",
    "rowid": "938635",
    "final_x": "3697226.95363",
    "final_y": "536916.803912",
    "longitude": "-90.01821495491416",
    "latitude": "29.96984809834802",
    "geocoded_column": {
      "latitude": "29.96984809834802",
      "longitude": "-90.01821495491416"
    }
  },
  {
    "service_request": "2022-938634",
    "request_type": "Trash/Recycling",
    "request_reason": "Repair Recycling Cart",
    "date_created": "2022-11-05T15:22:47.000",
    "date_modified": "2022-11-05T15:22:47.000",
    "request_status": "Pending",
    "responsible_agency": "Department of Sanitation",
    "final_address": "11030 N Hardy St",
    "address_councildis": "E",
    "status": "Pending",
    "rowid": "938634",
    "final_x": "3713171.68139",
    "final_y": "562395.905247",
    "longitude": "-89.96690098858215",
    "latitude": "30.039392950645315",
    "geocoded_column": {
      "latitude": "30.039392950645315",
      "longitude": "-89.96690098858215"
    }
  },
  {
    "service_request": "2022-938632",
    "request_type": "Trash/Recycling",
    "request_reason": "Missed Trash Pick-Up",
    "date_created": "2022-11-05T15:13:42.000",
    "date_modified": "2022-11-05T15:13:43.000",
    "request_status": "Pending",
    "responsible_agency": "Department of Sanitation",
    "final_address": "100 Finland Pl",
    "address_councildis": "C",
    "status": "Assigned to Contractor",
    "contractor": "Richards Disposal",
    "rowid": "938632",
    "final_x": "3705692.30987",
    "final_y": "520839.658809",
    "longitude": "-89.99207510392958",
    "latitude": "29.92537181759368",
    "geocoded_column": {
      "latitude": "29.92537181759368",
      "longitude": "-89.99207510392958"
    }
  },
  {
    "service_request": "2022-938631",
    "request_type": "Trash/Recycling",
    "request_reason": "Replace Trash Cart",
    "date_created": "2022-11-05T15:13:33.000",
    "date_modified": "2022-11-05T15:13:34.000",
    "request_status": "Pending",
    "responsible_agency": "Department of Sanitation",
    "final_address": "2704 N Rampart St",
    "address_councildis": "C",
    "status": "Assigned to Contractor",
    "contractor": "Metro Disposal",
    "rowid": "938631",
    "final_x": "3687362.29647",
    "final_y": "535911.453703",
    "longitude": "-90.0494039693652",
    "latitude": "29.967391364442353",
    "geocoded_column": {
      "latitude": "29.967391364442353",
      "longitude": "-90.0494039693652"
    }
  },
  {
    "service_request": "2022-938630",
    "request_type": "Trash/Recycling",
    "request_reason": "Order Recycling Cart",
    "date_created": "2022-11-05T15:13:17.000",
    "date_modified": "2022-11-05T15:13:17.000",
    "request_status": "Pending",
    "responsible_agency": "Department of Sanitation",
    "final_address": "6023 Marigny St",
    "address_councildis": "D",
    "status": "Pending",
    "rowid": "938630",
    "final_x": "3683953.17653",
    "final_y": "555197.223705",
    "longitude": "-90.0594929264319",
    "latitude": "30.020524949661773",
    "geocoded_column": {
      "latitude": "30.020524949661773",
      "longitude": "-90.0594929264319"
    }
  },
  {
    "service_request": "2022-938629",
    "request_type": "Trash/Recycling",
    "request_reason": "Order Recycling Cart",
    "date_created": "2022-11-05T15:13:07.000",
    "date_modified": "2022-11-05T15:13:07.000",
    "request_status": "Pending",
    "responsible_agency": "Department of Sanitation",
    "final_address": "5660 Cherlyn Dr",
    "address_councildis": "A",
    "status": "Pending",
    "rowid": "938629",
    "final_x": "3665129.48295",
    "final_y": "545394.418576",
    "longitude": "-90.11929855667414",
    "latitude": "29.994132603616716",
    "geocoded_column": {
      "latitude": "29.994132603616716",
      "longitude": "-90.11929855667414"
    }
  },
  {
    "service_request": "2022-938628",
    "request_type": "Trash/Recycling",
    "request_reason": "Order Recycling Cart",
    "date_created": "2022-11-05T15:12:25.000",
    "date_modified": "2022-11-05T15:12:25.000",
    "request_status": "Pending",
    "responsible_agency": "Department of Sanitation",
    "final_address": "3921 Hamburg St",
    "address_councildis": "D",
    "status": "Pending",
    "rowid": "938628",
    "final_x": "3679217.8893",
    "final_y": "546791.097553",
    "longitude": "-90.07474675153475",
    "latitude": "29.997555017976715",
    "geocoded_column": {
      "latitude": "29.997555017976715",
      "longitude": "-90.07474675153475"
    }
  },
  {
    "service_request": "2022-938627",
    "request_type": "Trash/Recycling",
    "request_reason": "Order Recycling Cart",
    "date_created": "2022-11-05T15:10:53.000",
    "date_modified": "2022-11-05T15:10:53.000",
    "request_status": "Pending",
    "responsible_agency": "Department of Sanitation",
    "final_address": "3919 Hamburg St",
    "address_councildis": "D",
    "status": "Pending",
    "rowid": "938627",
    "final_x": "3679220.85506",
    "final_y": "546771.938001",
    "longitude": "-90.07473804758718",
    "latitude": "29.997502246419543",
    "geocoded_column": {
      "latitude": "29.997502246419543",
      "longitude": "-90.07473804758718"
    }
  },
  {
    "service_request": "2022-938626",
    "request_type": "Trash/Recycling",
    "request_reason": "Order Trash Cart",
    "date_created": "2022-11-05T15:10:30.000",
    "date_modified": "2022-11-05T15:10:31.000",
    "request_status": "Pending",
    "responsible_agency": "Department of Sanitation",
    "final_address": "4910 warren dr",
    "address_councildis": "E",
    "status": "Assigned to Contractor",
    "contractor": "Metro Disposal",
    "rowid": "938626",
    "final_x": "3713303.87397",
    "final_y": "557074.129498",
    "longitude": "-89.96668381835346",
    "latitude": "30.02475585347039",
    "geocoded_column": {
      "latitude": "30.02475585347039",
      "longitude": "-89.96668381835346"
    }
  },
  {
    "service_request": "2022-938625",
    "request_type": "Trash/Recycling",
    "request_reason": "Order Trash Cart",
    "date_created": "2022-11-05T15:08:13.000",
    "date_modified": "2022-11-05T15:08:14.000",
    "request_status": "Pending",
    "responsible_agency": "Department of Sanitation",
    "final_address": "3919 Hamburg St",
    "address_councildis": "D",
    "status": "Assigned to Contractor",
    "contractor": "Metro Disposal",
    "rowid": "938625",
    "final_x": "3679220.85506",
    "final_y": "546771.938001",
    "longitude": "-90.07473804758718",
    "latitude": "29.997502246419543",
    "geocoded_column": {
      "latitude": "29.997502246419543",
      "longitude": "-90.07473804758718"
    }
  },
  {
    "service_request": "2022-938624",
    "request_type": "Trash/Recycling",
    "request_reason": "Order Recycling Cart",
    "date_created": "2022-11-05T15:04:31.000",
    "date_modified": "2022-11-05T15:04:31.000",
    "request_status": "Pending",
    "responsible_agency": "Department of Sanitation",
    "final_address": "3441 Gentilly Blvd",
    "address_councildis": "D",
    "status": "Pending",
    "rowid": "938624",
    "final_x": "3685192.49404",
    "final_y": "548681.327187",
    "longitude": "-90.05580660713606",
    "latitude": "30.002570670925376",
    "geocoded_column": {
      "latitude": "30.002570670925376",
      "longitude": "-90.05580660713606"
    }
  },
  {
    "service_request": "2022-938623",
    "request_type": "Trash/Recycling",
    "request_reason": "Request a Large Item Pick Up",
    "date_created": "2022-11-05T14:58:38.000",
    "date_modified": "2022-11-05T14:58:39.000",
    "request_status": "Pending",
    "responsible_agency": "Department of Sanitation",
    "final_address": "330 Filmore Ave",
    "address_councildis": "A",
    "status": "Assigned to Contractor",
    "contractor": "Metro Disposal",
    "rowid": "938623",
    "final_x": "3667779.11962",
    "final_y": "552083.118294",
    "longitude": "-90.1107032426289",
    "latitude": "30.012446748629618",
    "geocoded_column": {
      "latitude": "30.012446748629618",
      "longitude": "-90.1107032426289"
    }
  },
  {
    "service_request": "2022-938622",
    "request_type": "Trash/Recycling",
    "request_reason": "Order Recycling Cart",
    "date_created": "2022-11-05T14:57:05.000",
    "date_modified": "2022-11-05T14:57:05.000",
    "request_status": "Pending",
    "responsible_agency": "Department of Sanitation",
    "final_address": "6396 Bellaire Dr",
    "address_councildis": "A",
    "status": "Pending",
    "rowid": "938622",
    "final_x": "3664360.29511",
    "final_y": "550423.911828",
    "longitude": "-90.12156030945418",
    "latitude": "30.00798436932714",
    "geocoded_column": {
      "latitude": "30.00798436932714",
      "longitude": "-90.12156030945418"
    }
  },
  {
    "service_request": "2022-938621",
    "request_type": "Trash/Recycling",
    "request_reason": "Order Recycling Cart",
    "date_created": "2022-11-05T14:56:15.000",
    "date_modified": "2022-11-05T14:56:15.000",
    "request_status": "Pending",
    "responsible_agency": "Department of Sanitation",
    "final_address": "4725 Pecan St",
    "address_councildis": "E",
    "status": "Pending",
    "rowid": "938621",
    "final_x": "3701878.01917",
    "final_y": "554151.29372",
    "longitude": "-90.00289459161272",
    "latitude": "30.01708893673087",
    "geocoded_column": {
      "latitude": "30.01708893673087",
      "longitude": "-90.00289459161272"
    }
  },
  {
    "service_request": "2022-938620",
    "request_type": "Trash/Recycling",
    "request_reason": "Order Trash Cart",
    "date_created": "2022-11-05T14:46:07.000",
    "date_modified": "2022-11-05T14:46:08.000",
    "request_status": "Pending",
    "responsible_agency": "Department of Sanitation",
    "final_address": "6100 Argonne Blvd.  70124",
    "status": "Assigned to Contractor",
    "rowid": "938620",
    "longitude": "0.0",
    "latitude": "0.0",
    "geocoded_column": {
      "latitude": "0.0",
      "longitude": "0.0"
    }
  },
  {
    "service_request": "2022-938619",
    "request_type": "Trash/Recycling",
    "request_reason": "Order Recycling Cart",
    "date_created": "2022-11-05T14:43:33.000",
    "date_modified": "2022-11-05T14:43:33.000",
    "request_status": "Pending",
    "responsible_agency": "Department of Sanitation",
    "final_address": "1834 Elysian Fields Ave",
    "address_councildis": "D",
    "status": "Pending",
    "rowid": "938619",
    "final_x": "3684670.35657",
    "final_y": "539165.081354",
    "longitude": "-90.057790764599",
    "latitude": "29.97642037246964",
    "geocoded_column": {
      "latitude": "29.97642037246964",
      "longitude": "-90.057790764599"
    }
  },
  {
    "service_request": "2022-938618",
    "request_type": "Trash/Recycling",
    "request_reason": "Request a Large Item Pick Up",
    "date_created": "2022-11-05T14:41:07.000",
    "date_modified": "2022-11-05T14:41:08.000",
    "request_status": "Pending",
    "responsible_agency": "Department of Sanitation",
    "final_address": "3650 Constance St",
    "address_councildis": "B",
    "status": "Assigned to Contractor",
    "contractor": "Richards Disposal",
    "rowid": "938618",
    "final_x": "3673865.88609",
    "final_y": "518755.742391",
    "longitude": "-90.09261256776281",
    "latitude": "29.920627721220487",
    "geocoded_column": {
      "latitude": "29.920627721220487",
      "longitude": "-90.09261256776281"
    }
  },
  {
    "service_request": "2022-938617",
    "request_type": "Abandoned Vehicles",
    "request_reason": "Vehicle Blocking Your Driveway",
    "date_created": "2022-11-05T14:39:17.000",
    "date_modified": "2022-11-05T14:39:17.000",
    "request_status": "Pending",
    "responsible_agency": "Department of Public Works",
    "final_address": "2606 Cadiz St",
    "address_councildis": "B",
    "status": "Pending",
    "rowid": "938617",
    "final_x": "3669710.42772",
    "final_y": "524376.178556",
    "longitude": "-90.10553936274646",
    "latitude": "29.936205194961325",
    "geocoded_column": {
      "latitude": "29.936205194961325",
      "longitude": "-90.10553936274646"
    }
  },
  {
    "service_request": "2022-938616",
    "request_type": "Trash/Recycling",
    "request_reason": "Replace Trash Cart",
    "date_created": "2022-11-05T14:35:48.000",
    "date_modified": "2022-11-05T14:39:07.000",
    "request_status": "Pending",
    "responsible_agency": "Department of Sanitation",
    "final_address": "New Orleans,LA",
    "status": "Assigned to Contractor",
    "rowid": "938616",
    "longitude": "0.0",
    "latitude": "0.0",
    "geocoded_column": {
      "latitude": "0.0",
      "longitude": "0.0"
    }
  },
  {
    "service_request": "2022-938615",
    "request_type": "Abandoned Vehicles",
    "request_reason": "Vehicle Blocking Your Driveway",
    "date_created": "2022-11-05T14:29:25.000",
    "date_modified": "2022-11-05T14:29:25.000",
    "request_status": "Pending",
    "responsible_agency": "Department of Public Works",
    "final_address": "2606 Cadiz St",
    "address_councildis": "B",
    "status": "Pending",
    "rowid": "938615",
    "final_x": "3669710.42772",
    "final_y": "524376.178556",
    "longitude": "-90.10553936274646",
    "latitude": "29.936205194961325",
    "geocoded_column": {
      "latitude": "29.936205194961325",
      "longitude": "-90.10553936274646"
    }
  },
  {
    "service_request": "2022-938614",
    "request_type": "Trash/Recycling",
    "request_reason": "Order Recycling Cart",
    "date_created": "2022-11-05T14:28:39.000",
    "date_modified": "2022-11-05T14:28:39.000",
    "request_status": "Pending",
    "responsible_agency": "Department of Sanitation",
    "final_address": "932 Florida Blvd",
    "address_councildis": "A",
    "status": "Pending",
    "rowid": "938614",
    "final_x": "3670008.27201",
    "final_y": "545130.213903",
    "longitude": "-90.10389604322049",
    "latitude": "29.993263096188986",
    "geocoded_column": {
      "latitude": "29.993263096188986",
      "longitude": "-90.10389604322049"
    }
  },
  {
    "service_request": "2022-938613",
    "request_type": "Trash/Recycling",
    "request_reason": "Order Recycling Cart",
    "date_created": "2022-11-05T14:28:14.000",
    "date_modified": "2022-11-05T14:28:14.000",
    "request_status": "Pending",
    "responsible_agency": "Department of Sanitation",
    "final_address": "2129 Desire St",
    "address_councildis": "D",
    "status": "Pending",
    "rowid": "938613",
    "final_x": "3691223.26416",
    "final_y": "539740.830666",
    "longitude": "-90.0370742080595",
    "latitude": "29.97780127335146",
    "geocoded_column": {
      "latitude": "29.97780127335146",
      "longitude": "-90.0370742080595"
    }
  },
  {
    "service_request": "2022-938610",
    "request_type": "Trash/Recycling",
    "request_reason": "Order Recycling Cart",
    "date_created": "2022-11-05T14:25:45.000",
    "date_modified": "2022-11-05T14:25:45.000",
    "request_status": "Pending",
    "responsible_agency": "Department of Sanitation",
    "final_address": "7605 Plum St, New Orleans, Louisiana, 70118",
    "address_councildis": "A",
    "status": "Pending",
    "rowid": "938610",
    "final_x": "3663507.0473",
    "final_y": "527503.994239",
    "longitude": "-90.12501957966293",
    "latitude": "29.944987005803004",
    "geocoded_column": {
      "latitude": "29.944987005803004",
      "longitude": "-90.12501957966293"
    }
  },
  {
    "service_request": "2022-938609",
    "request_type": "Mayor's Request",
    "request_reason": "Requests to the Mayor",
    "date_created": "2022-11-05T14:18:30.000",
    "date_modified": "2022-11-05T14:18:30.000",
    "request_status": "Pending",
    "responsible_agency": "Executive Office of the Mayor",
    "final_address": "2401 Joseph St",
    "address_councildis": "A",
    "status": "Pending",
    "rowid": "938609",
    "final_x": "3667474.23559",
    "final_y": "524859.426172",
    "longitude": "-90.1125828585947",
    "latitude": "29.9375996673123",
    "geocoded_column": {
      "latitude": "29.9375996673123",
      "longitude": "-90.1125828585947"
    }
  },
  {
    "service_request": "2022-938608",
    "request_type": "Trash/Recycling",
    "request_reason": "Order Recycling Cart",
    "date_created": "2022-11-05T14:15:18.000",
    "date_modified": "2022-11-05T14:15:18.000",
    "request_status": "Pending",
    "responsible_agency": "Department of Sanitation",
    "final_address": "6735 Louis Xiv St",
    "address_councildis": "A",
    "status": "Pending",
    "rowid": "938608",
    "final_x": "3668631.64046",
    "final_y": "552350.821206",
    "longitude": "-90.10800069848001",
    "latitude": "30.013157797686873",
    "geocoded_column": {
      "latitude": "30.013157797686873",
      "longitude": "-90.10800069848001"
    }
  },
  {
    "service_request": "2022-938607",
    "request_type": "Trash/Recycling",
    "request_reason": "Request a Large Item Pick Up",
    "date_created": "2022-11-05T14:09:25.000",
    "date_modified": "2022-11-05T14:09:26.000",
    "request_status": "Pending",
    "responsible_agency": "Department of Sanitation",
    "final_address": "7929 Freret St",
    "address_councildis": "A",
    "status": "Assigned to Contractor",
    "contractor": "Richards Disposal",
    "rowid": "938607",
    "final_x": "3661926.85114",
    "final_y": "527522.518655",
    "longitude": "-90.13000815603785",
    "latitude": "29.9450836666227",
    "geocoded_column": {
      "latitude": "29.9450836666227",
      "longitude": "-90.13000815603785"
    }
  },
  {
    "service_request": "2022-938606",
    "request_type": "Roads/Drainage",
    "request_reason": "Pothole",
    "date_created": "2022-11-05T14:00:38.000",
    "date_modified": "2022-11-05T14:00:38.000",
    "request_status": "Pending",
    "responsible_agency": "Department of Public Works",
    "final_address": "2008 Broadway St",
    "address_councildis": "A",
    "status": "Pending",
    "rowid": "938606",
    "final_x": "3665754.91892",
    "final_y": "528959.224192",
    "longitude": "-90.1178735917795",
    "latitude": "29.948923047830057",
    "geocoded_column": {
      "latitude": "29.948923047830057",
      "longitude": "-90.1178735917795"
    }
  },
  {
    "service_request": "2022-938605",
    "request_type": "Property Maintenance",
    "request_reason": "Property Maintenance",
    "date_created": "2022-11-05T13:41:08.000",
    "date_modified": "2022-11-05T13:41:08.000",
    "request_status": "Pending",
    "responsible_agency": "Department of Code Enforcement",
    "final_address": "1711 Second St",
    "address_councildis": "B",
    "status": "Pending",
    "rowid": "938605",
    "final_x": "3676457.57998",
    "final_y": "523470.685755",
    "longitude": "-90.08426954711605",
    "latitude": "29.933514867793466",
    "geocoded_column": {
      "latitude": "29.933514867793466",
      "longitude": "-90.08426954711605"
    }
  },
  {
    "service_request": "2022-938604",
    "request_type": "Trash/Recycling",
    "request_reason": "Order Recycling Cart",
    "date_created": "2022-11-05T13:28:13.000",
    "date_modified": "2022-11-05T13:28:13.000",
    "request_status": "Pending",
    "responsible_agency": "Department of Sanitation",
    "final_address": "5444 Royal St",
    "address_councildis": "E",
    "status": "Pending",
    "rowid": "938604",
    "final_x": "3697057.14794",
    "final_y": "532379.839555",
    "longitude": "-90.01891557535492",
    "latitude": "29.9573784170001",
    "geocoded_column": {
      "latitude": "29.9573784170001",
      "longitude": "-90.01891557535492"
    }
  },
  {
    "service_request": "2022-938603",
    "request_type": "Roads/Drainage",
    "request_reason": "Street Flooding / Drainage",
    "date_created": "2022-11-05T13:28:01.000",
    "date_modified": "2022-11-05T13:28:01.000",
    "request_status": "Pending",
    "responsible_agency": "Department of Public Works",
    "final_address": "714 Verret St",
    "address_councildis": "C",
    "status": "Pending",
    "rowid": "938603",
    "final_x": "3687132.20182",
    "final_y": "528963.201024",
    "longitude": "-90.05037629469084",
    "latitude": "29.948293152208436",
    "geocoded_column": {
      "latitude": "29.948293152208436",
      "longitude": "-90.05037629469084"
    }
  },
  {
    "service_request": "2022-938602",
    "request_type": "Trash/Recycling",
    "request_reason": "Order Recycling Cart",
    "date_created": "2022-11-05T13:26:17.000",
    "date_modified": "2022-11-05T13:26:17.000",
    "request_status": "Pending",
    "responsible_agency": "Department of Sanitation",
    "final_address": "626 Gallier St",
    "address_councildis": "C",
    "status": "Pending",
    "rowid": "938602",
    "final_x": "3690026.8166",
    "final_y": "534027.262725",
    "longitude": "-90.04105650649788",
    "latitude": "29.96212813490988",
    "geocoded_column": {
      "latitude": "29.96212813490988",
      "longitude": "-90.04105650649788"
    }
  },
  {
    "service_request": "2022-938601",
    "request_type": "Trash/Recycling",
    "request_reason": "Order Trash Cart",
    "date_created": "2022-11-05T13:24:59.000",
    "date_modified": "2022-11-05T13:25:00.000",
    "request_status": "Pending",
    "responsible_agency": "Department of Sanitation",
    "final_address": "626 Gallier St",
    "address_councildis": "C",
    "status": "Assigned to Contractor",
    "contractor": "Metro Disposal",
    "rowid": "938601",
    "final_x": "3690026.8166",
    "final_y": "534027.262725",
    "longitude": "-90.04105650649788",
    "latitude": "29.96212813490988",
    "geocoded_column": {
      "latitude": "29.96212813490988",
      "longitude": "-90.04105650649788"
    }
  },
  {
    "service_request": "2022-938600",
    "request_type": "Abandoned Vehicles",
    "request_reason": "Abandoned/Junk Vehicles",
    "date_created": "2022-11-05T13:22:29.000",
    "date_modified": "2022-11-05T13:24:34.000",
    "request_status": "Pending",
    "responsible_agency": "Department of Public Works",
    "final_address": "1717 Robert C. Blakes, Sr. Dr",
    "address_councildis": "B",
    "status": "Pending",
    "rowid": "938600",
    "final_x": "3678363.86222",
    "final_y": "525150.654525",
    "longitude": "-90.07819342361847",
    "latitude": "29.938076952979912",
    "geocoded_column": {
      "latitude": "29.938076952979912",
      "longitude": "-90.07819342361847"
    }
  },
  {
    "service_request": "2022-938599",
    "request_type": "Trash/Recycling",
    "request_reason": "Order Recycling Cart",
    "date_created": "2022-11-05T13:11:50.000",
    "date_modified": "2022-11-05T13:13:35.000",
    "request_status": "Pending",
    "responsible_agency": "Department of Sanitation",
    "final_address": "7511 Dalewood Rd",
    "address_councildis": "E",
    "status": "Pending",
    "rowid": "938599",
    "final_x": "3700134.48592",
    "final_y": "560132.789725",
    "longitude": "-90.00818484115923",
    "latitude": "30.033591303334504",
    "geocoded_column": {
      "latitude": "30.033591303334504",
      "longitude": "-90.00818484115923"
    }
  },
  {
    "service_request": "2022-938598",
    "request_type": "Trash/Recycling",
    "request_reason": "Order Trash Cart",
    "date_created": "2022-11-05T13:10:40.000",
    "date_modified": "2022-11-05T13:10:40.000",
    "request_status": "Pending",
    "responsible_agency": "Department of Sanitation",
    "final_address": "87 Maryland Dr",
    "address_councildis": "A",
    "status": "Assigned to Contractor",
    "contractor": "Metro Disposal",
    "rowid": "938598",
    "final_x": "3663751.30535",
    "final_y": "541847.352588",
    "longitude": "-90.12377032907769",
    "latitude": "29.98441944941539",
    "geocoded_column": {
      "latitude": "29.98441944941539",
      "longitude": "-90.12377032907769"
    }
  },
  {
    "service_request": "2022-938597",
    "request_type": "Trash/Recycling",
    "request_reason": "Order Recycling Cart",
    "date_created": "2022-11-05T13:10:32.000",
    "date_modified": "2022-11-05T13:10:33.000",
    "request_status": "Pending",
    "responsible_agency": "Department of Sanitation",
    "final_address": "5736 Warrington Dr",
    "address_councildis": "D",
    "status": "Pending",
    "rowid": "938597",
    "final_x": "3680691.26491",
    "final_y": "554027.688344",
    "longitude": "-90.06984032836536",
    "latitude": "30.01740846014827",
    "geocoded_column": {
      "latitude": "30.01740846014827",
      "longitude": "-90.06984032836536"
    }
  },
  {
    "service_request": "2022-938596",
    "request_type": "Trash/Recycling",
    "request_reason": "Order Recycling Cart",
    "date_created": "2022-11-05T13:08:55.000",
    "date_modified": "2022-11-05T13:08:55.000",
    "request_status": "Pending",
    "responsible_agency": "Department of Sanitation",
    "final_address": "5043 Debore Cir",
    "address_councildis": "D",
    "status": "Pending",
    "rowid": "938596",
    "final_x": "3692274.7272",
    "final_y": "553066.930711",
    "longitude": "-90.0332758077426",
    "latitude": "30.014410442013997",
    "geocoded_column": {
      "latitude": "30.014410442013997",
      "longitude": "-90.0332758077426"
    }
  },
  {
    "service_request": "2022-938595",
    "request_type": "Roads/Drainage",
    "request_reason": "Man hole cover issue",
    "date_created": "2022-11-05T12:57:53.000",
    "date_modified": "2022-11-05T12:57:53.000",
    "request_status": "Pending",
    "responsible_agency": "Department of Public Works",
    "final_address": "7705 Cohn St",
    "address_councildis": "A",
    "status": "Pending",
    "rowid": "938595",
    "final_x": "3664690.15232",
    "final_y": "529271.715009",
    "longitude": "-90.12122509702965",
    "latitude": "29.949813310107956",
    "geocoded_column": {
      "latitude": "29.949813310107956",
      "longitude": "-90.12122509702965"
    }
  },
  {
    "service_request": "2022-938594",
    "request_type": "Trash/Recycling",
    "request_reason": "Order Recycling Cart",
    "date_created": "2022-11-05T12:57:51.000",
    "date_modified": "2022-11-05T12:57:51.000",
    "request_status": "Pending",
    "responsible_agency": "Department of Sanitation",
    "final_address": "1304 St Denis St",
    "address_councildis": "D",
    "status": "Pending",
    "rowid": "938594",
    "final_x": "3677484.71131",
    "final_y": "545671.17416",
    "longitude": "-90.0802605027679",
    "latitude": "29.994527854427698",
    "geocoded_column": {
      "latitude": "29.994527854427698",
      "longitude": "-90.0802605027679"
    }
  },
  {
    "service_request": "2022-938593",
    "request_type": "Roads/Drainage",
    "request_reason": "Accessibility Ramps, Curbs and Sidewalk Repair",
    "date_created": "2022-11-05T12:56:33.000",
    "date_modified": "2022-11-05T12:56:33.000",
    "request_status": "Pending",
    "responsible_agency": "Department of Public Works",
    "final_address": "738 Jackson Ave",
    "address_councildis": "B",
    "status": "Pending",
    "rowid": "938593",
    "final_x": "3679510.92687",
    "final_y": "521140.963961",
    "longitude": "-90.0747110882147",
    "latitude": "29.927017023590142",
    "geocoded_column": {
      "latitude": "29.927017023590142",
      "longitude": "-90.0747110882147"
    }
  },
  {
    "service_request": "2022-938592",
    "request_type": "Trash/Recycling",
    "request_reason": "Order Recycling Cart",
    "date_created": "2022-11-05T12:56:24.000",
    "date_modified": "2022-11-05T12:56:24.000",
    "request_status": "Pending",
    "responsible_agency": "Department of Sanitation",
    "final_address": "3122 N Rampart St",
    "address_councildis": "C",
    "status": "Pending",
    "rowid": "938592",
    "final_x": "3689067.15004",
    "final_y": "535482.406022",
    "longitude": "-90.044035275939",
    "latitude": "29.96615899631293",
    "geocoded_column": {
      "latitude": "29.96615899631293",
      "longitude": "-90.044035275939"
    }
  },
  {
    "service_request": "2022-938591",
    "request_type": "Trash/Recycling",
    "request_reason": "Order Recycling Cart",
    "date_created": "2022-11-05T12:55:40.000",
    "date_modified": "2022-11-05T12:55:41.000",
    "request_status": "Pending",
    "responsible_agency": "Department of Sanitation",
    "final_address": "3120 N Rampart St",
    "address_councildis": "C",
    "status": "Pending",
    "rowid": "938591",
    "final_x": "3689051.87228",
    "final_y": "535487.267142",
    "longitude": "-90.0440833498872",
    "latitude": "29.966172835364617",
    "geocoded_column": {
      "latitude": "29.966172835364617",
      "longitude": "-90.0440833498872"
    }
  },
  {
    "service_request": "2022-938590",
    "request_type": "Trash/Recycling",
    "request_reason": "Order Recycling Cart",
    "date_created": "2022-11-05T12:54:09.000",
    "date_modified": "2022-11-05T12:54:10.000",
    "request_status": "Pending",
    "responsible_agency": "Department of Sanitation",
    "final_address": "14088 Partridge Ln",
    "address_councildis": "E",
    "status": "Pending",
    "rowid": "938590",
    "final_x": "3719855.88678",
    "final_y": "571966.791656",
    "longitude": "-89.94541082077224",
    "latitude": "30.06548806069961",
    "geocoded_column": {
      "latitude": "30.06548806069961",
      "longitude": "-89.94541082077224"
    }
  },
  {
    "service_request": "2022-938589",
    "request_type": "Trash/Recycling",
    "request_reason": "Missed Trash Pick-Up",
    "date_created": "2022-11-05T12:50:41.000",
    "date_modified": "2022-11-05T12:50:42.000",
    "request_status": "Pending",
    "responsible_agency": "Department of Sanitation",
    "final_address": "3325 Nashville Ave",
    "address_councildis": "A",
    "status": "Assigned to Contractor",
    "contractor": "Richards Disposal",
    "rowid": "938589",
    "final_x": "3668072.35354",
    "final_y": "527917.583871",
    "longitude": "-90.1105915217633",
    "latitude": "29.945991078591565",
    "geocoded_column": {
      "latitude": "29.945991078591565",
      "longitude": "-90.1105915217633"
    }
  },
  {
    "service_request": "2022-938588",
    "request_type": "Trash/Recycling",
    "request_reason": "Order Recycling Cart",
    "date_created": "2022-11-05T12:47:30.000",
    "date_modified": "2022-11-05T12:47:30.000",
    "request_status": "Pending",
    "responsible_agency": "Department of Sanitation",
    "final_address": "6712 Orleans Ave",
    "address_councildis": "A",
    "status": "Pending",
    "rowid": "938588",
    "final_x": "3671237.72161",
    "final_y": "552015.740246",
    "longitude": "-90.0997782526155",
    "latitude": "30.01215955701992",
    "geocoded_column": {
      "latitude": "30.01215955701992",
      "longitude": "-90.0997782526155"
    }
  },
  {
    "service_request": "2022-938587",
    "request_type": "Trash/Recycling",
    "request_reason": "Order Recycling Cart",
    "date_created": "2022-11-05T12:46:03.000",
    "date_modified": "2022-11-05T12:46:03.000",
    "request_status": "Pending",
    "responsible_agency": "Department of Sanitation",
    "final_address": "6841 Chase st ",
    "status": "Pending",
    "rowid": "938587",
    "longitude": "0.0",
    "latitude": "0.0",
    "geocoded_column": {
      "latitude": "0.0",
      "longitude": "0.0"
    }
  },
  {
    "service_request": "2022-938586",
    "request_type": "Trash/Recycling",
    "request_reason": "Missed Trash Pick-Up",
    "date_created": "2022-11-05T12:38:35.000",
    "date_modified": "2022-11-05T12:38:36.000",
    "request_status": "Pending",
    "responsible_agency": "Department of Sanitation",
    "final_address": "52 Neron Pl",
    "address_councildis": "A",
    "status": "Assigned to Contractor",
    "contractor": "Richards Disposal",
    "rowid": "938586",
    "final_x": "3665566.50144",
    "final_y": "530256.800001",
    "longitude": "-90.11842506987755",
    "latitude": "29.95249645493325",
    "geocoded_column": {
      "latitude": "29.95249645493325",
      "longitude": "-90.11842506987755"
    }
  },
  {
    "service_request": "2022-938585",
    "request_type": "Trash/Recycling",
    "request_reason": "Order Recycling Cart",
    "date_created": "2022-11-05T12:32:31.000",
    "date_modified": "2022-11-05T12:32:31.000",
    "request_status": "Pending",
    "responsible_agency": "Department of Sanitation",
    "final_address": "5014 Dauphine St",
    "address_councildis": "E",
    "status": "Pending",
    "rowid": "938585",
    "final_x": "3695792.30877",
    "final_y": "533066.561412",
    "longitude": "-90.02288473714553",
    "latitude": "29.95930649495059",
    "geocoded_column": {
      "latitude": "29.95930649495059",
      "longitude": "-90.02288473714553"
    }
  },
  {
    "service_request": "2022-938584",
    "request_type": "Trash/Recycling",
    "request_reason": "Order Recycling Cart",
    "date_created": "2022-11-05T12:32:04.000",
    "date_modified": "2022-11-05T12:32:04.000",
    "request_status": "Pending",
    "responsible_agency": "Department of Sanitation",
    "final_address": "6030 Wright Rd",
    "address_councildis": "E",
    "status": "Pending",
    "rowid": "938584",
    "final_x": "3713075.1388",
    "final_y": "562641.986656",
    "longitude": "-89.96719681651484",
    "latitude": "30.040072740870922",
    "geocoded_column": {
      "latitude": "30.040072740870922",
      "longitude": "-89.96719681651484"
    }
  },
  {
    "service_request": "2022-938583",
    "request_type": "Trash/Recycling",
    "request_reason": "Order Trash Cart",
    "date_created": "2022-11-05T12:31:21.000",
    "date_modified": "2022-11-05T12:31:21.000",
    "request_status": "Pending",
    "responsible_agency": "Department of Sanitation",
    "final_address": "1218 6th Street",
    "status": "Assigned to Contractor",
    "rowid": "938583",
    "longitude": "0.0",
    "latitude": "0.0",
    "geocoded_column": {
      "latitude": "0.0",
      "longitude": "0.0"
    }
  },
  {
    "service_request": "2022-938582",
    "request_type": "Trash/Recycling",
    "request_reason": "Order Recycling Cart",
    "date_created": "2022-11-05T12:30:47.000",
    "date_modified": "2022-11-05T12:30:47.000",
    "request_status": "Pending",
    "responsible_agency": "Department of Sanitation",
    "final_address": "111 Hathaway Pl",
    "address_councildis": "D",
    "status": "Pending",
    "rowid": "938582",
    "final_x": "3678127.14235",
    "final_y": "543858.777422",
    "longitude": "-90.07829384991818",
    "latitude": "29.989525065880162",
    "geocoded_column": {
      "latitude": "29.989525065880162",
      "longitude": "-90.07829384991818"
    }
  },
  {
    "service_request": "2022-938581",
    "request_type": "Mayor's Request",
    "request_reason": "Requests to the Mayor",
    "date_created": "2022-11-05T12:29:55.000",
    "date_modified": "2022-11-05T12:29:55.000",
    "request_status": "Pending",
    "responsible_agency": "Executive Office of the Mayor",
    "status": "Pending",
    "rowid": "938581",
    "longitude": "0.0",
    "latitude": "0.0",
    "geocoded_column": {
      "latitude": "0.0",
      "longitude": "0.0"
    }
  },
  {
    "service_request": "2022-938580",
    "request_type": "Trash/Recycling",
    "request_reason": "Order Recycling Cart",
    "date_created": "2022-11-05T12:29:19.000",
    "date_modified": "2022-11-05T12:29:19.000",
    "request_status": "Pending",
    "responsible_agency": "Department of Sanitation",
    "final_address": "112 Alden Pl",
    "address_councildis": "D",
    "status": "Pending",
    "rowid": "938580",
    "final_x": "3678768.658",
    "final_y": "544002.493902",
    "longitude": "-90.07626250299234",
    "latitude": "29.98990089976727",
    "geocoded_column": {
      "latitude": "29.98990089976727",
      "longitude": "-90.07626250299234"
    }
  },
  {
    "service_request": "2022-938579",
    "request_type": "Trash/Recycling",
    "request_reason": "Order Recycling Cart",
    "date_created": "2022-11-05T12:23:46.000",
    "date_modified": "2022-11-05T12:23:46.000",
    "request_status": "Pending",
    "responsible_agency": "Department of Sanitation",
    "final_address": "2259 Lafreniere St",
    "address_councildis": "D",
    "status": "Pending",
    "rowid": "938579",
    "final_x": "3684823.74351",
    "final_y": "545659.145744",
    "longitude": "-90.0570778771862",
    "latitude": "29.99427205667812",
    "geocoded_column": {
      "latitude": "29.99427205667812",
      "longitude": "-90.0570778771862"
    }
  },
  {
    "service_request": "2022-938578",
    "request_type": "Trash/Recycling",
    "request_reason": "Order Recycling Cart",
    "date_created": "2022-11-05T12:22:15.000",
    "date_modified": "2022-11-05T12:22:15.000",
    "request_status": "Pending",
    "responsible_agency": "Department of Sanitation",
    "final_address": "3918 N Prieur St",
    "address_councildis": "D",
    "status": "Pending",
    "rowid": "938578",
    "final_x": "3692377.54934",
    "final_y": "538289.451273",
    "longitude": "-90.03348059183104",
    "latitude": "29.97377454131203",
    "geocoded_column": {
      "latitude": "29.97377454131203",
      "longitude": "-90.03348059183104"
    }
  },
  {
    "service_request": "2022-938577",
    "request_type": "Trash/Recycling",
    "request_reason": "MIssed Recycling Pick-Up",
    "date_created": "2022-11-05T12:21:53.000",
    "date_modified": "2022-11-05T12:21:54.000",
    "request_status": "Pending",
    "responsible_agency": "Department of Sanitation",
    "final_address": "1512 Audubon St",
    "address_councildis": "A",
    "status": "Assigned to Contractor",
    "contractor": "Richards Disposal",
    "rowid": "938577",
    "final_x": "3665060.85274",
    "final_y": "527354.346751",
    "longitude": "-90.12011872023237",
    "latitude": "29.9445303779126",
    "geocoded_column": {
      "latitude": "29.9445303779126",
      "longitude": "-90.12011872023237"
    }
  },
  {
    "service_request": "2022-938576",
    "request_type": "Trash/Recycling",
    "request_reason": "Order Recycling Cart",
    "date_created": "2022-11-05T12:16:40.000",
    "date_modified": "2022-11-05T12:16:40.000",
    "request_status": "Pending",
    "responsible_agency": "Department of Sanitation",
    "final_address": "2422 DAbadie St",
    "address_councildis": "D",
    "status": "Pending",
    "rowid": "938576",
    "final_x": "3680225.10331",
    "final_y": "540175.326667",
    "longitude": "-90.07179508477822",
    "latitude": "29.97933351254046",
    "geocoded_column": {
      "latitude": "29.97933351254046",
      "longitude": "-90.07179508477822"
    }
  },
  {
    "service_request": "2022-938575",
    "request_type": "Trash/Recycling",
    "request_reason": "Request a Large Item Pick Up",
    "date_created": "2022-11-05T12:15:20.000",
    "date_modified": "2022-11-05T12:15:21.000",
    "request_status": "Pending",
    "responsible_agency": "Department of Sanitation",
    "final_address": "6029 Warrington Dr, New Orleans, Louisiana, 70122",
    "address_councildis": "D",
    "status": "Assigned to Contractor",
    "contractor": "Metro Disposal",
    "rowid": "938575",
    "final_x": "3680792.46959",
    "final_y": "554933.010072",
    "longitude": "-90.06948901183297",
    "latitude": "30.019894696149127",
    "geocoded_column": {
      "latitude": "30.019894696149127",
      "longitude": "-90.06948901183297"
    }
  },
  {
    "service_request": "2022-938574",
    "request_type": "Trash/Recycling",
    "request_reason": "Order Recycling Cart",
    "date_created": "2022-11-05T12:14:50.000",
    "date_modified": "2022-11-05T12:14:50.000",
    "request_status": "Pending",
    "responsible_agency": "Department of Sanitation",
    "final_address": "5010 N Dorgenois St",
    "address_councildis": "E",
    "status": "Pending",
    "rowid": "938574",
    "final_x": "3697537.89872",
    "final_y": "539442.106378",
    "longitude": "-90.01714135878656",
    "latitude": "29.976781955012342",
    "geocoded_column": {
      "latitude": "29.976781955012342",
      "longitude": "-90.01714135878656"
    }
  },
  {
    "service_request": "2022-938573",
    "request_type": "Trash/Recycling",
    "request_reason": "Order Trash Cart",
    "date_created": "2022-11-05T12:10:42.000",
    "date_modified": "2022-11-05T12:10:43.000",
    "request_status": "Pending",
    "responsible_agency": "Department of Sanitation",
    "final_address": "4443 Arts St",
    "address_councildis": "D",
    "status": "Assigned to Contractor",
    "contractor": "Metro Disposal",
    "rowid": "938573",
    "final_x": "3686074.66492",
    "final_y": "549250.176979",
    "longitude": "-90.05299964038981",
    "latitude": "30.00410772806479",
    "geocoded_column": {
      "latitude": "30.00410772806479",
      "longitude": "-90.05299964038981"
    }
  },
  {
    "service_request": "2022-938572",
    "request_type": "Abandoned Vehicles",
    "request_reason": "Abandoned/Junk Vehicles",
    "date_created": "2022-11-05T12:10:14.000",
    "date_modified": "2022-11-05T12:10:14.000",
    "request_status": "Pending",
    "responsible_agency": "Department of Public Works",
    "final_address": "2930 Banks St",
    "address_councildis": "B",
    "status": "Pending",
    "rowid": "938572",
    "final_x": "3673634.63054",
    "final_y": "534802.977478",
    "longitude": "-90.09279413538277",
    "latitude": "29.964759240743557",
    "geocoded_column": {
      "latitude": "29.964759240743557",
      "longitude": "-90.09279413538277"
    }
  },
  {
    "service_request": "2022-938571",
    "request_type": "Trash/Recycling",
    "request_reason": "Order Recycling Cart",
    "date_created": "2022-11-05T12:09:17.000",
    "date_modified": "2022-11-05T12:09:17.000",
    "request_status": "Pending",
    "responsible_agency": "Department of Sanitation",
    "final_address": "1604 Charlton Dr",
    "address_councildis": "D",
    "status": "Pending",
    "rowid": "938571",
    "final_x": "3679488.19355",
    "final_y": "550631.00258",
    "longitude": "-90.07375952667071",
    "latitude": "30.008105221429446",
    "geocoded_column": {
      "latitude": "30.008105221429446",
      "longitude": "-90.07375952667071"
    }
  },
  {
    "service_request": "2022-938568",
    "request_type": "Trash/Recycling",
    "request_reason": "Order Recycling Cart",
    "date_created": "2022-11-05T12:07:57.000",
    "date_modified": "2022-11-05T12:07:57.000",
    "request_status": "Pending",
    "responsible_agency": "Department of Sanitation",
    "final_address": "1613 King Dr",
    "address_councildis": "D",
    "status": "Pending",
    "rowid": "938568",
    "final_x": "3679647.1188",
    "final_y": "550098.045204",
    "longitude": "-90.07327594946632",
    "latitude": "30.006634975159326",
    "geocoded_column": {
      "latitude": "30.006634975159326",
      "longitude": "-90.07327594946632"
    }
  },
  {
    "service_request": "2022-938567",
    "request_type": "Trash/Recycling",
    "request_reason": "Order Recycling Cart",
    "date_created": "2022-11-05T12:06:26.000",
    "date_modified": "2022-11-05T12:06:26.000",
    "request_status": "Pending",
    "responsible_agency": "Department of Sanitation",
    "final_address": "4443 Arts St",
    "address_councildis": "D",
    "status": "Pending",
    "rowid": "938567",
    "final_x": "3686074.66492",
    "final_y": "549250.176979",
    "longitude": "-90.05299964038981",
    "latitude": "30.00410772806479",
    "geocoded_column": {
      "latitude": "30.00410772806479",
      "longitude": "-90.05299964038981"
    }
  },
  {
    "service_request": "2022-938566",
    "request_type": "Trash/Recycling",
    "request_reason": "Order Recycling Cart",
    "date_created": "2022-11-05T11:58:19.000",
    "date_modified": "2022-11-05T11:58:19.000",
    "request_status": "Pending",
    "responsible_agency": "Department of Sanitation",
    "final_address": "2707 St Anthony St",
    "address_councildis": "D",
    "status": "Pending",
    "rowid": "938566",
    "final_x": "3683166.98152",
    "final_y": "542158.367053",
    "longitude": "-90.0624340165557",
    "latitude": "29.984696790529615",
    "geocoded_column": {
      "latitude": "29.984696790529615",
      "longitude": "-90.0624340165557"
    }
  },
  {
    "service_request": "2022-938565",
    "request_type": "Trash/Recycling",
    "request_reason": "Order Recycling Cart",
    "date_created": "2022-11-05T11:57:35.000",
    "date_modified": "2022-11-05T11:57:35.000",
    "request_status": "Pending",
    "responsible_agency": "Department of Sanitation",
    "final_address": "6657 Avenue A",
    "address_councildis": "A",
    "status": "Pending",
    "rowid": "938565",
    "final_x": "3666138.87265",
    "final_y": "552520.22575",
    "longitude": "-90.11587085609688",
    "latitude": "30.013696662608773",
    "geocoded_column": {
      "latitude": "30.013696662608773",
      "longitude": "-90.11587085609688"
    }
  },
  {
    "service_request": "2022-938564",
    "request_type": "Trash/Recycling",
    "request_reason": "Order Trash Cart",
    "date_created": "2022-11-05T11:56:10.000",
    "date_modified": "2022-11-05T11:56:11.000",
    "request_status": "Pending",
    "responsible_agency": "Department of Sanitation",
    "final_address": "2707 St Anthony St",
    "address_councildis": "D",
    "status": "Assigned to Contractor",
    "contractor": "Metro Disposal",
    "rowid": "938564",
    "final_x": "3683166.98152",
    "final_y": "542158.367053",
    "longitude": "-90.0624340165557",
    "latitude": "29.984696790529615",
    "geocoded_column": {
      "latitude": "29.984696790529615",
      "longitude": "-90.0624340165557"
    }
  },