[
  {
    "service_request": "2023-991019",
    "request_type": "Trash/Recycling",
    "request_reason": "Illegal Dumping",
    "date_created": "2023-04-14T01:28:52.000",
    "date_modified": "2023-04-14T01:28:52.000",
    "request_status": "Pending",
    "responsible_agency": "Department of Sanitation",
    "final_address": "TOURO ST & N GALVEZ ST",
    "address_councildis": "D",
    "status": "Pending",
    "rowid": "991019",
    "final_x": "3683936.8",
    "final_y": "539927.48",
    "longitude": "-90.0600807982313",
    "latitude": "29.978539135109536",
    "geocoded_column": {
      "latitude": "29.978539135109536",
      "longitude": "-90.0600807982313"
    }
  },
  {
    "service_request": "2023-991018",
    "request_type": "Traffic Signals/Signs/Striping/Streetlights",
    "request_reason": "Street Light Outage/Malfunction",
    "date_created": "2023-04-14T01:25:48.000",
    "date_modified": "2023-04-14T01:25:49.000",
    "request_status": "Pending",
    "responsible_agency": "Department of Public Works",
    "final_address": "N JOHNSON ST & TOURO ST",
    "address_councildis": "D",
    "status": "Assigned to Contractor",
    "contractor": "Legacy Professional Services",
    "rowid": "991018",
    "final_x": "3683967.4",
    "final_y": "539555.68",
    "longitude": "-90.0599972016873",
    "latitude": "29.977515880252056",
    "geocoded_column": {
      "latitude": "29.977515880252056",
      "longitude": "-90.0599972016873"
    }
  },
  {
    "service_request": "2023-991017",
    "request_type": "Roads/Drainage",
    "request_reason": "Street Subsidence (Sinking)",
    "date_created": "2023-04-13T23:32:58.000",
    "date_modified": "2023-04-13T23:32:58.000",
    "request_status": "Pending",
    "responsible_agency": "Department of Public Works",
    "final_address": "1950 Soniat St",
    "address_councildis": "B",
    "status": "Pending",
    "rowid": "991017",
    "final_x": "3668323.64078",
    "final_y": "522693.923066",
    "longitude": "-90.10997420679513",
    "latitude": "29.931620317540272",
    "geocoded_column": {
      "latitude": "29.931620317540272",
      "longitude": "-90.10997420679513"
    }
  },
  {
    "service_request": "2023-991016",
    "request_type": "Trash/Recycling",
    "request_reason": "Start Trash Service",
    "date_created": "2023-04-13T23:32:52.000",
    "date_modified": "2023-04-13T23:32:52.000",
    "request_status": "Pending",
    "responsible_agency": "Department of Sanitation",
    "final_address": "7110 Colapissa St",
    "address_councildis": "B",
    "status": "Assigned to Contractor",
    "contractor": "Richards Disposal",
    "rowid": "991016",
    "final_x": "3668031.64935",
    "final_y": "531993.455875",
    "longitude": "-90.11058271210628",
    "latitude": "29.957199590040908",
    "geocoded_column": {
      "latitude": "29.957199590040908",
      "longitude": "-90.11058271210628"
    }
  },
  {
    "service_request": "2023-991014",
    "request_type": "Trash/Recycling",
    "request_reason": "Missed Trash Pick-Up",
    "date_created": "2023-04-13T22:50:20.000",
    "date_modified": "2023-04-13T22:50:20.000",
    "request_status": "Pending",
    "responsible_agency": "Department of Sanitation",
    "final_address": "6930 Martin Dr",
    "address_councildis": "E",
    "status": "Assigned to Contractor",
    "contractor": "Waste Pro",
    "rowid": "991014",
    "final_x": "3699030.9153",
    "final_y": "557926.290267",
    "longitude": "-90.01175264948685",
    "latitude": "30.027559326171158",
    "geocoded_column": {
      "latitude": "30.027559326171158",
      "longitude": "-90.01175264948685"
    }
  },
  {
    "service_request": "2023-991013",
    "request_type": "Trash/Recycling",
    "request_reason": "Illegal Dumping",
    "date_created": "2023-04-13T22:48:23.000",
    "date_modified": "2023-04-13T22:48:23.000",
    "request_status": "Pending",
    "responsible_agency": "Department of Sanitation",
    "final_address": "6930 Martin Dr",
    "address_councildis": "E",
    "status": "Pending",
    "rowid": "991013",
    "final_x": "3699030.9153",
    "final_y": "557926.290267",
    "longitude": "-90.01175264948685",
    "latitude": "30.027559326171158",
    "geocoded_column": {
      "latitude": "30.027559326171158",
      "longitude": "-90.01175264948685"
    }
  },
  {
    "service_request": "2023-991012",
    "request_type": "Health Related Request",
    "request_reason": "Noise Ordinance Complaint",
    "date_created": "2023-04-13T21:57:53.000",
    "date_modified": "2023-04-13T21:57:53.000",
    "request_status": "Pending",
    "responsible_agency": "Health Department",
    "final_address": "7910 Earhart Blvd",
    "address_councildis": "B",
    "status": "Pending",
    "rowid": "991012",
    "final_x": "3667005.87399",
    "final_y": "533034.124676",
    "longitude": "-90.11378683341556",
    "latitude": "29.960091146202156",
    "geocoded_column": {
      "latitude": "29.960091146202156",
      "longitude": "-90.11378683341556"
    }
  },
  {
    "service_request": "2023-991011",
    "request_type": "Traffic Signals/Signs/Striping/Streetlights",
    "request_reason": "Street Light Outage/Malfunction",
    "date_created": "2023-04-13T20:53:54.000",
    "date_modified": "2023-04-13T20:53:55.000",
    "request_status": "Pending",
    "responsible_agency": "Department of Public Works",
    "final_address": "5701 Canal Blvd",
    "address_councildis": "A",
    "status": "Assigned to Contractor",
    "contractor": "Legacy Professional Services",
    "rowid": "991011",
    "final_x": "3668431.73582",
    "final_y": "545460.056208",
    "longitude": "-90.1088649433518",
    "latitude": "29.994216466849256",
    "geocoded_column": {
      "latitude": "29.994216466849256",
      "longitude": "-90.1088649433518"
    }
  },
  {
    "service_request": "2023-991010",
    "request_type": "Trash/Recycling",
    "request_reason": "MIssed Recycling Pick-Up",
    "date_created": "2023-04-13T20:15:18.000",
    "date_modified": "2023-04-13T20:15:19.000",
    "request_status": "Pending",
    "responsible_agency": "Department of Sanitation",
    "final_address": "4435 Francesco Rd",
    "address_councildis": "E",
    "status": "Assigned to Contractor",
    "contractor": "Waste Pro",
    "rowid": "991010",
    "final_x": "3762110.48323",
    "final_y": "572911.255401",
    "longitude": "-89.81180283302427",
    "latitude": "30.066609892641107",
    "geocoded_column": {
      "latitude": "30.066609892641107",
      "longitude": "-89.81180283302427"
    }
  },
  {
    "service_request": "2023-991009",
    "request_type": "Trash/Recycling",
    "request_reason": "Replace Trash Cart",
    "date_created": "2023-04-13T19:53:47.000",
    "date_modified": "2023-04-13T19:53:48.000",
    "request_status": "Pending",
    "responsible_agency": "Department of Sanitation",
    "final_address": "10926 Dreux ave new orleans la 70127",
    "address_councildis": "E",
    "status": "Assigned to Contractor",
    "contractor": "Waste Pro",
    "rowid": "991009",
    "final_x": "3715920.59813",
    "final_y": "556140.755802",
    "longitude": "-89.95845089171489",
    "latitude": "30.0221033716629",
    "geocoded_column": {
      "latitude": "30.0221033716629",
      "longitude": "-89.95845089171489"
    }
  },
  {
    "service_request": "2023-991008",
    "request_type": "Trash/Recycling",
    "request_reason": "Replace Trash Cart",
    "date_created": "2023-04-13T19:50:57.000",
    "date_modified": "2023-04-13T19:50:58.000",
    "request_status": "Pending",
    "responsible_agency": "Department of Sanitation",
    "final_address": "10926 Dreux Ave",
    "address_councildis": "E",
    "status": "Assigned to Contractor",
    "contractor": "Waste Pro",
    "rowid": "991008",
    "final_x": "3715920.59813",
    "final_y": "556140.755802",
    "longitude": "-89.95845089171489",
    "latitude": "30.0221033716629",
    "geocoded_column": {
      "latitude": "30.0221033716629",
      "longitude": "-89.95845089171489"
    }
  },
  {
    "service_request": "2023-991007",
    "request_type": "Roads/Drainage",
    "request_reason": "Catch Basin - Broken/Damage",
    "date_created": "2023-04-13T19:43:58.000",
    "date_modified": "2023-04-13T19:43:58.000",
    "request_status": "Pending",
    "responsible_agency": "Department of Public Works",
    "final_address": "3610 Delachaise St",
    "address_councildis": "B",
    "status": "Pending",
    "rowid": "991007",
    "final_x": "3671228.86625",
    "final_y": "528095.624063",
    "longitude": "-90.10061926912535",
    "latitude": "29.946387634760505",
    "geocoded_column": {
      "latitude": "29.946387634760505",
      "longitude": "-90.10061926912535"
    }
  },
  {
    "service_request": "2023-991006",
    "request_type": "Trash/Recycling",
    "request_reason": "Order Recycling Cart",
    "date_created": "2023-04-13T19:20:37.000",
    "date_modified": "2023-04-13T19:20:38.000",
    "request_status": "Pending",
    "responsible_agency": "Department of Sanitation",
    "final_address": "3120 Trafalgar St",
    "address_councildis": "A",
    "status": "Pending",
    "rowid": "991006",
    "final_x": "3678587.51496",
    "final_y": "543125.899597",
    "longitude": "-90.07686504741801",
    "latitude": "29.9874960351542",
    "geocoded_column": {
      "latitude": "29.9874960351542",
      "longitude": "-90.07686504741801"
    }
  },
  {
    "service_request": "2023-991005",
    "request_type": "Trash/Recycling",
    "request_reason": "Replace Trash Cart",
    "date_created": "2023-04-13T19:05:32.000",
    "date_modified": "2023-04-13T19:05:33.000",
    "request_status": "Pending",
    "responsible_agency": "Department of Sanitation",
    "final_address": "8003 Nelson St",
    "address_councildis": "A",
    "status": "Assigned to Contractor",
    "contractor": "Richards Disposal",
    "rowid": "991005",
    "final_x": "3665449.86208",
    "final_y": "531597.988675",
    "longitude": "-90.11874847601904",
    "latitude": "29.956187687256232",
    "geocoded_column": {
      "latitude": "29.956187687256232",
      "longitude": "-90.11874847601904"
    }
  },
  {
    "service_request": "2023-991004",
    "request_type": "Traffic Signals/Signs/Striping/Streetlights",
    "request_reason": "Disabled Parking Sign ",
    "date_created": "2023-04-13T19:03:28.000",
    "date_modified": "2023-04-13T19:03:28.000",
    "request_status": "Pending",
    "responsible_agency": "Department of Public Works",
    "final_address": "2139 Valence St",
    "address_councildis": "B",
    "status": "Pending",
    "rowid": "991004",
    "final_x": "3669586.68052",
    "final_y": "522859.424443",
    "longitude": "-90.10598132822174",
    "latitude": "29.932038253862384",
    "geocoded_column": {
      "latitude": "29.932038253862384",
      "longitude": "-90.10598132822174"
    }
  },
  {
    "service_request": "2023-991002",
    "request_type": "Trash/Recycling",
    "request_reason": "Replace Trash Cart",
    "date_created": "2023-04-13T18:56:49.000",
    "date_modified": "2023-04-13T18:56:50.000",
    "request_status": "Pending",
    "responsible_agency": "Department of Sanitation",
    "final_address": "2137 Valence St",
    "address_councildis": "B",
    "status": "Assigned to Contractor",
    "contractor": "Richards Disposal",
    "rowid": "991002",
    "final_x": "3669587.0306",
    "final_y": "522847.870907",
    "longitude": "-90.10598061373169",
    "latitude": "29.932006475030498",
    "geocoded_column": {
      "latitude": "29.932006475030498",
      "longitude": "-90.10598061373169"
    }
  },
  {
    "service_request": "2023-991001",
    "request_type": "Trash/Recycling",
    "request_reason": "MIssed Recycling Pick-Up",
    "date_created": "2023-04-13T18:56:48.000",
    "date_modified": "2023-04-13T18:56:49.000",
    "request_status": "Pending",
    "responsible_agency": "Department of Sanitation",
    "final_address": "6316 Story St, New Orleans, Louisiana, 70118",
    "address_councildis": "A",
    "status": "Assigned to Contractor",
    "contractor": "Richards Disposal",
    "rowid": "991001",
    "final_x": "3666276.49396",
    "final_y": "526644.957054",
    "longitude": "-90.11630435900773",
    "latitude": "29.942544337178976",
    "geocoded_column": {
      "latitude": "29.942544337178976",
      "longitude": "-90.11630435900773"
    }
  },
  {
    "service_request": "2023-991000",
    "request_type": "Trash/Recycling",
    "request_reason": "Replace Trash Cart",
    "date_created": "2023-04-13T18:56:46.000",
    "date_modified": "2023-04-13T18:56:47.000",
    "request_status": "Pending",
    "responsible_agency": "Department of Sanitation",
    "final_address": "2137 Valence St",
    "address_councildis": "B",
    "status": "Assigned to Contractor",
    "contractor": "Richards Disposal",
    "rowid": "991000",
    "final_x": "3669587.0306",
    "final_y": "522847.870907",
    "longitude": "-90.10598061373169",
    "latitude": "29.932006475030498",
    "geocoded_column": {
      "latitude": "29.932006475030498",
      "longitude": "-90.10598061373169"
    }
  },
  {
    "service_request": "2023-990999",
    "request_type": "Abandoned Vehicles",
    "request_reason": "Vehicle Blocking Your Driveway",
    "date_created": "2023-04-13T18:43:14.000",
    "date_modified": "2023-04-13T18:43:14.000",
    "request_status": "Pending",
    "responsible_agency": "Department of Public Works",
    "final_address": "936 Conti St",
    "address_councildis": "C",
    "status": "Pending",
    "rowid": "990999",
    "final_x": "3681028.83477",
    "final_y": "532136.173699",
    "longitude": "-90.06953663139126",
    "latitude": "29.957204248870585",
    "geocoded_column": {
      "latitude": "29.957204248870585",
      "longitude": "-90.06953663139126"
    }
  },
  {
    "service_request": "2023-990998",
    "request_type": "Traffic Signals/Signs/Striping/Streetlights",
    "request_reason": "Request for Stop Sign",
    "date_created": "2023-04-13T18:35:59.000",
    "date_modified": "2023-04-13T18:35:59.000",
    "request_status": "Pending",
    "responsible_agency": "Department of Public Works",
    "final_address": "CHARTRES ST & POLAND AVE & 3RD ST",
    "address_councildis": "C",
    "status": "Pending",
    "rowid": "990998",
    "final_x": "3692566.5",
    "final_y": "533159.18",
    "longitude": "-90.03306770791528",
    "latitude": "29.959662210268615",
    "geocoded_column": {
      "latitude": "29.959662210268615",
      "longitude": "-90.03306770791528"
    }
  },
  {
    "service_request": "2023-990996",
    "request_type": "Trash/Recycling",
    "request_reason": "Illegal Dumping",
    "date_created": "2023-04-13T18:11:41.000",
    "date_modified": "2023-04-13T18:17:49.000",
    "request_status": "Pending",
    "responsible_agency": "Department of Code Enforcement",
    "final_address": "2200 BLK Clara St",
    "address_councildis": "B",
    "status": "Pending",
    "rowid": "990996",
    "final_x": "3674924.33548",
    "final_y": "526969.821832",
    "longitude": "-90.08898995907938",
    "latitude": "29.94318221519209",
    "geocoded_column": {
      "latitude": "29.94318221519209",
      "longitude": "-90.08898995907938"
    }
  },
  {
    "service_request": "2023-990995",
    "request_type": "Traffic Signals/Signs/Striping/Streetlights",
    "request_reason": "Traffic Signal Malfunctioning/Damaged",
    "date_created": "2023-04-13T18:06:06.000",
    "date_modified": "2023-04-13T18:06:06.000",
    "request_status": "Pending",
    "responsible_agency": "Department of Public Works",
    "final_address": "701 Poydras St",
    "address_councildis": "B",
    "status": "Pending",
    "rowid": "990995",
    "final_x": "3680537.7684",
    "final_y": "529481.680385",
    "longitude": "-90.07117959742759",
    "latitude": "29.94992017179336",
    "geocoded_column": {
      "latitude": "29.94992017179336",
      "longitude": "-90.07117959742759"
    }
  },
  {
    "service_request": "2023-990994",
    "request_type": "Traffic Signals/Signs/Striping/Streetlights",
    "request_reason": "Traffic Signal Malfunctioning/Damaged",
    "date_created": "2023-04-13T18:03:52.000",
    "date_modified": "2023-04-13T18:03:53.000",
    "request_status": "Pending",
    "responsible_agency": "Department of Public Works",
    "final_address": "ST CLAUDE AVE & DESIRE ST",
    "address_councildis": "C",
    "status": "Pending",
    "rowid": "990994",
    "final_x": "3690200.7",
    "final_y": "535781.48",
    "longitude": "-90.04044490620291",
    "latitude": "29.966946225171228",
    "geocoded_column": {
      "latitude": "29.966946225171228",
      "longitude": "-90.04044490620291"
    }
  },
  {
    "service_request": "2023-990993",
    "request_type": "Trash/Recycling",
    "request_reason": "Dead Animal Pick Up",
    "date_created": "2023-04-13T17:57:57.000",
    "date_modified": "2023-04-13T17:57:58.000",
    "request_status": "Pending",
    "responsible_agency": "Department of Sanitation",
    "final_address": "N LOPEZ ST & BIENVILLE ST",
    "address_councildis": "B",
    "status": "Assigned to Contractor",
    "contractor": "Richards Disposal",
    "rowid": "990993",
    "final_x": "3674354.81",
    "final_y": "536869.8",
    "longitude": "-90.09044905689619",
    "latitude": "29.97042084567411",
    "geocoded_column": {
      "latitude": "29.97042084567411",
      "longitude": "-90.09044905689619"
    }
  },
  {
    "service_request": "2023-990991",
    "request_type": "Trash/Recycling",
    "request_reason": "Replace Recycling Cart",
    "date_created": "2023-04-13T17:42:26.000",
    "date_modified": "2023-04-13T17:42:26.000",
    "request_status": "Pending",
    "responsible_agency": "Department of Sanitation",
    "final_address": "2723 Robert St",
    "address_councildis": "B",
    "status": "Pending",
    "rowid": "990991",
    "final_x": "3668950.64903",
    "final_y": "525509.930813",
    "longitude": "-90.10789973472869",
    "latitude": "29.939345012263786",
    "geocoded_column": {
      "latitude": "29.939345012263786",
      "longitude": "-90.10789973472869"
    }
  },
  {
    "service_request": "2023-990990",
    "request_type": "Trash/Recycling",
    "request_reason": "Request a Large Item Pick Up",
    "date_created": "2023-04-13T17:40:38.000",
    "date_modified": "2023-04-13T17:41:47.000",
    "request_status": "Pending",
    "responsible_agency": "Department of Sanitation",
    "final_address": "11800 Morrison Rd",
    "address_councildis": "E",
    "status": "Assigned to Contractor",
    "contractor": "Waste Pro",
    "rowid": "990990",
    "final_x": "3713413.32319",
    "final_y": "566427.045923",
    "longitude": "-89.96598531409377",
    "latitude": "30.050469031178366",
    "geocoded_column": {
      "latitude": "30.050469031178366",
      "longitude": "-89.96598531409377"
    }
  },
  {
    "service_request": "2023-990989",
    "request_type": "Parks & Parkways",
    "request_reason": "Request Grass Cutting Service (City Owned Property)",
    "date_created": "2023-04-13T17:30:12.000",
    "date_modified": "2023-04-13T17:30:12.000",
    "request_status": "Pending",
    "responsible_agency": "Department of Parks & Parkway",
    "final_address": "5211 Kim Dr",
    "address_councildis": "E",
    "status": "Pending",
    "rowid": "990989",
    "final_x": "3727720.14515",
    "final_y": "564274.958241",
    "longitude": "-89.92085104000682",
    "latitude": "30.0440745007233",
    "geocoded_column": {
      "latitude": "30.0440745007233",
      "longitude": "-89.92085104000682"
    }
  },
  {
    "service_request": "2023-990988",
    "request_type": "Property Maintenance",
    "request_reason": "Property Maintenance",
    "date_created": "2023-04-13T17:29:14.000",
    "date_modified": "2023-04-13T17:29:14.000",
    "request_status": "Pending",
    "responsible_agency": "Department of Code Enforcement",
    "final_address": "8331 Aberdeen Rd",
    "address_councildis": "E",
    "status": "Pending",
    "rowid": "990988",
    "final_x": "3703309.70596",
    "final_y": "561668.756511",
    "longitude": "-89.99809430181408",
    "latitude": "30.037713259887656",
    "geocoded_column": {
      "latitude": "30.037713259887656",
      "longitude": "-89.99809430181408"
    }
  },
  {
    "service_request": "2023-990987",
    "request_type": "Trash/Recycling",
    "request_reason": "MIssed Recycling Pick-Up",
    "date_created": "2023-04-13T17:16:57.000",
    "date_modified": "2023-04-13T17:16:58.000",
    "request_status": "Pending",
    "responsible_agency": "Department of Sanitation",
    "final_address": "6000 BLK Curran Rd",
    "address_councildis": "E",
    "status": "Assigned to Contractor",
    "contractor": "Waste Pro",
    "rowid": "990987",
    "final_x": "3695249.59601",
    "final_y": "558851.70295",
    "longitude": "-90.02366784007314",
    "latitude": "30.030223234836033",
    "geocoded_column": {
      "latitude": "30.030223234836033",
      "longitude": "-90.02366784007314"
    }
  },
  {
    "service_request": "2023-990986",
    "request_type": "Trash/Recycling",
    "request_reason": "Request a Large Item Pick Up",
    "date_created": "2023-04-13T17:07:35.000",
    "date_modified": "2023-04-13T17:07:35.000",
    "request_status": "Pending",
    "responsible_agency": "Department of Sanitation",
    "final_address": "926 N Roman St",
    "address_councildis": "D",
    "status": "Assigned to Contractor",
    "contractor": "Richards Disposal",
    "rowid": "990986",
    "final_x": "3679795.9501",
    "final_y": "535784.712583",
    "longitude": "-90.0733030121093",
    "latitude": "29.967273821657752",
    "geocoded_column": {
      "latitude": "29.967273821657752",
      "longitude": "-90.0733030121093"
    }
  },
  {
    "service_request": "2023-990985",
    "request_type": "Roads/Drainage",
    "request_reason": "Accessibility Ramps, Curbs and Sidewalk Repair",
    "date_created": "2023-04-13T17:03:17.000",
    "date_modified": "2023-04-13T17:03:17.000",
    "request_status": "Pending",
    "responsible_agency": "Department of Public Works",
    "final_address": "1333 Coliseum St",
    "address_councildis": "B",
    "status": "Pending",
    "rowid": "990985",
    "final_x": "3679981.79944",
    "final_y": "525096.268989",
    "longitude": "-90.07308734169115",
    "latitude": "29.937878580071118",
    "geocoded_column": {
      "latitude": "29.937878580071118",
      "longitude": "-90.07308734169115"
    }
  },
  {
    "service_request": "2023-990984",
    "request_type": "Roads/Drainage",
    "request_reason": "Pothole",
    "date_created": "2023-04-13T17:00:26.000",
    "date_modified": "2023-04-13T17:00:27.000",
    "request_status": "Pending",
    "responsible_agency": "Department of Public Works",
    "final_address": "TOLEDANO ST & S DORGENOIS ST",
    "address_councildis": "B",
    "status": "Pending",
    "rowid": "990984",
    "final_x": "3671412.8",
    "final_y": "529135.98",
    "longitude": "-90.10000316844427",
    "latitude": "29.949242830231714",
    "geocoded_column": {
      "latitude": "29.949242830231714",
      "longitude": "-90.10000316844427"
    }
  },
  {
    "service_request": "2023-990983",
    "request_type": "Roads/Drainage",
    "request_reason": "Damaged Sidewalk",
    "date_created": "2023-04-13T16:55:05.000",
    "date_modified": "2023-04-13T16:55:05.000",
    "request_status": "Pending",
    "responsible_agency": "Department of Public Works",
    "final_address": "1238 Monroe St",
    "address_councildis": "A",
    "status": "Pending",
    "rowid": "990983",
    "final_x": "3660569.32147",
    "final_y": "530064.605121",
    "longitude": "-90.13421032832385",
    "latitude": "29.95211272288073",
    "geocoded_column": {
      "latitude": "29.95211272288073",
      "longitude": "-90.13421032832385"
    }
  },
  {
    "service_request": "2023-990982",
    "request_type": "Trash/Recycling",
    "request_reason": "Request a Large Item Pick Up",
    "date_created": "2023-04-13T16:49:55.000",
    "date_modified": "2023-04-13T16:49:55.000",
    "request_status": "Pending",
    "responsible_agency": "Department of Sanitation",
    "final_address": "3018 N Rocheblave St",
    "address_councildis": "D",
    "status": "Assigned to Contractor",
    "contractor": "IV Waste",
    "rowid": "990982",
    "final_x": "3689803.42928",
    "final_y": "540950.736587",
    "longitude": "-90.04151544182487",
    "latitude": "29.981172173549915",
    "geocoded_column": {
      "latitude": "29.981172173549915",
      "longitude": "-90.04151544182487"
    }
  },
  {
    "service_request": "2023-990981",
    "request_type": "Trash/Recycling",
    "request_reason": "Order Recycling Cart",
    "date_created": "2023-04-13T16:47:10.000",
    "date_modified": "2023-04-13T16:47:10.000",
    "request_status": "Pending",
    "responsible_agency": "Department of Sanitation",
    "final_address": "3824 Coliseum St",
    "address_councildis": "B",
    "status": "Pending",
    "rowid": "990981",
    "final_x": "3672932.8548",
    "final_y": "519965.294584",
    "longitude": "-90.09551647642283",
    "latitude": "29.923981349751923",
    "geocoded_column": {
      "latitude": "29.923981349751923",
      "longitude": "-90.09551647642283"
    }
  },
  {
    "service_request": "2023-990980",
    "request_type": "Trash/Recycling",
    "request_reason": "Repair Trash Cart",
    "date_created": "2023-04-13T16:45:20.000",
    "date_modified": "2023-04-13T16:45:20.000",
    "request_status": "Pending",
    "responsible_agency": "Department of Sanitation",
    "final_address": "7072 W Tamaron Blvd",
    "address_councildis": "E",
    "status": "Assigned to Contractor",
    "contractor": "Waste Pro",
    "rowid": "990980",
    "final_x": "3718470.05087",
    "final_y": "568434.039909",
    "longitude": "-89.94992639289204",
    "latitude": "30.055820547338296",
    "geocoded_column": {
      "latitude": "30.055820547338296",
      "longitude": "-89.94992639289204"
    }
  },
  {
    "service_request": "2023-990979",
    "request_type": "Trash/Recycling",
    "request_reason": "Request a Large Item Pick Up",
    "date_created": "2023-04-13T16:44:06.000",
    "date_modified": "2023-04-13T16:44:06.000",
    "request_status": "Pending",
    "responsible_agency": "Department of Sanitation",
    "status": "Assigned to Contractor",
    "rowid": "990979",
    "longitude": "0.0",
    "latitude": "0.0",
    "geocoded_column": {
      "latitude": "0.0",
      "longitude": "0.0"
    }
  },
  {
    "service_request": "2023-990978",
    "request_type": "Trash/Recycling",
    "request_reason": "Repair Trash Cart",
    "date_created": "2023-04-13T16:41:37.000",
    "date_modified": "2023-04-13T16:42:21.000",
    "request_status": "Pending",
    "responsible_agency": "Department of Sanitation",
    "final_address": "2700 BLK Memorial Park Dr",
    "address_councildis": "C",
    "status": "Assigned to Contractor",
    "contractor": "Richards Disposal",
    "rowid": "990978",
    "final_x": "3693420.41726",
    "final_y": "520588.872652",
    "longitude": "-90.0308224584717",
    "latitude": "29.92507152096068",
    "geocoded_column": {
      "latitude": "29.92507152096068",
      "longitude": "-90.0308224584717"
    }
  },
  {
    "service_request": "2023-990977",
    "request_type": "Trash/Recycling",
    "request_reason": "Request a Large Item Pick Up",
    "date_created": "2023-04-13T16:39:53.000",
    "date_modified": "2023-04-13T16:39:54.000",
    "request_status": "Pending",
    "responsible_agency": "Department of Sanitation",
    "final_address": "7600 Read Blvd",
    "address_councildis": "E",
    "status": "Assigned to Contractor",
    "contractor": "Waste Pro",
    "rowid": "990977",
    "final_x": "3708453.71224",
    "final_y": "564443.736225",
    "longitude": "-89.98173469545425",
    "latitude": "30.045177525372484",
    "geocoded_column": {
      "latitude": "30.045177525372484",
      "longitude": "-89.98173469545425"
    }
  },
  {
    "service_request": "2023-990976",
    "request_type": "Abandoned Vehicles",
    "request_reason": "Abandoned/Junk Vehicles",
    "date_created": "2023-04-13T16:34:13.000",
    "date_modified": "2023-04-13T16:34:13.000",
    "request_status": "Pending",
    "responsible_agency": "Department of Public Works",
    "final_address": "300 BLK W Harrison Ave",
    "address_councildis": "A",
    "status": "Pending",
    "rowid": "990976",
    "final_x": "3664808.53682",
    "final_y": "549648.201344",
    "longitude": "-90.12017011960212",
    "latitude": "30.005838392183115",
    "geocoded_column": {
      "latitude": "30.005838392183115",
      "longitude": "-90.12017011960212"
    }
  },
  {
    "service_request": "2023-990975",
    "request_type": "Abandoned Vehicles",
    "request_reason": "Abandoned/Junk Vehicles",
    "date_created": "2023-04-13T16:33:02.000",
    "date_modified": "2023-04-13T16:33:03.000",
    "request_status": "Pending",
    "responsible_agency": "Department of Public Works",
    "final_address": "4700 BLK Good Dr",
    "address_councildis": "E",
    "status": "Pending",
    "rowid": "990975",
    "final_x": "3714773.62291",
    "final_y": "556926.615593",
    "longitude": "-89.96204528785032",
    "latitude": "30.024301966560287",
    "geocoded_column": {
      "latitude": "30.024301966560287",
      "longitude": "-89.96204528785032"
    }
  },
  {
    "service_request": "2023-990974",
    "request_type": "Traffic Signals/Signs/Striping/Streetlights",
    "request_reason": "Traffic Signal Malfunctioning/Damaged",
    "date_created": "2023-04-13T16:32:36.000",
    "date_modified": "2023-04-13T16:32:36.000",
    "request_status": "Pending",
    "responsible_agency": "Department of Public Works",
    "final_address": "ST CLAUDE AVE & DESIRE ST",
    "address_councildis": "C",
    "status": "Pending",
    "rowid": "990974",
    "final_x": "3690183.2",
    "final_y": "535711.38",
    "longitude": "-90.0405026687975",
    "latitude": "29.966754017694758",
    "geocoded_column": {
      "latitude": "29.966754017694758",
      "longitude": "-90.0405026687975"
    }
  },
  {
    "service_request": "2023-990973",
    "request_type": "Trash/Recycling",
    "request_reason": "Replace Trash Cart",
    "date_created": "2023-04-13T16:32:21.000",
    "date_modified": "2023-04-13T16:32:22.000",
    "request_status": "Pending",
    "responsible_agency": "Department of Sanitation",
    "final_address": "2522 S Prieur St, New Orleans, Louisiana, 70125",
    "address_councildis": "B",
    "status": "Assigned to Contractor",
    "contractor": "Richards Disposal",
    "rowid": "990973",
    "final_x": "3673206.63176",
    "final_y": "527971.654911",
    "longitude": "-90.0943789887182",
    "latitude": "29.945988107114015",
    "geocoded_column": {
      "latitude": "29.945988107114015",
      "longitude": "-90.0943789887182"
    }
  },
  {
    "service_request": "2023-990972",
    "request_type": "Trash/Recycling",
    "request_reason": "MIssed Recycling Pick-Up",
    "date_created": "2023-04-13T16:22:55.000",
    "date_modified": "2023-04-13T16:22:56.000",
    "request_status": "Pending",
    "responsible_agency": "Department of Sanitation",
    "final_address": "327 Arabella St",
    "address_councildis": "A",
    "status": "Assigned to Contractor",
    "contractor": "Richards Disposal",
    "rowid": "990972",
    "final_x": "3665526.45287",
    "final_y": "517394.312245",
    "longitude": "-90.11898194842252",
    "latitude": "29.917129875054222",
    "geocoded_column": {
      "latitude": "29.917129875054222",
      "longitude": "-90.11898194842252"
    }
  },
  {
    "service_request": "2023-990971",
    "request_type": "Trash/Recycling",
    "request_reason": "Missed Trash Pick-Up",
    "date_created": "2023-04-13T16:17:57.000",
    "date_modified": "2023-04-13T16:17:58.000",
    "request_status": "Pending",
    "responsible_agency": "Department of Sanitation",
    "final_address": "4719 Lynhuber Dr",
    "address_councildis": "D",
    "status": "Assigned to Contractor",
    "contractor": "Waste Pro",
    "rowid": "990971",
    "final_x": "3698089.36195",
    "final_y": "554186.299672",
    "longitude": "-90.0148638522872",
    "latitude": "30.01730560257968",
    "geocoded_column": {
      "latitude": "30.01730560257968",
      "longitude": "-90.0148638522872"
    }
  },
  {
    "service_request": "2023-990969",
    "request_type": "Property Maintenance",
    "request_reason": "Property Maintenance",
    "date_created": "2023-04-13T16:16:56.000",
    "date_modified": "2023-04-13T16:16:57.000",
    "request_status": "Pending",
    "responsible_agency": "Department of Code Enforcement",
    "final_address": "CURRAN BLVD & SHELLY ST",
    "address_councildis": "E",
    "status": "Pending",
    "rowid": "990969",
    "final_x": "3695961.4",
    "final_y": "559096.58",
    "longitude": "-90.02140968703718",
    "latitude": "30.030874163604334",
    "geocoded_column": {
      "latitude": "30.030874163604334",
      "longitude": "-90.02140968703718"
    }
  },
  {
    "service_request": "2023-990968",
    "request_type": "Trash/Recycling",
    "request_reason": "Order Trash Cart",
    "date_created": "2023-04-13T16:16:12.000",
    "date_modified": "2023-04-13T16:16:13.000",
    "request_status": "Pending",
    "responsible_agency": "Department of Sanitation",
    "final_address": "5176 Mandeville St",
    "address_councildis": "D",
    "status": "Assigned to Contractor",
    "contractor": "IV Waste",
    "rowid": "990968",
    "final_x": "3684522.28924",
    "final_y": "551990.180374",
    "longitude": "-90.057807506191",
    "latitude": "30.011689346680807",
    "geocoded_column": {
      "latitude": "30.011689346680807",
      "longitude": "-90.057807506191"
    }
  },
  {
    "service_request": "2023-990967",
    "request_type": "Safety & Permits",
    "request_reason": "Licenses & Permits",
    "date_created": "2023-04-13T16:15:57.000",
    "date_modified": "2023-04-13T16:15:57.000",
    "request_status": "Pending",
    "responsible_agency": "Safety and Permits",
    "final_address": "4336 Rayne Dr",
    "address_councildis": "D",
    "status": "Pending",
    "rowid": "990967",
    "final_x": "3679847.68431",
    "final_y": "548501.157394",
    "longitude": "-90.07269781531573",
    "latitude": "30.002238038436328",
    "geocoded_column": {
      "latitude": "30.002238038436328",
      "longitude": "-90.07269781531573"
    }
  },
  {
    "service_request": "2023-990966",
    "request_type": "Traffic Signals/Signs/Striping/Streetlights",
    "request_reason": "Street Name Sign Damaged or Missing",
    "date_created": "2023-04-13T16:15:27.000",
    "date_modified": "2023-04-13T16:15:27.000",
    "request_status": "Pending",
    "responsible_agency": "Department of Public Works",
    "final_address": "CURRAN BLVD & SHELLY ST",
    "address_councildis": "E",
    "status": "Pending",
    "rowid": "990966",
    "final_x": "3695961.4",
    "final_y": "559096.58",
    "longitude": "-90.02140968703718",
    "latitude": "30.030874163604334",
    "geocoded_column": {
      "latitude": "30.030874163604334",
      "longitude": "-90.02140968703718"
    }
  },
  {
    "service_request": "2023-990965",
    "request_type": "Trash/Recycling",
    "request_reason": "Missed Trash Pick-Up",
    "date_created": "2023-04-13T16:14:30.000",
    "date_modified": "2023-04-13T16:14:31.000",
    "request_status": "Pending",
    "responsible_agency": "Department of Sanitation",
    "final_address": "920 St Louis St Unit 5",
    "address_councildis": "C",
    "status": "Assigned to Contractor",
    "contractor": "Empire Services",
    "rowid": "990965",
    "final_x": "3681348.64309",
    "final_y": "532346.447299",
    "longitude": "-90.06851944603731",
    "latitude": "29.957772727070946",
    "geocoded_column": {
      "latitude": "29.957772727070946",
      "longitude": "-90.06851944603731"
    }
  },
  {
    "service_request": "2023-990964",
    "request_type": "Trash/Recycling",
    "request_reason": "Request a Large Item Pick Up",
    "date_created": "2023-04-13T16:14:26.000",
    "date_modified": "2023-04-13T16:14:27.000",
    "request_status": "Pending",
    "responsible_agency": "Department of Sanitation",
    "final_address": "1301 Leontine St",
    "address_councildis": "B",
    "status": "Assigned to Contractor",
    "contractor": "Richards Disposal",
    "rowid": "990964",
    "final_x": "3667393.36961",
    "final_y": "520036.41484",
    "longitude": "-90.1130003245806",
    "latitude": "29.92434029022827",
    "geocoded_column": {
      "latitude": "29.92434029022827",
      "longitude": "-90.1130003245806"
    }
  },
  {
    "service_request": "2023-990963",
    "request_type": "Roads/Drainage",
    "request_reason": "Pothole",
    "date_created": "2023-04-13T16:14:10.000",
    "date_modified": "2023-04-13T16:14:10.000",
    "request_status": "Pending",
    "responsible_agency": "Department of Public Works",
    "final_address": "CURRAN BLVD & SHELLY ST",
    "address_councildis": "E",
    "status": "Pending",
    "rowid": "990963",
    "final_x": "3695961.4",
    "final_y": "559096.58",
    "longitude": "-90.02140968703718",
    "latitude": "30.030874163604334",
    "geocoded_column": {
      "latitude": "30.030874163604334",
      "longitude": "-90.02140968703718"
    }
  },
  {
    "service_request": "2023-990962",
    "request_type": "Trash/Recycling",
    "request_reason": "Missed Trash Pick-Up",
    "date_created": "2023-04-13T16:12:42.000",
    "date_modified": "2023-04-13T16:12:43.000",
    "request_status": "Pending",
    "responsible_agency": "Department of Sanitation",
    "final_address": "4820 Major Dr",
    "address_councildis": "E",
    "status": "Assigned to Contractor",
    "contractor": "Waste Pro",
    "rowid": "990962",
    "final_x": "3718110.12831",
    "final_y": "557400.715931",
    "longitude": "-89.95148460043231",
    "latitude": "30.025495339182406",
    "geocoded_column": {
      "latitude": "30.025495339182406",
      "longitude": "-89.95148460043231"
    }
  },
  {
    "service_request": "2023-990961",
    "request_type": "Roads/Drainage",
    "request_reason": "Pothole",
    "date_created": "2023-04-13T16:11:16.000",
    "date_modified": "2023-04-13T16:13:21.000",
    "request_status": "Pending",
    "responsible_agency": "Department of Public Works",
    "final_address": "New Orleans,LA",
    "address_councildis": "C",
    "rowid": "990961",
    "final_x": "3680969.66203",
    "final_y": "532332.916227",
    "longitude": "-90.06971662960923",
    "latitude": "29.957747018459333",
    "geocoded_column": {
      "latitude": "29.957747018459333",
      "longitude": "-90.06971662960923"
    }
  },
  {
    "service_request": "2023-990960",
    "request_type": "Trash/Recycling",
    "request_reason": "Repair Trash Cart",
    "date_created": "2023-04-13T16:10:35.000",
    "date_modified": "2023-04-13T16:10:35.000",
    "request_status": "Pending",
    "responsible_agency": "Department of Sanitation",
    "final_address": "1223 Harmony St",
    "address_councildis": "B",
    "status": "Assigned to Contractor",
    "contractor": "Richards Disposal",
    "rowid": "990960",
    "final_x": "3675579.97224",
    "final_y": "520538.09868",
    "longitude": "-90.0871407974461",
    "latitude": "29.925477480980614",
    "geocoded_column": {
      "latitude": "29.925477480980614",
      "longitude": "-90.0871407974461"
    }
  },
  {
    "service_request": "2023-990959",
    "request_type": "Trash/Recycling",
    "request_reason": "MIssed Recycling Pick-Up",
    "date_created": "2023-04-13T16:06:30.000",
    "date_modified": "2023-04-13T16:06:31.000",
    "request_status": "Pending",
    "responsible_agency": "Department of Sanitation",
    "final_address": "6235 Brighton Pl",
    "address_councildis": "C",
    "status": "Assigned to Contractor",
    "contractor": "Richards Disposal",
    "rowid": "990959",
    "final_x": "3707277.63851",
    "final_y": "519995.338808",
    "longitude": "-89.98710207510958",
    "latitude": "29.922999112161303",
    "geocoded_column": {
      "latitude": "29.922999112161303",
      "longitude": "-89.98710207510958"
    }
  },
  {
    "service_request": "2023-990958",
    "request_type": "Parks & Parkways",
    "request_reason": "Request Tree Service (Right of Way/Public Property)",
    "date_created": "2023-04-13T15:59:46.000",
    "date_modified": "2023-04-13T15:59:47.000",
    "request_status": "Pending",
    "responsible_agency": "Department of Parks & Parkway",
    "final_address": "4837 Robin Hood Dr",
    "address_councildis": "E",
    "status": "Pending",
    "rowid": "990958",
    "final_x": "3717524.74725",
    "final_y": "557428.947099",
    "longitude": "-89.95333322361373",
    "latitude": "30.025592361633866",
    "geocoded_column": {
      "latitude": "30.025592361633866",
      "longitude": "-89.95333322361373"
    }
  },
  {
    "service_request": "2023-990957",
    "request_type": "Abandoned Vehicles",
    "request_reason": "Abandoned/Junk Vehicles",
    "date_created": "2023-04-13T15:56:17.000",
    "date_modified": "2023-04-13T15:56:17.000",
    "request_status": "Pending",
    "responsible_agency": "Department of Public Works",
    "final_address": "3200 Toulouse St",
    "address_councildis": "A",
    "status": "Pending",
    "rowid": "990957",
    "final_x": "3674643.81025",
    "final_y": "537886.508233",
    "longitude": "-90.08950150570391",
    "latitude": "29.973207825189164",
    "geocoded_column": {
      "latitude": "29.973207825189164",
      "longitude": "-90.08950150570391"
    }
  },
  {
    "service_request": "2023-990956",
    "request_type": "Trash/Recycling",
    "request_reason": "Return Trash Cart",
    "date_created": "2023-04-13T15:42:50.000",
    "date_modified": "2023-04-13T15:42:51.000",
    "request_status": "Pending",
    "responsible_agency": "Department of Sanitation",
    "final_address": "1434 Fats Domino Ave",
    "address_councildis": "E",
    "status": "Assigned to Contractor",
    "contractor": "Waste Pro",
    "rowid": "990956",
    "final_x": "3698293.24125",
    "final_y": "535171.350982",
    "longitude": "-90.01491096351198",
    "latitude": "29.965015034086896",
    "geocoded_column": {
      "latitude": "29.965015034086896",
      "longitude": "-90.01491096351198"
    }
  },
  {
    "service_request": "2023-990955",
    "request_type": "Traffic Signals/Signs/Striping/Streetlights",
    "request_reason": "Traffic Sign Missing/Damaged",
    "date_created": "2023-04-13T15:40:31.000",
    "date_modified": "2023-04-13T15:40:32.000",
    "request_status": "Pending",
    "responsible_agency": "Department of Public Works",
    "final_address": "4000 Magazine St",
    "address_councildis": "B",
    "status": "Pending",
    "rowid": "990955",
    "final_x": "3672492.06011",
    "final_y": "518841.613687",
    "longitude": "-90.0969461843114",
    "latitude": "29.920904672192645",
    "geocoded_column": {
      "latitude": "29.920904672192645",
      "longitude": "-90.0969461843114"
    }
  },
  {
    "service_request": "2023-990954",
    "request_type": "Trash/Recycling",
    "request_reason": "Request a Large Item Pick Up",
    "date_created": "2023-04-13T15:38:50.000",
    "date_modified": "2023-04-13T15:38:50.000",
    "request_status": "Pending",
    "responsible_agency": "Department of Sanitation",
    "final_address": "4310 Fort Macomb Rd",
    "address_councildis": "E",
    "status": "Assigned to Contractor",
    "contractor": "Waste Pro",
    "rowid": "990954",
    "final_x": "3763751.9745",
    "final_y": "572949.337065",
    "longitude": "-89.80661236029201",
    "latitude": "30.06665456481649",
    "geocoded_column": {
      "latitude": "30.06665456481649",
      "longitude": "-89.80661236029201"
    }
  },
  {
    "service_request": "2023-990953",
    "request_type": "Traffic Signals/Signs/Striping/Streetlights",
    "request_reason": "Street Name Sign Damaged or Missing",
    "date_created": "2023-04-13T15:37:55.000",
    "date_modified": "2023-04-13T15:37:55.000",
    "request_status": "Pending",
    "responsible_agency": "Department of Public Works",
    "final_address": "2929 St Anthony Ave",
    "address_councildis": "D",
    "status": "Pending",
    "rowid": "990953",
    "final_x": "3683023.2886",
    "final_y": "543410.32315",
    "longitude": "-90.0628440337822",
    "latitude": "29.988143609832953",
    "geocoded_column": {
      "latitude": "29.988143609832953",
      "longitude": "-90.0628440337822"
    }
  },
  {
    "service_request": "2023-990952",
    "request_type": "Traffic Signals/Signs/Striping/Streetlights",
    "request_reason": "Street Light Outage/Malfunction",
    "date_created": "2023-04-13T15:37:02.000",
    "date_modified": "2023-04-13T15:37:02.000",
    "request_status": "Pending",
    "responsible_agency": "Department of Public Works",
    "final_address": "1205 Coliseum St",
    "address_councildis": "B",
    "status": "Assigned to Contractor",
    "contractor": "Legacy Professional Services",
    "rowid": "990952",
    "final_x": "3680130.04968",
    "final_y": "525587.591421",
    "longitude": "-90.07260223682472",
    "latitude": "29.9392250696267",
    "geocoded_column": {
      "latitude": "29.9392250696267",
      "longitude": "-90.07260223682472"
    }
  },
  {
    "service_request": "2023-990951",
    "request_type": "Abandoned Vehicles",
    "request_reason": "Abandoned/Junk Vehicles",
    "date_created": "2023-04-13T15:36:32.000",
    "date_modified": "2023-04-13T15:36:32.000",
    "request_status": "Pending",
    "responsible_agency": "Department of Public Works",
    "final_address": "610 Lesseps St",
    "address_councildis": "C",
    "status": "Pending",
    "rowid": "990951",
    "final_x": "3692235.28093",
    "final_y": "533395.593732",
    "longitude": "-90.03410515319229",
    "latitude": "29.960322595944188",
    "geocoded_column": {
      "latitude": "29.960322595944188",
      "longitude": "-90.03410515319229"
    }
  },
  {
    "service_request": "2023-990950",
    "request_type": "Property Maintenance",
    "request_reason": "Property Maintenance",
    "date_created": "2023-04-13T15:34:56.000",
    "date_modified": "2023-04-13T15:34:56.000",
    "request_status": "Pending",
    "responsible_agency": "Department of Code Enforcement",
    "final_address": "8535 Palm St",
    "address_councildis": "A",
    "status": "Pending",
    "rowid": "990950",
    "final_x": "3666469.53812",
    "final_y": "535884.536455",
    "longitude": "-90.11538479900379",
    "latitude": "29.96794452300978",
    "geocoded_column": {
      "latitude": "29.96794452300978",
      "longitude": "-90.11538479900379"
    }
  },
  {
    "service_request": "2023-990949",
    "request_type": "Trash/Recycling",
    "request_reason": "MIssed Recycling Pick-Up",
    "date_created": "2023-04-13T15:34:17.000",
    "date_modified": "2023-04-13T15:34:17.000",
    "request_status": "Pending",
    "responsible_agency": "Department of Sanitation",
    "final_address": "4910 Dauphine St",
    "address_councildis": "E",
    "status": "Assigned to Contractor",
    "contractor": "Waste Pro",
    "rowid": "990949",
    "final_x": "3695174.76982",
    "final_y": "533223.825348",
    "longitude": "-90.02482909663985",
    "latitude": "29.959758320453343",
    "geocoded_column": {
      "latitude": "29.959758320453343",
      "longitude": "-90.02482909663985"
    }
  },
  {
    "service_request": "2023-990948",
    "request_type": "Property Maintenance",
    "request_reason": "Property Maintenance",
    "date_created": "2023-04-13T15:32:43.000",
    "date_modified": "2023-04-13T15:32:43.000",
    "request_status": "Pending",
    "responsible_agency": "Department of Code Enforcement",
    "status": "Pending",
    "rowid": "990948",
    "longitude": "0.0",
    "latitude": "0.0",
    "geocoded_column": {
      "latitude": "0.0",
      "longitude": "0.0"
    }
  },
  {
    "service_request": "2023-990947",
    "request_type": "Trash/Recycling",
    "request_reason": "Repair Trash Cart",
    "date_created": "2023-04-13T15:28:07.000",
    "date_modified": "2023-04-13T15:28:08.000",
    "request_status": "Pending",
    "responsible_agency": "Department of Sanitation",
    "final_address": "3212 Cadiz St",
    "address_councildis": "B",
    "status": "Assigned to Contractor",
    "contractor": "Richards Disposal",
    "rowid": "990947",
    "final_x": "3669484.28807",
    "final_y": "526655.845502",
    "longitude": "-90.1061762170952",
    "latitude": "29.942480203393984",
    "geocoded_column": {
      "latitude": "29.942480203393984",
      "longitude": "-90.1061762170952"
    }
  },
  {
    "service_request": "2023-990946",
    "request_type": "Trash/Recycling",
    "request_reason": "Request a Large Item Pick Up",
    "date_created": "2023-04-13T15:24:14.000",
    "date_modified": "2023-04-13T15:24:15.000",
    "request_status": "Pending",
    "responsible_agency": "Department of Sanitation",
    "final_address": "2311 Octavia St",
    "address_councildis": "A",
    "status": "Assigned to Contractor",
    "contractor": "Richards Disposal",
    "rowid": "990946",
    "final_x": "3667673.35738",
    "final_y": "524169.378172",
    "longitude": "-90.11197743534515",
    "latitude": "29.935696421926075",
    "geocoded_column": {
      "latitude": "29.935696421926075",
      "longitude": "-90.11197743534515"
    }
  },
  {
    "service_request": "2023-990945",
    "request_type": "Trash/Recycling",
    "request_reason": "Illegal Dumping",
    "date_created": "2023-04-13T15:24:11.000",
    "date_modified": "2023-04-13T15:24:11.000",
    "request_status": "Pending",
    "responsible_agency": "Department of Sanitation",
    "final_address": "7500 Jonlee Dr",
    "address_councildis": "E",
    "status": "Pending",
    "rowid": "990945",
    "final_x": "3717487.51224",
    "final_y": "569870.57783",
    "longitude": "-89.95297728110366",
    "latitude": "30.059803012119666",
    "geocoded_column": {
      "latitude": "30.059803012119666",
      "longitude": "-89.95297728110366"
    }
  },
  {
    "service_request": "2023-990944",
    "request_type": "Trash/Recycling",
    "request_reason": "Repair Trash Cart",
    "date_created": "2023-04-13T15:23:44.000",
    "date_modified": "2023-04-13T15:23:45.000",
    "request_status": "Pending",
    "responsible_agency": "Department of Sanitation",
    "final_address": "1920 Annette St",
    "address_councildis": "D",
    "status": "Assigned to Contractor",
    "contractor": "IV Waste",
    "rowid": "990944",
    "final_x": "3682808.0397",
    "final_y": "539293.121354",
    "longitude": "-90.06366803658682",
    "latitude": "29.976829310030176",
    "geocoded_column": {
      "latitude": "29.976829310030176",
      "longitude": "-90.06366803658682"
    }
  },
  {
    "service_request": "2023-990943",
    "request_type": "Trash/Recycling",
    "request_reason": "Missed Trash Pick-Up",
    "date_created": "2023-04-13T15:20:45.000",
    "date_modified": "2023-04-13T15:20:45.000",
    "request_status": "Pending",
    "responsible_agency": "Department of Sanitation",
    "final_address": "636 Pine St",
    "address_councildis": "A",
    "status": "Assigned to Contractor",
    "contractor": "Richards Disposal",
    "rowid": "990943",
    "final_x": "3662857.49395",
    "final_y": "525227.538429",
    "longitude": "-90.12714608940935",
    "latitude": "29.93874629623994",
    "geocoded_column": {
      "latitude": "29.93874629623994",
      "longitude": "-90.12714608940935"
    }
  },
  {
    "service_request": "2023-990942",
    "request_type": "Trash/Recycling",
    "request_reason": "Request a Large Item Pick Up",
    "date_created": "2023-04-13T15:19:38.000",
    "date_modified": "2023-04-13T15:19:39.000",
    "request_status": "Pending",
    "responsible_agency": "Department of Sanitation",
    "final_address": "4701 Rhodes Dr",
    "address_councildis": "E",
    "status": "Assigned to Contractor",
    "contractor": "Waste Pro",
    "rowid": "990942",
    "final_x": "3702608.77764",
    "final_y": "554093.44732",
    "longitude": "-90.00058783714707",
    "latitude": "30.016906530776254",
    "geocoded_column": {
      "latitude": "30.016906530776254",
      "longitude": "-90.00058783714707"
    }
  },
  {
    "service_request": "2023-990941",
    "request_type": "Trash/Recycling",
    "request_reason": "Illegal Dumping",
    "date_created": "2023-04-13T15:18:58.000",
    "date_modified": "2023-04-13T15:18:58.000",
    "request_status": "Pending",
    "responsible_agency": "Department of Sanitation",
    "final_address": "4807 Wilson Ave",
    "address_councildis": "E",
    "status": "Pending",
    "rowid": "990941",
    "final_x": "3703042.41975",
    "final_y": "555253.923545",
    "longitude": "-89.9991750263978",
    "latitude": "30.0200835198258",
    "geocoded_column": {
      "latitude": "30.0200835198258",
      "longitude": "-89.9991750263978"
    }
  },
  {
    "service_request": "2023-990940",
    "request_type": "Trash/Recycling",
    "request_reason": "Order Recycling Cart",
    "date_created": "2023-04-13T15:15:09.000",
    "date_modified": "2023-04-13T15:15:09.000",
    "request_status": "Pending",
    "responsible_agency": "Department of Sanitation",
    "final_address": "7261 Claridge Ct",
    "address_councildis": "E",
    "status": "Pending",
    "rowid": "990940",
    "final_x": "3704770.00407",
    "final_y": "561189.135582",
    "longitude": "-89.99349716439232",
    "latitude": "30.036347620458383",
    "geocoded_column": {
      "latitude": "30.036347620458383",
      "longitude": "-89.99349716439232"
    }
  },
  {
    "service_request": "2023-990939",
    "request_type": "Traffic Signals/Signs/Striping/Streetlights",
    "request_reason": "Traffic Signal Malfunctioning/Damaged",
    "date_created": "2023-04-13T15:11:49.000",
    "date_modified": "2023-04-13T15:11:50.000",
    "request_status": "Pending",
    "responsible_agency": "Department of Public Works",
    "final_address": "ST CLAUDE AVE & DESIRE ST",
    "address_councildis": "C",
    "status": "Pending",
    "rowid": "990939",
    "final_x": "3690200.7",
    "final_y": "535781.48",
    "longitude": "-90.04044490620291",
    "latitude": "29.966946225171228",
    "geocoded_column": {
      "latitude": "29.966946225171228",
      "longitude": "-90.04044490620291"
    }
  },
  {
    "service_request": "2023-990938",
    "request_type": "Trash/Recycling",
    "request_reason": "Request a Large Item Pick Up",
    "date_created": "2023-04-13T15:11:03.000",
    "date_modified": "2023-04-13T15:11:03.000",
    "request_status": "Pending",
    "responsible_agency": "Department of Sanitation",
    "final_address": "6824 Louis Xiv St",
    "address_councildis": "A",
    "status": "Assigned to Contractor",
    "contractor": "IV Waste",
    "rowid": "990938",
    "final_x": "3668493.68922",
    "final_y": "552928.129751",
    "longitude": "-90.10841705341161",
    "latitude": "30.014749248448318",
    "geocoded_column": {
      "latitude": "30.014749248448318",
      "longitude": "-90.10841705341161"
    }
  },
  {
    "service_request": "2023-990937",
    "request_type": "Abandoned Vehicles",
    "request_reason": "Abandoned/Junk Vehicles",
    "date_created": "2023-04-13T15:09:14.000",
    "date_modified": "2023-04-13T15:09:15.000",
    "request_status": "Pending",
    "responsible_agency": "Department of Public Works",
    "final_address": "1216 Odeon St",
    "address_councildis": "C",
    "status": "Pending",
    "rowid": "990937",
    "final_x": "3696060.81379",
    "final_y": "526858.897534",
    "longitude": "-90.02226115656809",
    "latitude": "29.94222914374222",
    "geocoded_column": {
      "latitude": "29.94222914374222",
      "longitude": "-90.02226115656809"
    }
  },
  {
    "service_request": "2023-990936",
    "request_type": "Abandoned Vehicles",
    "request_reason": "Abandoned/Junk Vehicles",
    "date_created": "2023-04-13T15:02:25.000",
    "date_modified": "2023-04-13T15:02:25.000",
    "request_status": "Pending",
    "responsible_agency": "Department of Public Works",
    "final_address": "541 Josephine St Apt A",
    "address_councildis": "B",
    "status": "Pending",
    "rowid": "990936",
    "final_x": "3680361.46792",
    "final_y": "520816.390393",
    "longitude": "-90.07203743131888",
    "latitude": "29.92609883611579",
    "geocoded_column": {
      "latitude": "29.92609883611579",
      "longitude": "-90.07203743131888"
    }
  },
  {
    "service_request": "2023-990935",
    "request_type": "Trash/Recycling",
    "request_reason": "Order Trash Cart",
    "date_created": "2023-04-13T14:56:23.000",
    "date_modified": "2023-04-13T14:56:23.000",
    "request_status": "Pending",
    "responsible_agency": "Department of Sanitation",
    "final_address": "2320 Prytania St",
    "address_councildis": "B",
    "status": "Assigned to Contractor",
    "contractor": "Richards Disposal",
    "rowid": "990935",
    "final_x": "3677494.37416",
    "final_y": "522874.900795",
    "longitude": "-90.08101700004576",
    "latitude": "29.931845536762687",
    "geocoded_column": {
      "latitude": "29.931845536762687",
      "longitude": "-90.08101700004576"
    }
  },
  {
    "service_request": "2023-990932",
    "request_type": "Parks & Parkways",
    "request_reason": "Request Tree Service (Right of Way/Public Property)",
    "date_created": "2023-04-13T14:44:30.000",
    "date_modified": "2023-04-13T14:44:30.000",
    "request_status": "Pending",
    "responsible_agency": "Department of Parks & Parkway",
    "final_address": "2008 Elysian Fields Ave",
    "address_councildis": "D",
    "status": "Pending",
    "rowid": "990932",
    "final_x": "3684595.37903",
    "final_y": "539711.239754",
    "longitude": "-90.05800836736849",
    "latitude": "29.97792441158361",
    "geocoded_column": {
      "latitude": "29.97792441158361",
      "longitude": "-90.05800836736849"
    }
  },
  {
    "service_request": "2023-990931",
    "request_type": "Trash/Recycling",
    "request_reason": "Replace Trash Cart",
    "date_created": "2023-04-13T14:43:09.000",
    "date_modified": "2023-04-13T14:43:10.000",
    "request_status": "Pending",
    "responsible_agency": "Department of Sanitation",
    "final_address": "7800 S Coronet Ct Apt B",
    "address_councildis": "E",
    "status": "Assigned to Contractor",
    "contractor": "Waste Pro",
    "rowid": "990931",
    "final_x": "3702975.12356",
    "final_y": "557211.545371",
    "longitude": "-89.99931564689683",
    "latitude": "30.025468380011322",
    "geocoded_column": {
      "latitude": "30.025468380011322",
      "longitude": "-89.99931564689683"
    }
  },
  {
    "service_request": "2023-990930",
    "request_type": "Trash/Recycling",
    "request_reason": "Repair Trash Cart",
    "date_created": "2023-04-13T14:42:08.000",
    "date_modified": "2023-04-13T14:42:09.000",
    "request_status": "Pending",
    "responsible_agency": "Department of Sanitation",
    "final_address": "3208 Pine St",
    "address_councildis": "B",
    "status": "Assigned to Contractor",
    "contractor": "Richards Disposal",
    "rowid": "990930",
    "final_x": "3667955.46689",
    "final_y": "532758.922628",
    "longitude": "-90.11079748480897",
    "latitude": "29.95930660691946",
    "geocoded_column": {
      "latitude": "29.95930660691946",
      "longitude": "-90.11079748480897"
    }
  },
  {
    "service_request": "2023-990929",
    "request_type": "Trash/Recycling",
    "request_reason": "Replace Trash Cart",
    "date_created": "2023-04-13T14:39:39.000",
    "date_modified": "2023-04-13T14:39:40.000",
    "request_status": "Pending",
    "responsible_agency": "Department of Sanitation",
    "final_address": "1314 Amelia St",
    "address_councildis": "B",
    "status": "Assigned to Contractor",
    "contractor": "Richards Disposal",
    "rowid": "990929",
    "final_x": "3673389.85601",
    "final_y": "519959.546552",
    "longitude": "-90.09407408044011",
    "latitude": "29.923951961869562",
    "geocoded_column": {
      "latitude": "29.923951961869562",
      "longitude": "-90.09407408044011"
    }
  },
  {
    "service_request": "2023-990928",
    "request_type": "Trash/Recycling",
    "request_reason": "Missed Trash Pick-Up",
    "date_created": "2023-04-13T14:36:02.000",
    "date_modified": "2023-04-13T14:36:02.000",
    "request_status": "Pending",
    "responsible_agency": "Department of Sanitation",
    "final_address": "6000 BLK Pitt St",
    "address_councildis": "A",
    "status": "Assigned to Contractor",
    "contractor": "Richards Disposal",
    "rowid": "990928",
    "final_x": "3665075.91391",
    "final_y": "521238.111839",
    "longitude": "-90.1202756033106",
    "latitude": "29.92771224062412",
    "geocoded_column": {
      "latitude": "29.92771224062412",
      "longitude": "-90.1202756033106"
    }
  },
  {
    "service_request": "2023-990927",
    "request_type": "Trash/Recycling",
    "request_reason": "Order Recycling Cart",
    "date_created": "2023-04-13T14:34:22.000",
    "date_modified": "2023-04-13T14:34:22.000",
    "request_status": "Pending",
    "responsible_agency": "Department of Sanitation",
    "final_address": "3187 Desaix Blvd",
    "address_councildis": "D",
    "status": "Pending",
    "rowid": "990927",
    "final_x": "3678383.99182",
    "final_y": "543669.473742",
    "longitude": "-90.07748908855194",
    "latitude": "29.98899680898177",
    "geocoded_column": {
      "latitude": "29.98899680898177",
      "longitude": "-90.07748908855194"
    }
  },
  {
    "service_request": "2023-990926",
    "request_type": "Trash/Recycling",
    "request_reason": "Order Trash Cart",
    "date_created": "2023-04-13T14:33:49.000",
    "date_modified": "2023-04-13T14:33:50.000",
    "request_status": "Pending",
    "responsible_agency": "Department of Sanitation",
    "final_address": "3187 Desaix Blvd",
    "address_councildis": "D",
    "status": "Assigned to Contractor",
    "contractor": "IV Waste",
    "rowid": "990926",
    "final_x": "3678383.99182",
    "final_y": "543669.473742",
    "longitude": "-90.07748908855194",
    "latitude": "29.98899680898177",
    "geocoded_column": {
      "latitude": "29.98899680898177",
      "longitude": "-90.07748908855194"
    }
  },
  {
    "service_request": "2023-990925",
    "request_type": "Trash/Recycling",
    "request_reason": "Request a Large Item Pick Up",
    "date_created": "2023-04-13T14:28:40.000",
    "date_modified": "2023-04-13T14:28:41.000",
    "request_status": "Pending",
    "responsible_agency": "Department of Sanitation",
    "final_address": "2020 Lamanche St A",
    "address_councildis": "E",
    "status": "Assigned to Contractor",
    "contractor": "Waste Pro",
    "rowid": "990925",
    "final_x": "3699276.0552",
    "final_y": "537236.031816",
    "longitude": "-90.01173211175389",
    "latitude": "29.970661034175592",
    "geocoded_column": {
      "latitude": "29.970661034175592",
      "longitude": "-90.01173211175389"
    }
  },
  {
    "service_request": "2023-990924",
    "request_type": "Roads/Drainage",
    "request_reason": "Debris in Roadway",
    "date_created": "2023-04-13T14:28:16.000",
    "date_modified": "2023-04-13T14:28:17.000",
    "request_status": "Pending",
    "responsible_agency": "Department of Public Works",
    "final_address": "1629 Pauger St",
    "address_councildis": "C",
    "status": "Pending",
    "rowid": "990924",
    "final_x": "3683941.84194",
    "final_y": "535741.278855",
    "longitude": "-90.06021177621467",
    "latitude": "29.967028384234997",
    "geocoded_column": {
      "latitude": "29.967028384234997",
      "longitude": "-90.06021177621467"
    }
  },
  {
    "service_request": "2023-990923",
    "request_type": "Trash/Recycling",
    "request_reason": "Missed Trash Pick-Up",
    "date_created": "2023-04-13T14:21:41.000",
    "date_modified": "2023-04-13T14:21:41.000",
    "request_status": "Pending",
    "responsible_agency": "Department of Sanitation",
    "final_address": "4819 N Prieur St",
    "address_councildis": "E",
    "status": "Assigned to Contractor",
    "contractor": "Waste Pro",
    "rowid": "990923",
    "final_x": "3696092.07811",
    "final_y": "537465.980808",
    "longitude": "-90.02177912813387",
    "latitude": "29.97139390486776",
    "geocoded_column": {
      "latitude": "29.97139390486776",
      "longitude": "-90.02177912813387"
    }
  },
  {
    "service_request": "2023-990922",
    "request_type": "Trash/Recycling",
    "request_reason": "Request a Large Item Pick Up",
    "date_created": "2023-04-13T14:21:13.000",
    "date_modified": "2023-04-13T14:21:13.000",
    "case_close_date": "2023-03-09T18:00:00.000",
    "request_status": "Closed",
    "responsible_agency": "Department of Sanitation",
    "final_address": "4717 Raymond Joseph Dr",
    "address_councildis": "E",
    "status": "Assigned to Contractor",
    "contractor": "Waste Pro",
    "contractor_action": "Completed",
    "rowid": "990922",
    "final_x": "3703763.73514",
    "final_y": "555148.603097",
    "longitude": "-89.99689979586843",
    "latitude": "30.01977081626568",
    "geocoded_column": {
      "latitude": "30.01977081626568",
      "longitude": "-89.99689979586843"
    }
  },
  {
    "service_request": "2023-990921",
    "request_type": "Trash/Recycling",
    "request_reason": "Request a Large Item Pick Up",
    "date_created": "2023-04-13T14:14:47.000",
    "date_modified": "2023-04-13T14:14:48.000",
    "request_status": "Pending",
    "responsible_agency": "Department of Sanitation",
    "final_address": "1015 Franklin Ave",
    "address_councildis": "C",
    "status": "Assigned to Contractor",
    "contractor": "IV Waste",
    "rowid": "990921",
    "final_x": "3687077.48156",
    "final_y": "536154.040135",
    "longitude": "-90.05029483914174",
    "latitude": "29.96806716472763",
    "geocoded_column": {
      "latitude": "29.96806716472763",
      "longitude": "-90.05029483914174"
    }
  },
  {
    "service_request": "2023-990920",
    "request_type": "Trash/Recycling",
    "request_reason": "Repair Trash Cart",
    "date_created": "2023-04-13T14:14:34.000",
    "date_modified": "2023-04-13T14:14:35.000",
    "request_status": "Pending",
    "responsible_agency": "Department of Sanitation",
    "final_address": "6642 Virgilian St",
    "address_councildis": "D",
    "status": "Assigned to Contractor",
    "contractor": "Waste Pro",
    "rowid": "990920",
    "final_x": "3697055.36317",
    "final_y": "555857.003097",
    "longitude": "-90.01807026102027",
    "latitude": "30.021932078327985",
    "geocoded_column": {
      "latitude": "30.021932078327985",
      "longitude": "-90.01807026102027"
    }
  },
  {
    "service_request": "2023-990919",
    "request_type": "Trash/Recycling",
    "request_reason": "Missed Trash Pick-Up",
    "date_created": "2023-04-13T14:07:30.000",
    "date_modified": "2023-04-13T14:07:30.000",
    "case_close_date": "2023-02-16T18:00:00.000",
    "request_status": "Pending",
    "responsible_agency": "Department of Sanitation",
    "final_address": "5600 BLK Douglass St",
    "address_councildis": "E",
    "status": "Assigned to Contractor",
    "contractor": "Waste Pro",
    "rowid": "990919",
    "final_x": "3697608.87476",
    "final_y": "531566.532455",
    "longitude": "-90.01720289624384",
    "latitude": "29.95512469562689",
    "geocoded_column": {
      "latitude": "29.95512469562689",
      "longitude": "-90.01720289624384"
    }
  },
  {
    "service_request": "2023-990918",
    "request_type": "Abandoned Vehicles",
    "request_reason": "Abandoned/Junk Vehicles",
    "date_created": "2023-04-13T14:06:06.000",
    "date_modified": "2023-04-13T14:06:06.000",
    "request_status": "Pending",
    "responsible_agency": "Department of Public Works",
    "status": "Pending",
    "rowid": "990918",
    "longitude": "0.0",
    "latitude": "0.0",
    "geocoded_column": {
      "latitude": "0.0",
      "longitude": "0.0"
    }
  },
  {
    "service_request": "2023-990916",
    "request_type": "Trash/Recycling",
    "request_reason": "Order Recycling Cart",
    "date_created": "2023-04-13T14:00:06.000",
    "date_modified": "2023-04-13T14:00:06.000",
    "request_status": "Pending",
    "responsible_agency": "Department of Sanitation",
    "final_address": "2518 Martin Luther King, Jr. Blvd",
    "address_councildis": "B",
    "status": "Pending",
    "rowid": "990916",
    "final_x": "3676213.21825",
    "final_y": "527319.576319",
    "longitude": "-90.08490859860564",
    "latitude": "29.944105374987085",
    "geocoded_column": {
      "latitude": "29.944105374987085",
      "longitude": "-90.08490859860564"
    }
  },
  {
    "service_request": "2023-990915",
    "request_type": "Trash/Recycling",
    "request_reason": "Dead Animal Pick Up",
    "date_created": "2023-04-13T13:58:11.000",
    "date_modified": "2023-04-13T13:58:12.000",
    "request_status": "Pending",
    "responsible_agency": "Department of Sanitation",
    "final_address": "8100 BLK Earhart Blvd",
    "address_councildis": "A",
    "status": "Assigned to Contractor",
    "contractor": "Richards Disposal",
    "rowid": "990915",
    "final_x": "3666468.03711",
    "final_y": "533549.734525",
    "longitude": "-90.11546790794047",
    "latitude": "29.961524632791647",
    "geocoded_column": {
      "latitude": "29.961524632791647",
      "longitude": "-90.11546790794047"
    }
  },
  {
    "service_request": "2023-990914",
    "request_type": "Traffic Signals/Signs/Striping/Streetlights",
    "request_reason": "Traffic Signal Malfunctioning/Damaged",
    "date_created": "2023-04-13T13:57:56.000",
    "date_modified": "2023-04-13T13:57:57.000",
    "request_status": "Pending",
    "responsible_agency": "Department of Public Works",
    "final_address": "ST CLAUDE AVE & DESIRE ST",
    "address_councildis": "C",
    "status": "Pending",
    "rowid": "990914",
    "final_x": "3690200.7",
    "final_y": "535781.48",
    "longitude": "-90.04044490620291",
    "latitude": "29.966946225171228",
    "geocoded_column": {
      "latitude": "29.966946225171228",
      "longitude": "-90.04044490620291"
    }
  },
  {
    "service_request": "2023-990913",
    "request_type": "Roads/Drainage",
    "request_reason": "Pothole",
    "date_created": "2023-04-13T13:55:05.000",
    "date_modified": "2023-04-13T13:55:05.000",
    "request_status": "Pending",
    "responsible_agency": "Department of Public Works",
    "final_address": "LEAKE AVE & BROADWAY ST",
    "address_councildis": "A",
    "status": "Pending",
    "rowid": "990913",
    "final_x": "3660855.01",
    "final_y": "521586.33",
    "longitude": "-90.13358855105726",
    "latitude": "29.92879192668333",
    "geocoded_column": {
      "latitude": "29.92879192668333",
      "longitude": "-90.13358855105726"
    }
  },
  {
    "service_request": "2023-990912",
    "request_type": "Trash/Recycling",
    "request_reason": "MIssed Recycling Pick-Up",
    "date_created": "2023-04-13T13:50:36.000",
    "date_modified": "2023-04-13T13:50:36.000",
    "request_status": "Pending",
    "responsible_agency": "Department of Sanitation",
    "final_address": "4919 Eunice Dr",
    "address_councildis": "E",
    "status": "Assigned to Contractor",
    "contractor": "Waste Pro",
    "rowid": "990912",
    "final_x": "3710502.99499",
    "final_y": "556874.971034",
    "longitude": "-89.97554149781074",
    "latitude": "30.024299803071067",
    "geocoded_column": {
      "latitude": "30.024299803071067",
      "longitude": "-89.97554149781074"
    }
  },
  {
    "service_request": "2023-990911",
    "request_type": "Trash/Recycling",
    "request_reason": "Replace Trash Cart",
    "date_created": "2023-04-13T13:48:58.000",
    "date_modified": "2023-04-13T13:48:59.000",
    "request_status": "Pending",
    "responsible_agency": "Department of Sanitation",
    "final_address": "4801 Laurel St",
    "address_councildis": "B",
    "status": "Assigned to Contractor",
    "contractor": "Richards Disposal",
    "rowid": "990911",
    "final_x": "3669626.92078",
    "final_y": "517945.173622",
    "longitude": "-90.10602046222944",
    "latitude": "29.918524442129325",
    "geocoded_column": {
      "latitude": "29.918524442129325",
      "longitude": "-90.10602046222944"
    }
  },
  {
    "service_request": "2023-990909",
    "request_type": "Trash/Recycling",
    "request_reason": "Replace Recycling Cart",
    "date_created": "2023-04-13T13:45:41.000",
    "date_modified": "2023-04-13T13:45:41.000",
    "request_status": "Pending",
    "responsible_agency": "Department of Sanitation",
    "final_address": "3333 State Street Dr",
    "address_councildis": "A",
    "status": "Pending",
    "rowid": "990909",
    "final_x": "3667765.73319",
    "final_y": "528496.116032",
    "longitude": "-90.11154015248043",
    "latitude": "29.947590847630526",
    "geocoded_column": {
      "latitude": "29.947590847630526",
      "longitude": "-90.11154015248043"
    }
  },
  {
    "service_request": "2023-990908",
    "request_type": "Trash/Recycling",
    "request_reason": "Request a Large Item Pick Up",
    "date_created": "2023-04-13T13:44:42.000",
    "date_modified": "2023-04-13T13:44:42.000",
    "request_status": "Pending",
    "responsible_agency": "Department of Sanitation",
    "final_address": "1230 Eighth St",
    "address_councildis": "B",
    "status": "Assigned to Contractor",
    "contractor": "Richards Disposal",
    "rowid": "990908",
    "final_x": "3675731.60661",
    "final_y": "520706.148985",
    "longitude": "-90.0866563625225",
    "latitude": "29.925935029516097",
    "geocoded_column": {
      "latitude": "29.925935029516097",
      "longitude": "-90.0866563625225"
    }
  },
  {
    "service_request": "2023-990907",
    "request_type": "Trash/Recycling",
    "request_reason": "Repair Trash Cart",
    "date_created": "2023-04-13T13:42:39.000",
    "date_modified": "2023-04-13T13:42:40.000",
    "request_status": "Pending",
    "responsible_agency": "Department of Sanitation",
    "final_address": "6305 General Meyer Ave",
    "address_councildis": "C",
    "status": "Assigned to Contractor",
    "contractor": "Richards Disposal",
    "rowid": "990907",
    "final_x": "3707592.77361",
    "final_y": "520385.846968",
    "longitude": "-89.98609283128872",
    "latitude": "29.924062688668485",
    "geocoded_column": {
      "latitude": "29.924062688668485",
      "longitude": "-89.98609283128872"
    }
  },
  {
    "service_request": "2023-990906",
    "request_type": "Trash/Recycling",
    "request_reason": "Repair Trash Cart",
    "date_created": "2023-04-13T13:41:46.000",
    "date_modified": "2023-04-13T13:41:47.000",
    "request_status": "Pending",
    "responsible_agency": "Department of Sanitation",
    "final_address": "1305 Seventh St",
    "address_councildis": "B",
    "status": "Assigned to Contractor",
    "contractor": "Richards Disposal",
    "rowid": "990906",
    "final_x": "3675977.65883",
    "final_y": "521036.500601",
    "longitude": "-90.08586829442459",
    "latitude": "29.9268360262078",
    "geocoded_column": {
      "latitude": "29.9268360262078",
      "longitude": "-90.08586829442459"
    }
  },
  {
    "service_request": "2023-990905",
    "request_type": "Property Maintenance",
    "request_reason": "Property Maintenance",
    "date_created": "2023-04-13T13:40:36.000",
    "date_modified": "2023-04-13T13:40:36.000",
    "request_status": "Pending",
    "responsible_agency": "Department of Code Enforcement",
    "status": "Pending",
    "rowid": "990905",
    "longitude": "0.0",
    "latitude": "0.0",
    "geocoded_column": {
      "latitude": "0.0",
      "longitude": "0.0"
    }
  },
  {
    "service_request": "2023-990904",
    "request_type": "Trash/Recycling",
    "request_reason": "Missed Trash Pick-Up",
    "date_created": "2023-04-13T13:39:48.000",
    "date_modified": "2023-04-13T13:39:48.000",
    "request_status": "Pending",
    "responsible_agency": "Department of Sanitation",
    "final_address": "833 S Carrollton Ave",
    "address_councildis": "A",
    "status": "Assigned to Contractor",
    "contractor": "Richards Disposal",
    "rowid": "990904",
    "final_x": "3661329.84531",
    "final_y": "527440.014719",
    "longitude": "-90.13189583007318",
    "latitude": "29.944874032831155",
    "geocoded_column": {
      "latitude": "29.944874032831155",
      "longitude": "-90.13189583007318"
    }
  },
  {
    "service_request": "2023-990903",
    "request_type": "Trash/Recycling",
    "request_reason": "Repair Trash Cart",
    "date_created": "2023-04-13T13:36:32.000",
    "date_modified": "2023-04-13T13:36:33.000",
    "request_status": "Pending",
    "responsible_agency": "Department of Sanitation",
    "final_address": "616 Eighth St",
    "address_councildis": "B",
    "status": "Assigned to Contractor",
    "contractor": "Richards Disposal",
    "rowid": "990903",
    "final_x": "3677006.65698",
    "final_y": "518798.038071",
    "longitude": "-90.0826971443857",
    "latitude": "29.92065013500401",
    "geocoded_column": {
      "latitude": "29.92065013500401",
      "longitude": "-90.0826971443857"
    }
  },
  {
    "service_request": "2023-990902",
    "request_type": "Abandoned Vehicles",
    "request_reason": "Abandoned/Junk Vehicles",
    "date_created": "2023-04-13T13:32:37.000",
    "date_modified": "2023-04-13T13:32:37.000",
    "request_status": "Pending",
    "responsible_agency": "Department of Public Works",
    "final_address": "1036 Canal St",
    "address_councildis": "B",
    "status": "Pending",
    "rowid": "990902",
    "final_x": "3680002.56507",
    "final_y": "531434.631491",
    "longitude": "-90.07280164613434",
    "latitude": "29.955306328993924",
    "geocoded_column": {
      "latitude": "29.955306328993924",
      "longitude": "-90.07280164613434"
    }
  },
  {
    "service_request": "2023-990901",
    "request_type": "Traffic Signals/Signs/Striping/Streetlights",
    "request_reason": "Street Light Outage/Malfunction",
    "date_created": "2023-04-13T13:30:37.000",
    "date_modified": "2023-04-13T13:30:37.000",
    "request_status": "Pending",
    "responsible_agency": "Department of Public Works",
    "final_address": "4000 BLK N Roman St",
    "address_councildis": "D",
    "status": "Assigned to Contractor",
    "contractor": "Legacy Professional Services",
    "rowid": "990901",
    "final_x": "3692604.73057",
    "final_y": "537891.332141",
    "longitude": "-90.03277737802209",
    "latitude": "29.97267276693659",
    "geocoded_column": {
      "latitude": "29.97267276693659",
      "longitude": "-90.03277737802209"
    }
  },
  {
    "service_request": "2023-990900",
    "request_type": "Traffic Signals/Signs/Striping/Streetlights",
    "request_reason": "Street Light Outage/Malfunction",
    "date_created": "2023-04-13T13:29:51.000",
    "date_modified": "2023-04-13T13:29:51.000",
    "request_status": "Pending",
    "responsible_agency": "Department of Public Works",
    "final_address": "1742 Bartholomew St",
    "address_councildis": "D",
    "status": "Assigned to Contractor",
    "contractor": "Legacy Professional Services",
    "rowid": "990900",
    "final_x": "3692409.04873",
    "final_y": "537906.025225",
    "longitude": "-90.03339484822973",
    "latitude": "29.972719273324078",
    "geocoded_column": {
      "latitude": "29.972719273324078",
      "longitude": "-90.03339484822973"
    }
  },
  {
    "service_request": "2023-990899",
    "request_type": "Roads/Drainage",
    "request_reason": "Street Flooding / Drainage",
    "date_created": "2023-04-13T13:29:49.000",
    "date_modified": "2023-04-13T13:29:49.000",
    "request_status": "Pending",
    "responsible_agency": "Department of Public Works",
    "final_address": "6823 St Charles Ave",
    "address_councildis": "A",
    "status": "Pending",
    "rowid": "990899",
    "final_x": "3664251.8256",
    "final_y": "524033.789948",
    "longitude": "-90.1227838277921",
    "latitude": "29.935423435180134",
    "geocoded_column": {
      "latitude": "29.935423435180134",
      "longitude": "-90.1227838277921"
    }
  },
  {
    "service_request": "2023-990898",
    "request_type": "Trash/Recycling",
    "request_reason": "Missed Trash Pick-Up",
    "date_created": "2023-04-13T13:26:17.000",
    "date_modified": "2023-04-13T13:26:17.000",
    "request_status": "Pending",
    "responsible_agency": "Department of Sanitation",
    "final_address": "4819 Stemway Dr",
    "address_councildis": "D",
    "status": "Assigned to Contractor",
    "contractor": "Waste Pro",
    "rowid": "990898",
    "final_x": "3696944.30288",
    "final_y": "554613.412184",
    "longitude": "-90.01846627174314",
    "latitude": "30.018516179245157",
    "geocoded_column": {
      "latitude": "30.018516179245157",
      "longitude": "-90.01846627174314"
    }
  },
  {
    "service_request": "2023-990897",
    "request_type": "Trash/Recycling",
    "request_reason": "Order Trash Cart",
    "date_created": "2023-04-13T13:22:59.000",
    "date_modified": "2023-04-13T13:23:00.000",
    "request_status": "Pending",
    "responsible_agency": "Department of Sanitation",
    "final_address": "7060 General Haig St",
    "address_councildis": "A",
    "status": "Assigned to Contractor",
    "contractor": "IV Waste",
    "rowid": "990897",
    "final_x": "3671087.88967",
    "final_y": "554318.588312",
    "longitude": "-90.10017333634511",
    "latitude": "30.0184960062628",
    "geocoded_column": {
      "latitude": "30.0184960062628",
      "longitude": "-90.10017333634511"
    }
  },
  {
    "service_request": "2023-990896",
    "request_type": "Trash/Recycling",
    "request_reason": "Request a Large Item Pick Up",
    "date_created": "2023-04-13T13:22:33.000",
    "date_modified": "2023-04-13T13:22:33.000",
    "request_status": "Pending",
    "responsible_agency": "Department of Sanitation",
    "final_address": "3636 Bienville Ave",
    "address_councildis": "B",
    "status": "Assigned to Contractor",
    "contractor": "Richards Disposal",
    "rowid": "990896",
    "final_x": "3672802.9403",
    "final_y": "537954.709513",
    "longitude": "-90.09531302594178",
    "latitude": "29.973450173580662",
    "geocoded_column": {
      "latitude": "29.973450173580662",
      "longitude": "-90.09531302594178"
    }
  },
  {
    "service_request": "2023-990895",
    "request_type": "Roads/Drainage",
    "request_reason": "Man hole cover issue",
    "date_created": "2023-04-13T13:15:50.000",
    "date_modified": "2023-04-13T15:02:37.000",
    "case_close_date": "2023-04-13T10:02:37.000",
    "request_status": "Closed",
    "responsible_agency": "Department of Public Works",
    "final_address": "4445 Skyview Dr",
    "address_councildis": "D",
    "status": "Duplicate Request",
    "rowid": "990895",
    "final_x": "3696881.10787",
    "final_y": "552810.048022",
    "longitude": "-90.01873131552532",
    "latitude": "30.013559601399653",
    "geocoded_column": {
      "latitude": "30.013559601399653",
      "longitude": "-90.01873131552532"
    }
  },
  {
    "service_request": "2023-990894",
    "request_type": "Trash/Recycling",
    "request_reason": "MIssed Recycling Pick-Up",
    "date_created": "2023-04-13T13:14:25.000",
    "date_modified": "2023-04-13T13:14:27.000",
    "request_status": "Pending",
    "responsible_agency": "Department of Sanitation",
    "status": "Assigned to Contractor",
    "rowid": "990894",
    "longitude": "0.0",
    "latitude": "0.0",
    "geocoded_column": {
      "latitude": "0.0",
      "longitude": "0.0"
    }
  },
  {
    "service_request": "2023-990893",
    "request_type": "Trash/Recycling",
    "request_reason": "Repair Trash Cart",
    "date_created": "2023-04-13T13:11:35.000",
    "date_modified": "2023-04-13T13:11:36.000",
    "request_status": "Pending",
    "responsible_agency": "Department of Sanitation",
    "final_address": "7640 Crestmont Rd",
    "address_councildis": "E",
    "status": "Assigned to Contractor",
    "contractor": "Waste Pro",
    "rowid": "990893",
    "final_x": "3699572.07229",
    "final_y": "560412.34851",
    "longitude": "-90.00995191728086",
    "latitude": "30.03437785394703",
    "geocoded_column": {
      "latitude": "30.03437785394703",
      "longitude": "-90.00995191728086"
    }
  },
  {
    "service_request": "2023-990892",
    "request_type": "Trash/Recycling",
    "request_reason": "Request a Large Item Pick Up",
    "date_created": "2023-04-13T13:10:26.000",
    "date_modified": "2023-04-13T13:10:26.000",
    "request_status": "Pending",
    "responsible_agency": "Department of Sanitation",
    "final_address": "8250 Colony Ct",
    "address_councildis": "E",
    "status": "Assigned to Contractor",
    "contractor": "Waste Pro",
    "rowid": "990892",
    "final_x": "3703305.26615",
    "final_y": "560344.246365",
    "longitude": "-89.9981571066835",
    "latitude": "30.034071517636935",
    "geocoded_column": {
      "latitude": "30.034071517636935",
      "longitude": "-89.9981571066835"
    }
  },
  {
    "service_request": "2023-990891",
    "request_type": "Trash/Recycling",
    "request_reason": "Replace Trash Cart",
    "date_created": "2023-04-13T13:03:41.000",
    "date_modified": "2023-04-13T13:03:42.000",
    "request_status": "Pending",
    "responsible_agency": "Department of Sanitation",
    "status": "Assigned to Contractor",
    "rowid": "990891",
    "longitude": "0.0",
    "latitude": "0.0",
    "geocoded_column": {
      "latitude": "0.0",
      "longitude": "0.0"
    }
  },
  {
    "service_request": "2023-990890",
    "request_type": "Trash/Recycling",
    "request_reason": "MIssed Recycling Pick-Up",
    "date_created": "2023-04-13T13:01:44.000",
    "date_modified": "2023-04-13T13:01:44.000",
    "request_status": "Pending",
    "responsible_agency": "Department of Sanitation",
    "final_address": "7169 Parkside Ct",
    "address_councildis": "E",
    "status": "Assigned to Contractor",
    "contractor": "Waste Pro",
    "rowid": "990890",
    "final_x": "3704391.8794",
    "final_y": "560507.756126",
    "longitude": "-89.99471726024105",
    "latitude": "30.03448624598184",
    "geocoded_column": {
      "latitude": "30.03448624598184",
      "longitude": "-89.99471726024105"
    }
  },
  {
    "service_request": "2023-990889",
    "request_type": "Abandoned Vehicles",
    "request_reason": "Vehicle Blocking Your Driveway",
    "date_created": "2023-04-13T12:56:21.000",
    "date_modified": "2023-04-13T13:24:41.000",
    "request_status": "Pending",
    "responsible_agency": "Department of Public Works",
    "final_address": "New Orleans,LA",
    "address_councildis": "C",
    "rowid": "990889",
    "final_x": "3687317.48604",
    "final_y": "527524.891071",
    "longitude": "-90.04984214638776",
    "latitude": "29.944332583934205",
    "geocoded_column": {
      "latitude": "29.944332583934205",
      "longitude": "-90.04984214638776"
    }
  },
  {
    "service_request": "2023-990887",
    "request_type": "Trash/Recycling",
    "request_reason": "Replace Trash Cart",
    "date_created": "2023-04-13T12:53:21.000",
    "date_modified": "2023-04-13T12:53:22.000",
    "request_status": "Pending",
    "responsible_agency": "Department of Sanitation",
    "final_address": "5727 N Villere St",
    "address_councildis": "E",
    "status": "Assigned to Contractor",
    "contractor": "Waste Pro",
    "rowid": "990887",
    "final_x": "3698892.45226",
    "final_y": "534796.730246",
    "longitude": "-90.01303233346964",
    "latitude": "29.963965989548583",
    "geocoded_column": {
      "latitude": "29.963965989548583",
      "longitude": "-90.01303233346964"
    }
  },
  {
    "service_request": "2023-990886",
    "request_type": "Trash/Recycling",
    "request_reason": "Order Recycling Cart",
    "date_created": "2023-04-13T12:51:22.000",
    "date_modified": "2023-04-13T12:51:22.000",
    "request_status": "Pending",
    "responsible_agency": "Department of Sanitation",
    "final_address": "835 Montegut St",
    "address_councildis": "C",
    "status": "Pending",
    "rowid": "990886",
    "final_x": "3688246.0374",
    "final_y": "535267.634822",
    "longitude": "-90.04663594004876",
    "latitude": "29.96559382935748",
    "geocoded_column": {
      "latitude": "29.96559382935748",
      "longitude": "-90.04663594004876"
    }
  },
  {
    "service_request": "2023-990885",
    "request_type": "Abandoned Vehicles",
    "request_reason": "Abandoned/Junk Vehicles",
    "date_created": "2023-04-13T12:50:07.000",
    "date_modified": "2023-04-13T12:50:07.000",
    "request_status": "Pending",
    "responsible_agency": "Department of Public Works",
    "final_address": "1100 Verret St",
    "address_councildis": "C",
    "status": "Pending",
    "rowid": "990885",
    "final_x": "3687317.48604",
    "final_y": "527524.891071",
    "longitude": "-90.04984214638776",
    "latitude": "29.944332583934205",
    "geocoded_column": {
      "latitude": "29.944332583934205",
      "longitude": "-90.04984214638776"
    }
  },
  {
    "service_request": "2023-990884",
    "request_type": "Trash/Recycling",
    "request_reason": "Start Trash Service",
    "date_created": "2023-04-13T12:47:00.000",
    "date_modified": "2023-04-13T12:47:00.000",
    "request_status": "Pending",
    "responsible_agency": "Department of Sanitation",
    "final_address": "5109 Eastern St",
    "address_councildis": "D",
    "status": "Assigned to Contractor",
    "contractor": "IV Waste",
    "rowid": "990884",
    "final_x": "3687968.61455",
    "final_y": "551783.676949",
    "longitude": "-90.04692647460209",
    "latitude": "30.011015601355307",
    "geocoded_column": {
      "latitude": "30.011015601355307",
      "longitude": "-90.04692647460209"
    }
  },
  {
    "service_request": "2023-990883",
    "request_type": "Trash/Recycling",
    "request_reason": "Request a Large Item Pick Up",
    "date_created": "2023-04-13T12:40:25.000",
    "date_modified": "2023-04-13T12:40:26.000",
    "request_status": "Pending",
    "responsible_agency": "Department of Sanitation",
    "final_address": "1130 Delery St",
    "address_councildis": "E",
    "status": "Assigned to Contractor",
    "contractor": "Waste Pro",
    "rowid": "990883",
    "final_x": "3700507.41949",
    "final_y": "533221.0969",
    "longitude": "-90.00799000103328",
    "latitude": "29.959582295688506",
    "geocoded_column": {
      "latitude": "29.959582295688506",
      "longitude": "-90.00799000103328"
    }
  },
  {
    "service_request": "2023-990882",
    "request_type": "Trash/Recycling",
    "request_reason": "Replace Trash Cart",
    "date_created": "2023-04-13T12:39:51.000",
    "date_modified": "2023-04-13T12:43:06.000",
    "case_close_date": "2023-04-13T07:43:06.000",
    "request_status": "Closed",
    "responsible_agency": "Department of Sanitation",
    "final_address": "516 Milan St",
    "address_councildis": "B",
    "status": "Duplicate Request",
    "contractor": "Richards Disposal",
    "rowid": "990882",
    "final_x": "3671884.58887",
    "final_y": "517688.368758",
    "longitude": "-90.09890291649036",
    "latitude": "29.917751624642744",
    "geocoded_column": {
      "latitude": "29.917751624642744",
      "longitude": "-90.09890291649036"
    }
  },
  {
    "service_request": "2023-990881",
    "request_type": "Trash/Recycling",
    "request_reason": "Replace Trash Cart",
    "date_created": "2023-04-13T12:39:17.000",
    "date_modified": "2023-04-13T12:39:18.000",
    "request_status": "Pending",
    "responsible_agency": "Department of Sanitation",
    "final_address": "7790 Hayne Blvd",
    "address_councildis": "E",
    "status": "Assigned to Contractor",
    "contractor": "Waste Pro",
    "rowid": "990881",
    "final_x": "3700932.72337",
    "final_y": "562339.892831",
    "longitude": "-90.00558151813395",
    "latitude": "30.039634569624003",
    "geocoded_column": {
      "latitude": "30.039634569624003",
      "longitude": "-90.00558151813395"
    }
  },
  {
    "service_request": "2023-990880",
    "request_type": "Traffic Signals/Signs/Striping/Streetlights",
    "request_reason": "Street Light Outage/Malfunction",
    "date_created": "2023-04-13T12:37:41.000",
    "date_modified": "2023-04-13T12:37:42.000",
    "request_status": "Pending",
    "responsible_agency": "Department of Public Works",
    "final_address": "1943 Clouet St",
    "address_councildis": "D",
    "status": "Assigned to Contractor",
    "contractor": "Legacy Professional Services",
    "rowid": "990880",
    "final_x": "3689871.52176",
    "final_y": "539338.476426",
    "longitude": "-90.04135779248249",
    "latitude": "29.976736920072728",
    "geocoded_column": {
      "latitude": "29.976736920072728",
      "longitude": "-90.04135779248249"
    }
  },
  {
    "service_request": "2023-990879",
    "request_type": "Trash/Recycling",
    "request_reason": "Repair Trash Cart",
    "date_created": "2023-04-13T12:35:40.000",
    "date_modified": "2023-04-13T12:35:40.000",
    "request_status": "Pending",
    "responsible_agency": "Department of Sanitation",
    "final_address": "4923 S Prieur St",
    "address_councildis": "B",
    "status": "Assigned to Contractor",
    "contractor": "Richards Disposal",
    "rowid": "990879",
    "final_x": "3669085.81569",
    "final_y": "526761.807806",
    "longitude": "-90.10743070987452",
    "latitude": "29.94278329362107",
    "geocoded_column": {
      "latitude": "29.94278329362107",
      "longitude": "-90.10743070987452"
    }
  },
  {
    "service_request": "2023-990878",
    "request_type": "Traffic Signals/Signs/Striping/Streetlights",
    "request_reason": "Street Light Outage/Malfunction",
    "date_created": "2023-04-13T12:35:17.000",
    "date_modified": "2023-04-13T12:35:19.000",
    "request_status": "Pending",
    "responsible_agency": "Department of Public Works",
    "final_address": "1941 Clouet St",
    "address_councildis": "D",
    "status": "Assigned to Contractor",
    "contractor": "Legacy Professional Services",
    "rowid": "990878",
    "final_x": "3689870.84016",
    "final_y": "539333.01505",
    "longitude": "-90.04136013966595",
    "latitude": "29.97672192435657",
    "geocoded_column": {
      "latitude": "29.97672192435657",
      "longitude": "-90.04136013966595"
    }
  },
  {
    "service_request": "2023-990877",
    "request_type": "Trash/Recycling",
    "request_reason": "MIssed Recycling Pick-Up",
    "date_created": "2023-04-13T12:32:14.000",
    "date_modified": "2023-04-13T12:32:14.000",
    "request_status": "Pending",
    "responsible_agency": "Department of Sanitation",
    "final_address": "11200 Chef Menteur Hwy",
    "address_councildis": "E",
    "status": "Assigned to Contractor",
    "contractor": "Waste Pro",
    "rowid": "990877",
    "final_x": "3716501.04197",
    "final_y": "555743.655193",
    "longitude": "-89.95663193198165",
    "latitude": "30.020992339521815",
    "geocoded_column": {
      "latitude": "30.020992339521815",
      "longitude": "-89.95663193198165"
    }
  },
  {
    "service_request": "2023-990876",
    "request_type": "Trash/Recycling",
    "request_reason": "Missed Trash Pick-Up",
    "date_created": "2023-04-13T12:30:15.000",
    "date_modified": "2023-04-13T12:30:16.000",
    "request_status": "Pending",
    "responsible_agency": "Department of Sanitation",
    "status": "Assigned to Contractor",
    "rowid": "990876",
    "longitude": "0.0",
    "latitude": "0.0",
    "geocoded_column": {
      "latitude": "0.0",
      "longitude": "0.0"
    }
  },
  {
    "service_request": "2023-990875",
    "request_type": "Trash/Recycling",
    "request_reason": "Repair Recycling Cart",
    "date_created": "2023-04-13T12:26:33.000",
    "date_modified": "2023-04-13T12:26:33.000",
    "request_status": "Pending",
    "responsible_agency": "Department of Sanitation",
    "final_address": "3435 Calhoun St",
    "address_councildis": "A",
    "status": "Pending",
    "rowid": "990875",
    "final_x": "3667739.95796",
    "final_y": "529329.226369",
    "longitude": "-90.11159348824665",
    "latitude": "29.94988238582053",
    "geocoded_column": {
      "latitude": "29.94988238582053",
      "longitude": "-90.11159348824665"
    }
  },
  {
    "service_request": "2023-990874",
    "request_type": "Property Maintenance",
    "request_reason": "Property Maintenance",
    "date_created": "2023-04-13T12:24:17.000",
    "date_modified": "2023-04-13T12:24:17.000",
    "request_status": "Pending",
    "responsible_agency": "Department of Code Enforcement",
    "final_address": "4711 Marque Dr",
    "address_councildis": "E",
    "status": "Pending",
    "rowid": "990874",
    "final_x": "3710160.33451",
    "final_y": "555495.441305",
    "longitude": "-89.97667584265106",
    "latitude": "30.020517796619814",
    "geocoded_column": {
      "latitude": "30.020517796619814",
      "longitude": "-89.97667584265106"
    }
  },
  {
    "service_request": "2023-990873",
    "request_type": "Property Maintenance",
    "request_reason": "Property Maintenance",
    "date_created": "2023-04-13T12:23:42.000",
    "date_modified": "2023-04-13T12:23:42.000",
    "request_status": "Pending",
    "responsible_agency": "Department of Code Enforcement",
    "final_address": "4718 Marque Dr",
    "address_councildis": "E",
    "status": "Pending",
    "rowid": "990873",
    "final_x": "3710011.04715",
    "final_y": "555535.778713",
    "longitude": "-89.97714603263567",
    "latitude": "30.020633567968023",
    "geocoded_column": {
      "latitude": "30.020633567968023",
      "longitude": "-89.97714603263567"
    }
  },
  {
    "service_request": "2023-990872",
    "request_type": "Property Maintenance",
    "request_reason": "Property Maintenance",
    "date_created": "2023-04-13T12:22:32.000",
    "date_modified": "2023-04-13T12:22:32.000",
    "request_status": "Pending",
    "responsible_agency": "Department of Code Enforcement",
    "final_address": "4710 Marque Dr",
    "address_councildis": "E",
    "status": "Pending",
    "rowid": "990872",
    "final_x": "3710017.01048",
    "final_y": "555476.346841",
    "longitude": "-89.97712941308995",
    "latitude": "30.020469959459167",
    "geocoded_column": {
      "latitude": "30.020469959459167",
      "longitude": "-89.97712941308995"
    }
  },
  {
    "service_request": "2023-990871",
    "request_type": "Property Maintenance",
    "request_reason": "Property Maintenance",
    "date_created": "2023-04-13T12:21:52.000",
    "date_modified": "2023-04-13T12:21:53.000",
    "request_status": "Pending",
    "responsible_agency": "Department of Code Enforcement",
    "final_address": "4700 Marque Dr",
    "address_councildis": "E",
    "status": "Pending",
    "rowid": "990871",
    "final_x": "3710023.18174",
    "final_y": "555414.784025",
    "longitude": "-89.97711221630368",
    "latitude": "30.020300484912998",
    "geocoded_column": {
      "latitude": "30.020300484912998",
      "longitude": "-89.97711221630368"
    }
  },
  {
    "service_request": "2023-990870",
    "request_type": "Property Maintenance",
    "request_reason": "Property Maintenance",
    "date_created": "2023-04-13T12:19:34.000",
    "date_modified": "2023-04-13T12:19:34.000",
    "request_status": "Pending",
    "responsible_agency": "Department of Code Enforcement",
    "final_address": "4700 BLK Marque Dr",
    "address_councildis": "E",
    "status": "Pending",
    "rowid": "990870",
    "final_x": "3710059.24159",
    "final_y": "555750.277395",
    "longitude": "-89.97698573141123",
    "latitude": "30.02122178700792",
    "geocoded_column": {
      "latitude": "30.02122178700792",
      "longitude": "-89.97698573141123"
    }
  },