[
  {
    "service_request": "2022-887727",
    "request_type": "Roads/Drainage",
    "request_reason": "Catch Basin - Broken/Damage",
    "date_created": "2022-06-01T00:37:59.000",
    "date_modified": "2022-06-01T00:37:59.000",
    "request_status": "Pending",
    "responsible_agency": "Department of Public Works",
    "final_address": "1922 Cadiz St",
    "address_councildis": "B",
    "status": "Pending",
    "rowid": "887727",
    "final_x": "3669890.17799",
    "final_y": "522049.797498",
    "longitude": "-90.10505061311466",
    "latitude": "29.92980309679333",
    "geocoded_column": {
      "latitude": "29.92980309679333",
      "longitude": "-90.10505061311466"
    }
  },
  {
    "service_request": "2022-887726",
    "request_type": "Property Maintenance",
    "request_reason": "Property Maintenance",
    "date_created": "2022-06-01T00:06:34.000",
    "date_modified": "2022-06-01T00:06:34.000",
    "request_status": "Pending",
    "responsible_agency": "Department of Code Enforcement",
    "final_address": "300 Bourbon St",
    "address_councildis": "C",
    "status": "Pending",
    "rowid": "887726",
    "final_x": "3681523.24488",
    "final_y": "531576.031683",
    "longitude": "-90.06799496884169",
    "latitude": "29.9556490451343",
    "geocoded_column": {
      "latitude": "29.9556490451343",
      "longitude": "-90.06799496884169"
    }
  },
  {
    "service_request": "2022-887724",
    "request_type": "Property Maintenance",
    "request_reason": "Property Maintenance",
    "date_created": "2022-05-31T22:16:45.000",
    "date_modified": "2022-05-31T22:16:45.000",
    "request_status": "Pending",
    "responsible_agency": "Department of Code Enforcement",
    "final_address": "7442 Spring Lake Dr",
    "address_councildis": "E",
    "status": "Pending",
    "rowid": "887724",
    "final_x": "3701082.86289",
    "final_y": "559136.32598",
    "longitude": "-90.0052243815867",
    "latitude": "30.03082122286488",
    "geocoded_column": {
      "latitude": "30.03082122286488",
      "longitude": "-90.0052243815867"
    }
  },
  {
    "service_request": "2022-887723",
    "request_type": "Trash/Recycling",
    "request_reason": "Missed Trash Pick-Up",
    "date_created": "2022-05-31T21:49:07.000",
    "date_modified": "2022-05-31T21:49:08.000",
    "request_status": "Pending",
    "responsible_agency": "Department of Sanitation",
    "final_address": "1526 Dufossat St",
    "address_councildis": "B",
    "status": "Assigned to Contractor",
    "contractor": "Richards Disposal",
    "rowid": "887723",
    "final_x": "3668068.2489",
    "final_y": "520682.173113",
    "longitude": "-90.1108482089379",
    "latitude": "29.926096140224107",
    "geocoded_column": {
      "latitude": "29.926096140224107",
      "longitude": "-90.1108482089379"
    }
  },
  {
    "service_request": "2022-887722",
    "request_type": "Trash/Recycling",
    "request_reason": "Missed Trash Pick-Up",
    "date_created": "2022-05-31T21:47:41.000",
    "date_modified": "2022-05-31T21:47:42.000",
    "request_status": "Pending",
    "responsible_agency": "Department of Sanitation",
    "final_address": "5200 Atlanta St",
    "address_councildis": "B",
    "status": "Assigned to Contractor",
    "contractor": "Richards Disposal",
    "rowid": "887722",
    "final_x": "3667983.80449",
    "final_y": "520661.062009",
    "longitude": "-90.11111548717626",
    "latitude": "29.92604056837358",
    "geocoded_column": {
      "latitude": "29.92604056837358",
      "longitude": "-90.11111548717626"
    }
  },
  {
    "service_request": "2022-887721",
    "request_type": "Mayor's Request",
    "request_reason": "Requests to the Mayor",
    "date_created": "2022-05-31T21:33:20.000",
    "date_modified": "2022-05-31T21:33:20.000",
    "request_status": "Pending",
    "responsible_agency": "Executive Office of the Mayor",
    "status": "Pending",
    "rowid": "887721",
    "longitude": "0.0",
    "latitude": "0.0",
    "geocoded_column": {
      "latitude": "0.0",
      "longitude": "0.0"
    }
  },
  {
    "service_request": "2022-887720",
    "request_type": "Abandoned Vehicles",
    "request_reason": "Vehicle Blocking Your Driveway",
    "date_created": "2022-05-31T21:26:11.000",
    "date_modified": "2022-05-31T21:26:11.000",
    "request_status": "Pending",
    "responsible_agency": "Department of Public Works",
    "final_address": "3254 Kabel Dr",
    "address_councildis": "C",
    "status": "Pending",
    "rowid": "887720",
    "final_x": "3700756.56074",
    "final_y": "519177.043639",
    "longitude": "-90.00771633291014",
    "latitude": "29.920958137046124",
    "geocoded_column": {
      "latitude": "29.920958137046124",
      "longitude": "-90.00771633291014"
    }
  },
  {
    "service_request": "2022-887719",
    "request_type": "Abandoned Vehicles",
    "request_reason": "Vehicle Blocking Your Driveway",
    "date_created": "2022-05-31T21:24:08.000",
    "date_modified": "2022-05-31T21:24:08.000",
    "request_status": "Pending",
    "responsible_agency": "Department of Public Works",
    "final_address": "3254 Kabel Dr",
    "address_councildis": "C",
    "status": "Pending",
    "rowid": "887719",
    "final_x": "3700756.56074",
    "final_y": "519177.043639",
    "longitude": "-90.00771633291014",
    "latitude": "29.920958137046124",
    "geocoded_column": {
      "latitude": "29.920958137046124",
      "longitude": "-90.00771633291014"
    }
  },
  {
    "service_request": "2022-887718",
    "request_type": "Trash/Recycling",
    "request_reason": "Missed Trash Pick-Up",
    "date_created": "2022-05-31T21:16:46.000",
    "date_modified": "2022-05-31T21:16:47.000",
    "request_status": "Pending",
    "responsible_agency": "Department of Sanitation",
    "final_address": "4916 Baronne St",
    "address_councildis": "B",
    "status": "Assigned to Contractor",
    "contractor": "Richards Disposal",
    "rowid": "887718",
    "final_x": "3668935.87751",
    "final_y": "521346.846969",
    "longitude": "-90.10808691281377",
    "latitude": "29.92789830058563",
    "geocoded_column": {
      "latitude": "29.92789830058563",
      "longitude": "-90.10808691281377"
    }
  },
  {
    "service_request": "2022-887717",
    "request_type": "Property Maintenance",
    "request_reason": "Property Maintenance",
    "date_created": "2022-05-31T20:54:29.000",
    "date_modified": "2022-05-31T20:54:29.000",
    "request_status": "Pending",
    "responsible_agency": "Department of Code Enforcement",
    "final_address": "3035 Carver St",
    "address_councildis": "C",
    "status": "Pending",
    "rowid": "887717",
    "final_x": "3708486.87448",
    "final_y": "519466.317943",
    "longitude": "-89.9833046962067",
    "latitude": "29.92150536973562",
    "geocoded_column": {
      "latitude": "29.92150536973562",
      "longitude": "-89.9833046962067"
    }
  },
  {
    "service_request": "2022-887716",
    "request_type": "EMS",
    "request_reason": "EMS Lost & Found",
    "date_created": "2022-05-31T20:53:25.000",
    "date_modified": "2022-05-31T20:53:25.000",
    "request_status": "Pending",
    "responsible_agency": "Emergency Medical Services",
    "final_address": "2061 Rousseau St Apt B",
    "address_councildis": "B",
    "status": "Pending",
    "rowid": "887716",
    "final_x": "3680609.24571",
    "final_y": "520638.438968",
    "longitude": "-90.07126145624323",
    "latitude": "29.92560202605417",
    "geocoded_column": {
      "latitude": "29.92560202605417",
      "longitude": "-90.07126145624323"
    }
  },
  {
    "service_request": "2022-887715",
    "request_type": "Roads/Drainage",
    "request_reason": "Pothole",
    "date_created": "2022-05-31T20:47:20.000",
    "date_modified": "2022-05-31T20:47:20.000",
    "request_status": "Pending",
    "responsible_agency": "Department of Public Works",
    "final_address": "13357 Curran Rd",
    "address_councildis": "E",
    "status": "Pending",
    "rowid": "887715",
    "final_x": "3716604.05317",
    "final_y": "570637.535335",
    "longitude": "-89.95574066611944",
    "latitude": "30.0619410608225",
    "geocoded_column": {
      "latitude": "30.0619410608225",
      "longitude": "-89.95574066611944"
    }
  },
  {
    "service_request": "2022-887714",
    "request_type": "Roads/Drainage",
    "request_reason": "Pothole",
    "date_created": "2022-05-31T20:44:35.000",
    "date_modified": "2022-05-31T20:44:35.000",
    "request_status": "Pending",
    "responsible_agency": "Department of Public Works",
    "final_address": "13357 Curran Rd",
    "address_councildis": "E",
    "status": "Pending",
    "rowid": "887714",
    "final_x": "3716604.05317",
    "final_y": "570637.535335",
    "longitude": "-89.95574066611944",
    "latitude": "30.0619410608225",
    "geocoded_column": {
      "latitude": "30.0619410608225",
      "longitude": "-89.95574066611944"
    }
  },
  {
    "service_request": "2022-887713",
    "request_type": "Trash/Recycling",
    "request_reason": "Request a Large Item Pick Up",
    "date_created": "2022-05-31T20:36:52.000",
    "date_modified": "2022-05-31T20:36:53.000",
    "request_status": "Pending",
    "responsible_agency": "Department of Sanitation",
    "final_address": "8 Yosemite Dr",
    "address_councildis": "C",
    "status": "Assigned to Contractor",
    "contractor": "Richards Disposal",
    "rowid": "887713",
    "final_x": "3699487.83287",
    "final_y": "517836.860918",
    "longitude": "-90.01176989844953",
    "latitude": "29.917313389952753",
    "geocoded_column": {
      "latitude": "29.917313389952753",
      "longitude": "-90.01176989844953"
    }
  },
  {
    "service_request": "2022-887712",
    "request_type": "Traffic Signals/Signs/Striping/Streetlights",
    "request_reason": "Street Light Outage/Malfunction",
    "date_created": "2022-05-31T20:32:28.000",
    "date_modified": "2022-05-31T20:32:29.000",
    "request_status": "Pending",
    "responsible_agency": "Department of Public Works",
    "final_address": "7001 Argonne Blvd",
    "address_councildis": "A",
    "status": "Pending",
    "contractor": "Royal Engineering",
    "rowid": "887712",
    "final_x": "3670831.58932",
    "final_y": "553889.032535",
    "longitude": "-90.10099775075899",
    "latitude": "30.0173224626137",
    "geocoded_column": {
      "latitude": "30.0173224626137",
      "longitude": "-90.10099775075899"
    }
  },
  {
    "service_request": "2022-887711",
    "request_type": "Trash/Recycling",
    "request_reason": "Request a Large Item Pick Up",
    "date_created": "2022-05-31T19:52:45.000",
    "date_modified": "2022-05-31T19:52:46.000",
    "request_status": "Pending",
    "responsible_agency": "Department of Sanitation",
    "final_address": "3121 Nashville Ave",
    "address_councildis": "A",
    "status": "Assigned to Contractor",
    "contractor": "Richards Disposal",
    "rowid": "887711",
    "final_x": "3667884.0345",
    "final_y": "527311.987583",
    "longitude": "-90.11120650460595",
    "latitude": "29.944331409325514",
    "geocoded_column": {
      "latitude": "29.944331409325514",
      "longitude": "-90.11120650460595"
    }
  },
  {
    "service_request": "2022-887710",
    "request_type": "Roads/Drainage",
    "request_reason": "Debris in Roadway",
    "date_created": "2022-05-31T19:46:43.000",
    "date_modified": "2022-05-31T19:46:43.000",
    "request_status": "Pending",
    "responsible_agency": "Department of Public Works",
    "final_address": "2727 S Carrollton Ave",
    "address_councildis": "A",
    "status": "Pending",
    "rowid": "887710",
    "final_x": "3665911.41626",
    "final_y": "532367.526595",
    "longitude": "-90.11726524952698",
    "latitude": "29.95829020425427",
    "geocoded_column": {
      "latitude": "29.95829020425427",
      "longitude": "-90.11726524952698"
    }
  },
  {
    "service_request": "2022-887709",
    "request_type": "Trash/Recycling",
    "request_reason": "Request a Large Item Pick Up",
    "date_created": "2022-05-31T19:33:27.000",
    "date_modified": "2022-05-31T19:33:27.000",
    "request_status": "Pending",
    "responsible_agency": "Department of Sanitation",
    "final_address": "1026 N Carrollton Ave",
    "address_councildis": "A",
    "status": "Assigned to Contractor",
    "contractor": "Richards Disposal",
    "rowid": "887709",
    "final_x": "3673855.56008",
    "final_y": "541172.687756",
    "longitude": "-90.09187851727378",
    "latitude": "29.982267200896455",
    "geocoded_column": {
      "latitude": "29.982267200896455",
      "longitude": "-90.09187851727378"
    }
  },
  {
    "service_request": "2022-887708",
    "request_type": "Trash/Recycling",
    "request_reason": "Missed Trash Pick-Up",
    "date_created": "2022-05-31T19:30:15.000",
    "date_modified": "2022-05-31T19:30:16.000",
    "request_status": "Pending",
    "responsible_agency": "Department of Sanitation",
    "final_address": "1814 Jena St",
    "address_councildis": "B",
    "status": "Assigned to Contractor",
    "contractor": "Richards Disposal",
    "rowid": "887708",
    "final_x": "3670279.94183",
    "final_y": "521677.510649",
    "longitude": "-90.10383280328227",
    "latitude": "29.928767933028215",
    "geocoded_column": {
      "latitude": "29.928767933028215",
      "longitude": "-90.10383280328227"
    }
  },
  {
    "service_request": "2022-887707",
    "request_type": "Trash/Recycling",
    "request_reason": "Replace Trash Cart",
    "date_created": "2022-05-31T19:28:35.000",
    "date_modified": "2022-05-31T19:28:36.000",
    "request_status": "Pending",
    "responsible_agency": "Department of Sanitation",
    "final_address": "6448 Center St",
    "address_councildis": "A",
    "status": "Assigned to Contractor",
    "contractor": "Metro Disposal",
    "rowid": "887707",
    "final_x": "3664827.14061",
    "final_y": "551068.989333",
    "longitude": "-90.12006381815299",
    "latitude": "30.009744525102423",
    "geocoded_column": {
      "latitude": "30.009744525102423",
      "longitude": "-90.12006381815299"
    }
  },
  {
    "service_request": "2022-887706",
    "request_type": "Trash/Recycling",
    "request_reason": "Replace Trash Cart",
    "date_created": "2022-05-31T19:25:14.000",
    "date_modified": "2022-05-31T19:25:14.000",
    "request_status": "Pending",
    "responsible_agency": "Department of Sanitation",
    "final_address": "6450 Center St, New Orleans, Louisiana, 70124",
    "address_councildis": "A",
    "status": "Assigned to Contractor",
    "contractor": "Metro Disposal",
    "rowid": "887706",
    "final_x": "3664838.5698",
    "final_y": "551081.924885",
    "longitude": "-90.1200272763599",
    "latitude": "30.00977976061555",
    "geocoded_column": {
      "latitude": "30.00977976061555",
      "longitude": "-90.1200272763599"
    }
  },
  {
    "service_request": "2022-887705",
    "request_type": "Trash/Recycling",
    "request_reason": "Replace Trash Cart",
    "date_created": "2022-05-31T19:23:50.000",
    "date_modified": "2022-05-31T19:23:51.000",
    "request_status": "Pending",
    "responsible_agency": "Department of Sanitation",
    "final_address": "6448 Center St, New Orleans, Louisiana, 70124",
    "address_councildis": "A",
    "status": "Assigned to Contractor",
    "contractor": "Metro Disposal",
    "rowid": "887705",
    "final_x": "3664827.14061",
    "final_y": "551068.989333",
    "longitude": "-90.12006381815299",
    "latitude": "30.009744525102423",
    "geocoded_column": {
      "latitude": "30.009744525102423",
      "longitude": "-90.12006381815299"
    }
  },
  {
    "service_request": "2022-887704",
    "request_type": "Trash/Recycling",
    "request_reason": "MIssed Recycling Pick-Up",
    "date_created": "2022-05-31T19:12:39.000",
    "date_modified": "2022-05-31T19:12:40.000",
    "request_status": "Pending",
    "responsible_agency": "Department of Sanitation",
    "final_address": "1138 Josephine St, New Orleans, Louisiana, 70130",
    "address_councildis": "B",
    "status": "Assigned to Contractor",
    "contractor": "Richards Disposal",
    "rowid": "887704",
    "final_x": "3678939.07432",
    "final_y": "522549.966266",
    "longitude": "-90.0764674893942",
    "latitude": "29.930908578442235",
    "geocoded_column": {
      "latitude": "29.930908578442235",
      "longitude": "-90.0764674893942"
    }
  },
  {
    "service_request": "2022-887703",
    "request_type": "Trash/Recycling",
    "request_reason": "MIssed Recycling Pick-Up",
    "date_created": "2022-05-31T18:52:19.000",
    "date_modified": "2022-05-31T18:52:20.000",
    "request_status": "Pending",
    "responsible_agency": "Department of Sanitation",
    "final_address": "1138 Josephine St, New Orleans, Louisiana, 70130",
    "address_councildis": "B",
    "status": "Assigned to Contractor",
    "contractor": "Richards Disposal",
    "rowid": "887703",
    "final_x": "3678939.07432",
    "final_y": "522549.966266",
    "longitude": "-90.0764674893942",
    "latitude": "29.930908578442235",
    "geocoded_column": {
      "latitude": "29.930908578442235",
      "longitude": "-90.0764674893942"
    }
  },
  {
    "service_request": "2022-887702",
    "request_type": "Trash/Recycling",
    "request_reason": "Missed Trash Pick-Up",
    "date_created": "2022-05-31T18:50:45.000",
    "date_modified": "2022-05-31T18:50:46.000",
    "request_status": "Pending",
    "responsible_agency": "Department of Sanitation",
    "final_address": "2044 Camp St, New Orleans, Louisiana, 70130",
    "address_councildis": "B",
    "status": "Assigned to Contractor",
    "contractor": "Richards Disposal",
    "rowid": "887702",
    "final_x": "3679006.70702",
    "final_y": "522629.622522",
    "longitude": "-90.07625122350521",
    "latitude": "29.931125566986328",
    "geocoded_column": {
      "latitude": "29.931125566986328",
      "longitude": "-90.07625122350521"
    }
  },
  {
    "service_request": "2022-887701",
    "request_type": "Trash/Recycling",
    "request_reason": "Missed Trash Pick-Up",
    "date_created": "2022-05-31T18:48:42.000",
    "date_modified": "2022-05-31T18:48:42.000",
    "request_status": "Pending",
    "responsible_agency": "Department of Sanitation",
    "final_address": "2124 S Gayoso St",
    "address_councildis": "B",
    "status": "Assigned to Contractor",
    "contractor": "Richards Disposal",
    "rowid": "887701",
    "final_x": "3669691.5625",
    "final_y": "528928.721152",
    "longitude": "-90.10544490426787",
    "latitude": "29.948723765931963",
    "geocoded_column": {
      "latitude": "29.948723765931963",
      "longitude": "-90.10544490426787"
    }
  },
  {
    "service_request": "2022-887700",
    "request_type": "Roads/Drainage",
    "request_reason": "Man hole cover issue",
    "date_created": "2022-05-31T18:41:04.000",
    "date_modified": "2022-05-31T18:41:04.000",
    "request_status": "Pending",
    "responsible_agency": "Department of Public Works",
    "final_address": "3211 Dumaine St",
    "address_councildis": "A",
    "status": "Pending",
    "rowid": "887700",
    "final_x": "3675348.64552",
    "final_y": "538943.480266",
    "longitude": "-90.08723919011175",
    "latitude": "29.976093080575385",
    "geocoded_column": {
      "latitude": "29.976093080575385",
      "longitude": "-90.08723919011175"
    }
  },
  {
    "service_request": "2022-887699",
    "request_type": "Mayor's Request",
    "request_reason": "Requests to the Mayor",
    "date_created": "2022-05-31T18:15:00.000",
    "date_modified": "2022-05-31T18:15:00.000",
    "request_status": "Pending",
    "responsible_agency": "Executive Office of the Mayor",
    "final_address": "3400 Martin Luther King, Jr. Blvd",
    "address_councildis": "B",
    "status": "Pending",
    "rowid": "887699",
    "final_x": "3673749.54196",
    "final_y": "528850.255872",
    "longitude": "-90.09263479740146",
    "latitude": "29.948387817756462",
    "geocoded_column": {
      "latitude": "29.948387817756462",
      "longitude": "-90.09263479740146"
    }
  },
  {
    "service_request": "2022-887698",
    "request_type": "Health Related Questions",
    "request_reason": "Noise Ordinance Complaint",
    "date_created": "2022-05-31T18:14:04.000",
    "date_modified": "2022-05-31T18:14:05.000",
    "request_status": "Pending",
    "responsible_agency": "Health Department",
    "final_address": "1521 St Charles Ave Apt A",
    "address_councildis": "B",
    "status": "Pending",
    "rowid": "887698",
    "final_x": "3679037.37103",
    "final_y": "525416.447037",
    "longitude": "-90.07605788898293",
    "latitude": "29.938787491549874",
    "geocoded_column": {
      "latitude": "29.938787491549874",
      "longitude": "-90.07605788898293"
    }
  },
  {
    "service_request": "2022-887697",
    "request_type": "Trash/Recycling",
    "request_reason": "Illegal Dumping",
    "date_created": "2022-05-31T18:12:42.000",
    "date_modified": "2022-05-31T18:12:42.000",
    "request_status": "Pending",
    "responsible_agency": "Department of Sanitation",
    "final_address": "4213 S Robertson St",
    "address_councildis": "B",
    "status": "Pending",
    "rowid": "887697",
    "final_x": "3671115.49217",
    "final_y": "524487.052284",
    "longitude": "-90.10109975764466",
    "latitude": "29.936468589161773",
    "geocoded_column": {
      "latitude": "29.936468589161773",
      "longitude": "-90.10109975764466"
    }
  },
  {
    "service_request": "2022-887696",
    "request_type": "Trash/Recycling",
    "request_reason": "Request a Large Item Pick Up",
    "date_created": "2022-05-31T18:11:25.000",
    "date_modified": "2022-05-31T18:11:25.000",
    "request_status": "Pending",
    "responsible_agency": "Department of Sanitation",
    "final_address": "4119 Clara St",
    "address_councildis": "B",
    "status": "Assigned to Contractor",
    "contractor": "Richards Disposal",
    "rowid": "887696",
    "final_x": "3671437.27707",
    "final_y": "525286.055741",
    "longitude": "-90.10005671842734",
    "latitude": "29.938656070698716",
    "geocoded_column": {
      "latitude": "29.938656070698716",
      "longitude": "-90.10005671842734"
    }
  },
  {
    "service_request": "2022-887695",
    "request_type": "Trash/Recycling",
    "request_reason": "Request a Large Item Pick Up",
    "date_created": "2022-05-31T18:07:45.000",
    "date_modified": "2022-05-31T18:07:46.000",
    "request_status": "Pending",
    "responsible_agency": "Department of Sanitation",
    "final_address": "2512 Burdette St",
    "address_councildis": "A",
    "status": "Assigned to Contractor",
    "contractor": "Richards Disposal",
    "rowid": "887695",
    "final_x": "3666002.25024",
    "final_y": "531264.099906",
    "longitude": "-90.11701540574242",
    "latitude": "29.95525349049732",
    "geocoded_column": {
      "latitude": "29.95525349049732",
      "longitude": "-90.11701540574242"
    }
  },
  {
    "service_request": "2022-887694",
    "request_type": "Roads/Drainage",
    "request_reason": "Street Subsidence (Sinking)",
    "date_created": "2022-05-31T18:07:24.000",
    "date_modified": "2022-05-31T18:07:24.000",
    "request_status": "Pending",
    "responsible_agency": "Department of Public Works",
    "final_address": "1308 Henriette Delille St",
    "address_councildis": "C",
    "status": "Pending",
    "rowid": "887694",
    "final_x": "3682470.3652",
    "final_y": "535398.104134",
    "longitude": "-90.06487069953698",
    "latitude": "29.96612964479706",
    "geocoded_column": {
      "latitude": "29.96612964479706",
      "longitude": "-90.06487069953698"
    }
  },
  {
    "service_request": "2022-887693",
    "request_type": "Trash/Recycling",
    "request_reason": "MIssed Recycling Pick-Up",
    "date_created": "2022-05-31T18:06:04.000",
    "date_modified": "2022-05-31T18:06:05.000",
    "request_status": "Pending",
    "responsible_agency": "Department of Sanitation",
    "final_address": "2704 Soniat St",
    "address_councildis": "B",
    "status": "Assigned to Contractor",
    "contractor": "Richards Disposal",
    "rowid": "887693",
    "final_x": "3668517.15054",
    "final_y": "525383.145021",
    "longitude": "-90.10927262577508",
    "latitude": "29.939009132840326",
    "geocoded_column": {
      "latitude": "29.939009132840326",
      "longitude": "-90.10927262577508"
    }
  },
  {
    "service_request": "2022-887692",
    "request_type": "Trash/Recycling",
    "request_reason": "Missed Trash Pick-Up",
    "date_created": "2022-05-31T18:04:33.000",
    "date_modified": "2022-05-31T18:04:34.000",
    "request_status": "Pending",
    "responsible_agency": "Department of Sanitation",
    "final_address": "2704 Soniat St",
    "address_councildis": "B",
    "status": "Assigned to Contractor",
    "contractor": "Richards Disposal",
    "rowid": "887692",
    "final_x": "3668517.15054",
    "final_y": "525383.145021",
    "longitude": "-90.10927262577508",
    "latitude": "29.939009132840326",
    "geocoded_column": {
      "latitude": "29.939009132840326",
      "longitude": "-90.10927262577508"
    }
  },
  {
    "service_request": "2022-887691",
    "request_type": "Trash/Recycling",
    "request_reason": "Missed Trash Pick-Up",
    "date_created": "2022-05-31T18:01:10.000",
    "date_modified": "2022-05-31T18:01:11.000",
    "request_status": "Pending",
    "responsible_agency": "Department of Sanitation",
    "final_address": "200 Helena St",
    "address_councildis": "A",
    "status": "Assigned to Contractor",
    "contractor": "Richards Disposal",
    "rowid": "887691",
    "final_x": "3668537.04199",
    "final_y": "540880.589771",
    "longitude": "-90.108686902646",
    "latitude": "29.981621402344253",
    "geocoded_column": {
      "latitude": "29.981621402344253",
      "longitude": "-90.108686902646"
    }
  },
  {
    "service_request": "2022-887690",
    "request_type": "Trash/Recycling",
    "request_reason": "Illegal Dumping",
    "date_created": "2022-05-31T17:56:41.000",
    "date_modified": "2022-05-31T17:56:41.000",
    "request_status": "Pending",
    "responsible_agency": "Department of Sanitation",
    "final_address": "3401 Jackson Ave",
    "address_councildis": "B",
    "status": "Pending",
    "rowid": "887690",
    "final_x": "3673744.08718",
    "final_y": "528812.0112",
    "longitude": "-90.09265332792428",
    "latitude": "29.948282819930515",
    "geocoded_column": {
      "latitude": "29.948282819930515",
      "longitude": "-90.09265332792428"
    }
  },
  {
    "service_request": "2022-887689",
    "request_type": "Abandoned Vehicles",
    "request_reason": "Abandoned/Junk Vehicles",
    "date_created": "2022-05-31T17:52:36.000",
    "date_modified": "2022-05-31T17:52:36.000",
    "request_status": "Pending",
    "responsible_agency": "Department of Public Works",
    "final_address": "600 S Peters St",
    "address_councildis": "B",
    "status": "Pending",
    "rowid": "887689",
    "final_x": "3682267.25583",
    "final_y": "528487.586048",
    "longitude": "-90.06575353203566",
    "latitude": "29.947134251746462",
    "geocoded_column": {
      "latitude": "29.947134251746462",
      "longitude": "-90.06575353203566"
    }
  },
  {
    "service_request": "2022-887688",
    "request_type": "Trash/Recycling",
    "request_reason": "Missed Trash Pick-Up",
    "date_created": "2022-05-31T17:52:10.000",
    "date_modified": "2022-05-31T17:52:10.000",
    "request_status": "Pending",
    "responsible_agency": "Department of Sanitation",
    "final_address": "1525 Dufossat St",
    "address_councildis": "B",
    "status": "Assigned to Contractor",
    "contractor": "Richards Disposal",
    "rowid": "887688",
    "final_x": "3668161.69364",
    "final_y": "520678.110521",
    "longitude": "-90.11055336688219",
    "latitude": "29.926082227758133",
    "geocoded_column": {
      "latitude": "29.926082227758133",
      "longitude": "-90.11055336688219"
    }
  },
  {
    "service_request": "2022-887687",
    "request_type": "Trash/Recycling",
    "request_reason": "Replace Trash Cart",
    "date_created": "2022-05-31T17:49:08.000",
    "date_modified": "2022-05-31T17:49:09.000",
    "request_status": "Pending",
    "responsible_agency": "Department of Sanitation",
    "final_address": "512 Philip St",
    "address_councildis": "B",
    "status": "Assigned to Contractor",
    "contractor": "Richards Disposal",
    "rowid": "887687",
    "final_x": "3679801.88757",
    "final_y": "520149.941496",
    "longitude": "-90.0738269886915",
    "latitude": "29.924283244340984",
    "geocoded_column": {
      "latitude": "29.924283244340984",
      "longitude": "-90.0738269886915"
    }
  },
  {
    "service_request": "2022-887686",
    "request_type": "Trash/Recycling",
    "request_reason": "Request a Large Item Pick Up",
    "date_created": "2022-05-31T17:37:16.000",
    "date_modified": "2022-05-31T17:37:17.000",
    "request_status": "Pending",
    "responsible_agency": "Department of Sanitation",
    "final_address": "5531 Baccich St",
    "address_councildis": "D",
    "status": "Assigned to Contractor",
    "contractor": "Metro Disposal",
    "rowid": "887686",
    "final_x": "3687711.23158",
    "final_y": "553621.417367",
    "longitude": "-90.04767450132894",
    "latitude": "30.016076654003257",
    "geocoded_column": {
      "latitude": "30.016076654003257",
      "longitude": "-90.04767450132894"
    }
  },
  {
    "service_request": "2022-887683",
    "request_type": "Trash/Recycling",
    "request_reason": "Replace Recycling Cart",
    "date_created": "2022-05-31T17:18:57.000",
    "date_modified": "2022-05-31T17:18:57.000",
    "request_status": "Pending",
    "responsible_agency": "Department of Sanitation",
    "final_address": "916 Jena St",
    "address_councildis": "B",
    "status": "Pending",
    "rowid": "887683",
    "final_x": "3670609.42081",
    "final_y": "518902.111031",
    "longitude": "-90.1028867861079",
    "latitude": "29.92112674365691",
    "geocoded_column": {
      "latitude": "29.92112674365691",
      "longitude": "-90.1028867861079"
    }
  },
  {
    "service_request": "2022-887682",
    "request_type": "Abandoned Vehicles",
    "request_reason": "Abandoned/Junk Vehicles",
    "date_created": "2022-05-31T17:18:44.000",
    "date_modified": "2022-05-31T17:18:44.000",
    "request_status": "Pending",
    "responsible_agency": "Department of Public Works",
    "final_address": "1309 S Gayoso St",
    "address_councildis": "B",
    "status": "Pending",
    "rowid": "887682",
    "final_x": "3671013.52724",
    "final_y": "531219.661698",
    "longitude": "-90.10119310593954",
    "latitude": "29.95498407999172",
    "geocoded_column": {
      "latitude": "29.95498407999172",
      "longitude": "-90.10119310593954"
    }
  },
  {
    "service_request": "2022-887681",
    "request_type": "Abandoned Vehicles",
    "request_reason": "Abandoned/Junk Vehicles",
    "date_created": "2022-05-31T17:15:00.000",
    "date_modified": "2022-05-31T17:15:00.000",
    "request_status": "Pending",
    "responsible_agency": "Department of Public Works",
    "final_address": "SPAIN ST & MEXICO ST",
    "address_councildis": "D",
    "status": "Pending",
    "rowid": "887681",
    "final_x": "3684537.7",
    "final_y": "556231.38",
    "longitude": "-90.05760963118558",
    "latitude": "30.0233506172974",
    "geocoded_column": {
      "latitude": "30.0233506172974",
      "longitude": "-90.05760963118558"
    }
  },
  {
    "service_request": "2022-887680",
    "request_type": "Roads/Drainage",
    "request_reason": "Street Subsidence (Sinking)",
    "date_created": "2022-05-31T17:14:00.000",
    "date_modified": "2022-05-31T17:14:01.000",
    "request_status": "Pending",
    "responsible_agency": "Department of Public Works",
    "final_address": "S DERBIGNY ST & JENA ST",
    "address_councildis": "B",
    "status": "Pending",
    "rowid": "887680",
    "final_x": "3669916.2",
    "final_y": "526210.38",
    "longitude": "-90.10482764784226",
    "latitude": "29.941242591730514",
    "geocoded_column": {
      "latitude": "29.941242591730514",
      "longitude": "-90.10482764784226"
    }
  },
  {
    "service_request": "2022-887679",
    "request_type": "Trash/Recycling",
    "request_reason": "Start Trash Service",
    "date_created": "2022-05-31T17:02:50.000",
    "date_modified": "2022-05-31T17:02:50.000",
    "request_status": "Pending",
    "responsible_agency": "Department of Sanitation",
    "final_address": "1904 Milan St",
    "address_councildis": "B",
    "status": "Assigned to Contractor",
    "contractor": "Richards Disposal",
    "rowid": "887679",
    "final_x": "3671439.90388",
    "final_y": "522084.324538",
    "longitude": "-90.100157211905",
    "latitude": "29.929852265746902",
    "geocoded_column": {
      "latitude": "29.929852265746902",
      "longitude": "-90.100157211905"
    }
  },
  {
    "service_request": "2022-887678",
    "request_type": "Trash/Recycling",
    "request_reason": "Order Trash Cart",
    "date_created": "2022-05-31T17:02:31.000",
    "date_modified": "2022-05-31T17:02:31.000",
    "request_status": "Pending",
    "responsible_agency": "Department of Sanitation",
    "final_address": "1904 Milan St",
    "address_councildis": "B",
    "status": "Assigned to Contractor",
    "contractor": "Richards Disposal",
    "rowid": "887678",
    "final_x": "3671439.90388",
    "final_y": "522084.324538",
    "longitude": "-90.100157211905",
    "latitude": "29.929852265746902",
    "geocoded_column": {
      "latitude": "29.929852265746902",
      "longitude": "-90.100157211905"
    }
  },
  {
    "service_request": "2022-887677",
    "request_type": "Trash/Recycling",
    "request_reason": "Order Recycling Cart",
    "date_created": "2022-05-31T17:02:08.000",
    "date_modified": "2022-05-31T17:02:09.000",
    "request_status": "Pending",
    "responsible_agency": "Department of Sanitation",
    "final_address": "1904 Milan St",
    "address_councildis": "B",
    "status": "Pending",
    "rowid": "887677",
    "final_x": "3671439.90388",
    "final_y": "522084.324538",
    "longitude": "-90.100157211905",
    "latitude": "29.929852265746902",
    "geocoded_column": {
      "latitude": "29.929852265746902",
      "longitude": "-90.100157211905"
    }
  },
  {
    "service_request": "2022-887676",
    "request_type": "Trash/Recycling",
    "request_reason": "MIssed Recycling Pick-Up",
    "date_created": "2022-05-31T16:50:40.000",
    "date_modified": "2022-05-31T16:50:42.000",
    "request_status": "Pending",
    "responsible_agency": "Department of Sanitation",
    "final_address": "4200 BLK Clio St",
    "address_councildis": "B",
    "status": "Assigned to Contractor",
    "contractor": "Richards Disposal",
    "rowid": "887676",
    "final_x": "3671463.34995",
    "final_y": "531554.59055",
    "longitude": "-90.09976134625063",
    "latitude": "29.955891715716955",
    "geocoded_column": {
      "latitude": "29.955891715716955",
      "longitude": "-90.09976134625063"
    }
  },
  {
    "service_request": "2022-887675",
    "request_type": "Abandoned Vehicles",
    "request_reason": "Abandoned/Junk Vehicles",
    "date_created": "2022-05-31T16:49:23.000",
    "date_modified": "2022-05-31T16:49:23.000",
    "request_status": "Pending",
    "responsible_agency": "Department of Public Works",
    "final_address": "723 N Salcedo St",
    "address_councildis": "A",
    "status": "Pending",
    "rowid": "887675",
    "final_x": "3675522.91835",
    "final_y": "538038.875913",
    "longitude": "-90.08671986775683",
    "latitude": "29.97360051538253",
    "geocoded_column": {
      "latitude": "29.97360051538253",
      "longitude": "-90.08671986775683"
    }
  },
  {
    "service_request": "2022-887673",
    "request_type": "Trash/Recycling",
    "request_reason": "Request a Large Item Pick Up",
    "date_created": "2022-05-31T16:41:52.000",
    "date_modified": "2022-05-31T16:41:53.000",
    "request_status": "Pending",
    "responsible_agency": "Department of Sanitation",
    "final_address": "4721 Nighthart St",
    "address_councildis": "E",
    "status": "Assigned to Contractor",
    "contractor": "Metro Disposal",
    "rowid": "887673",
    "final_x": "3716212.90399",
    "final_y": "556869.44201",
    "longitude": "-89.95749964338819",
    "latitude": "30.02409732212641",
    "geocoded_column": {
      "latitude": "30.02409732212641",
      "longitude": "-89.95749964338819"
    }
  },
  {
    "service_request": "2022-887672",
    "request_type": "Trash/Recycling",
    "request_reason": "Missed Trash Pick-Up",
    "date_created": "2022-05-31T16:36:38.000",
    "date_modified": "2022-05-31T16:36:39.000",
    "request_status": "Pending",
    "responsible_agency": "Department of Sanitation",
    "final_address": "2317 General Taylor St",
    "address_councildis": "B",
    "status": "Assigned to Contractor",
    "contractor": "Richards Disposal",
    "rowid": "887672",
    "final_x": "3672064.4498",
    "final_y": "523641.758715",
    "longitude": "-90.09813262337482",
    "latitude": "29.934116210785053",
    "geocoded_column": {
      "latitude": "29.934116210785053",
      "longitude": "-90.09813262337482"
    }
  },
  {
    "service_request": "2022-887671",
    "request_type": "Traffic Signals/Signs/Striping/Streetlights",
    "request_reason": "Street Light Outage/Malfunction",
    "date_created": "2022-05-31T16:31:47.000",
    "date_modified": "2022-05-31T16:31:48.000",
    "request_status": "Pending",
    "responsible_agency": "Department of Public Works",
    "final_address": "2516 St Anthony St",
    "address_councildis": "D",
    "status": "Pending",
    "contractor": "Royal Engineering",
    "rowid": "887671",
    "final_x": "3683049.56335",
    "final_y": "541499.699212",
    "longitude": "-90.06282795685807",
    "latitude": "29.982889265970403",
    "geocoded_column": {
      "latitude": "29.982889265970403",
      "longitude": "-90.06282795685807"
    }
  },
  {
    "service_request": "2022-887670",
    "request_type": "Parks & Parkways",
    "request_reason": "Request Tree Service (Right of Way/Public Property)",
    "date_created": "2022-05-31T16:24:17.000",
    "date_modified": "2022-05-31T16:24:17.000",
    "request_status": "Pending",
    "responsible_agency": "Department of Parks & Parkway",
    "final_address": "1004 Esplanade Ave",
    "address_councildis": "C",
    "status": "Pending",
    "rowid": "887670",
    "final_x": "3683091.34242",
    "final_y": "535074.393478",
    "longitude": "-90.06292100452119",
    "latitude": "29.965220635350857",
    "geocoded_column": {
      "latitude": "29.965220635350857",
      "longitude": "-90.06292100452119"
    }
  },
  {
    "service_request": "2022-887669",
    "request_type": "Trash/Recycling",
    "request_reason": "Request a Large Item Pick Up",
    "date_created": "2022-05-31T16:20:19.000",
    "date_modified": "2022-05-31T16:20:20.000",
    "request_status": "Pending",
    "responsible_agency": "Department of Sanitation",
    "final_address": "7522 Burthe St",
    "address_councildis": "A",
    "status": "Assigned to Contractor",
    "contractor": "Richards Disposal",
    "rowid": "887669",
    "final_x": "3662662.02887",
    "final_y": "526271.35155",
    "longitude": "-90.12772852398922",
    "latitude": "29.941622106733433",
    "geocoded_column": {
      "latitude": "29.941622106733433",
      "longitude": "-90.12772852398922"
    }
  },
  {
    "service_request": "2022-887668",
    "request_type": "Trash/Recycling",
    "request_reason": "Replace Trash Cart",
    "date_created": "2022-05-31T16:18:54.000",
    "date_modified": "2022-05-31T16:18:56.000",
    "request_status": "Pending",
    "responsible_agency": "Department of Sanitation",
    "final_address": "2929 Ursulines Ave",
    "address_councildis": "A",
    "status": "Assigned to Contractor",
    "contractor": "Richards Disposal",
    "rowid": "887668",
    "final_x": "3676642.96142",
    "final_y": "538997.607306",
    "longitude": "-90.08314949454625",
    "latitude": "29.976203144820175",
    "geocoded_column": {
      "latitude": "29.976203144820175",
      "longitude": "-90.08314949454625"
    }
  },
  {
    "service_request": "2022-887667",
    "request_type": "Safety & Permits",
    "request_reason": "Licenses & Permits",
    "date_created": "2022-05-31T16:15:54.000",
    "date_modified": "2022-05-31T16:15:54.000",
    "request_status": "Pending",
    "responsible_agency": "Safety and Permits",
    "status": "Pending",
    "rowid": "887667",
    "longitude": "0.0",
    "latitude": "0.0",
    "geocoded_column": {
      "latitude": "0.0",
      "longitude": "0.0"
    }
  },
  {
    "service_request": "2022-887666",
    "request_type": "Trash/Recycling",
    "request_reason": "Request a Large Item Pick Up",
    "date_created": "2022-05-31T16:15:31.000",
    "date_modified": "2022-05-31T16:15:32.000",
    "request_status": "Pending",
    "responsible_agency": "Department of Sanitation",
    "final_address": "2904 Annunciation St",
    "address_councildis": "B",
    "status": "Assigned to Contractor",
    "contractor": "Richards Disposal",
    "rowid": "887666",
    "final_x": "3677195.50952",
    "final_y": "519559.198776",
    "longitude": "-90.0820747870896",
    "latitude": "29.922737411959783",
    "geocoded_column": {
      "latitude": "29.922737411959783",
      "longitude": "-90.0820747870896"
    }
  },
  {
    "service_request": "2022-887665",
    "request_type": "Trash/Recycling",
    "request_reason": "Repair Trash Cart",
    "date_created": "2022-05-31T16:09:20.000",
    "date_modified": "2022-05-31T16:09:21.000",
    "request_status": "Pending",
    "responsible_agency": "Department of Sanitation",
    "final_address": "441 Hendee St",
    "address_councildis": "C",
    "status": "Assigned to Contractor",
    "contractor": "Richards Disposal",
    "rowid": "887665",
    "final_x": "3690847.4175",
    "final_y": "529891.450497",
    "longitude": "-90.03861275325353",
    "latitude": "29.95073061503959",
    "geocoded_column": {
      "latitude": "29.95073061503959",
      "longitude": "-90.03861275325353"
    }
  },
  {
    "service_request": "2022-887664",
    "request_type": "Trash/Recycling",
    "request_reason": "Request a Large Item Pick Up",
    "date_created": "2022-05-31T16:06:14.000",
    "date_modified": "2022-05-31T16:06:15.000",
    "request_status": "Pending",
    "responsible_agency": "Department of Sanitation",
    "final_address": "1316 Music St",
    "address_councildis": "C",
    "status": "Assigned to Contractor",
    "contractor": "Metro Disposal",
    "rowid": "887664",
    "final_x": "3686744.05884",
    "final_y": "537337.20212",
    "longitude": "-90.0513059926546",
    "latitude": "29.971330708726494",
    "geocoded_column": {
      "latitude": "29.971330708726494",
      "longitude": "-90.0513059926546"
    }
  },
  {
    "service_request": "2022-887663",
    "request_type": "Property Maintenance",
    "request_reason": "Property Maintenance",
    "date_created": "2022-05-31T16:06:06.000",
    "date_modified": "2022-05-31T16:10:36.000",
    "case_close_date": "2022-05-31T11:10:36.000",
    "request_status": "Closed",
    "responsible_agency": "Department of Code Enforcement",
    "final_address": "8005 Brevard Ave",
    "address_councildis": "E",
    "status": "Referred to Code Enforcement",
    "rowid": "887663",
    "final_x": "3705877.43908",
    "final_y": "564389.120993",
    "longitude": "-89.98987891128323",
    "latitude": "30.04511066147646",
    "geocoded_column": {
      "latitude": "30.04511066147646",
      "longitude": "-89.98987891128323"
    }
  },
  {
    "service_request": "2022-887662",
    "request_type": "Abandoned Vehicles",
    "request_reason": "Abandoned/Junk Vehicles",
    "date_created": "2022-05-31T16:03:38.000",
    "date_modified": "2022-05-31T16:03:38.000",
    "request_status": "Pending",
    "responsible_agency": "Department of Public Works",
    "final_address": "5400 Bullard Ave",
    "address_councildis": "E",
    "status": "Pending",
    "rowid": "887662",
    "final_x": "3717697.01273",
    "final_y": "560958.731294",
    "longitude": "-89.9526545007138",
    "latitude": "30.035292143900087",
    "geocoded_column": {
      "latitude": "30.035292143900087",
      "longitude": "-89.9526545007138"
    }
  },
  {
    "service_request": "2022-887661",
    "request_type": "Trash/Recycling",
    "request_reason": "Missed Trash Pick-Up",
    "date_created": "2022-05-31T16:01:48.000",
    "date_modified": "2022-05-31T16:01:49.000",
    "request_status": "Pending",
    "responsible_agency": "Department of Sanitation",
    "final_address": "307 S Cortez St",
    "address_councildis": "A",
    "status": "Assigned to Contractor",
    "contractor": "Richards Disposal",
    "rowid": "887661",
    "final_x": "3671512.87636",
    "final_y": "536938.534408",
    "longitude": "-90.0994218854018",
    "latitude": "29.970694297734703",
    "geocoded_column": {
      "latitude": "29.970694297734703",
      "longitude": "-90.0994218854018"
    }
  },
  {
    "service_request": "2022-887660",
    "request_type": "Property Maintenance",
    "request_reason": "Property Maintenance",
    "date_created": "2022-05-31T16:00:40.000",
    "date_modified": "2022-05-31T16:05:03.000",
    "case_close_date": "2022-05-31T11:05:03.000",
    "request_status": "Closed",
    "responsible_agency": "Department of Code Enforcement",
    "final_address": "2003 Kerlerec St",
    "address_councildis": "D",
    "status": "Referred to Code Enforcement",
    "rowid": "887660",
    "final_x": "3680363.51253",
    "final_y": "537812.14292",
    "longitude": "-90.0714401322197",
    "latitude": "29.972831384594304",
    "geocoded_column": {
      "latitude": "29.972831384594304",
      "longitude": "-90.0714401322197"
    }
  },
  {
    "service_request": "2022-887658",
    "request_type": "Trash/Recycling",
    "request_reason": "Missed Trash Pick-Up",
    "date_created": "2022-05-31T15:56:57.000",
    "date_modified": "2022-05-31T15:56:58.000",
    "request_status": "Pending",
    "responsible_agency": "Department of Sanitation",
    "final_address": "3421 Chestnut St",
    "address_councildis": "B",
    "status": "Assigned to Contractor",
    "contractor": "Richards Disposal",
    "rowid": "887658",
    "final_x": "3674540.20929",
    "final_y": "520265.839032",
    "longitude": "-90.0904323341557",
    "latitude": "29.92475990769322",
    "geocoded_column": {
      "latitude": "29.92475990769322",
      "longitude": "-90.0904323341557"
    }
  },
  {
    "service_request": "2022-887657",
    "request_type": "Trash/Recycling",
    "request_reason": "Replace Recycling Cart",
    "date_created": "2022-05-31T15:56:12.000",
    "date_modified": "2022-05-31T15:56:12.000",
    "request_status": "Pending",
    "responsible_agency": "Department of Sanitation",
    "final_address": "2514 Baronne St",
    "address_councildis": "B",
    "status": "Pending",
    "rowid": "887657",
    "final_x": "3676190.23221",
    "final_y": "523555.296827",
    "longitude": "-90.08511064017645",
    "latitude": "29.93375553132869",
    "geocoded_column": {
      "latitude": "29.93375553132869",
      "longitude": "-90.08511064017645"
    }
  },
  {
    "service_request": "2022-887656",
    "request_type": "Trash/Recycling",
    "request_reason": "Illegal Dumping",
    "date_created": "2022-05-31T15:55:28.000",
    "date_modified": "2022-05-31T16:01:16.000",
    "request_status": "Pending",
    "responsible_agency": "Safety and Permits",
    "final_address": "7020 Bundy Rd",
    "address_councildis": "E",
    "status": "Wrong Agency",
    "rowid": "887656",
    "final_x": "3706936.81745",
    "final_y": "560832.740382",
    "longitude": "-89.98666289655809",
    "latitude": "30.035297830078417",
    "geocoded_column": {
      "latitude": "30.035297830078417",
      "longitude": "-89.98666289655809"
    }
  },
  {
    "service_request": "2022-887655",
    "request_type": "Trash/Recycling",
    "request_reason": "Request a Large Item Pick Up",
    "date_created": "2022-05-31T15:53:06.000",
    "date_modified": "2022-05-31T15:53:07.000",
    "request_status": "Pending",
    "responsible_agency": "Department of Sanitation",
    "final_address": "3103 Toulouse St",
    "address_councildis": "A",
    "status": "Assigned to Contractor",
    "contractor": "Richards Disposal",
    "rowid": "887655",
    "final_x": "3675163.26785",
    "final_y": "537584.634376",
    "longitude": "-90.08787131515871",
    "latitude": "29.972362259866248",
    "geocoded_column": {
      "latitude": "29.972362259866248",
      "longitude": "-90.08787131515871"
    }
  },
  {
    "service_request": "2022-887654",
    "request_type": "Trash/Recycling",
    "request_reason": "Repair Trash Cart",
    "date_created": "2022-05-31T15:52:31.000",
    "date_modified": "2022-05-31T15:52:32.000",
    "request_status": "Pending",
    "responsible_agency": "Department of Sanitation",
    "final_address": "4236 Jena St",
    "address_councildis": "A",
    "status": "Assigned to Contractor",
    "contractor": "Richards Disposal",
    "rowid": "887654",
    "final_x": "3669289.73057",
    "final_y": "528947.075776",
    "longitude": "-90.1067130420768",
    "latitude": "29.948786069250286",
    "geocoded_column": {
      "latitude": "29.948786069250286",
      "longitude": "-90.1067130420768"
    }
  },
  {
    "service_request": "2022-887651",
    "request_type": "Parks & Parkways",
    "request_reason": "Request Tree Service (Right of Way/Public Property)",
    "date_created": "2022-05-31T15:51:47.000",
    "date_modified": "2022-05-31T15:51:48.000",
    "request_status": "Pending",
    "responsible_agency": "Department of Parks & Parkway",
    "final_address": "1230 Elysian Fields Ave",
    "address_councildis": "C",
    "status": "Pending",
    "rowid": "887651",
    "final_x": "3684820.78505",
    "final_y": "536924.85428",
    "longitude": "-90.0573944532087",
    "latitude": "29.97025592418966",
    "geocoded_column": {
      "latitude": "29.97025592418966",
      "longitude": "-90.0573944532087"
    }
  },
  {
    "service_request": "2022-887650",
    "request_type": "Trash/Recycling",
    "request_reason": "Request a Large Item Pick Up",
    "date_created": "2022-05-31T15:48:57.000",
    "date_modified": "2022-05-31T15:48:58.000",
    "request_status": "Pending",
    "responsible_agency": "Department of Sanitation",
    "final_address": "935 Barracks St",
    "address_councildis": "C",
    "status": "Assigned to Contractor",
    "contractor": "Empire Services",
    "rowid": "887650",
    "final_x": "3683086.21858",
    "final_y": "534841.932102",
    "longitude": "-90.06294532425949",
    "latitude": "29.96458160274991",
    "geocoded_column": {
      "latitude": "29.96458160274991",
      "longitude": "-90.06294532425949"
    }
  },
  {
    "service_request": "2022-887649",
    "request_type": "Trash/Recycling",
    "request_reason": "Request a Large Item Pick Up",
    "date_created": "2022-05-31T15:48:34.000",
    "date_modified": "2022-05-31T15:48:35.000",
    "request_status": "Pending",
    "responsible_agency": "Department of Sanitation",
    "final_address": "726 Constantinople St, New Orleans, Louisiana, 70115",
    "address_councildis": "B",
    "status": "Assigned to Contractor",
    "contractor": "Richards Disposal",
    "rowid": "887649",
    "final_x": "3672520.83195",
    "final_y": "518427.588598",
    "longitude": "-90.09686946700529",
    "latitude": "29.91976538146753",
    "geocoded_column": {
      "latitude": "29.91976538146753",
      "longitude": "-90.09686946700529"
    }
  },
  {
    "service_request": "2022-887648",
    "request_type": "Property Maintenance",
    "request_reason": "Property Maintenance",
    "date_created": "2022-05-31T15:48:24.000",
    "date_modified": "2022-05-31T15:49:39.000",
    "case_close_date": "2022-05-31T10:49:39.000",
    "request_status": "Closed",
    "responsible_agency": "Department of Code Enforcement",
    "final_address": "13 Avoyelles Pl",
    "address_councildis": "E",
    "status": "Referred to Code Enforcement",
    "rowid": "887648",
    "final_x": "3725754.30304",
    "final_y": "564561.229409",
    "longitude": "-89.92705277956554",
    "latitude": "30.04492811228528",
    "geocoded_column": {
      "latitude": "30.04492811228528",
      "longitude": "-89.92705277956554"
    }
  },
  {
    "service_request": "2022-887647",
    "request_type": "Abandoned Vehicles",
    "request_reason": "Abandoned/Junk Vehicles",
    "date_created": "2022-05-31T15:47:34.000",
    "date_modified": "2022-05-31T15:47:34.000",
    "request_status": "Pending",
    "responsible_agency": "Department of Public Works",
    "final_address": "3016 Laurel St",
    "address_councildis": "B",
    "status": "Pending",
    "rowid": "887647",
    "final_x": "3676662.60213",
    "final_y": "519637.969144",
    "longitude": "-90.083754254255",
    "latitude": "29.922969995602905",
    "geocoded_column": {
      "latitude": "29.922969995602905",
      "longitude": "-90.083754254255"
    }
  },
  {
    "service_request": "2022-887646",
    "request_type": "Traffic Signals/Signs/Striping/Streetlights",
    "request_reason": "Street Name Sign Damaged or Missing",
    "date_created": "2022-05-31T15:45:47.000",
    "date_modified": "2022-05-31T15:45:47.000",
    "request_status": "Pending",
    "responsible_agency": "Department of Public Works",
    "final_address": "6900 Edgefield Dr",
    "address_councildis": "E",
    "status": "Pending",
    "rowid": "887646",
    "final_x": "3719216.80876",
    "final_y": "568413.605221",
    "longitude": "-89.94756683869356",
    "latitude": "30.055739549275785",
    "geocoded_column": {
      "latitude": "30.055739549275785",
      "longitude": "-89.94756683869356"
    }
  },
  {
    "service_request": "2022-887645",
    "request_type": "Trash/Recycling",
    "request_reason": "Request a Large Item Pick Up",
    "date_created": "2022-05-31T15:45:21.000",
    "date_modified": "2022-05-31T15:45:22.000",
    "request_status": "Pending",
    "responsible_agency": "Department of Sanitation",
    "final_address": "28 English Turn Dr",
    "address_councildis": "C",
    "status": "Assigned to Contractor",
    "contractor": "Richards Disposal",
    "rowid": "887645",
    "final_x": "3720275.13791",
    "final_y": "514566.431923",
    "longitude": "-89.94628199001066",
    "latitude": "29.90764527551761",
    "geocoded_column": {
      "latitude": "29.90764527551761",
      "longitude": "-89.94628199001066"
    }
  },
  {
    "service_request": "2022-887644",
    "request_type": "Property Maintenance",
    "request_reason": "Property Maintenance",
    "date_created": "2022-05-31T15:44:58.000",
    "date_modified": "2022-05-31T15:48:28.000",
    "case_close_date": "2022-05-31T10:48:28.000",
    "request_status": "Closed",
    "responsible_agency": "Department of Code Enforcement",
    "final_address": "DORIAN ST & PINES BLVD",
    "address_councildis": "D",
    "status": "Referred to Code Enforcement",
    "rowid": "887644",
    "final_x": "3696379.2",
    "final_y": "556180.68",
    "longitude": "-90.02019503121772",
    "latitude": "30.0228433906859",
    "geocoded_column": {
      "latitude": "30.0228433906859",
      "longitude": "-90.02019503121772"
    }
  },
  {
    "service_request": "2022-887643",
    "request_type": "Property Maintenance",
    "request_reason": "Property Maintenance",
    "date_created": "2022-05-31T15:44:02.000",
    "date_modified": "2022-05-31T15:51:45.000",
    "case_close_date": "2022-05-31T10:51:45.000",
    "request_status": "Closed",
    "responsible_agency": "Department of Code Enforcement",
    "final_address": "1901 St Ferdinand St",
    "address_councildis": "D",
    "status": "Referred to Code Enforcement",
    "rowid": "887643",
    "final_x": "3688656.64553",
    "final_y": "539379.395338",
    "longitude": "-90.04519328688323",
    "latitude": "29.976887041850095",
    "geocoded_column": {
      "latitude": "29.976887041850095",
      "longitude": "-90.04519328688323"
    }
  },
  {
    "service_request": "2022-887642",
    "request_type": "Property Maintenance",
    "request_reason": "Property Maintenance",
    "date_created": "2022-05-31T15:43:12.000",
    "date_modified": "2022-05-31T15:57:53.000",
    "case_close_date": "2022-05-31T10:57:53.000",
    "request_status": "Closed",
    "responsible_agency": "Department of Code Enforcement",
    "final_address": "2718 N Prieur St",
    "address_councildis": "D",
    "status": "Referred to Code Enforcement",
    "rowid": "887642",
    "final_x": "3688330.45775",
    "final_y": "539321.280778",
    "longitude": "-90.04622555010765",
    "latitude": "29.97673732617848",
    "geocoded_column": {
      "latitude": "29.97673732617848",
      "longitude": "-90.04622555010765"
    }
  },
  {
    "service_request": "2022-887641",
    "request_type": "Traffic Signals/Signs/Striping/Streetlights",
    "request_reason": "Street Light Outage/Malfunction",
    "date_created": "2022-05-31T15:42:30.000",
    "date_modified": "2022-05-31T15:42:31.000",
    "request_status": "Pending",
    "responsible_agency": "Department of Public Works",
    "final_address": "6900 Edgefield Dr",
    "address_councildis": "E",
    "status": "Pending",
    "contractor": "Royal Engineering",
    "rowid": "887641",
    "final_x": "3719216.80876",
    "final_y": "568413.605221",
    "longitude": "-89.94756683869356",
    "latitude": "30.055739549275785",
    "geocoded_column": {
      "latitude": "30.055739549275785",
      "longitude": "-89.94756683869356"
    }
  },
  {
    "service_request": "2022-887640",
    "request_type": "Trash/Recycling",
    "request_reason": "Order Trash Cart",
    "date_created": "2022-05-31T15:38:48.000",
    "date_modified": "2022-05-31T15:38:49.000",
    "request_status": "Pending",
    "responsible_agency": "Department of Sanitation",
    "final_address": "2017 Cambronne St",
    "address_councildis": "A",
    "status": "Assigned to Contractor",
    "contractor": "Richards Disposal",
    "rowid": "887640",
    "final_x": "3663187.54253",
    "final_y": "531267.712514",
    "longitude": "-90.12590313956089",
    "latitude": "29.9553452792785",
    "geocoded_column": {
      "latitude": "29.9553452792785",
      "longitude": "-90.12590313956089"
    }
  },
  {
    "service_request": "2022-887639",
    "request_type": "Trash/Recycling",
    "request_reason": "Missed Trash Pick-Up",
    "date_created": "2022-05-31T15:33:17.000",
    "date_modified": "2022-05-31T15:33:18.000",
    "request_status": "Pending",
    "responsible_agency": "Department of Sanitation",
    "final_address": "1673 St Thomas St",
    "address_councildis": "B",
    "status": "Assigned to Contractor",
    "contractor": "Richards Disposal",
    "rowid": "887639",
    "final_x": "3681350.30024",
    "final_y": "522161.01113",
    "longitude": "-90.06886913647479",
    "latitude": "29.929766134820813",
    "geocoded_column": {
      "latitude": "29.929766134820813",
      "longitude": "-90.06886913647479"
    }
  },
  {
    "service_request": "2022-887638",
    "request_type": "Trash/Recycling",
    "request_reason": "Repair Trash Cart",
    "date_created": "2022-05-31T15:31:57.000",
    "date_modified": "2022-05-31T15:34:57.000",
    "request_status": "Pending",
    "responsible_agency": "Department of Sanitation",
    "final_address": "New Orleans,LA",
    "address_councildis": "B",
    "status": "Assigned to Contractor",
    "contractor": "Richards Disposal",
    "rowid": "887638",
    "final_x": "3672386.35284",
    "final_y": "535411.189702",
    "longitude": "-90.09671539224095",
    "latitude": "29.96646872136742",
    "geocoded_column": {
      "latitude": "29.96646872136742",
      "longitude": "-90.09671539224095"
    }
  },
  {
    "service_request": "2022-887637",
    "request_type": "Trash/Recycling",
    "request_reason": "Order Recycling Cart",
    "date_created": "2022-05-31T15:31:31.000",
    "date_modified": "2022-05-31T15:31:31.000",
    "request_status": "Pending",
    "responsible_agency": "Department of Sanitation",
    "final_address": "7830 Trapier Ave",
    "address_councildis": "E",
    "status": "Pending",
    "rowid": "887637",
    "final_x": "3706183.08401",
    "final_y": "564129.886369",
    "longitude": "-89.98892254823173",
    "latitude": "30.044388012435522",
    "geocoded_column": {
      "latitude": "30.044388012435522",
      "longitude": "-89.98892254823173"
    }
  },
  {
    "service_request": "2022-887636",
    "request_type": "Traffic Signals/Signs/Striping/Streetlights",
    "request_reason": "Street Name Sign Damaged or Missing",
    "date_created": "2022-05-31T15:29:21.000",
    "date_modified": "2022-05-31T15:29:22.000",
    "request_status": "Pending",
    "responsible_agency": "Department of Public Works",
    "final_address": "S PARKWOOD CT & WRIGHT RD",
    "address_councildis": "E",
    "status": "Pending",
    "rowid": "887636",
    "final_x": "3716236.7",
    "final_y": "558662.48",
    "longitude": "-89.95735641777858",
    "latitude": "30.029026675858486",
    "geocoded_column": {
      "latitude": "30.029026675858486",
      "longitude": "-89.95735641777858"
    }
  },
  {
    "service_request": "2022-887635",
    "request_type": "Trash/Recycling",
    "request_reason": "Order Trash Cart",
    "date_created": "2022-05-31T15:28:11.000",
    "date_modified": "2022-05-31T15:28:12.000",
    "request_status": "Pending",
    "responsible_agency": "Department of Sanitation",
    "final_address": "2615 Loyola Ave",
    "address_councildis": "B",
    "status": "Assigned to Contractor",
    "contractor": "Richards Disposal",
    "rowid": "887635",
    "final_x": "3675122.87214",
    "final_y": "524611.26214",
    "longitude": "-90.0884440309981",
    "latitude": "29.936691019589727",
    "geocoded_column": {
      "latitude": "29.936691019589727",
      "longitude": "-90.0884440309981"
    }
  },
  {
    "service_request": "2022-887634",
    "request_type": "Trash/Recycling",
    "request_reason": "Replace Trash Cart",
    "date_created": "2022-05-31T15:22:06.000",
    "date_modified": "2022-05-31T15:22:08.000",
    "request_status": "Pending",
    "responsible_agency": "Department of Sanitation",
    "final_address": "436 S Norman C Francis Pkwy, New Orleans, Louisiana, 70119",
    "status": "Assigned to Contractor",
    "rowid": "887634",
    "longitude": "0.0",
    "latitude": "0.0",
    "geocoded_column": {
      "latitude": "0.0",
      "longitude": "0.0"
    }
  },
  {
    "service_request": "2022-887633",
    "request_type": "Trash/Recycling",
    "request_reason": "Missed Trash Pick-Up",
    "date_created": "2022-05-31T15:21:17.000",
    "date_modified": "2022-05-31T15:21:17.000",
    "request_status": "Pending",
    "responsible_agency": "Department of Sanitation",
    "final_address": "3651 Rue Michelle",
    "address_councildis": "C",
    "status": "Assigned to Contractor",
    "contractor": "Richards Disposal",
    "rowid": "887633",
    "final_x": "3703529.5731",
    "final_y": "517070.400437",
    "longitude": "-89.99904068755625",
    "latitude": "29.91507709047361",
    "geocoded_column": {
      "latitude": "29.91507709047361",
      "longitude": "-89.99904068755625"
    }
  },
  {
    "service_request": "2022-887632",
    "request_type": "Traffic Signals/Signs/Striping/Streetlights",
    "request_reason": "Street Light Outage/Malfunction",
    "date_created": "2022-05-31T15:20:41.000",
    "date_modified": "2022-05-31T15:45:09.000",
    "request_status": "Pending",
    "responsible_agency": "Department of Public Works",
    "final_address": "2720 Hudson Pl",
    "address_councildis": "C",
    "status": "Pending",
    "contractor": "Royal Engineering",
    "rowid": "887632",
    "final_x": "3703436.57207",
    "final_y": "520832.625529",
    "longitude": "-89.99919596694772",
    "latitude": "29.92542488918217",
    "geocoded_column": {
      "latitude": "29.92542488918217",
      "longitude": "-89.99919596694772"
    }
  },
  {
    "service_request": "2022-887631",
    "request_type": "Property Maintenance",
    "request_reason": "Property Maintenance",
    "date_created": "2022-05-31T15:20:11.000",
    "date_modified": "2022-05-31T15:42:47.000",
    "case_close_date": "2022-05-31T10:42:47.000",
    "request_status": "Closed",
    "responsible_agency": "Department of Code Enforcement",
    "final_address": "1569 Athis St",
    "address_councildis": "D",
    "status": "Referred to Code Enforcement",
    "rowid": "887631",
    "final_x": "3678916.07899",
    "final_y": "553855.734487",
    "longitude": "-90.07545517078597",
    "latitude": "30.0169893528633",
    "geocoded_column": {
      "latitude": "30.0169893528633",
      "longitude": "-90.07545517078597"
    }
  },
  {
    "service_request": "2022-887630",
    "request_type": "Trash/Recycling",
    "request_reason": "Order Trash Cart",
    "date_created": "2022-05-31T15:18:33.000",
    "date_modified": "2022-05-31T15:18:34.000",
    "request_status": "Pending",
    "responsible_agency": "Department of Sanitation",
    "final_address": "721 Tricou St",
    "address_councildis": "E",
    "status": "Assigned to Contractor",
    "contractor": "Metro Disposal",
    "rowid": "887630",
    "final_x": "3699663.33226",
    "final_y": "531790.441667",
    "longitude": "-90.01070756354369",
    "latitude": "29.955675320726783",
    "geocoded_column": {
      "latitude": "29.955675320726783",
      "longitude": "-90.01070756354369"
    }
  },
  {
    "service_request": "2022-887629",
    "request_type": "Safety & Permits",
    "request_reason": "Licenses & Permits",
    "date_created": "2022-05-31T15:17:58.000",
    "date_modified": "2022-05-31T15:17:59.000",
    "request_status": "Pending",
    "responsible_agency": "Safety and Permits",
    "final_address": "3423 Esplanade Ave",
    "address_councildis": "A",
    "status": "Pending",
    "rowid": "887629",
    "final_x": "3675269.76987",
    "final_y": "541299.720012",
    "longitude": "-90.08740738568288",
    "latitude": "29.982574289350204",
    "geocoded_column": {
      "latitude": "29.982574289350204",
      "longitude": "-90.08740738568288"
    }
  },
  {
    "service_request": "2022-887628",
    "request_type": "Trash/Recycling",
    "request_reason": "Request a Large Item Pick Up",
    "date_created": "2022-05-31T15:17:26.000",
    "date_modified": "2022-05-31T15:17:27.000",
    "request_status": "Pending",
    "responsible_agency": "Department of Sanitation",
    "final_address": "6051 Pratt Dr",
    "address_councildis": "D",
    "status": "Assigned to Contractor",
    "contractor": "Metro Disposal",
    "rowid": "887628",
    "final_x": "3680281.53679",
    "final_y": "554909.038232",
    "longitude": "-90.07110422925419",
    "latitude": "30.019844268031232",
    "geocoded_column": {
      "latitude": "30.019844268031232",
      "longitude": "-90.07110422925419"
    }
  },
  {
    "service_request": "2022-887627",
    "request_type": "Trash/Recycling",
    "request_reason": "Request a Large Item Pick Up",
    "date_created": "2022-05-31T15:12:31.000",
    "date_modified": "2022-05-31T15:12:32.000",
    "request_status": "Pending",
    "responsible_agency": "Department of Sanitation",
    "final_address": "2127 Brainard St",
    "address_councildis": "B",
    "status": "Assigned to Contractor",
    "contractor": "Richards Disposal",
    "rowid": "887627",
    "final_x": "3677262.17685",
    "final_y": "524362.4663",
    "longitude": "-90.08169872556545",
    "latitude": "29.935942830670648",
    "geocoded_column": {
      "latitude": "29.935942830670648",
      "longitude": "-90.08169872556545"
    }
  },
  {
    "service_request": "2022-887626",
    "request_type": "Trash/Recycling",
    "request_reason": "Order Trash Cart",
    "date_created": "2022-05-31T15:09:57.000",
    "date_modified": "2022-05-31T15:09:58.000",
    "request_status": "Pending",
    "responsible_agency": "Department of Sanitation",
    "final_address": "8 Fortress Rd",
    "address_councildis": "D",
    "status": "Assigned to Contractor",
    "contractor": "Metro Disposal",
    "rowid": "887626",
    "final_x": "3676574.57281",
    "final_y": "554765.448472",
    "longitude": "-90.08282199988913",
    "latitude": "30.01956120849668",
    "geocoded_column": {
      "latitude": "30.01956120849668",
      "longitude": "-90.08282199988913"
    }
  },
  {
    "service_request": "2022-887625",
    "request_type": "Trash/Recycling",
    "request_reason": "Order Recycling Cart",
    "date_created": "2022-05-31T15:09:37.000",
    "date_modified": "2022-05-31T15:09:37.000",
    "request_status": "Pending",
    "responsible_agency": "Department of Sanitation",
    "final_address": "8 Fortress Rd",
    "address_councildis": "D",
    "status": "Pending",
    "rowid": "887625",
    "final_x": "3676574.57281",
    "final_y": "554765.448472",
    "longitude": "-90.08282199988913",
    "latitude": "30.01956120849668",
    "geocoded_column": {
      "latitude": "30.01956120849668",
      "longitude": "-90.08282199988913"
    }
  },
  {
    "service_request": "2022-887624",
    "request_type": "Property Maintenance",
    "request_reason": "Property Maintenance",
    "date_created": "2022-05-31T15:08:31.000",
    "date_modified": "2022-05-31T15:45:18.000",
    "case_close_date": "2022-05-31T10:45:18.000",
    "request_status": "Closed",
    "responsible_agency": "Department of Code Enforcement",
    "final_address": "3919 Thalia St",
    "address_councildis": "B",
    "status": "Referred to Code Enforcement",
    "rowid": "887624",
    "final_x": "3672410.8594",
    "final_y": "530214.365249",
    "longitude": "-90.09681510333533",
    "latitude": "29.95217845762609",
    "geocoded_column": {
      "latitude": "29.95217845762609",
      "longitude": "-90.09681510333533"
    }
  },
  {
    "service_request": "2022-887622",
    "request_type": "Trash/Recycling",
    "request_reason": "Request a Large Item Pick Up",
    "date_created": "2022-05-31T15:00:23.000",
    "date_modified": "2022-05-31T15:00:24.000",
    "request_status": "Pending",
    "responsible_agency": "Department of Sanitation",
    "final_address": "1214 Bourbon St",
    "address_councildis": "C",
    "status": "Assigned to Contractor",
    "contractor": "Empire Services",
    "rowid": "887622",
    "final_x": "3683509.07413",
    "final_y": "534185.618501",
    "longitude": "-90.06163298131538",
    "latitude": "29.96276406840365",
    "geocoded_column": {
      "latitude": "29.96276406840365",
      "longitude": "-90.06163298131538"
    }
  },
  {
    "service_request": "2022-887621",
    "request_type": "Trash/Recycling",
    "request_reason": "Request a Large Item Pick Up",
    "date_created": "2022-05-31T14:56:26.000",
    "date_modified": "2022-05-31T14:56:26.000",
    "request_status": "Pending",
    "responsible_agency": "Department of Sanitation",
    "final_address": "3539 Louisiana Avenue Prkwy",
    "address_councildis": "B",
    "status": "Assigned to Contractor",
    "contractor": "Richards Disposal",
    "rowid": "887621",
    "final_x": "3671591.94747",
    "final_y": "528109.258367",
    "longitude": "-90.09947242783709",
    "latitude": "29.946414379192255",
    "geocoded_column": {
      "latitude": "29.946414379192255",
      "longitude": "-90.09947242783709"
    }
  },
  {
    "service_request": "2022-887620",
    "request_type": "Trash/Recycling",
    "request_reason": "Request a Large Item Pick Up",
    "date_created": "2022-05-31T14:55:20.000",
    "date_modified": "2022-05-31T14:55:21.000",
    "request_status": "Pending",
    "responsible_agency": "Department of Sanitation",
    "final_address": "1721 Louisiana Ave",
    "address_councildis": "B",
    "status": "Assigned to Contractor",
    "contractor": "Richards Disposal",
    "rowid": "887620",
    "final_x": "3674031.18926",
    "final_y": "522105.119674",
    "longitude": "-90.0919762438695",
    "latitude": "29.929832508606207",
    "geocoded_column": {
      "latitude": "29.929832508606207",
      "longitude": "-90.0919762438695"
    }
  },
  {
    "service_request": "2022-887619",
    "request_type": "Trash/Recycling",
    "request_reason": "Illegal Dumping",
    "date_created": "2022-05-31T14:53:35.000",
    "date_modified": "2022-05-31T14:53:36.000",
    "request_status": "Pending",
    "responsible_agency": "Department of Sanitation",
    "final_address": "BOSTON DR & I 10 W SERVICE RD",
    "address_councildis": "E",
    "status": "Pending",
    "rowid": "887619",
    "final_x": "3706761.2",
    "final_y": "559960.48",
    "longitude": "-89.98725025415393",
    "latitude": "30.032905131376985",
    "geocoded_column": {
      "latitude": "30.032905131376985",
      "longitude": "-89.98725025415393"
    }
  },
  {
    "service_request": "2022-887618",
    "request_type": "Trash/Recycling",
    "request_reason": "Order Trash Cart",
    "date_created": "2022-05-31T14:46:56.000",
    "date_modified": "2022-05-31T14:46:56.000",
    "request_status": "Pending",
    "responsible_agency": "Department of Sanitation",
    "final_address": "6300 Essex Ct",
    "address_councildis": "C",
    "status": "Assigned to Contractor",
    "contractor": "Richards Disposal",
    "rowid": "887618",
    "final_x": "3707141.50033",
    "final_y": "517562.495926",
    "longitude": "-89.98762199746746",
    "latitude": "29.916314038205243",
    "geocoded_column": {
      "latitude": "29.916314038205243",
      "longitude": "-89.98762199746746"
    }
  },
  {
    "service_request": "2022-887617",
    "request_type": "Property Maintenance",
    "request_reason": "Property Maintenance",
    "date_created": "2022-05-31T14:44:40.000",
    "date_modified": "2022-05-31T16:08:53.000",
    "case_close_date": "2022-05-31T11:08:53.000",
    "request_status": "Closed",
    "responsible_agency": "Department of Code Enforcement",
    "final_address": "3450 Constance St",
    "address_councildis": "B",
    "status": "Referred to Code Enforcement",
    "rowid": "887617",
    "final_x": "3674759.63701",
    "final_y": "519061.288439",
    "longitude": "-90.0897809389902",
    "latitude": "29.921441234390297",
    "geocoded_column": {
      "latitude": "29.921441234390297",
      "longitude": "-90.0897809389902"
    }
  },
  {
    "service_request": "2022-887616",
    "request_type": "Traffic Signals/Signs/Striping/Streetlights",
    "request_reason": "Street Light Outage/Malfunction",
    "date_created": "2022-05-31T14:43:30.000",
    "date_modified": "2022-05-31T14:43:31.000",
    "request_status": "Pending",
    "responsible_agency": "Department of Public Works",
    "final_address": "3464 Constance St",
    "address_councildis": "B",
    "status": "Pending",
    "contractor": "Royal Engineering",
    "rowid": "887616",
    "final_x": "3674644.72027",
    "final_y": "519039.212919",
    "longitude": "-90.09014443741758",
    "latitude": "29.921383962587463",
    "geocoded_column": {
      "latitude": "29.921383962587463",
      "longitude": "-90.09014443741758"
    }
  },
  {
    "service_request": "2022-887615",
    "request_type": "Trash/Recycling",
    "request_reason": "Order Recycling Cart",
    "date_created": "2022-05-31T14:42:40.000",
    "date_modified": "2022-05-31T14:42:41.000",
    "request_status": "Pending",
    "responsible_agency": "Department of Sanitation",
    "final_address": "1820 General Pershing St",
    "address_councildis": "B",
    "status": "Pending",
    "rowid": "887615",
    "final_x": "3671099.31572",
    "final_y": "521816.01177",
    "longitude": "-90.10124150076255",
    "latitude": "29.92912456618847",
    "geocoded_column": {
      "latitude": "29.92912456618847",
      "longitude": "-90.10124150076255"
    }
  },
  {
    "service_request": "2022-887614",
    "request_type": "Traffic Signals/Signs/Striping/Streetlights",
    "request_reason": "Street Light Outage/Malfunction",
    "date_created": "2022-05-31T14:40:40.000",
    "date_modified": "2022-05-31T14:42:46.000",
    "request_status": "Pending",
    "responsible_agency": "Department of Public Works",
    "final_address": "3450 Constance St",
    "address_councildis": "B",
    "status": "Pending",
    "contractor": "Royal Engineering",
    "rowid": "887614",
    "final_x": "3674759.63701",
    "final_y": "519061.288439",
    "longitude": "-90.0897809389902",
    "latitude": "29.921441234390297",
    "geocoded_column": {
      "latitude": "29.921441234390297",
      "longitude": "-90.0897809389902"
    }
  },
  {
    "service_request": "2022-887613",
    "request_type": "Property Maintenance",
    "request_reason": "Property Maintenance",
    "date_created": "2022-05-31T14:37:07.000",
    "date_modified": "2022-05-31T16:16:45.000",
    "case_close_date": "2022-05-31T11:16:45.000",
    "request_status": "Closed",
    "responsible_agency": "Department of Code Enforcement",
    "final_address": "5294 Tullis Dr",
    "address_councildis": "C",
    "status": "Referred to Code Enforcement",
    "rowid": "887613",
    "final_x": "3703355.15287",
    "final_y": "511984.4268",
    "longitude": "-89.99977804673003",
    "latitude": "29.90109797903933",
    "geocoded_column": {
      "latitude": "29.90109797903933",
      "longitude": "-89.99977804673003"
    }
  },
  {
    "service_request": "2022-887612",
    "request_type": "Trash/Recycling",
    "request_reason": "Request a Large Item Pick Up",
    "date_created": "2022-05-31T14:33:56.000",
    "date_modified": "2022-05-31T14:33:57.000",
    "request_status": "Pending",
    "responsible_agency": "Department of Sanitation",
    "final_address": "607 N Salcedo St",
    "address_councildis": "A",
    "status": "Assigned to Contractor",
    "contractor": "Richards Disposal",
    "rowid": "887612",
    "final_x": "3675207.72929",
    "final_y": "537621.8706",
    "longitude": "-90.08772961966766",
    "latitude": "29.972463317902942",
    "geocoded_column": {
      "latitude": "29.972463317902942",
      "longitude": "-90.08772961966766"
    }
  },
  {
    "service_request": "2022-887611",
    "request_type": "Trash/Recycling",
    "request_reason": "Request a Large Item Pick Up",
    "date_created": "2022-05-31T14:33:55.000",
    "date_modified": "2022-05-31T14:33:55.000",
    "request_status": "Pending",
    "responsible_agency": "Department of Sanitation",
    "final_address": "824 Burgundy St",
    "address_councildis": "C",
    "status": "Assigned to Contractor",
    "contractor": "Empire Services",
    "rowid": "887611",
    "final_x": "3682061.59221",
    "final_y": "533557.834053",
    "longitude": "-90.06622585963966",
    "latitude": "29.961081969079178",
    "geocoded_column": {
      "latitude": "29.961081969079178",
      "longitude": "-90.06622585963966"
    }
  },
  {
    "service_request": "2022-887610",
    "request_type": "Trash/Recycling",
    "request_reason": "Request a Large Item Pick Up",
    "date_created": "2022-05-31T14:33:32.000",
    "date_modified": "2022-05-31T14:33:32.000",
    "request_status": "Pending",
    "responsible_agency": "Department of Sanitation",
    "final_address": "4529 Duplessis St",
    "address_councildis": "D",
    "status": "Assigned to Contractor",
    "contractor": "Metro Disposal",
    "rowid": "887610",
    "final_x": "3678298.13237",
    "final_y": "549316.310355",
    "longitude": "-90.07756481433321",
    "latitude": "30.00452620381254",
    "geocoded_column": {
      "latitude": "30.00452620381254",
      "longitude": "-90.07756481433321"
    }
  },
  {
    "service_request": "2022-887609",
    "request_type": "Trash/Recycling",
    "request_reason": "Request a Large Item Pick Up",
    "date_created": "2022-05-31T14:30:18.000",
    "date_modified": "2022-05-31T14:30:19.000",
    "request_status": "Pending",
    "responsible_agency": "Department of Sanitation",
    "final_address": "6027 S Robertson St",
    "address_councildis": "A",
    "status": "Assigned to Contractor",
    "contractor": "Richards Disposal",
    "rowid": "887609",
    "final_x": "3666297.43252",
    "final_y": "524890.457468",
    "longitude": "-90.11629708639653",
    "latitude": "29.93771941466362",
    "geocoded_column": {
      "latitude": "29.93771941466362",
      "longitude": "-90.11629708639653"
    }
  },
  {
    "service_request": "2022-887608",
    "request_type": "Parks & Parkways",
    "request_reason": "Request Grass Cutting Service (City Owned Property)",
    "date_created": "2022-05-31T14:28:28.000",
    "date_modified": "2022-05-31T14:28:29.000",
    "request_status": "Pending",
    "responsible_agency": "Department of Parks & Parkway",
    "final_address": "SEGUIN ST & MORGAN ST",
    "address_councildis": "C",
    "status": "Pending",
    "rowid": "887608",
    "final_x": "3685755.7",
    "final_y": "530853.18",
    "longitude": "-90.05465587695525",
    "latitude": "29.95353225665018",
    "geocoded_column": {
      "latitude": "29.95353225665018",
      "longitude": "-90.05465587695525"
    }
  },
  {
    "service_request": "2022-887607",
    "request_type": "Trash/Recycling",
    "request_reason": "Order Trash Cart",
    "date_created": "2022-05-31T14:25:20.000",
    "date_modified": "2022-05-31T14:25:21.000",
    "request_status": "Pending",
    "responsible_agency": "Department of Sanitation",
    "final_address": "1219 Henriette Delille St",
    "address_councildis": "C",
    "status": "Assigned to Contractor",
    "contractor": "Richards Disposal",
    "rowid": "887607",
    "final_x": "3682257.74024",
    "final_y": "535249.05383",
    "longitude": "-90.06554737143117",
    "latitude": "29.965726278103695",
    "geocoded_column": {
      "latitude": "29.965726278103695",
      "longitude": "-90.06554737143117"
    }
  },
  {
    "service_request": "2022-887606",
    "request_type": "Roads/Drainage",
    "request_reason": "Road Shoulder Repair",
    "date_created": "2022-05-31T14:23:02.000",
    "date_modified": "2022-05-31T16:20:13.000",
    "request_status": "Pending",
    "responsible_agency": "Department of Public Works",
    "final_address": "2537 Mexico St",
    "address_councildis": "D",
    "rowid": "887606",
    "final_x": "3685897.16162",
    "final_y": "556414.28297",
    "longitude": "-90.05330757280059",
    "latitude": "30.023811845244513",
    "geocoded_column": {
      "latitude": "30.023811845244513",
      "longitude": "-90.05330757280059"
    }
  },
  {
    "service_request": "2022-887605",
    "request_type": "Trash/Recycling",
    "request_reason": "MIssed Recycling Pick-Up",
    "date_created": "2022-05-31T14:20:19.000",
    "date_modified": "2022-05-31T14:20:20.000",
    "request_status": "Pending",
    "responsible_agency": "Department of Sanitation",
    "final_address": "5827 Magnolia St, New Orleans, Louisiana, 70115",
    "address_councildis": "A",
    "status": "Assigned to Contractor",
    "contractor": "Richards Disposal",
    "rowid": "887605",
    "final_x": "3666841.47911",
    "final_y": "525000.547517",
    "longitude": "-90.11457578599395",
    "latitude": "29.93800622681478",
    "geocoded_column": {
      "latitude": "29.93800622681478",
      "longitude": "-90.11457578599395"
    }
  },
  {
    "service_request": "2022-887604",
    "request_type": "Property Maintenance",
    "request_reason": "Property Maintenance",
    "date_created": "2022-05-31T14:18:44.000",
    "date_modified": "2022-05-31T16:41:51.000",
    "case_close_date": "2022-05-31T11:41:51.000",
    "request_status": "Closed",
    "responsible_agency": "Department of Code Enforcement",
    "final_address": "901 Poland Ave",
    "address_councildis": "C",
    "status": "Referred to Code Enforcement",
    "rowid": "887604",
    "final_x": "3692912.7023",
    "final_y": "534227.378245",
    "longitude": "-90.0319361742049",
    "latitude": "29.96258857372489",
    "geocoded_column": {
      "latitude": "29.96258857372489",
      "longitude": "-90.0319361742049"
    }
  },
  {
    "service_request": "2022-887603",
    "request_type": "Trash/Recycling",
    "request_reason": "Replace Trash Cart",
    "date_created": "2022-05-31T14:07:36.000",
    "date_modified": "2022-05-31T14:07:37.000",
    "request_status": "Pending",
    "responsible_agency": "Department of Sanitation",
    "final_address": "5832 Colbert St",
    "address_councildis": "A",
    "status": "Assigned to Contractor",
    "contractor": "Metro Disposal",
    "rowid": "887603",
    "final_x": "3667267.85178",
    "final_y": "546371.110736",
    "longitude": "-90.11251084735255",
    "latitude": "29.996755701402265",
    "geocoded_column": {
      "latitude": "29.996755701402265",
      "longitude": "-90.11251084735255"
    }
  },
  {
    "service_request": "2022-887602",
    "request_type": "Trash/Recycling",
    "request_reason": "Repair Trash Cart",
    "date_created": "2022-05-31T14:03:54.000",
    "date_modified": "2022-05-31T14:03:59.000",
    "request_status": "Pending",
    "responsible_agency": "Department of Sanitation",
    "final_address": "4313 S Prieur St",
    "address_councildis": "B",
    "status": "Assigned to Contractor",
    "contractor": "Richards Disposal",
    "rowid": "887602",
    "final_x": "3670508.52852",
    "final_y": "526976.461694",
    "longitude": "-90.10293157829669",
    "latitude": "29.94333159201122",
    "geocoded_column": {
      "latitude": "29.94333159201122",
      "longitude": "-90.10293157829669"
    }
  },
  {
    "service_request": "2022-887601",
    "request_type": "Trash/Recycling",
    "request_reason": "Repair Trash Cart",
    "date_created": "2022-05-31T14:03:29.000",
    "date_modified": "2022-05-31T14:03:37.000",
    "request_status": "Pending",
    "responsible_agency": "Department of Sanitation",
    "final_address": "4311 S Prieur St",
    "address_councildis": "B",
    "status": "Assigned to Contractor",
    "contractor": "Richards Disposal",
    "rowid": "887601",
    "final_x": "3670544.07553",
    "final_y": "526979.575166",
    "longitude": "-90.10281924146415",
    "latitude": "29.94333910344019",
    "geocoded_column": {
      "latitude": "29.94333910344019",
      "longitude": "-90.10281924146415"
    }
  },
  {
    "service_request": "2022-887600",
    "request_type": "Property Maintenance",
    "request_reason": "Property Maintenance",
    "date_created": "2022-05-31T13:57:22.000",
    "date_modified": "2022-05-31T13:57:23.000",
    "request_status": "Pending",
    "responsible_agency": "Department of Code Enforcement",
    "final_address": "9701 W Rockton Cir",
    "address_councildis": "E",
    "status": "Pending",
    "rowid": "887600",
    "final_x": "3708279.93963",
    "final_y": "562696.851616",
    "longitude": "-89.98234898949605",
    "latitude": "30.040379924531216",
    "geocoded_column": {
      "latitude": "30.040379924531216",
      "longitude": "-89.98234898949605"
    }
  },
  {
    "service_request": "2022-887599",
    "request_type": "Abandoned Vehicles",
    "request_reason": "Abandoned/Junk Vehicles",
    "date_created": "2022-05-31T13:55:46.000",
    "date_modified": "2022-05-31T13:55:46.000",
    "request_status": "Pending",
    "responsible_agency": "Department of Public Works",
    "final_address": "8040 Pebble Dr",
    "address_councildis": "E",
    "status": "Pending",
    "rowid": "887599",
    "final_x": "3714139.33983",
    "final_y": "570179.972711",
    "longitude": "-89.9635488577118",
    "latitude": "30.060764198877877",
    "geocoded_column": {
      "latitude": "30.060764198877877",
      "longitude": "-89.9635488577118"
    }
  },
  {
    "service_request": "2022-887598",
    "request_type": "Trash/Recycling",
    "request_reason": "Request a Large Item Pick Up",
    "date_created": "2022-05-31T13:54:05.000",
    "date_modified": "2022-05-31T13:54:06.000",
    "request_status": "Pending",
    "responsible_agency": "Department of Sanitation",
    "final_address": "7510 Shubrick Ave",
    "address_councildis": "E",
    "status": "Assigned to Contractor",
    "contractor": "Metro Disposal",
    "rowid": "887598",
    "final_x": "3706917.24471",
    "final_y": "563318.931616",
    "longitude": "-89.98663240904878",
    "latitude": "30.042134504248033",
    "geocoded_column": {
      "latitude": "30.042134504248033",
      "longitude": "-89.98663240904878"
    }
  },
  {
    "service_request": "2022-887597",
    "request_type": "Abandoned Vehicles",
    "request_reason": "Abandoned/Junk Vehicles",
    "date_created": "2022-05-31T13:52:54.000",
    "date_modified": "2022-05-31T13:52:54.000",
    "request_status": "Pending",
    "responsible_agency": "Department of Public Works",
    "final_address": "7701 Wave Dr",
    "address_councildis": "E",
    "status": "Pending",
    "rowid": "887597",
    "final_x": "3714764.27007",
    "final_y": "569172.509158",
    "longitude": "-89.96161161485875",
    "latitude": "30.05797353343509",
    "geocoded_column": {
      "latitude": "30.05797353343509",
      "longitude": "-89.96161161485875"
    }
  },
  {
    "service_request": "2022-887596",
    "request_type": "Property Maintenance",
    "request_reason": "Property Maintenance",
    "date_created": "2022-05-31T13:46:38.000",
    "date_modified": "2022-05-31T13:47:26.000",
    "request_status": "Pending",
    "responsible_agency": "Department of Code Enforcement",
    "final_address": "2606 Egania St",
    "address_councildis": "E",
    "status": "Pending",
    "rowid": "887596",
    "final_x": "3698366.10487",
    "final_y": "539784.871114",
    "longitude": "-90.0145131797807",
    "latitude": "29.97769824957538",
    "geocoded_column": {
      "latitude": "29.97769824957538",
      "longitude": "-90.0145131797807"
    }
  },
  {
    "service_request": "2022-887595",
    "request_type": "Abandoned Vehicles",
    "request_reason": "Abandoned/Junk Vehicles",
    "date_created": "2022-05-31T13:45:59.000",
    "date_modified": "2022-05-31T13:45:59.000",
    "request_status": "Pending",
    "responsible_agency": "Department of Public Works",
    "final_address": "7661 Wave Dr",
    "address_councildis": "E",
    "status": "Pending",
    "rowid": "887595",
    "final_x": "3714906.95352",
    "final_y": "568974.38167",
    "longitude": "-89.9611681134045",
    "latitude": "30.057424067034063",
    "geocoded_column": {
      "latitude": "30.057424067034063",
      "longitude": "-89.9611681134045"
    }
  },
  {
    "service_request": "2022-887594",
    "request_type": "Traffic Signals/Signs/Striping/Streetlights",
    "request_reason": "Street Light Outage/Malfunction",
    "date_created": "2022-05-31T13:42:52.000",
    "date_modified": "2022-05-31T13:42:52.000",
    "request_status": "Pending",
    "responsible_agency": "Department of Public Works",
    "final_address": "2200 Jay St",
    "address_councildis": "D",
    "status": "Pending",
    "contractor": "Royal Engineering",
    "rowid": "887594",
    "final_x": "3683628.98991",
    "final_y": "557157.745243",
    "longitude": "-90.06044844229433",
    "latitude": "30.02592556665525",
    "geocoded_column": {
      "latitude": "30.02592556665525",
      "longitude": "-90.06044844229433"
    }
  },
  {
    "service_request": "2022-887593",
    "request_type": "Property Maintenance",
    "request_reason": "Property Maintenance",
    "date_created": "2022-05-31T13:41:26.000",
    "date_modified": "2022-05-31T13:41:26.000",
    "request_status": "Pending",
    "responsible_agency": "Department of Code Enforcement",
    "final_address": "6647 Avenue B",
    "address_councildis": "A",
    "status": "Pending",
    "rowid": "887593",
    "final_x": "3665796.6128",
    "final_y": "552398.486358",
    "longitude": "-90.11695630754785",
    "latitude": "30.013371916593645",
    "geocoded_column": {
      "latitude": "30.013371916593645",
      "longitude": "-90.11695630754785"
    }
  },
  {
    "service_request": "2022-887592",
    "request_type": "Property Maintenance",
    "request_reason": "Property Maintenance",
    "date_created": "2022-05-31T13:41:00.000",
    "date_modified": "2022-05-31T13:41:00.000",
    "request_status": "Pending",
    "responsible_agency": "Department of Code Enforcement",
    "final_address": "1934 Pace Blvd",
    "address_councildis": "C",
    "status": "Pending",
    "rowid": "887592",
    "final_x": "3694511.51165",
    "final_y": "523366.071099",
    "longitude": "-90.02727831668864",
    "latitude": "29.932673723122484",
    "geocoded_column": {
      "latitude": "29.932673723122484",
      "longitude": "-90.02727831668864"
    }
  },
  {
    "service_request": "2022-887590",
    "request_type": "Trash/Recycling",
    "request_reason": "Replace Recycling Cart",
    "date_created": "2022-05-31T13:40:15.000",
    "date_modified": "2022-05-31T13:40:15.000",
    "request_status": "Pending",
    "responsible_agency": "Department of Sanitation",
    "final_address": "6647 Avenue B",
    "address_councildis": "A",
    "status": "Pending",
    "rowid": "887590",
    "final_x": "3665796.6128",
    "final_y": "552398.486358",
    "longitude": "-90.11695630754785",
    "latitude": "30.013371916593645",
    "geocoded_column": {
      "latitude": "30.013371916593645",
      "longitude": "-90.11695630754785"
    }
  },
  {
    "service_request": "2022-887589",
    "request_type": "Traffic Signals/Signs/Striping/Streetlights",
    "request_reason": "Street Light Outage/Malfunction",
    "date_created": "2022-05-31T13:39:40.000",
    "date_modified": "2022-05-31T13:39:41.000",
    "request_status": "Pending",
    "responsible_agency": "Department of Public Works",
    "final_address": "11 New Basin Way",
    "address_councildis": "A",
    "status": "Pending",
    "contractor": "Royal Engineering",
    "rowid": "887589",
    "final_x": "3666688.3746",
    "final_y": "554712.42652",
    "longitude": "-90.11406100681539",
    "latitude": "30.019708378005763",
    "geocoded_column": {
      "latitude": "30.019708378005763",
      "longitude": "-90.11406100681539"
    }
  },
  {
    "service_request": "2022-887588",
    "request_type": "Trash/Recycling",
    "request_reason": "Order Trash Cart",
    "date_created": "2022-05-31T13:38:59.000",
    "date_modified": "2022-05-31T13:39:02.000",
    "request_status": "Pending",
    "responsible_agency": "Department of Sanitation",
    "final_address": "1852 Laurel St",
    "address_councildis": "B",
    "status": "Assigned to Contractor",
    "contractor": "Richards Disposal",
    "rowid": "887588",
    "final_x": "3680315.73378",
    "final_y": "522277.497978",
    "longitude": "-90.0721310341647",
    "latitude": "29.93011778702921",
    "geocoded_column": {
      "latitude": "29.93011778702921",
      "longitude": "-90.0721310341647"
    }
  },
  {
    "service_request": "2022-887587",
    "request_type": "Traffic Signals/Signs/Striping/Streetlights",
    "request_reason": "Traffic Signal Malfunctioning/Damaged",
    "date_created": "2022-05-31T13:35:03.000",
    "date_modified": "2022-05-31T13:35:03.000",
    "request_status": "Pending",
    "responsible_agency": "Department of Public Works",
    "final_address": "2800 Magazine St",
    "address_councildis": "B",
    "status": "Pending",
    "rowid": "887587",
    "final_x": "3677043.71477",
    "final_y": "520751.717689",
    "longitude": "-90.08251285137224",
    "latitude": "29.926021009751096",
    "geocoded_column": {
      "latitude": "29.926021009751096",
      "longitude": "-90.08251285137224"
    }
  },
  {
    "service_request": "2022-887586",
    "request_type": "Property Maintenance",
    "request_reason": "Property Maintenance",
    "date_created": "2022-05-31T13:31:31.000",
    "date_modified": "2022-05-31T13:31:32.000",
    "request_status": "Pending",
    "responsible_agency": "Department of Code Enforcement",
    "final_address": "4979 Western St",
    "address_councildis": "D",
    "status": "Pending",
    "rowid": "887586",
    "final_x": "3684129.04143",
    "final_y": "551328.903957",
    "longitude": "-90.0590731729094",
    "latitude": "30.00988310791313",
    "geocoded_column": {
      "latitude": "30.00988310791313",
      "longitude": "-90.0590731729094"
    }
  },
  {
    "service_request": "2022-887585",
    "request_type": "Trash/Recycling",
    "request_reason": "MIssed Recycling Pick-Up",
    "date_created": "2022-05-31T13:30:57.000",
    "date_modified": "2022-05-31T13:30:58.000",
    "request_status": "Pending",
    "responsible_agency": "Department of Sanitation",
    "final_address": "2314 Octavia St",
    "address_councildis": "A",
    "status": "Assigned to Contractor",
    "contractor": "Richards Disposal",
    "rowid": "887585",
    "final_x": "3667563.1826",
    "final_y": "524215.7831",
    "longitude": "-90.11232369870703",
    "latitude": "29.93582724925723",
    "geocoded_column": {
      "latitude": "29.93582724925723",
      "longitude": "-90.11232369870703"
    }
  },
  {
    "service_request": "2022-887584",
    "request_type": "Roads/Drainage",
    "request_reason": "Pothole",
    "date_created": "2022-05-31T13:17:28.000",
    "date_modified": "2022-05-31T13:17:28.000",
    "request_status": "Pending",
    "responsible_agency": "Department of Public Works",
    "final_address": "1431 Cleveland Ave",
    "address_councildis": "B",
    "status": "Pending",
    "rowid": "887584",
    "final_x": "3679003.65922",
    "final_y": "531852.149507",
    "longitude": "-90.07594135813909",
    "latitude": "29.956484540730425",
    "geocoded_column": {
      "latitude": "29.956484540730425",
      "longitude": "-90.07594135813909"
    }
  },
  {
    "service_request": "2022-887583",
    "request_type": "Traffic Signals/Signs/Striping/Streetlights",
    "request_reason": "Street Light Outage/Malfunction",
    "date_created": "2022-05-31T13:14:23.000",
    "date_modified": "2022-05-31T13:14:24.000",
    "request_status": "Pending",
    "responsible_agency": "Department of Public Works",
    "final_address": "3017 Short St",
    "address_councildis": "B",
    "status": "Pending",
    "contractor": "Royal Engineering",
    "rowid": "887583",
    "final_x": "3666811.99105",
    "final_y": "532891.26778",
    "longitude": "-90.1144038752442",
    "latitude": "29.959704009326995",
    "geocoded_column": {
      "latitude": "29.959704009326995",
      "longitude": "-90.1144038752442"
    }
  },
  {
    "service_request": "2022-887582",
    "request_type": "Trash/Recycling",
    "request_reason": "Request a Large Item Pick Up",
    "date_created": "2022-05-31T13:13:24.000",
    "date_modified": "2022-05-31T13:13:25.000",
    "request_status": "Pending",
    "responsible_agency": "Department of Sanitation",
    "final_address": "7600 Ligustrum Dr",
    "address_councildis": "E",
    "status": "Assigned to Contractor",
    "contractor": "Metro Disposal",
    "rowid": "887582",
    "final_x": "3701486.78724",
    "final_y": "561010.499166",
    "longitude": "-90.00387926486114",
    "latitude": "30.03596159143587",
    "geocoded_column": {
      "latitude": "30.03596159143587",
      "longitude": "-90.00387926486114"
    }
  },
  {
    "service_request": "2022-887581",
    "request_type": "Traffic Signals/Signs/Striping/Streetlights",
    "request_reason": "Street Light Outage/Malfunction",
    "date_created": "2022-05-31T13:12:23.000",
    "date_modified": "2022-05-31T13:12:24.000",
    "request_status": "Pending",
    "responsible_agency": "Department of Public Works",
    "final_address": "Pratt Dr & Killdeer St, New Orleans, Louisiana, 70122",
    "status": "Pending",
    "contractor": "Royal Engineering",
    "rowid": "887581",
    "longitude": "0.0",
    "latitude": "0.0",
    "geocoded_column": {
      "latitude": "0.0",
      "longitude": "0.0"
    }
  },