[
  {
    "service_request": "2025-1204302",
    "request_type": "Trash/Recycling",
    "request_reason": "Replace Recycling Cart",
    "date_created": "2025-06-25T23:00:06.000",
    "date_modified": "2025-06-25T23:00:08.000",
    "request_status": "Pending",
    "responsible_agency": "Department of Sanitation",
    "final_address": "8234 Plum St",
    "address_councildis": "A",
    "status": "Pending",
    "rowid": "1204302",
    "final_x": "3661686.16269",
    "final_y": "529042.105472",
    "longitude": "-90.13071773271973",
    "latitude": "29.949268992438018",
    "geocoded_column": {
      "latitude": "29.949268992438018",
      "longitude": "-90.13071773271973"
    }
  },
  {
    "service_request": "2025-1204301",
    "request_type": "Property Maintenance",
    "request_reason": "Property Maintenance",
    "date_created": "2025-06-25T22:40:50.000",
    "date_modified": "2025-06-25T22:40:53.000",
    "request_status": "Pending",
    "responsible_agency": "Department of Code Enforcement",
    "final_address": "8926 Forshey St",
    "address_councildis": "A",
    "status": "Pending",
    "rowid": "1204301",
    "final_x": "3664710.99872",
    "final_y": "535961.134471",
    "longitude": "-90.12093579036345",
    "latitude": "29.968206421889406",
    "geocoded_column": {
      "latitude": "29.968206421889406",
      "longitude": "-90.12093579036345"
    }
  },
  {
    "service_request": "2025-1204300",
    "request_type": "Trash/Recycling",
    "request_reason": "Replace Trash Cart",
    "date_created": "2025-06-25T22:25:02.000",
    "date_modified": "2025-06-25T22:25:04.000",
    "request_status": "Pending",
    "responsible_agency": "Department of Sanitation",
    "final_address": "3317 St Philip St",
    "address_councildis": "A",
    "status": "Assigned to Contractor",
    "contractor": "IV Waste",
    "rowid": "1204300",
    "final_x": "3675280.00648",
    "final_y": "539539.702218",
    "longitude": "-90.08743549772964",
    "latitude": "29.977734539135458",
    "geocoded_column": {
      "latitude": "29.977734539135458",
      "longitude": "-90.08743549772964"
    }
  },
  {
    "service_request": "2025-1204299",
    "request_type": "Streetlights",
    "request_reason": "Streetlight Outage/Malfunction",
    "date_created": "2025-06-25T21:59:18.000",
    "date_modified": "2025-06-25T21:59:26.000",
    "request_status": "Pending",
    "responsible_agency": "Department of Public Works",
    "final_address": "900 BLK Seventh St",
    "address_councildis": "B",
    "status": "Pending",
    "contractor": "Legacy Professional Services",
    "rowid": "1204299",
    "final_x": "3676674.98027",
    "final_y": "519914.529512",
    "longitude": "-90.08370566057935",
    "latitude": "29.923730076055648",
    "geocoded_column": {
      "latitude": "29.923730076055648",
      "longitude": "-90.08370566057935"
    }
  },
  {
    "service_request": "2025-1204298",
    "request_type": "Streetlights",
    "request_reason": "Streetlight Outage/Malfunction",
    "date_created": "2025-06-25T21:58:17.000",
    "date_modified": "2025-06-25T21:58:19.000",
    "request_status": "Pending",
    "responsible_agency": "Department of Public Works",
    "final_address": "900 BLK Seventh St",
    "address_councildis": "B",
    "status": "Pending",
    "contractor": "Legacy Professional Services",
    "rowid": "1204298",
    "final_x": "3676674.98027",
    "final_y": "519914.529512",
    "longitude": "-90.08370566057935",
    "latitude": "29.923730076055648",
    "geocoded_column": {
      "latitude": "29.923730076055648",
      "longitude": "-90.08370566057935"
    }
  },
  {
    "service_request": "2025-1204297",
    "request_type": "Streetlights",
    "request_reason": "Streetlight Outage/Malfunction",
    "date_created": "2025-06-25T21:30:18.000",
    "date_modified": "2025-06-25T21:30:21.000",
    "request_status": "Pending",
    "responsible_agency": "Department of Public Works",
    "final_address": "635 Eleonore St",
    "address_councildis": "A",
    "status": "Pending",
    "contractor": "Legacy Professional Services",
    "rowid": "1204297",
    "final_x": "3665180.01575",
    "final_y": "518674.891959",
    "longitude": "-90.12003265592244",
    "latitude": "29.920661160336483",
    "geocoded_column": {
      "latitude": "29.920661160336483",
      "longitude": "-90.12003265592244"
    }
  },
  {
    "service_request": "2025-1204296",
    "request_type": "Trash/Recycling",
    "request_reason": "Request a Large Item Pick Up",
    "date_created": "2025-06-25T21:21:13.000",
    "date_modified": "2025-06-25T21:21:14.000",
    "request_status": "Pending",
    "responsible_agency": "Department of Sanitation",
    "final_address": "4225 S Roman St",
    "address_councildis": "B",
    "status": "Assigned to Contractor",
    "contractor": "IV Waste",
    "rowid": "1204296",
    "final_x": "3670820.74619",
    "final_y": "526680.587518",
    "longitude": "-90.10195586385639",
    "latitude": "29.94250881213357",
    "geocoded_column": {
      "latitude": "29.94250881213357",
      "longitude": "-90.10195586385639"
    }
  },
  {
    "service_request": "2025-1204295",
    "request_type": "Trash/Recycling",
    "request_reason": "Request a Large Item Pick Up",
    "date_created": "2025-06-25T21:15:14.000",
    "date_modified": "2025-06-25T21:15:16.000",
    "request_status": "Pending",
    "responsible_agency": "Department of Sanitation",
    "final_address": "2123 Forstall St",
    "address_councildis": "E",
    "status": "Assigned to Contractor",
    "contractor": "Waste Pro",
    "rowid": "1204295",
    "final_x": "3697432.74224",
    "final_y": "538103.127433",
    "longitude": "-90.01752203617131",
    "latitude": "29.973103566227216",
    "geocoded_column": {
      "latitude": "29.973103566227216",
      "longitude": "-90.01752203617131"
    }
  },
  {
    "service_request": "2025-1204294",
    "request_type": "Parks & Parkways",
    "request_reason": "Request Tree Service (Right of Way/Public Property)",
    "date_created": "2025-06-25T21:05:57.000",
    "date_modified": "2025-06-25T21:05:59.000",
    "request_status": "Pending",
    "responsible_agency": "Department of Parks & Parkway",
    "final_address": "2503 Milan St",
    "address_councildis": "B",
    "status": "Pending",
    "rowid": "1204294",
    "final_x": "3671324.37767",
    "final_y": "524177.883708",
    "longitude": "-90.10045079865557",
    "latitude": "29.935612297181486",
    "geocoded_column": {
      "latitude": "29.935612297181486",
      "longitude": "-90.10045079865557"
    }
  },
  {
    "service_request": "2025-1204293",
    "request_type": "Property Maintenance",
    "request_reason": "Property Maintenance",
    "date_created": "2025-06-25T20:46:38.000",
    "date_modified": "2025-06-25T20:46:40.000",
    "request_status": "Pending",
    "responsible_agency": "Department of Code Enforcement",
    "final_address": "1810 Diana St",
    "address_councildis": "C",
    "status": "Pending",
    "rowid": "1204293",
    "final_x": "3690919.19804",
    "final_y": "527454.385983",
    "longitude": "-90.03847306530584",
    "latitude": "29.944027295545173",
    "geocoded_column": {
      "latitude": "29.944027295545173",
      "longitude": "-90.03847306530584"
    }
  },
  {
    "service_request": "2025-1204292",
    "request_type": "Trash/Recycling",
    "request_reason": "Replace Trash Cart",
    "date_created": "2025-06-25T20:44:28.000",
    "date_modified": "2025-06-25T20:44:30.000",
    "request_status": "Pending",
    "responsible_agency": "Department of Sanitation",
    "final_address": "1528 Virginia Marie St",
    "address_councildis": "D",
    "status": "Assigned to Contractor",
    "contractor": "IV Waste",
    "rowid": "1204292",
    "final_x": "3679113.43791",
    "final_y": "548726.966035",
    "longitude": "-90.07500955371358",
    "latitude": "30.00288112315854",
    "geocoded_column": {
      "latitude": "30.00288112315854",
      "longitude": "-90.07500955371358"
    }
  },
  {
    "service_request": "2025-1204291",
    "request_type": "Roads and Streets",
    "request_reason": "Pothole",
    "date_created": "2025-06-25T20:42:44.000",
    "date_modified": "2025-06-25T20:42:46.000",
    "request_status": "Pending",
    "responsible_agency": "Department of Public Works",
    "final_address": "2938 Jena St",
    "address_councildis": "B",
    "status": "Pending",
    "rowid": "1204291",
    "final_x": "3669865.05082",
    "final_y": "525558.308029",
    "longitude": "-90.10501120502138",
    "latitude": "29.939451112739125",
    "geocoded_column": {
      "latitude": "29.939451112739125",
      "longitude": "-90.10501120502138"
    }
  },
  {
    "service_request": "2025-1204290",
    "request_type": "Streetlights",
    "request_reason": "Streetlight Outage/Malfunction",
    "date_created": "2025-06-25T20:36:57.000",
    "date_modified": "2025-06-25T20:37:00.000",
    "request_status": "Pending",
    "responsible_agency": "Department of Public Works",
    "final_address": "2220 Oriole St",
    "address_councildis": "D",
    "status": "Pending",
    "contractor": "Legacy Professional Services",
    "rowid": "1204290",
    "final_x": "3683827.62389",
    "final_y": "557984.700571",
    "longitude": "-90.05979174272741",
    "latitude": "30.028193318558753",
    "geocoded_column": {
      "latitude": "30.028193318558753",
      "longitude": "-90.05979174272741"
    }
  },
  {
    "service_request": "2025-1204289",
    "request_type": "Roads and Streets",
    "request_reason": "Pothole",
    "date_created": "2025-06-25T20:25:47.000",
    "date_modified": "2025-06-25T20:25:49.000",
    "request_status": "Pending",
    "responsible_agency": "Department of Public Works",
    "final_address": "Gen. Meyer Ave. and Michael st.",
    "status": "Pending",
    "rowid": "1204289",
    "longitude": "0.0",
    "latitude": "0.0",
    "geocoded_column": {
      "latitude": "0.0",
      "longitude": "0.0"
    }
  },
  {
    "service_request": "2025-1204288",
    "request_type": "Mosquito, Termite & Rodent Control",
    "request_reason": "Mosquito Complaint",
    "date_created": "2025-06-25T20:14:43.000",
    "date_modified": "2025-06-25T20:14:45.000",
    "request_status": "Pending",
    "responsible_agency": "Mosquito, Termite & Rodent Control Board",
    "final_address": "2528 Marengo St",
    "address_councildis": "B",
    "status": "Pending",
    "rowid": "1204288",
    "final_x": "3671565.93742",
    "final_y": "524387.417468",
    "longitude": "-90.09968106819686",
    "latitude": "29.936181298362843",
    "geocoded_column": {
      "latitude": "29.936181298362843",
      "longitude": "-90.09968106819686"
    }
  },
  {
    "service_request": "2025-1204287",
    "request_type": "General Services",
    "request_reason": "General Service Request",
    "date_created": "2025-06-25T19:55:18.000",
    "date_modified": "2025-06-25T19:55:19.000",
    "request_status": "Pending",
    "responsible_agency": "Orleans Parish Communication District",
    "final_address": "5837 Pauline Dr",
    "address_councildis": "D",
    "status": "Pending",
    "rowid": "1204287",
    "final_x": "3691708.47056",
    "final_y": "555739.908505",
    "longitude": "-90.03496919727112",
    "latitude": "30.02177778626951",
    "geocoded_column": {
      "latitude": "30.02177778626951",
      "longitude": "-90.03496919727112"
    }
  },
  {
    "service_request": "2025-1204286",
    "request_type": "Trash/Recycling",
    "request_reason": "Request a Large Item Pick Up",
    "date_created": "2025-06-25T19:46:04.000",
    "date_modified": "2025-06-25T19:46:06.000",
    "request_status": "Pending",
    "responsible_agency": "Department of Sanitation",
    "final_address": "3633 Havana St",
    "address_councildis": "D",
    "status": "Assigned to Contractor",
    "contractor": "IV Waste",
    "rowid": "1204286",
    "final_x": "3680872.99439",
    "final_y": "545888.084752",
    "longitude": "-90.0695497868596",
    "latitude": "29.995021961922607",
    "geocoded_column": {
      "latitude": "29.995021961922607",
      "longitude": "-90.0695497868596"
    }
  },
  {
    "service_request": "2025-1204285",
    "request_type": "Trash/Recycling",
    "request_reason": "Missed Trash Pick-Up",
    "date_created": "2025-06-25T19:34:08.000",
    "date_modified": "2025-06-25T19:34:09.000",
    "request_status": "Pending",
    "responsible_agency": "Department of Sanitation",
    "final_address": "528 S Rocheblave St",
    "address_councildis": "B",
    "status": "Assigned to Contractor",
    "contractor": "IV Waste",
    "rowid": "1204285",
    "final_x": "3675055.8987",
    "final_y": "533026.620484",
    "longitude": "-90.08836680911038",
    "latitude": "29.95983247010194",
    "geocoded_column": {
      "latitude": "29.95983247010194",
      "longitude": "-90.08836680911038"
    }
  },
  {
    "service_request": "2025-1204284",
    "request_type": "Graffiti Removal",
    "request_reason": "Graffiti Removal",
    "date_created": "2025-06-25T19:32:15.000",
    "date_modified": "2025-06-25T19:32:17.000",
    "request_status": "Pending",
    "responsible_agency": "Department of Code Enforcement",
    "final_address": "JEFFERSON AVE & WILLOW ST",
    "address_councildis": "A",
    "status": "Pending",
    "rowid": "1204284",
    "final_x": "3668190.5",
    "final_y": "525292.98",
    "longitude": "-90.11030694194581",
    "latitude": "29.938770798971333",
    "geocoded_column": {
      "latitude": "29.938770798971333",
      "longitude": "-90.11030694194581"
    }
  },
  {
    "service_request": "2025-1204283",
    "request_type": "General Services",
    "request_reason": "General Service Request",
    "date_created": "2025-06-25T19:29:48.000",
    "date_modified": "2025-06-25T19:29:50.000",
    "request_status": "Pending",
    "responsible_agency": "Orleans Parish Communication District",
    "final_address": "7721 Alabama St",
    "address_councildis": "D",
    "status": "Pending",
    "rowid": "1204283",
    "final_x": "3694833.8689",
    "final_y": "558921.358492",
    "longitude": "-90.02497902065419",
    "latitude": "30.030427819723226",
    "geocoded_column": {
      "latitude": "30.030427819723226",
      "longitude": "-90.02497902065419"
    }
  },
  {
    "service_request": "2025-1204282",
    "request_type": "Trash/Recycling",
    "request_reason": "Illegal Dumping",
    "date_created": "2025-06-25T19:28:24.000",
    "date_modified": "2025-06-25T19:28:26.000",
    "request_status": "Pending",
    "responsible_agency": "Department of Sanitation",
    "final_address": "530 S Rocheblave St",
    "address_councildis": "B",
    "status": "Pending",
    "rowid": "1204282",
    "final_x": "3675042.64865",
    "final_y": "533006.156292",
    "longitude": "-90.08840935196112",
    "latitude": "29.959776596280314",
    "geocoded_column": {
      "latitude": "29.959776596280314",
      "longitude": "-90.08840935196112"
    }
  },
  {
    "service_request": "2025-1204281",
    "request_type": "Trash/Recycling",
    "request_reason": "Missed Trash Pick-Up",
    "date_created": "2025-06-25T19:16:26.000",
    "date_modified": "2025-06-25T19:16:27.000",
    "request_status": "Pending",
    "responsible_agency": "Department of Sanitation",
    "final_address": "3421 Palmyra St",
    "address_councildis": "B",
    "status": "Assigned to Contractor",
    "contractor": "IV Waste",
    "rowid": "1204281",
    "final_x": "3672513.06964",
    "final_y": "536315.702919",
    "longitude": "-90.0962843832652",
    "latitude": "29.968952067520373",
    "geocoded_column": {
      "latitude": "29.968952067520373",
      "longitude": "-90.0962843832652"
    }
  },
  {
    "service_request": "2025-1204280",
    "request_type": "Property Maintenance",
    "request_reason": "Property Maintenance",
    "date_created": "2025-06-25T19:10:12.000",
    "date_modified": "2025-06-25T19:10:13.000",
    "request_status": "Pending",
    "responsible_agency": "Department of Code Enforcement",
    "final_address": "2519 N Tonti St",
    "address_councildis": "D",
    "status": "Pending",
    "rowid": "1204280",
    "final_x": "3686662.6662",
    "final_y": "540922.044811",
    "longitude": "-90.05143638419325",
    "latitude": "29.981190269549455",
    "geocoded_column": {
      "latitude": "29.981190269549455",
      "longitude": "-90.05143638419325"
    }
  },
  {
    "service_request": "2025-1204279",
    "request_type": "General Services",
    "request_reason": "General Service Request",
    "date_created": "2025-06-25T19:05:47.000",
    "date_modified": "2025-06-25T19:05:49.000",
    "request_status": "Pending",
    "responsible_agency": "Orleans Parish Communication District",
    "final_address": "8827 Colapissa St",
    "address_councildis": "A",
    "status": "Pending",
    "rowid": "1204279",
    "final_x": "3664544.96468",
    "final_y": "535263.423942",
    "longitude": "-90.12148343850025",
    "latitude": "29.966292777521502",
    "geocoded_column": {
      "latitude": "29.966292777521502",
      "longitude": "-90.12148343850025"
    }
  },
  {
    "service_request": "2025-1204278",
    "request_type": "Roads and Streets",
    "request_reason": "Street Subsidence (Sinking)",
    "date_created": "2025-06-25T19:01:22.000",
    "date_modified": "2025-06-25T19:01:24.000",
    "request_status": "Pending",
    "responsible_agency": "Department of Public Works",
    "final_address": "8827 Colapissa St",
    "address_councildis": "A",
    "status": "Pending",
    "rowid": "1204278",
    "final_x": "3664544.96468",
    "final_y": "535263.423942",
    "longitude": "-90.12148343850025",
    "latitude": "29.966292777521502",
    "geocoded_column": {
      "latitude": "29.966292777521502",
      "longitude": "-90.12148343850025"
    }
  },
  {
    "service_request": "2025-1204277",
    "request_type": "Trash/Recycling",
    "request_reason": "Missed Trash Pick-Up",
    "date_created": "2025-06-25T18:33:35.000",
    "date_modified": "2025-06-25T18:33:36.000",
    "request_status": "Pending",
    "responsible_agency": "Department of Sanitation",
    "final_address": "8614 Grant St",
    "address_councildis": "E",
    "status": "Assigned to Contractor",
    "contractor": "Waste Pro",
    "rowid": "1204277",
    "final_x": "3707222.73252",
    "final_y": "554303.67164",
    "longitude": "-89.98600197600724",
    "latitude": "30.0173361986526",
    "geocoded_column": {
      "latitude": "30.0173361986526",
      "longitude": "-89.98600197600724"
    }
  },
  {
    "service_request": "2025-1204276",
    "request_type": "Trash/Recycling",
    "request_reason": "Request a Large Item Pick Up",
    "date_created": "2025-06-25T18:29:42.000",
    "date_modified": "2025-06-25T18:29:44.000",
    "request_status": "Pending",
    "responsible_agency": "Department of Sanitation",
    "final_address": "2638 Ramsey Dr",
    "address_councildis": "C",
    "status": "Assigned to Contractor",
    "contractor": "Richards Disposal",
    "rowid": "1204276",
    "final_x": "3703177.47031",
    "final_y": "521199.171321",
    "longitude": "-90.00000040046459",
    "latitude": "29.92644105567138",
    "geocoded_column": {
      "latitude": "29.92644105567138",
      "longitude": "-90.00000040046459"
    }
  },
  {
    "service_request": "2025-1204275",
    "request_type": "Property Maintenance",
    "request_reason": "Property Maintenance",
    "date_created": "2025-06-25T18:22:40.000",
    "date_modified": "2025-06-25T18:22:42.000",
    "request_status": "Pending",
    "responsible_agency": "Department of Code Enforcement",
    "final_address": "3517 Danneel St",
    "address_councildis": "B",
    "status": "Pending",
    "rowid": "1204275",
    "final_x": "3673107.54932",
    "final_y": "522693.757818",
    "longitude": "-90.09487193736092",
    "latitude": "29.931478555301858",
    "geocoded_column": {
      "latitude": "29.931478555301858",
      "longitude": "-90.09487193736092"
    }
  },
  {
    "service_request": "2025-1204274",
    "request_type": "Trash/Recycling",
    "request_reason": "Repair Trash Cart",
    "date_created": "2025-06-25T18:02:24.000",
    "date_modified": "2025-06-25T18:02:26.000",
    "request_status": "Pending",
    "responsible_agency": "Department of Sanitation",
    "final_address": "18 Grand Cypress Ct",
    "address_councildis": "C",
    "status": "Assigned to Contractor",
    "contractor": "Richards Disposal",
    "rowid": "1204274",
    "final_x": "3722184.11455",
    "final_y": "513159.640114",
    "longitude": "-89.94031107845612",
    "latitude": "29.90371342163546",
    "geocoded_column": {
      "latitude": "29.90371342163546",
      "longitude": "-89.94031107845612"
    }
  },
  {
    "service_request": "2025-1204273",
    "request_type": "Trash/Recycling",
    "request_reason": "Replace Trash Cart",
    "date_created": "2025-06-25T18:02:10.000",
    "date_modified": "2025-06-25T18:02:12.000",
    "request_status": "Pending",
    "responsible_agency": "Department of Sanitation",
    "final_address": "4819 Gallier Dr",
    "address_councildis": "D",
    "status": "Assigned to Contractor",
    "contractor": "IV Waste",
    "rowid": "1204273",
    "final_x": "3692169.66262",
    "final_y": "551623.542869",
    "longitude": "-90.03365948484283",
    "latitude": "30.010444938697272",
    "geocoded_column": {
      "latitude": "30.010444938697272",
      "longitude": "-90.03365948484283"
    }
  },
  {
    "service_request": "2025-1204272",
    "request_type": "Trash/Recycling",
    "request_reason": "Illegal Dumping",
    "date_created": "2025-06-25T17:43:53.000",
    "date_modified": "2025-06-25T17:43:55.000",
    "request_status": "Pending",
    "responsible_agency": "Department of Sanitation",
    "final_address": "6340 Pines Blvd",
    "address_councildis": "D",
    "status": "Pending",
    "rowid": "1204272",
    "final_x": "3697299.99114",
    "final_y": "556419.281306",
    "longitude": "-90.01727689798022",
    "latitude": "30.02347040641766",
    "geocoded_column": {
      "latitude": "30.02347040641766",
      "longitude": "-90.01727689798022"
    }
  },
  {
    "service_request": "2025-1204271",
    "request_type": "Trash/Recycling",
    "request_reason": "Request a Large Item Pick Up",
    "date_created": "2025-06-25T17:39:10.000",
    "date_modified": "2025-06-25T17:39:12.000",
    "request_status": "Pending",
    "responsible_agency": "Department of Sanitation",
    "final_address": "1119 Terpsichore St",
    "address_councildis": "B",
    "status": "Assigned to Contractor",
    "contractor": "IV Waste",
    "rowid": "1204271",
    "final_x": "3680204.6644",
    "final_y": "524600.932028",
    "longitude": "-90.07240094776691",
    "latitude": "29.93650982566634",
    "geocoded_column": {
      "latitude": "29.93650982566634",
      "longitude": "-90.07240094776691"
    }
  },
  {
    "service_request": "2025-1204270",
    "request_type": "Trash/Recycling",
    "request_reason": "Request a Large Item Pick Up",
    "date_created": "2025-06-25T17:35:20.000",
    "date_modified": "2025-06-25T17:35:24.000",
    "request_status": "Pending",
    "responsible_agency": "Department of Sanitation",
    "final_address": "2030 Napoleon Ave",
    "address_councildis": "B",
    "status": "Assigned to Contractor",
    "contractor": "IV Waste",
    "rowid": "1204270",
    "final_x": "3670582.94811",
    "final_y": "522607.154042",
    "longitude": "-90.10284475734016",
    "latitude": "29.931315210844545",
    "geocoded_column": {
      "latitude": "29.931315210844545",
      "longitude": "-90.10284475734016"
    }
  },
  {
    "service_request": "2025-1204269",
    "request_type": "Trash/Recycling",
    "request_reason": "Replace Trash Cart",
    "date_created": "2025-06-25T17:31:19.000",
    "date_modified": "2025-06-25T17:31:20.000",
    "request_status": "Pending",
    "responsible_agency": "Department of Sanitation",
    "final_address": "2040 Valentine Ct",
    "address_councildis": "C",
    "status": "Assigned to Contractor",
    "contractor": "Richards Disposal",
    "rowid": "1204269",
    "final_x": "3699798.50359",
    "final_y": "523728.124155",
    "longitude": "-90.01057462906032",
    "latitude": "29.933502483550033",
    "geocoded_column": {
      "latitude": "29.933502483550033",
      "longitude": "-90.01057462906032"
    }
  },
  {
    "service_request": "2025-1204268",
    "request_type": "Trash/Recycling",
    "request_reason": "Replace Trash Cart",
    "date_created": "2025-06-25T17:26:45.000",
    "date_modified": "2025-06-25T17:26:47.000",
    "request_status": "Pending",
    "responsible_agency": "Department of Sanitation",
    "final_address": "1498 Mandolin St",
    "address_councildis": "D",
    "status": "Assigned to Contractor",
    "contractor": "IV Waste",
    "rowid": "1204268",
    "final_x": "3678791.11464",
    "final_y": "547974.947474",
    "longitude": "-90.07605388600615",
    "latitude": "30.0008230682824",
    "geocoded_column": {
      "latitude": "30.0008230682824",
      "longitude": "-90.07605388600615"
    }
  },
  {
    "service_request": "2025-1204267",
    "request_type": "Trash/Recycling",
    "request_reason": "Request a Large Item Pick Up",
    "date_created": "2025-06-25T17:16:36.000",
    "date_modified": "2025-06-25T17:16:38.000",
    "request_status": "Pending",
    "responsible_agency": "Department of Sanitation",
    "final_address": "717 Alvar St",
    "address_councildis": "C",
    "status": "Assigned to Contractor",
    "contractor": "IV Waste",
    "rowid": "1204267",
    "final_x": "3691186.51158",
    "final_y": "534011.920517",
    "longitude": "-90.03739492539219",
    "latitude": "29.96204993543041",
    "geocoded_column": {
      "latitude": "29.96204993543041",
      "longitude": "-90.03739492539219"
    }
  },
  {
    "service_request": "2025-1204266",
    "request_type": "Property Maintenance",
    "request_reason": "Property Maintenance",
    "date_created": "2025-06-25T17:02:54.000",
    "date_modified": "2025-06-25T17:02:56.000",
    "request_status": "Pending",
    "responsible_agency": "Department of Code Enforcement",
    "final_address": "8421 Aberdeen Rd",
    "address_councildis": "E",
    "status": "Pending",
    "rowid": "1204266",
    "final_x": "3703701.29847",
    "final_y": "561863.307487",
    "longitude": "-89.9968496123844",
    "latitude": "30.03823564579595",
    "geocoded_column": {
      "latitude": "30.03823564579595",
      "longitude": "-89.9968496123844"
    }
  },
  {
    "service_request": "2025-1204265",
    "request_type": "Property Maintenance",
    "request_reason": "Property Maintenance",
    "date_created": "2025-06-25T16:58:18.000",
    "date_modified": "2025-06-25T16:58:20.000",
    "request_status": "Pending",
    "responsible_agency": "Department of Code Enforcement",
    "final_address": "8640 Chase St",
    "address_councildis": "E",
    "status": "Pending",
    "rowid": "1204265",
    "final_x": "3703847.54154",
    "final_y": "563490.678816",
    "longitude": "-89.99632744064843",
    "latitude": "30.04270558489277",
    "geocoded_column": {
      "latitude": "30.04270558489277",
      "longitude": "-89.99632744064843"
    }
  },
  {
    "service_request": "2025-1204264",
    "request_type": "Trash/Recycling",
    "request_reason": "Repair Trash Cart",
    "date_created": "2025-06-25T16:53:29.000",
    "date_modified": "2025-06-25T16:53:30.000",
    "request_status": "Pending",
    "responsible_agency": "Department of Sanitation",
    "final_address": "6217 London Ave",
    "address_councildis": "D",
    "status": "Assigned to Contractor",
    "contractor": "IV Waste",
    "rowid": "1204264",
    "final_x": "3680621.61647",
    "final_y": "555685.129497",
    "longitude": "-90.07000265130942",
    "latitude": "30.02196793041076",
    "geocoded_column": {
      "latitude": "30.02196793041076",
      "longitude": "-90.07000265130942"
    }
  },
  {
    "service_request": "2025-1204263",
    "request_type": "Trash/Recycling",
    "request_reason": "Repair Recycling Cart",
    "date_created": "2025-06-25T16:52:08.000",
    "date_modified": "2025-06-25T16:52:10.000",
    "request_status": "Pending",
    "responsible_agency": "Department of Sanitation",
    "final_address": "3110 Palmyra St",
    "address_councildis": "B",
    "status": "Pending",
    "rowid": "1204263",
    "final_x": "3673466.50862",
    "final_y": "535437.013126",
    "longitude": "-90.09330338576157",
    "latitude": "29.966507629279178",
    "geocoded_column": {
      "latitude": "29.966507629279178",
      "longitude": "-90.09330338576157"
    }
  },
  {
    "service_request": "2025-1204262",
    "request_type": "Trash/Recycling",
    "request_reason": "Return Recycling Cart",
    "date_created": "2025-06-25T16:51:19.000",
    "date_modified": "2025-06-25T16:51:21.000",
    "request_status": "Pending",
    "responsible_agency": "Department of Sanitation",
    "final_address": "3110 Palmyra St",
    "address_councildis": "B",
    "status": "Pending",
    "rowid": "1204262",
    "final_x": "3673466.50862",
    "final_y": "535437.013126",
    "longitude": "-90.09330338576157",
    "latitude": "29.966507629279178",
    "geocoded_column": {
      "latitude": "29.966507629279178",
      "longitude": "-90.09330338576157"
    }
  },
  {
    "service_request": "2025-1204261",
    "request_type": "Parks & Parkways",
    "request_reason": "Request Tree Service (Right of Way/Public Property)",
    "date_created": "2025-06-25T16:48:13.000",
    "date_modified": "2025-06-25T16:48:15.000",
    "request_status": "Pending",
    "responsible_agency": "Department of Parks & Parkway",
    "final_address": "2325 Esplanade Ave",
    "address_councildis": "D",
    "status": "Pending",
    "rowid": "1204261",
    "final_x": "3679171.06427",
    "final_y": "538261.594889",
    "longitude": "-90.07519052292756",
    "latitude": "29.974103278013565",
    "geocoded_column": {
      "latitude": "29.974103278013565",
      "longitude": "-90.07519052292756"
    }
  },
  {
    "service_request": "2025-1204260",
    "request_type": "Streetlights",
    "request_reason": "Streetlight Outage/Malfunction",
    "date_created": "2025-06-25T16:43:41.000",
    "date_modified": "2025-06-25T16:43:42.000",
    "request_status": "Pending",
    "responsible_agency": "Department of Public Works",
    "final_address": "208 N Norman C Francis Prkwy",
    "address_councildis": "B",
    "status": "Pending",
    "contractor": "Legacy Professional Services",
    "rowid": "1204260",
    "final_x": "3673649.87355",
    "final_y": "537036.278728",
    "longitude": "-90.09266963635415",
    "latitude": "29.970899611958984",
    "geocoded_column": {
      "latitude": "29.970899611958984",
      "longitude": "-90.09266963635415"
    }
  },
  {
    "service_request": "2025-1204259",
    "request_type": "Trash/Recycling",
    "request_reason": "MIssed Recycling Pick-Up",
    "date_created": "2025-06-25T16:43:35.000",
    "date_modified": "2025-06-25T19:15:28.000",
    "case_close_date": "2025-06-25T14:15:27.000",
    "request_status": "Closed",
    "responsible_agency": "Department of Sanitation",
    "final_address": "2020 Camp St",
    "address_councildis": "B",
    "status": "Invalid Request",
    "contractor": "IV Waste",
    "contractor_action": "Invalid Request",
    "rowid": "1204259",
    "final_x": "3679150.01717",
    "final_y": "522739.85721",
    "longitude": "-90.07579499293321",
    "latitude": "29.931424352313797",
    "geocoded_column": {
      "latitude": "29.931424352313797",
      "longitude": "-90.07579499293321"
    }
  },
  {
    "service_request": "2025-1204258",
    "request_type": "Streetlights",
    "request_reason": "Streetlight Outage/Malfunction",
    "date_created": "2025-06-25T16:42:21.000",
    "date_modified": "2025-06-25T16:42:23.000",
    "request_status": "Pending",
    "responsible_agency": "Department of Public Works",
    "final_address": "5181 Basinview Dr",
    "address_councildis": "E",
    "status": "Pending",
    "contractor": "Legacy Professional Services",
    "rowid": "1204258",
    "final_x": "3698767.63639",
    "final_y": "556615.231002",
    "longitude": "-90.01263233571275",
    "latitude": "30.023962762012196",
    "geocoded_column": {
      "latitude": "30.023962762012196",
      "longitude": "-90.01263233571275"
    }
  },
  {
    "service_request": "2025-1204257",
    "request_type": "Trash/Recycling",
    "request_reason": "Order Trash Cart",
    "date_created": "2025-06-25T16:37:06.000",
    "date_modified": "2025-06-25T16:37:08.000",
    "request_status": "Pending",
    "responsible_agency": "Department of Sanitation",
    "final_address": "3773 Preston Pl",
    "address_councildis": "C",
    "status": "Assigned to Contractor",
    "contractor": "Richards Disposal",
    "rowid": "1204257",
    "final_x": "3708178.38756",
    "final_y": "517057.280373",
    "longitude": "-89.98436796910835",
    "latitude": "29.91489134610076",
    "geocoded_column": {
      "latitude": "29.91489134610076",
      "longitude": "-89.98436796910835"
    }
  },
  {
    "service_request": "2025-1204256",
    "request_type": "Trash/Recycling",
    "request_reason": "Request a Large Item Pick Up",
    "date_created": "2025-06-25T16:32:18.000",
    "date_modified": "2025-06-25T16:32:20.000",
    "request_status": "Pending",
    "responsible_agency": "Department of Sanitation",
    "final_address": "2426 General Pershing St",
    "address_councildis": "B",
    "status": "Assigned to Contractor",
    "contractor": "IV Waste",
    "rowid": "1204256",
    "final_x": "3670893.64385",
    "final_y": "523978.3431",
    "longitude": "-90.10181740394637",
    "latitude": "29.9350763613524",
    "geocoded_column": {
      "latitude": "29.9350763613524",
      "longitude": "-90.10181740394637"
    }
  },
  {
    "service_request": "2025-1204255",
    "request_type": "Trash/Recycling",
    "request_reason": "Order Second Trash Cart",
    "date_created": "2025-06-25T16:30:27.000",
    "date_modified": "2025-06-25T16:30:28.000",
    "request_status": "Pending",
    "responsible_agency": "Department of Sanitation",
    "final_address": "2816 St Ann St",
    "address_councildis": "A",
    "status": "Assigned to Contractor",
    "contractor": "IV Waste",
    "rowid": "1204255",
    "final_x": "3676315.32833",
    "final_y": "537639.189256",
    "longitude": "-90.08423102670642",
    "latitude": "29.97247778503423",
    "geocoded_column": {
      "latitude": "29.97247778503423",
      "longitude": "-90.08423102670642"
    }
  },
  {
    "service_request": "2025-1204254",
    "request_type": "Trash/Recycling",
    "request_reason": "Order Second Trash Cart",
    "date_created": "2025-06-25T16:29:45.000",
    "date_modified": "2025-06-25T16:29:47.000",
    "request_status": "Pending",
    "responsible_agency": "Department of Sanitation",
    "final_address": "2812 St Ann St",
    "address_councildis": "A",
    "status": "Assigned to Contractor",
    "contractor": "IV Waste",
    "rowid": "1204254",
    "final_x": "3676350.27259",
    "final_y": "537612.176968",
    "longitude": "-90.08412159649951",
    "latitude": "29.972402462980547",
    "geocoded_column": {
      "latitude": "29.972402462980547",
      "longitude": "-90.08412159649951"
    }
  },
  {
    "service_request": "2025-1204253",
    "request_type": "Trash/Recycling",
    "request_reason": "MIssed Recycling Pick-Up",
    "date_created": "2025-06-25T16:29:37.000",
    "date_modified": "2025-06-25T16:29:39.000",
    "request_status": "Pending",
    "responsible_agency": "Department of Sanitation",
    "final_address": "4743 Charlmark Dr",
    "address_councildis": "E",
    "status": "Assigned to Contractor",
    "contractor": "Waste Pro",
    "rowid": "1204253",
    "final_x": "3711512.81662",
    "final_y": "556041.107417",
    "longitude": "-89.97238197222306",
    "latitude": "30.021974064808084",
    "geocoded_column": {
      "latitude": "30.021974064808084",
      "longitude": "-89.97238197222306"
    }
  },
  {
    "service_request": "2025-1204252",
    "request_type": "Trash/Recycling",
    "request_reason": "Replace Trash Cart",
    "date_created": "2025-06-25T16:26:31.000",
    "date_modified": "2025-06-25T16:26:34.000",
    "request_status": "Pending",
    "responsible_agency": "Department of Sanitation",
    "final_address": "1623 St Anthony St",
    "address_councildis": "D",
    "status": "Assigned to Contractor",
    "contractor": "IV Waste",
    "rowid": "1204252",
    "final_x": "3683392.37173",
    "final_y": "538221.552393",
    "longitude": "-90.06186008847335",
    "latitude": "29.973865052434085",
    "geocoded_column": {
      "latitude": "29.973865052434085",
      "longitude": "-90.06186008847335"
    }
  },
  {
    "service_request": "2025-1204251",
    "request_type": "Trash/Recycling",
    "request_reason": "Missed Trash Pick-Up",
    "date_created": "2025-06-25T16:26:09.000",
    "date_modified": "2025-06-25T17:00:48.000",
    "case_close_date": "2025-06-25T12:00:47.000",
    "request_status": "Closed",
    "responsible_agency": "Department of Sanitation",
    "final_address": "1210 Short St",
    "address_councildis": "A",
    "status": "Invalid Request",
    "contractor": "IV Waste",
    "contractor_action": "Invalid Request",
    "rowid": "1204251",
    "final_x": "3662363.46855",
    "final_y": "528196.857408",
    "longitude": "-90.12860722727314",
    "latitude": "29.946925267442996",
    "geocoded_column": {
      "latitude": "29.946925267442996",
      "longitude": "-90.12860722727314"
    }
  },
  {
    "service_request": "2025-1204250",
    "request_type": "Property Maintenance",
    "request_reason": "Property Maintenance",
    "date_created": "2025-06-25T16:24:44.000",
    "date_modified": "2025-06-25T16:24:46.000",
    "request_status": "Pending",
    "responsible_agency": "Department of Code Enforcement",
    "final_address": "5163 General De Gaulle Dr",
    "address_councildis": "C",
    "status": "Pending",
    "rowid": "1204250",
    "final_x": "3703270.68497",
    "final_y": "515726.661748",
    "longitude": "-89.99990718257494",
    "latitude": "29.911390555885003",
    "geocoded_column": {
      "latitude": "29.911390555885003",
      "longitude": "-89.99990718257494"
    }
  },
  {
    "service_request": "2025-1204249",
    "request_type": "Trash/Recycling",
    "request_reason": "Missed Trash Pick-Up",
    "date_created": "2025-06-25T16:23:53.000",
    "date_modified": "2025-06-25T16:23:55.000",
    "request_status": "Pending",
    "responsible_agency": "Department of Sanitation",
    "final_address": "21 Kristen Ct",
    "address_councildis": "E",
    "status": "Assigned to Contractor",
    "contractor": "Waste Pro",
    "rowid": "1204249",
    "final_x": "3713501.65983",
    "final_y": "567319.32778",
    "longitude": "-89.9656724548101",
    "latitude": "30.05291954370618",
    "geocoded_column": {
      "latitude": "30.05291954370618",
      "longitude": "-89.9656724548101"
    }
  },
  {
    "service_request": "2025-1204248",
    "request_type": "Trash/Recycling",
    "request_reason": "Request a Large Item Pick Up",
    "date_created": "2025-06-25T16:21:31.000",
    "date_modified": "2025-06-25T16:21:34.000",
    "request_status": "Pending",
    "responsible_agency": "Department of Sanitation",
    "final_address": "8040 Sandpiper Dr",
    "address_councildis": "E",
    "status": "Assigned to Contractor",
    "contractor": "Waste Pro",
    "rowid": "1204248",
    "final_x": "3714982.32165",
    "final_y": "570829.664231",
    "longitude": "-89.96085964571496",
    "latitude": "30.06252284604215",
    "geocoded_column": {
      "latitude": "30.06252284604215",
      "longitude": "-89.96085964571496"
    }
  },
  {
    "service_request": "2025-1204247",
    "request_type": "Roads and Streets",
    "request_reason": "Pothole",
    "date_created": "2025-06-25T16:19:39.000",
    "date_modified": "2025-06-25T16:19:41.000",
    "request_status": "Pending",
    "responsible_agency": "Department of Public Works",
    "final_address": "3222 Pauger St",
    "address_councildis": "D",
    "status": "Pending",
    "rowid": "1204247",
    "final_x": "3683409.19266",
    "final_y": "541569.158924",
    "longitude": "-90.06168963189425",
    "latitude": "29.98306928645656",
    "geocoded_column": {
      "latitude": "29.98306928645656",
      "longitude": "-90.06168963189425"
    }
  },
  {
    "service_request": "2025-1204246",
    "request_type": "Property Maintenance",
    "request_reason": "Property Maintenance",
    "date_created": "2025-06-25T16:18:54.000",
    "date_modified": "2025-06-25T16:18:57.000",
    "request_status": "Pending",
    "responsible_agency": "Department of Code Enforcement",
    "final_address": "3663 General De Gaulle Dr",
    "address_councildis": "C",
    "status": "Pending",
    "rowid": "1204246",
    "final_x": "3696846.05623",
    "final_y": "520136.31948",
    "longitude": "-90.02002525329324",
    "latitude": "29.92371963659215",
    "geocoded_column": {
      "latitude": "29.92371963659215",
      "longitude": "-90.02002525329324"
    }
  },
  {
    "service_request": "2025-1204245",
    "request_type": "Abandoned Vehicles",
    "request_reason": "Abandoned/Junk Vehicles",
    "date_created": "2025-06-25T16:14:16.000",
    "date_modified": "2025-06-25T16:14:17.000",
    "request_status": "Pending",
    "responsible_agency": "Department of Public Works",
    "final_address": "1412 Annette St",
    "address_councildis": "C",
    "status": "Pending",
    "rowid": "1204245",
    "final_x": "3683017.57628",
    "final_y": "537354.900232",
    "longitude": "-90.0630741168368",
    "latitude": "29.971493489963475",
    "geocoded_column": {
      "latitude": "29.971493489963475",
      "longitude": "-90.0630741168368"
    }
  },
  {
    "service_request": "2025-1204244",
    "request_type": "Healthy Homes",
    "request_reason": "Healthy Homes",
    "date_created": "2025-06-25T16:14:14.000",
    "date_modified": "2025-06-25T16:14:16.000",
    "request_status": "Pending",
    "responsible_agency": "Department of Code Enforcement",
    "final_address": "8600 BLK Pontchartrain Blvd",
    "address_councildis": "A",
    "status": "Pending",
    "rowid": "1204244",
    "final_x": "3666576.23079",
    "final_y": "555489.401604",
    "longitude": "-90.11438922974862",
    "latitude": "30.021848065415632",
    "geocoded_column": {
      "latitude": "30.021848065415632",
      "longitude": "-90.11438922974862"
    }
  },
  {
    "service_request": "2025-1204243",
    "request_type": "Trash/Recycling",
    "request_reason": "Request a Large Item Pick Up",
    "date_created": "2025-06-25T16:12:56.000",
    "date_modified": "2025-06-25T16:12:57.000",
    "request_status": "Pending",
    "responsible_agency": "Department of Sanitation",
    "final_address": "7401 Means Ave",
    "address_councildis": "E",
    "status": "Assigned to Contractor",
    "contractor": "Waste Pro",
    "rowid": "1204243",
    "final_x": "3708467.12203",
    "final_y": "564100.622049",
    "longitude": "-89.98170510602958",
    "latitude": "30.04423366369418",
    "geocoded_column": {
      "latitude": "30.04423366369418",
      "longitude": "-89.98170510602958"
    }
  },
  {
    "service_request": "2025-1204242",
    "request_type": "Trash/Recycling",
    "request_reason": "Repair Recycling Cart",
    "date_created": "2025-06-25T16:12:22.000",
    "date_modified": "2025-06-25T16:12:24.000",
    "request_status": "Pending",
    "responsible_agency": "Department of Sanitation",
    "final_address": "4328 S Carrollton Ave",
    "address_councildis": "A",
    "status": "Pending",
    "rowid": "1204242",
    "final_x": "3670006.44743",
    "final_y": "536985.43604",
    "longitude": "-90.1041777942355",
    "latitude": "29.97086778088556",
    "geocoded_column": {
      "latitude": "29.97086778088556",
      "longitude": "-90.1041777942355"
    }
  },
  {
    "service_request": "2025-1204241",
    "request_type": "Property Maintenance",
    "request_reason": "Property Maintenance",
    "date_created": "2025-06-25T16:09:24.000",
    "date_modified": "2025-06-25T16:09:25.000",
    "request_status": "Pending",
    "responsible_agency": "Department of Code Enforcement",
    "final_address": "2132 Second St",
    "address_councildis": "B",
    "status": "Pending",
    "rowid": "1204241",
    "final_x": "3675541.91822",
    "final_y": "524731.476028",
    "longitude": "-90.0871169545331",
    "latitude": "29.93700904339676",
    "geocoded_column": {
      "latitude": "29.93700904339676",
      "longitude": "-90.0871169545331"
    }
  },
  {
    "service_request": "2025-1204240",
    "request_type": "Trash/Recycling",
    "request_reason": "Replace Trash Cart",
    "date_created": "2025-06-25T16:09:20.000",
    "date_modified": "2025-06-25T16:09:21.000",
    "request_status": "Pending",
    "responsible_agency": "Department of Sanitation",
    "final_address": "4328 S Carrollton Ave",
    "address_councildis": "A",
    "status": "Assigned to Contractor",
    "contractor": "IV Waste",
    "rowid": "1204240",
    "final_x": "3670006.44743",
    "final_y": "536985.43604",
    "longitude": "-90.1041777942355",
    "latitude": "29.97086778088556",
    "geocoded_column": {
      "latitude": "29.97086778088556",
      "longitude": "-90.1041777942355"
    }
  },
  {
    "service_request": "2025-1204239",
    "request_type": "Trash/Recycling",
    "request_reason": "Missed Trash Pick-Up",
    "date_created": "2025-06-25T16:08:08.000",
    "date_modified": "2025-06-25T17:29:50.000",
    "case_close_date": "2025-06-25T12:29:49.000",
    "request_status": "Closed",
    "responsible_agency": "Department of Sanitation",
    "final_address": "1510 Camp St",
    "address_councildis": "B",
    "status": "Invalid Request",
    "contractor": "IV Waste",
    "contractor_action": "Invalid",
    "rowid": "1204239",
    "final_x": "3679822.49531",
    "final_y": "523830.065019",
    "longitude": "-90.07363422519695",
    "latitude": "29.934401754262023",
    "geocoded_column": {
      "latitude": "29.934401754262023",
      "longitude": "-90.07363422519695"
    }
  },
  {
    "service_request": "2025-1204238",
    "request_type": "Drainage",
    "request_reason": "Catch Basin Clogged",
    "date_created": "2025-06-25T16:03:05.000",
    "date_modified": "2025-06-25T16:03:07.000",
    "request_status": "Pending",
    "responsible_agency": "Sewerage & Water Board",
    "final_address": "719 S Solomon St",
    "address_councildis": "A",
    "status": "Pending",
    "rowid": "1204238",
    "final_x": "3669027.02126",
    "final_y": "536755.584391",
    "longitude": "-90.10727872243477",
    "latitude": "29.970264618481448",
    "geocoded_column": {
      "latitude": "29.970264618481448",
      "longitude": "-90.10727872243477"
    }
  },
  {
    "service_request": "2025-1204237",
    "request_type": "Trash/Recycling",
    "request_reason": "Repair Recycling Cart",
    "date_created": "2025-06-25T16:01:01.000",
    "date_modified": "2025-06-25T16:01:03.000",
    "request_status": "Pending",
    "responsible_agency": "Department of Sanitation",
    "final_address": "5637 Bancroft Dr",
    "address_councildis": "D",
    "status": "Pending",
    "rowid": "1204237",
    "final_x": "3676606.54075",
    "final_y": "552974.843479",
    "longitude": "-90.08278273910183",
    "latitude": "30.01463673042876",
    "geocoded_column": {
      "latitude": "30.01463673042876",
      "longitude": "-90.08278273910183"
    }
  },
  {
    "service_request": "2025-1204236",
    "request_type": "Property Maintenance",
    "request_reason": "Property Maintenance",
    "date_created": "2025-06-25T15:59:08.000",
    "date_modified": "2025-06-25T15:59:10.000",
    "request_status": "Pending",
    "responsible_agency": "Department of Code Enforcement",
    "final_address": "2719 Loyola Ave",
    "address_councildis": "B",
    "status": "Pending",
    "rowid": "1204236",
    "final_x": "3674822.86689",
    "final_y": "524462.514876",
    "longitude": "-90.08939626037692",
    "latitude": "29.93629097198916",
    "geocoded_column": {
      "latitude": "29.93629097198916",
      "longitude": "-90.08939626037692"
    }
  },
  {
    "service_request": "2025-1204235",
    "request_type": "Trash/Recycling",
    "request_reason": "Request a Large Item Pick Up",
    "date_created": "2025-06-25T15:49:42.000",
    "date_modified": "2025-06-25T15:49:44.000",
    "request_status": "Pending",
    "responsible_agency": "Department of Sanitation",
    "final_address": "2013 Greenspoint Dr",
    "address_councildis": "C",
    "status": "Assigned to Contractor",
    "contractor": "Richards Disposal",
    "rowid": "1204235",
    "final_x": "3696647.29923",
    "final_y": "523307.877307",
    "longitude": "-90.02053795167525",
    "latitude": "29.93244659898016",
    "geocoded_column": {
      "latitude": "29.93244659898016",
      "longitude": "-90.02053795167525"
    }
  },
  {
    "service_request": "2025-1204234",
    "request_type": "Trash/Recycling",
    "request_reason": "Request a Large Item Pick Up",
    "date_created": "2025-06-25T15:49:06.000",
    "date_modified": "2025-06-25T16:40:25.000",
    "request_status": "Pending",
    "responsible_agency": "Department of Sanitation",
    "final_address": "4219 S Roman St",
    "address_councildis": "B",
    "status": "Assigned to Contractor",
    "contractor": "IV Waste",
    "rowid": "1204234",
    "final_x": "3670872.24462",
    "final_y": "526685.195454",
    "longitude": "-90.1017931147481",
    "latitude": "29.942519960613623",
    "geocoded_column": {
      "latitude": "29.942519960613623",
      "longitude": "-90.1017931147481"
    }
  },
  {
    "service_request": "2025-1204233",
    "request_type": "Trash/Recycling",
    "request_reason": "Illegal Dumping",
    "date_created": "2025-06-25T15:44:50.000",
    "date_modified": "2025-06-25T15:44:52.000",
    "request_status": "Pending",
    "responsible_agency": "Department of Sanitation",
    "final_address": "1725 Touro St",
    "address_councildis": "D",
    "status": "Pending",
    "rowid": "1204233",
    "final_x": "3684071.68847",
    "final_y": "538660.467849",
    "longitude": "-90.05969925119153",
    "latitude": "29.97505117256161",
    "geocoded_column": {
      "latitude": "29.97505117256161",
      "longitude": "-90.05969925119153"
    }
  },
  {
    "service_request": "2025-1204232",
    "request_type": "Trash/Recycling",
    "request_reason": "Request a Large Item Pick Up",
    "date_created": "2025-06-25T15:44:03.000",
    "date_modified": "2025-06-25T15:44:05.000",
    "request_status": "Pending",
    "responsible_agency": "Department of Sanitation",
    "final_address": "8004 Belfast St",
    "address_councildis": "A",
    "status": "Assigned to Contractor",
    "contractor": "IV Waste",
    "rowid": "1204232",
    "final_x": "3665872.6498",
    "final_y": "532055.155715",
    "longitude": "-90.11739813120083",
    "latitude": "29.95743241775421",
    "geocoded_column": {
      "latitude": "29.95743241775421",
      "longitude": "-90.11739813120083"
    }
  },
  {
    "service_request": "2025-1204231",
    "request_type": "Parks & Parkways",
    "request_reason": "Tree Stump (removal, grind)",
    "date_created": "2025-06-25T15:43:42.000",
    "date_modified": "2025-06-25T15:43:44.000",
    "request_status": "Pending",
    "responsible_agency": "Department of Parks & Parkway",
    "final_address": "323 Opelousas Ave",
    "address_councildis": "C",
    "status": "Pending",
    "rowid": "1204231",
    "final_x": "3686313.68732",
    "final_y": "528991.298432",
    "longitude": "-90.05295968529492",
    "latitude": "29.948395584747722",
    "geocoded_column": {
      "latitude": "29.948395584747722",
      "longitude": "-90.05295968529492"
    }
  },
  {
    "service_request": "2025-1204230",
    "request_type": "Drainage",
    "request_reason": "Catch Basin Clogged",
    "date_created": "2025-06-25T15:40:35.000",
    "date_modified": "2025-06-25T15:41:36.000",
    "request_status": "Pending",
    "responsible_agency": "Sewerage & Water Board",
    "final_address": "1568 Athis St",
    "address_councildis": "D",
    "status": "Pending",
    "rowid": "1204230",
    "final_x": "3678929.86338",
    "final_y": "553685.584343",
    "longitude": "-90.07541751968094",
    "latitude": "30.01652108547238",
    "geocoded_column": {
      "latitude": "30.01652108547238",
      "longitude": "-90.07541751968094"
    }
  },
  {
    "service_request": "2025-1204229",
    "request_type": "Trash/Recycling",
    "request_reason": "Request a Large Item Pick Up",
    "date_created": "2025-06-25T15:39:26.000",
    "date_modified": "2025-06-25T15:39:28.000",
    "request_status": "Pending",
    "responsible_agency": "Department of Sanitation",
    "final_address": "6025 Chartres St",
    "address_councildis": "E",
    "status": "Assigned to Contractor",
    "contractor": "Waste Pro",
    "rowid": "1204229",
    "final_x": "3698646.99178",
    "final_y": "531644.308739",
    "longitude": "-90.01392210056378",
    "latitude": "29.95530572522395",
    "geocoded_column": {
      "latitude": "29.95530572522395",
      "longitude": "-90.01392210056378"
    }
  },
  {
    "service_request": "2025-1204228",
    "request_type": "Parks & Parkways",
    "request_reason": "Request Tree Service (Right of Way/Public Property)",
    "date_created": "2025-06-25T15:37:57.000",
    "date_modified": "2025-06-25T15:37:59.000",
    "request_status": "Pending",
    "responsible_agency": "Department of Parks & Parkway",
    "final_address": "1026 St Mary St",
    "address_councildis": "B",
    "status": "Pending",
    "rowid": "1204228",
    "final_x": "3679825.93237",
    "final_y": "522688.299322",
    "longitude": "-90.07366300052014",
    "latitude": "29.93126217058222",
    "geocoded_column": {
      "latitude": "29.93126217058222",
      "longitude": "-90.07366300052014"
    }
  },
  {
    "service_request": "2025-1204227",
    "request_type": "Trash/Recycling",
    "request_reason": "Replace Recycling Cart",
    "date_created": "2025-06-25T15:37:25.000",
    "date_modified": "2025-06-25T15:37:26.000",
    "request_status": "Pending",
    "responsible_agency": "Department of Sanitation",
    "final_address": "2225 Soniat St",
    "address_councildis": "B",
    "status": "Pending",
    "rowid": "1204227",
    "final_x": "3668550.58042",
    "final_y": "523773.578875",
    "longitude": "-90.10922137051274",
    "latitude": "29.93458236125859",
    "geocoded_column": {
      "latitude": "29.93458236125859",
      "longitude": "-90.10922137051274"
    }
  },
  {
    "service_request": "2025-1204226",
    "request_type": "Mosquito, Termite & Rodent Control",
    "request_reason": "Rodent Complaint (Mice & Rats)",
    "date_created": "2025-06-25T15:36:57.000",
    "date_modified": "2025-06-25T15:36:59.000",
    "request_status": "Pending",
    "responsible_agency": "Mosquito, Termite & Rodent Control Board",
    "final_address": "1022 Harmony St",
    "address_councildis": "B",
    "status": "Pending",
    "rowid": "1204226",
    "final_x": "3675834.44718",
    "final_y": "519803.696312",
    "longitude": "-90.08636272693018",
    "latitude": "29.923450499098557",
    "geocoded_column": {
      "latitude": "29.923450499098557",
      "longitude": "-90.08636272693018"
    }
  },
  {
    "service_request": "2025-1204225",
    "request_type": "Trash/Recycling",
    "request_reason": "Order Second Trash Cart",
    "date_created": "2025-06-25T15:36:15.000",
    "date_modified": "2025-06-25T15:36:16.000",
    "request_status": "Pending",
    "responsible_agency": "Department of Sanitation",
    "final_address": "432 Dearmas St",
    "address_councildis": "C",
    "status": "Assigned to Contractor",
    "contractor": "Richards Disposal",
    "rowid": "1204225",
    "final_x": "3686883.43426",
    "final_y": "527218.305855",
    "longitude": "-90.05122340003592",
    "latitude": "29.94350294018446",
    "geocoded_column": {
      "latitude": "29.94350294018446",
      "longitude": "-90.05122340003592"
    }
  },
  {
    "service_request": "2025-1204224",
    "request_type": "Trash/Recycling",
    "request_reason": "Request a Large Item Pick Up",
    "date_created": "2025-06-25T15:35:59.000",
    "date_modified": "2025-06-25T15:36:00.000",
    "request_status": "Pending",
    "responsible_agency": "Department of Sanitation",
    "final_address": "2022 Marais St",
    "address_councildis": "C",
    "status": "Assigned to Contractor",
    "contractor": "IV Waste",
    "rowid": "1204224",
    "final_x": "3684401.63682",
    "final_y": "536586.408967",
    "longitude": "-90.05873005564031",
    "latitude": "29.96933814408542",
    "geocoded_column": {
      "latitude": "29.96933814408542",
      "longitude": "-90.05873005564031"
    }
  },
  {
    "service_request": "2025-1204223",
    "request_type": "Trash/Recycling",
    "request_reason": "Repair Trash Cart",
    "date_created": "2025-06-25T15:29:26.000",
    "date_modified": "2025-06-25T15:29:28.000",
    "request_status": "Pending",
    "responsible_agency": "Department of Sanitation",
    "final_address": "4974 Sandalwood St",
    "address_councildis": "E",
    "status": "Assigned to Contractor",
    "contractor": "Waste Pro",
    "rowid": "1204223",
    "final_x": "3712011.36018",
    "final_y": "557577.020955",
    "longitude": "-89.97074900740701",
    "latitude": "30.026180931117764",
    "geocoded_column": {
      "latitude": "30.026180931117764",
      "longitude": "-89.97074900740701"
    }
  },
  {
    "service_request": "2025-1204222",
    "request_type": "Trash/Recycling",
    "request_reason": "Missed Trash Pick-Up",
    "date_created": "2025-06-25T15:26:40.000",
    "date_modified": "2025-06-25T17:17:52.000",
    "case_close_date": "2025-06-25T12:17:50.000",
    "request_status": "Closed",
    "responsible_agency": "Department of Sanitation",
    "final_address": "6224 York St",
    "address_councildis": "A",
    "status": "Invalid Request",
    "contractor": "IV Waste",
    "contractor_action": "Invalid",
    "rowid": "1204222",
    "final_x": "3667677.82823",
    "final_y": "529008.88192",
    "longitude": "-90.11180044413365",
    "latitude": "29.949003364205133",
    "geocoded_column": {
      "latitude": "29.949003364205133",
      "longitude": "-90.11180044413365"
    }
  },
  {
    "service_request": "2025-1204221",
    "request_type": "Trash/Recycling",
    "request_reason": "Request a Large Item Pick Up",
    "date_created": "2025-06-25T15:20:41.000",
    "date_modified": "2025-06-25T15:20:42.000",
    "request_status": "Pending",
    "responsible_agency": "Department of Sanitation",
    "final_address": "5613 N Villere St",
    "address_councildis": "E",
    "status": "Assigned to Contractor",
    "contractor": "Waste Pro",
    "rowid": "1204221",
    "final_x": "3698479.05207",
    "final_y": "534893.31303",
    "longitude": "-90.01433429450884",
    "latitude": "29.964244649031198",
    "geocoded_column": {
      "latitude": "29.964244649031198",
      "longitude": "-90.01433429450884"
    }
  },
  {
    "service_request": "2025-1204220",
    "request_type": "Trash/Recycling",
    "request_reason": "Request a Large Item Pick Up",
    "date_created": "2025-06-25T15:20:12.000",
    "date_modified": "2025-06-25T15:20:14.000",
    "request_status": "Pending",
    "responsible_agency": "Department of Sanitation",
    "final_address": "1423 Lamanche St",
    "address_councildis": "E",
    "status": "Assigned to Contractor",
    "contractor": "Waste Pro",
    "rowid": "1204220",
    "final_x": "3698758.62775",
    "final_y": "534971.094534",
    "longitude": "-90.01344859377957",
    "latitude": "29.964449668344933",
    "geocoded_column": {
      "latitude": "29.964449668344933",
      "longitude": "-90.01344859377957"
    }
  },
  {
    "service_request": "2025-1204219",
    "request_type": "Parks & Parkways",
    "request_reason": "Request Tree Service (Right of Way/Public Property)",
    "date_created": "2025-06-25T15:16:06.000",
    "date_modified": "2025-06-25T15:16:07.000",
    "request_status": "Pending",
    "responsible_agency": "Department of Parks & Parkway",
    "final_address": "1838 Octavia St",
    "address_councildis": "A",
    "status": "Pending",
    "rowid": "1204219",
    "final_x": "3667187.14247",
    "final_y": "522656.13401",
    "longitude": "-90.11356328362578",
    "latitude": "29.93154972488452",
    "geocoded_column": {
      "latitude": "29.93154972488452",
      "longitude": "-90.11356328362578"
    }
  },
  {
    "service_request": "2025-1204218",
    "request_type": "Trash/Recycling",
    "request_reason": "Request a Large Item Pick Up",
    "date_created": "2025-06-25T15:14:00.000",
    "date_modified": "2025-06-25T15:14:21.000",
    "request_status": "Pending",
    "responsible_agency": "Department of Sanitation",
    "final_address": "6056 Beechcraft St",
    "address_councildis": "D",
    "status": "Assigned to Contractor",
    "contractor": "Waste Pro",
    "rowid": "1204218",
    "final_x": "3696729.19568",
    "final_y": "553298.429271",
    "longitude": "-90.01919357952458",
    "latitude": "30.014907257536297",
    "geocoded_column": {
      "latitude": "30.014907257536297",
      "longitude": "-90.01919357952458"
    }
  },
  {
    "service_request": "2025-1204217",
    "request_type": "Trash/Recycling",
    "request_reason": "Request a Large Item Pick Up",
    "date_created": "2025-06-25T15:13:16.000",
    "date_modified": "2025-06-25T15:13:19.000",
    "request_status": "Pending",
    "responsible_agency": "Department of Sanitation",
    "final_address": "5313 Burgundy St",
    "address_councildis": "E",
    "status": "Assigned to Contractor",
    "contractor": "Waste Pro",
    "rowid": "1204217",
    "final_x": "3696716.27139",
    "final_y": "533292.005572",
    "longitude": "-90.01995894045453",
    "latitude": "29.959897298798897",
    "geocoded_column": {
      "latitude": "29.959897298798897",
      "longitude": "-90.01995894045453"
    }
  },
  {
    "service_request": "2025-1204216",
    "request_type": "Trash/Recycling",
    "request_reason": "Request a Large Item Pick Up",
    "date_created": "2025-06-25T15:12:02.000",
    "date_modified": "2025-06-25T15:12:04.000",
    "request_status": "Pending",
    "responsible_agency": "Department of Sanitation",
    "final_address": "5314 S Liberty St",
    "address_councildis": "B",
    "status": "Assigned to Contractor",
    "contractor": "IV Waste",
    "rowid": "1204216",
    "final_x": "3667986.16858",
    "final_y": "523165.961979",
    "longitude": "-90.1110236749343",
    "latitude": "29.932928176674846",
    "geocoded_column": {
      "latitude": "29.932928176674846",
      "longitude": "-90.1110236749343"
    }
  },
  {
    "service_request": "2025-1204215",
    "request_type": "Trash/Recycling",
    "request_reason": "Request a Large Item Pick Up",
    "date_created": "2025-06-25T15:09:50.000",
    "date_modified": "2025-06-25T15:09:52.000",
    "request_status": "Pending",
    "responsible_agency": "Department of Sanitation",
    "final_address": "1744 St Ferdinand St",
    "address_councildis": "D",
    "status": "Assigned to Contractor",
    "contractor": "IV Waste",
    "rowid": "1204215",
    "final_x": "3688346.22051",
    "final_y": "538904.397962",
    "longitude": "-90.04619055663395",
    "latitude": "29.975590558712646",
    "geocoded_column": {
      "latitude": "29.975590558712646",
      "longitude": "-90.04619055663395"
    }
  },
  {
    "service_request": "2025-1204214",
    "request_type": "Trash/Recycling",
    "request_reason": "Repair Recycling Cart",
    "date_created": "2025-06-25T15:04:33.000",
    "date_modified": "2025-06-25T15:04:34.000",
    "request_status": "Pending",
    "responsible_agency": "Department of Sanitation",
    "final_address": "5852 Sylvia Dr",
    "address_councildis": "A",
    "status": "Pending",
    "rowid": "1204214",
    "final_x": "3664428.64813",
    "final_y": "546783.499217",
    "longitude": "-90.12146599981979",
    "latitude": "29.9979725000219",
    "geocoded_column": {
      "latitude": "29.9979725000219",
      "longitude": "-90.12146599981979"
    }
  },
  {
    "service_request": "2025-1204213",
    "request_type": "Property Maintenance",
    "request_reason": "Property Maintenance",
    "date_created": "2025-06-25T15:03:56.000",
    "date_modified": "2025-06-25T15:03:59.000",
    "request_status": "Pending",
    "responsible_agency": "Department of Code Enforcement",
    "final_address": "6111 Dorothea St",
    "address_councildis": "D",
    "status": "Pending",
    "rowid": "1204213",
    "final_x": "3696071.27926",
    "final_y": "557475.646043",
    "longitude": "-90.02112112652674",
    "latitude": "30.02641375445031",
    "geocoded_column": {
      "latitude": "30.02641375445031",
      "longitude": "-90.02112112652674"
    }
  },
  {
    "service_request": "2025-1204212",
    "request_type": "Trash/Recycling",
    "request_reason": "Request a Large Item Pick Up",
    "date_created": "2025-06-25T15:01:05.000",
    "date_modified": "2025-06-25T15:01:07.000",
    "request_status": "Pending",
    "responsible_agency": "Department of Sanitation",
    "final_address": "6101 Dorothea St",
    "address_councildis": "D",
    "status": "Assigned to Contractor",
    "contractor": "Waste Pro",
    "rowid": "1204212",
    "final_x": "3695999.95478",
    "final_y": "557450.959451",
    "longitude": "-90.02134739571665",
    "latitude": "30.026348121439828",
    "geocoded_column": {
      "latitude": "30.026348121439828",
      "longitude": "-90.02134739571665"
    }
  },
  {
    "service_request": "2025-1204211",
    "request_type": "Trash/Recycling",
    "request_reason": "Request a Large Item Pick Up",
    "date_created": "2025-06-25T15:00:08.000",
    "date_modified": "2025-06-25T15:00:18.000",
    "request_status": "Pending",
    "responsible_agency": "Department of Sanitation",
    "final_address": "4909 Carondelet St",
    "address_councildis": "B",
    "status": "Assigned to Contractor",
    "contractor": "IV Waste",
    "rowid": "1204211",
    "final_x": "3668967.87502",
    "final_y": "521173.868281",
    "longitude": "-90.10799174322814",
    "latitude": "29.927421723435902",
    "geocoded_column": {
      "latitude": "29.927421723435902",
      "longitude": "-90.10799174322814"
    }
  },
  {
    "service_request": "2025-1204210",
    "request_type": "Trash/Recycling",
    "request_reason": "Repair Recycling Cart",
    "date_created": "2025-06-25T14:58:51.000",
    "date_modified": "2025-06-25T14:58:53.000",
    "request_status": "Pending",
    "responsible_agency": "Department of Sanitation",
    "final_address": "4761 Lennox Blvd",
    "address_councildis": "C",
    "status": "Pending",
    "rowid": "1204210",
    "final_x": "3700642.93188",
    "final_y": "513042.697265",
    "longitude": "-90.00829892014367",
    "latitude": "29.904094383029726",
    "geocoded_column": {
      "latitude": "29.904094383029726",
      "longitude": "-90.00829892014367"
    }
  },
  {
    "service_request": "2025-1204209",
    "request_type": "Parks & Parkways",
    "request_reason": "Request Tree Service (Right of Way/Public Property)",
    "date_created": "2025-06-25T14:55:49.000",
    "date_modified": "2025-06-25T14:55:50.000",
    "request_status": "Pending",
    "responsible_agency": "Department of Parks & Parkway",
    "final_address": "605 Lyons St",
    "address_councildis": "B",
    "status": "Pending",
    "rowid": "1204209",
    "final_x": "3669368.83553",
    "final_y": "517635.53343",
    "longitude": "-90.10684556471834",
    "latitude": "29.917680627821515",
    "geocoded_column": {
      "latitude": "29.917680627821515",
      "longitude": "-90.10684556471834"
    }
  },
  {
    "service_request": "2025-1204208",
    "request_type": "Trash/Recycling",
    "request_reason": "Request a Large Item Pick Up",
    "date_created": "2025-06-25T14:55:46.000",
    "date_modified": "2025-06-25T14:55:48.000",
    "request_status": "Pending",
    "responsible_agency": "Department of Sanitation",
    "final_address": "12531 Carmel Pl",
    "address_councildis": "E",
    "status": "Assigned to Contractor",
    "contractor": "Waste Pro",
    "rowid": "1204208",
    "final_x": "3716359.7381",
    "final_y": "566925.797348",
    "longitude": "-89.9566539044965",
    "latitude": "30.051743387510015",
    "geocoded_column": {
      "latitude": "30.051743387510015",
      "longitude": "-89.9566539044965"
    }
  },
  {
    "service_request": "2025-1204207",
    "request_type": "Trash/Recycling",
    "request_reason": "Request a Large Item Pick Up",
    "date_created": "2025-06-25T14:52:55.000",
    "date_modified": "2025-06-25T14:52:59.000",
    "request_status": "Pending",
    "responsible_agency": "Department of Sanitation",
    "final_address": "4824 Virgilian St",
    "address_councildis": "D",
    "status": "Assigned to Contractor",
    "contractor": "Waste Pro",
    "rowid": "1204207",
    "final_x": "3697356.48503",
    "final_y": "554214.968536",
    "longitude": "-90.01717839441929",
    "latitude": "30.01740759813479",
    "geocoded_column": {
      "latitude": "30.01740759813479",
      "longitude": "-90.01717839441929"
    }
  },
  {
    "service_request": "2025-1204206",
    "request_type": "Trash/Recycling",
    "request_reason": "Request a Large Item Pick Up",
    "date_created": "2025-06-25T14:52:40.000",
    "date_modified": "2025-06-25T14:52:41.000",
    "request_status": "Pending",
    "responsible_agency": "Department of Sanitation",
    "final_address": "835 Opelousas Ave",
    "address_councildis": "C",
    "status": "Assigned to Contractor",
    "contractor": "Richards Disposal",
    "rowid": "1204206",
    "final_x": "3688105.76739",
    "final_y": "529034.417664",
    "longitude": "-90.04729983171026",
    "latitude": "29.948458964539814",
    "geocoded_column": {
      "latitude": "29.948458964539814",
      "longitude": "-90.04729983171026"
    }
  },
  {
    "service_request": "2025-1204205",
    "request_type": "Trash/Recycling",
    "request_reason": "Dead Animal Pick Up",
    "date_created": "2025-06-25T14:51:55.000",
    "date_modified": "2025-06-25T14:51:56.000",
    "request_status": "Pending",
    "responsible_agency": "Department of Sanitation",
    "final_address": "4729 Louisa Dr",
    "address_councildis": "D",
    "status": "Assigned to Contractor",
    "contractor": "IV Waste",
    "rowid": "1204205",
    "final_x": "3690949.7832",
    "final_y": "551134.632661",
    "longitude": "-90.03753100106859",
    "latitude": "30.009138605126918",
    "geocoded_column": {
      "latitude": "30.009138605126918",
      "longitude": "-90.03753100106859"
    }
  },
  {
    "service_request": "2025-1204204",
    "request_type": "Trash/Recycling",
    "request_reason": "Return Trash Cart",
    "date_created": "2025-06-25T14:43:40.000",
    "date_modified": "2025-06-25T14:43:42.000",
    "request_status": "Pending",
    "responsible_agency": "Department of Sanitation",
    "final_address": "941 Kerlerec St",
    "address_councildis": "C",
    "status": "Assigned to Contractor",
    "contractor": "IV Waste",
    "rowid": "1204204",
    "final_x": "3683482.59413",
    "final_y": "535322.323334",
    "longitude": "-90.06167676452688",
    "latitude": "29.965890423542206",
    "geocoded_column": {
      "latitude": "29.965890423542206",
      "longitude": "-90.06167676452688"
    }
  },
  {
    "service_request": "2025-1204203",
    "request_type": "Abandoned Vehicles",
    "request_reason": "Abandoned/Junk Vehicles",
    "date_created": "2025-06-25T14:39:31.000",
    "date_modified": "2025-06-25T14:41:53.000",
    "request_status": "Pending",
    "responsible_agency": "Department of Public Works",
    "final_address": "8541 Bill St",
    "address_councildis": "E",
    "status": "Pending",
    "rowid": "1204203",
    "final_x": "3703652.44906",
    "final_y": "563211.143328",
    "longitude": "-89.99695431002901",
    "latitude": "30.041943230415857",
    "geocoded_column": {
      "latitude": "30.041943230415857",
      "longitude": "-89.99695431002901"
    }
  },
  {
    "service_request": "2025-1204202",
    "request_type": "Trash/Recycling",
    "request_reason": "Request a Large Item Pick Up",
    "date_created": "2025-06-25T14:38:54.000",
    "date_modified": "2025-06-25T14:38:56.000",
    "request_status": "Pending",
    "responsible_agency": "Department of Sanitation",
    "final_address": "4610 Francis Dr",
    "address_councildis": "D",
    "status": "Assigned to Contractor",
    "contractor": "Waste Pro",
    "rowid": "1204202",
    "final_x": "3698260.39184",
    "final_y": "553600.382679",
    "longitude": "-90.01434477999463",
    "latitude": "30.015689140240433",
    "geocoded_column": {
      "latitude": "30.015689140240433",
      "longitude": "-90.01434477999463"
    }
  },
  {
    "service_request": "2025-1204201",
    "request_type": "Traffic Signals",
    "request_reason": "Traffic Signal Malfunctioning or Damaged",
    "date_created": "2025-06-25T14:37:08.000",
    "date_modified": "2025-06-25T14:37:09.000",
    "request_status": "Pending",
    "responsible_agency": "Department of Public Works",
    "final_address": "S BROAD ST & TULANE AVE",
    "address_councildis": "B",
    "status": "Pending",
    "rowid": "1204201",
    "final_x": "3674378.8",
    "final_y": "533744.48",
    "longitude": "-90.09048035136306",
    "latitude": "29.961826554304412",
    "geocoded_column": {
      "latitude": "29.961826554304412",
      "longitude": "-90.09048035136306"
    }
  },
  {
    "service_request": "2025-1204200",
    "request_type": "Trash/Recycling",
    "request_reason": "Request a Large Item Pick Up",
    "date_created": "2025-06-25T14:37:05.000",
    "date_modified": "2025-06-25T14:37:06.000",
    "request_status": "Pending",
    "responsible_agency": "Department of Sanitation",
    "final_address": "7431 Spring Lake Dr",
    "address_councildis": "E",
    "status": "Assigned to Contractor",
    "contractor": "Waste Pro",
    "rowid": "1204200",
    "final_x": "3700901.6305",
    "final_y": "559263.855644",
    "longitude": "-90.00579240761229",
    "latitude": "30.031177654722576",
    "geocoded_column": {
      "latitude": "30.031177654722576",
      "longitude": "-90.00579240761229"
    }
  },
  {
    "service_request": "2025-1204199",
    "request_type": "Trash/Recycling",
    "request_reason": "Request a Large Item Pick Up",
    "date_created": "2025-06-25T14:33:39.000",
    "date_modified": "2025-06-25T14:33:40.000",
    "request_status": "Pending",
    "responsible_agency": "Department of Sanitation",
    "final_address": "2470 Royal St",
    "address_councildis": "C",
    "status": "Assigned to Contractor",
    "contractor": "IV Waste",
    "rowid": "1204199",
    "final_x": "3686475.98934",
    "final_y": "534949.956166",
    "longitude": "-90.05223688400359",
    "latitude": "29.96477485780994",
    "geocoded_column": {
      "latitude": "29.96477485780994",
      "longitude": "-90.05223688400359"
    }
  },
  {
    "service_request": "2025-1204198",
    "request_type": "Trash/Recycling",
    "request_reason": "Repair Trash Cart",
    "date_created": "2025-06-25T14:33:20.000",
    "date_modified": "2025-06-25T14:33:22.000",
    "request_status": "Pending",
    "responsible_agency": "Department of Sanitation",
    "final_address": "4965 Western St",
    "address_councildis": "D",
    "status": "Assigned to Contractor",
    "contractor": "IV Waste",
    "rowid": "1204198",
    "final_x": "3684097.53276",
    "final_y": "551231.980309",
    "longitude": "-90.05917612513052",
    "latitude": "30.009617566528977",
    "geocoded_column": {
      "latitude": "30.009617566528977",
      "longitude": "-90.05917612513052"
    }
  },
  {
    "service_request": "2025-1204197",
    "request_type": "Parks & Parkways",
    "request_reason": "Request Tree Service (Right of Way/Public Property)",
    "date_created": "2025-06-25T14:29:37.000",
    "date_modified": "2025-06-25T15:06:58.000",
    "case_close_date": "2025-06-25T10:06:56.000",
    "request_status": "Closed",
    "responsible_agency": "Department of Parks & Parkway",
    "final_address": "636 Webster St",
    "address_councildis": "A",
    "status": "Duplicate Request",
    "rowid": "1204197",
    "final_x": "3663937.50112",
    "final_y": "519051.013495",
    "longitude": "-90.12394218752152",
    "latitude": "29.921731495322433",
    "geocoded_column": {
      "latitude": "29.921731495322433",
      "longitude": "-90.12394218752152"
    }
  },
  {
    "service_request": "2025-1204196",
    "request_type": "Trash/Recycling",
    "request_reason": "Request a Large Item Pick Up",
    "date_created": "2025-06-25T14:14:03.000",
    "date_modified": "2025-06-25T14:14:05.000",
    "request_status": "Pending",
    "responsible_agency": "Department of Sanitation",
    "final_address": "48 Martin Dr",
    "address_councildis": "E",
    "status": "Assigned to Contractor",
    "contractor": "Waste Pro",
    "rowid": "1204196",
    "final_x": "3697806.14007",
    "final_y": "561065.102494",
    "longitude": "-90.01550875023955",
    "latitude": "30.03622863703883",
    "geocoded_column": {
      "latitude": "30.03622863703883",
      "longitude": "-90.01550875023955"
    }
  },
  {
    "service_request": "2025-1204195",
    "request_type": "Trash/Recycling",
    "request_reason": "Order Recycling Cart",
    "date_created": "2025-06-25T14:12:39.000",
    "date_modified": "2025-06-25T14:14:05.000",
    "request_status": "Pending",
    "responsible_agency": "Department of Sanitation",
    "final_address": "2479 Burgundy St",
    "address_councildis": "C",
    "status": "Pending",
    "rowid": "1204195",
    "final_x": "3686486.74914",
    "final_y": "535726.096775",
    "longitude": "-90.05217550086692",
    "latitude": "29.96690864415267",
    "geocoded_column": {
      "latitude": "29.96690864415267",
      "longitude": "-90.05217550086692"
    }
  },
  {
    "service_request": "2025-1204194",
    "request_type": "Streetlights",
    "request_reason": "Streetlight Outage/Malfunction",
    "date_created": "2025-06-25T14:08:39.000",
    "date_modified": "2025-06-25T14:08:40.000",
    "request_status": "Pending",
    "responsible_agency": "Department of Public Works",
    "final_address": "1223 Mirabeau Ave",
    "address_councildis": "D",
    "status": "Pending",
    "contractor": "Legacy Professional Services",
    "rowid": "1204194",
    "final_x": "3676943.29013",
    "final_y": "550282.414484",
    "longitude": "-90.08181168801599",
    "latitude": "30.00722340426476",
    "geocoded_column": {
      "latitude": "30.00722340426476",
      "longitude": "-90.08181168801599"
    }
  },
  {
    "service_request": "2025-1204193",
    "request_type": "Trash/Recycling",
    "request_reason": "Request a Large Item Pick Up",
    "date_created": "2025-06-25T14:08:06.000",
    "date_modified": "2025-06-25T14:08:08.000",
    "request_status": "Pending",
    "responsible_agency": "Department of Sanitation",
    "final_address": "930 Marigny St",
    "address_councildis": "C",
    "status": "Assigned to Contractor",
    "contractor": "IV Waste",
    "rowid": "1204193",
    "final_x": "3685429.33333",
    "final_y": "535873.708615",
    "longitude": "-90.05550961625366",
    "latitude": "29.96734699207192",
    "geocoded_column": {
      "latitude": "29.96734699207192",
      "longitude": "-90.05550961625366"
    }
  },
  {
    "service_request": "2025-1204192",
    "request_type": "Streetlights",
    "request_reason": "Streetlight Knocked Down/Leaning",
    "date_created": "2025-06-25T14:05:27.000",
    "date_modified": "2025-06-25T14:05:50.000",
    "request_status": "Pending",
    "responsible_agency": "Department of Public Works",
    "final_address": "3500 Timber Wolf Ln",
    "address_councildis": "C",
    "status": "Pending",
    "contractor": "Legacy Professional Services",
    "rowid": "1204192",
    "final_x": "3704591.57591",
    "final_y": "511316.610672",
    "longitude": "-89.99590062553703",
    "latitude": "29.89922208599472",
    "geocoded_column": {
      "latitude": "29.89922208599472",
      "longitude": "-89.99590062553703"
    }
  },
  {
    "service_request": "2025-1204191",
    "request_type": "Streetlights",
    "request_reason": "Streetlight Outage/Malfunction",
    "date_created": "2025-06-25T14:05:02.000",
    "date_modified": "2025-06-25T14:05:04.000",
    "request_status": "Pending",
    "responsible_agency": "Department of Public Works",
    "final_address": "1247 Mirabeau Ave",
    "address_councildis": "D",
    "status": "Pending",
    "contractor": "Legacy Professional Services",
    "rowid": "1204191",
    "final_x": "3677108.07406",
    "final_y": "550295.601364",
    "longitude": "-90.0812906343035",
    "latitude": "30.007254713594286",
    "geocoded_column": {
      "latitude": "30.007254713594286",
      "longitude": "-90.0812906343035"
    }
  },
  {
    "service_request": "2025-1204190",
    "request_type": "Streetlights",
    "request_reason": "Streetlight Outage/Malfunction",
    "date_created": "2025-06-25T14:03:09.000",
    "date_modified": "2025-06-25T14:03:44.000",
    "request_status": "Pending",
    "responsible_agency": "Department of Public Works",
    "final_address": "3961 Louisiana Avenue Prkwy",
    "address_councildis": "B",
    "status": "Pending",
    "contractor": "Legacy Professional Services",
    "rowid": "1204190",
    "final_x": "3671071.32308",
    "final_y": "529502.936705",
    "longitude": "-90.10106890430876",
    "latitude": "29.950261942692194",
    "geocoded_column": {
      "latitude": "29.950261942692194",
      "longitude": "-90.10106890430876"
    }
  },
  {
    "service_request": "2025-1204189",
    "request_type": "Trash/Recycling",
    "request_reason": "Order Second Trash Cart",
    "date_created": "2025-06-25T13:59:44.000",
    "date_modified": "2025-06-25T13:59:51.000",
    "request_status": "Pending",
    "responsible_agency": "Department of Sanitation",
    "final_address": "4611 Good Dr",
    "address_councildis": "E",
    "status": "Assigned to Contractor",
    "contractor": "Waste Pro",
    "rowid": "1204189",
    "final_x": "3714928.7596",
    "final_y": "556080.14729",
    "longitude": "-89.96158710957046",
    "latitude": "30.02196940814584",
    "geocoded_column": {
      "latitude": "30.02196940814584",
      "longitude": "-89.96158710957046"
    }
  },
  {
    "service_request": "2025-1204188",
    "request_type": "Streetlights",
    "request_reason": "Streetlight Outage/Malfunction",
    "date_created": "2025-06-25T13:57:03.000",
    "date_modified": "2025-06-25T13:57:05.000",
    "request_status": "Pending",
    "responsible_agency": "Department of Public Works",
    "final_address": "1263 Mirabeau Ave",
    "address_councildis": "D",
    "status": "Pending",
    "contractor": "Legacy Professional Services",
    "rowid": "1204188",
    "final_x": "3677227.76462",
    "final_y": "550305.184276",
    "longitude": "-90.0809121673568",
    "latitude": "30.007277466548327",
    "geocoded_column": {
      "latitude": "30.007277466548327",
      "longitude": "-90.0809121673568"
    }
  },
  {
    "service_request": "2025-1204187",
    "request_type": "Trash/Recycling",
    "request_reason": "Replace Trash Cart",
    "date_created": "2025-06-25T13:54:46.000",
    "date_modified": "2025-06-25T13:54:48.000",
    "request_status": "Pending",
    "responsible_agency": "Department of Sanitation",
    "final_address": "2910 St Ann St",
    "address_councildis": "A",
    "status": "Assigned to Contractor",
    "contractor": "IV Waste",
    "rowid": "1204187",
    "final_x": "3676094.74632",
    "final_y": "537806.165",
    "longitude": "-90.08492191901762",
    "latitude": "29.972943521338003",
    "geocoded_column": {
      "latitude": "29.972943521338003",
      "longitude": "-90.08492191901762"
    }
  },
  {
    "service_request": "2025-1204186",
    "request_type": "Property Maintenance",
    "request_reason": "Property Maintenance",
    "date_created": "2025-06-25T13:53:17.000",
    "date_modified": "2025-06-25T14:41:26.000",
    "case_close_date": "2025-06-25T09:41:25.000",
    "request_status": "Closed",
    "responsible_agency": "Department of Code Enforcement",
    "final_address": "2365 Rousseau St",
    "address_councildis": "B",
    "status": "Referred to Code Enforcement",
    "rowid": "1204186",
    "final_x": "3679447.49608",
    "final_y": "519740.579256",
    "longitude": "-90.07495987066183",
    "latitude": "29.92316833798484",
    "geocoded_column": {
      "latitude": "29.92316833798484",
      "longitude": "-90.07495987066183"
    }
  },
  {
    "service_request": "2025-1204185",
    "request_type": "Property Maintenance",
    "request_reason": "Property Maintenance",
    "date_created": "2025-06-25T13:52:34.000",
    "date_modified": "2025-06-25T14:45:49.000",
    "case_close_date": "2025-06-25T09:45:47.000",
    "request_status": "Closed",
    "responsible_agency": "Department of Code Enforcement",
    "final_address": "2344 Rousseau St",
    "address_councildis": "B",
    "status": "Referred to Code Enforcement",
    "rowid": "1204185",
    "final_x": "3679496.20904",
    "final_y": "519696.25228",
    "longitude": "-90.07480763933758",
    "latitude": "29.92304498214157",
    "geocoded_column": {
      "latitude": "29.92304498214157",
      "longitude": "-90.07480763933758"
    }
  },
  {
    "service_request": "2025-1204184",
    "request_type": "Roads and Streets",
    "request_reason": "Pothole",
    "date_created": "2025-06-25T13:50:52.000",
    "date_modified": "2025-06-25T13:50:54.000",
    "request_status": "Pending",
    "responsible_agency": "Department of Public Works",
    "final_address": "0 BLK Allard Blvd",
    "address_councildis": "A",
    "status": "Pending",
    "rowid": "1204184",
    "final_x": "3672889.12367",
    "final_y": "541158.059532",
    "longitude": "-90.09493149945968",
    "latitude": "29.982255733983415",
    "geocoded_column": {
      "latitude": "29.982255733983415",
      "longitude": "-90.09493149945968"
    }
  },
  {
    "service_request": "2025-1204183",
    "request_type": "Trash/Recycling",
    "request_reason": "MIssed Recycling Pick-Up",
    "date_created": "2025-06-25T13:49:16.000",
    "date_modified": "2025-06-25T14:08:41.000",
    "case_close_date": "2025-06-25T09:08:40.000",
    "request_status": "Closed",
    "responsible_agency": "Department of Sanitation",
    "final_address": "927 St Peter St",
    "address_councildis": "C",
    "status": "Invalid Request",
    "contractor": "IV Waste",
    "contractor_action": "Invalid",
    "rowid": "1204183",
    "final_x": "3681796.47964",
    "final_y": "533032.88698",
    "longitude": "-90.06708135472878",
    "latitude": "29.95964660226067",
    "geocoded_column": {
      "latitude": "29.95964660226067",
      "longitude": "-90.06708135472878"
    }
  },
  {
    "service_request": "2025-1204182",
    "request_type": "Trash/Recycling",
    "request_reason": "Request a Large Item Pick Up",
    "date_created": "2025-06-25T13:48:33.000",
    "date_modified": "2025-06-25T13:48:34.000",
    "request_status": "Pending",
    "responsible_agency": "Department of Sanitation",
    "final_address": "4719 Loyola Ave",
    "address_councildis": "B",
    "status": "Assigned to Contractor",
    "contractor": "IV Waste",
    "rowid": "1204182",
    "final_x": "3669350.73761",
    "final_y": "522903.411643",
    "longitude": "-90.10672469156675",
    "latitude": "29.932166151636313",
    "geocoded_column": {
      "latitude": "29.932166151636313",
      "longitude": "-90.10672469156675"
    }
  },
  {
    "service_request": "2025-1204181",
    "request_type": "Drainage",
    "request_reason": "Street Flooding",
    "date_created": "2025-06-25T13:48:30.000",
    "date_modified": "2025-06-25T13:48:32.000",
    "request_status": "Pending",
    "responsible_agency": "Sewerage & Water Board",
    "final_address": "5530 Atlanta St",
    "address_councildis": "A",
    "status": "Pending",
    "rowid": "1204181",
    "final_x": "3666659.05831",
    "final_y": "520907.853817",
    "longitude": "-90.11528905848313",
    "latitude": "29.92675795563615",
    "geocoded_column": {
      "latitude": "29.92675795563615",
      "longitude": "-90.11528905848313"
    }
  },
  {
    "service_request": "2025-1204180",
    "request_type": "Trash/Recycling",
    "request_reason": "Request a Large Item Pick Up",
    "date_created": "2025-06-25T13:45:55.000",
    "date_modified": "2025-06-25T13:45:57.000",
    "request_status": "Pending",
    "responsible_agency": "Department of Sanitation",
    "final_address": "4611 Good Dr",
    "address_councildis": "E",
    "status": "Assigned to Contractor",
    "contractor": "Waste Pro",
    "rowid": "1204180",
    "final_x": "3714928.7596",
    "final_y": "556080.14729",
    "longitude": "-89.96158710957046",
    "latitude": "30.02196940814584",
    "geocoded_column": {
      "latitude": "30.02196940814584",
      "longitude": "-89.96158710957046"
    }
  },
  {
    "service_request": "2025-1204179",
    "request_type": "Streetlights",
    "request_reason": "Streetlight Outage/Malfunction",
    "date_created": "2025-06-25T13:45:02.000",
    "date_modified": "2025-06-25T13:45:04.000",
    "request_status": "Pending",
    "responsible_agency": "Department of Public Works",
    "final_address": "1343 Mirabeau Ave",
    "address_councildis": "D",
    "status": "Pending",
    "contractor": "Legacy Professional Services",
    "rowid": "1204179",
    "final_x": "3677593.27528",
    "final_y": "550334.525204",
    "longitude": "-90.07975640245319",
    "latitude": "30.007347153504863",
    "geocoded_column": {
      "latitude": "30.007347153504863",
      "longitude": "-90.07975640245319"
    }
  },
  {
    "service_request": "2025-1204178",
    "request_type": "Abandoned Vehicles",
    "request_reason": "Abandoned/Junk Vehicles",
    "date_created": "2025-06-25T13:44:36.000",
    "date_modified": "2025-06-25T13:44:38.000",
    "request_status": "Pending",
    "responsible_agency": "Department of Public Works",
    "final_address": "1400 BLK Louisa St",
    "address_councildis": "C",
    "status": "Pending",
    "rowid": "1204178",
    "final_x": "3689885.49946",
    "final_y": "537159.126257",
    "longitude": "-90.04139125361418",
    "latitude": "29.970744043726683",
    "geocoded_column": {
      "latitude": "29.970744043726683",
      "longitude": "-90.04139125361418"
    }
  },
  {
    "service_request": "2025-1204177",
    "request_type": "Drainage",
    "request_reason": "Drainage Manhole Cover Missing or Damaged",
    "date_created": "2025-06-25T13:44:34.000",
    "date_modified": "2025-06-25T13:44:35.000",
    "request_status": "Pending",
    "responsible_agency": "Sewerage & Water Board",
    "final_address": "333 Canal St",
    "address_councildis": "C",
    "status": "Pending",
    "rowid": "1204177",
    "final_x": "3682449.05404",
    "final_y": "529850.952257",
    "longitude": "-90.06513188402243",
    "latitude": "29.950877517618977",
    "geocoded_column": {
      "latitude": "29.950877517618977",
      "longitude": "-90.06513188402243"
    }
  },
  {
    "service_request": "2025-1204176",
    "request_type": "Parks & Parkways",
    "request_reason": "Request Tree Service (Right of Way/Public Property)",
    "date_created": "2025-06-25T13:44:31.000",
    "date_modified": "2025-06-25T13:44:32.000",
    "request_status": "Pending",
    "responsible_agency": "Department of Parks & Parkway",
    "final_address": "4607 Toulouse St",
    "address_councildis": "A",
    "status": "Pending",
    "rowid": "1204176",
    "final_x": "3670445.93652",
    "final_y": "541118.527756",
    "longitude": "-90.1026496352438",
    "latitude": "29.982219414808235",
    "geocoded_column": {
      "latitude": "29.982219414808235",
      "longitude": "-90.1026496352438"
    }
  },
  {
    "service_request": "2025-1204175",
    "request_type": "Trash/Recycling",
    "request_reason": "Order Recycling Cart",
    "date_created": "2025-06-25T13:44:27.000",
    "date_modified": "2025-06-25T13:44:28.000",
    "request_status": "Pending",
    "responsible_agency": "Department of Sanitation",
    "final_address": "540 Turquoise St",
    "address_councildis": "D",
    "status": "Pending",
    "rowid": "1204175",
    "final_x": "3668496.03751",
    "final_y": "555292.160025",
    "longitude": "-90.10832978166168",
    "latitude": "30.02124942589741",
    "geocoded_column": {
      "latitude": "30.02124942589741",
      "longitude": "-90.10832978166168"
    }
  },
  {
    "service_request": "2025-1204174",
    "request_type": "Roads and Streets",
    "request_reason": "Street Subsidence (Sinking)",
    "date_created": "2025-06-25T13:43:37.000",
    "date_modified": "2025-06-25T13:43:38.000",
    "request_status": "Pending",
    "responsible_agency": "Department of Public Works",
    "final_address": "1408 Leda St",
    "address_councildis": "A",
    "status": "Pending",
    "rowid": "1204174",
    "final_x": "3675587.13301",
    "final_y": "541215.119692",
    "longitude": "-90.08640790191497",
    "latitude": "29.982332175216047",
    "geocoded_column": {
      "latitude": "29.982332175216047",
      "longitude": "-90.08640790191497"
    }
  },
  {
    "service_request": "2025-1204173",
    "request_type": "Trash/Recycling",
    "request_reason": "Request a Large Item Pick Up",
    "date_created": "2025-06-25T13:42:46.000",
    "date_modified": "2025-06-25T13:43:45.000",
    "request_status": "Pending",
    "responsible_agency": "Department of Sanitation",
    "final_address": "2108 Magnolia St",
    "address_councildis": "B",
    "status": "Assigned to Contractor",
    "contractor": "IV Waste",
    "rowid": "1204173",
    "final_x": "3675453.91112",
    "final_y": "526984.805246",
    "longitude": "-90.08731743990084",
    "latitude": "29.94320759065088",
    "geocoded_column": {
      "latitude": "29.94320759065088",
      "longitude": "-90.08731743990084"
    }
  },
  {
    "service_request": "2025-1204172",
    "request_type": "Trash/Recycling",
    "request_reason": "Request a Large Item Pick Up",
    "date_created": "2025-06-25T13:41:01.000",
    "date_modified": "2025-06-25T13:41:03.000",
    "request_status": "Pending",
    "responsible_agency": "Department of Sanitation",
    "final_address": "11921 Curran Rd",
    "address_councildis": "E",
    "status": "Assigned to Contractor",
    "contractor": "Waste Pro",
    "rowid": "1204172",
    "final_x": "3713007.79352",
    "final_y": "567850.976804",
    "longitude": "-89.96721337965172",
    "latitude": "30.054397560455016",
    "geocoded_column": {
      "latitude": "30.054397560455016",
      "longitude": "-89.96721337965172"
    }
  },
  {
    "service_request": "2025-1204171",
    "request_type": "Streetlights",
    "request_reason": "Streetlight Outage/Malfunction",
    "date_created": "2025-06-25T13:40:31.000",
    "date_modified": "2025-06-25T13:40:35.000",
    "request_status": "Pending",
    "responsible_agency": "Department of Public Works",
    "final_address": "EVELINA ST & SEGUIN ST",
    "address_councildis": "C",
    "status": "Pending",
    "contractor": "Legacy Professional Services",
    "rowid": "1204171",
    "final_x": "3686858.0",
    "final_y": "529353.28",
    "longitude": "-90.05122827971957",
    "latitude": "29.94937417535684",
    "geocoded_column": {
      "latitude": "29.94937417535684",
      "longitude": "-90.05122827971957"
    }
  },
  {
    "service_request": "2025-1204170",
    "request_type": "Trash/Recycling",
    "request_reason": "Request a Large Item Pick Up",
    "date_created": "2025-06-25T13:39:00.000",
    "date_modified": "2025-06-25T13:39:14.000",
    "request_status": "Pending",
    "responsible_agency": "Department of Sanitation",
    "final_address": "8813 Dinkins St",
    "address_councildis": "E",
    "status": "Assigned to Contractor",
    "contractor": "Waste Pro",
    "rowid": "1204170",
    "final_x": "3704469.72433",
    "final_y": "563347.797152",
    "longitude": "-89.99436638531556",
    "latitude": "30.04229274033407",
    "geocoded_column": {
      "latitude": "30.04229274033407",
      "longitude": "-89.99436638531556"
    }
  },
  {
    "service_request": "2025-1204169",
    "request_type": "Parks & Parkways",
    "request_reason": "Request Tree Service (Right of Way/Public Property)",
    "date_created": "2025-06-25T13:36:57.000",
    "date_modified": "2025-06-25T14:36:37.000",
    "request_status": "Pending",
    "responsible_agency": "Department of Parks & Parkway",
    "final_address": "540 Bermuda St",
    "address_councildis": "C",
    "status": "Pending",
    "rowid": "1204169",
    "final_x": "3686842.60879",
    "final_y": "530162.042177",
    "longitude": "-90.0512483039657",
    "latitude": "29.95159846853759",
    "geocoded_column": {
      "latitude": "29.95159846853759",
      "longitude": "-90.0512483039657"
    }
  },
  {
    "service_request": "2025-1204168",
    "request_type": "Trash/Recycling",
    "request_reason": "Request a Large Item Pick Up",
    "date_created": "2025-06-25T13:34:40.000",
    "date_modified": "2025-06-25T13:34:41.000",
    "request_status": "Pending",
    "responsible_agency": "Department of Sanitation",
    "final_address": "11420 N Easterlyn Cir",
    "address_councildis": "E",
    "status": "Assigned to Contractor",
    "contractor": "Waste Pro",
    "rowid": "1204168",
    "final_x": "3718473.54213",
    "final_y": "560889.173918",
    "longitude": "-89.95020322226243",
    "latitude": "30.03507513882866",
    "geocoded_column": {
      "latitude": "30.03507513882866",
      "longitude": "-89.95020322226243"
    }
  },
  {
    "service_request": "2025-1204167",
    "request_type": "Roads and Streets",
    "request_reason": "Street Subsidence (Sinking)",
    "date_created": "2025-06-25T13:34:23.000",
    "date_modified": "2025-06-25T13:34:24.000",
    "request_status": "Pending",
    "responsible_agency": "Department of Public Works",
    "final_address": "1406 Leda St",
    "address_councildis": "A",
    "status": "Pending",
    "rowid": "1204167",
    "final_x": "3675584.7515",
    "final_y": "541199.867148",
    "longitude": "-90.08641594814327",
    "latitude": "29.9822903072382",
    "geocoded_column": {
      "latitude": "29.9822903072382",
      "longitude": "-90.08641594814327"
    }
  },
  {
    "service_request": "2025-1204166",
    "request_type": "Trash/Recycling",
    "request_reason": "Request a Large Item Pick Up",
    "date_created": "2025-06-25T13:33:33.000",
    "date_modified": "2025-06-25T13:33:35.000",
    "request_status": "Pending",
    "responsible_agency": "Department of Sanitation",
    "final_address": "1833 Marais St",
    "address_councildis": "C",
    "status": "Assigned to Contractor",
    "contractor": "IV Waste",
    "rowid": "1204166",
    "final_x": "3683770.81436",
    "final_y": "536599.882311",
    "longitude": "-90.06072176680117",
    "latitude": "29.969394470663534",
    "geocoded_column": {
      "latitude": "29.969394470663534",
      "longitude": "-90.06072176680117"
    }
  },