[
  {
    "service_request": "2025-1233484",
    "request_type": "Streetlights",
    "request_reason": "Streetlight Outage/Malfunction",
    "date_created": "2025-10-14T22:30:34.000",
    "date_modified": "2025-10-14T22:30:37.000",
    "request_status": "Pending",
    "responsible_agency": "Department of Public Works",
    "final_address": "4902 Franklin Ave",
    "address_councildis": "D",
    "status": "Pending",
    "rowid": "1233484",
    "final_x": "3686710.86524",
    "final_y": "551007.113557",
    "longitude": "-90.05092765448137",
    "latitude": "30.008919102081776",
    "geocoded_column": {
      "latitude": "30.008919102081776",
      "longitude": "-90.05092765448137"
    }
  },
  {
    "service_request": "2025-1233483",
    "request_type": "General Services",
    "request_reason": "General Service Request",
    "date_created": "2025-10-14T22:28:10.000",
    "date_modified": "2025-10-14T22:28:11.000",
    "request_status": "Pending",
    "responsible_agency": "Orleans Parish Communication District",
    "final_address": "708 Royal St",
    "address_councildis": "C",
    "status": "Pending",
    "rowid": "1233483",
    "final_x": "3682593.10063",
    "final_y": "532473.635972",
    "longitude": "-90.06458536458695",
    "latitude": "29.95808462260134",
    "geocoded_column": {
      "latitude": "29.95808462260134",
      "longitude": "-90.06458536458695"
    }
  },
  {
    "service_request": "2025-1233482",
    "request_type": "General Services",
    "request_reason": "General Service Request",
    "date_created": "2025-10-14T22:25:38.000",
    "date_modified": "2025-10-14T22:25:39.000",
    "request_status": "Pending",
    "responsible_agency": "Orleans Parish Communication District",
    "final_address": "4902 Franklin Ave",
    "address_councildis": "D",
    "status": "Pending",
    "rowid": "1233482",
    "final_x": "3686710.86524",
    "final_y": "551007.113557",
    "longitude": "-90.05092765448137",
    "latitude": "30.008919102081776",
    "geocoded_column": {
      "latitude": "30.008919102081776",
      "longitude": "-90.05092765448137"
    }
  },
  {
    "service_request": "2025-1233481",
    "request_type": "Streetlights",
    "request_reason": "Streetlight Outage/Malfunction",
    "date_created": "2025-10-14T22:20:29.000",
    "date_modified": "2025-10-14T22:20:30.000",
    "request_status": "Pending",
    "responsible_agency": "Department of Public Works",
    "final_address": "4751 Sandalwood St",
    "address_councildis": "E",
    "status": "Pending",
    "rowid": "1233481",
    "final_x": "3712301.65323",
    "final_y": "556219.613914",
    "longitude": "-89.96988276440605",
    "latitude": "30.022439101899312",
    "geocoded_column": {
      "latitude": "30.022439101899312",
      "longitude": "-89.96988276440605"
    }
  },
  {
    "service_request": "2025-1233480",
    "request_type": "Property Maintenance",
    "request_reason": "Property Maintenance",
    "date_created": "2025-10-14T22:20:04.000",
    "date_modified": "2025-10-14T22:20:05.000",
    "request_status": "Pending",
    "responsible_agency": "Department of Code Enforcement",
    "final_address": "9001 Adele St, New Orleans, Louisiana, 70127",
    "address_councildis": "E",
    "status": "Pending",
    "rowid": "1233480",
    "final_x": "3705726.71639",
    "final_y": "562580.349216",
    "longitude": "-89.99042226055359",
    "latitude": "30.040142114604574",
    "geocoded_column": {
      "latitude": "30.040142114604574",
      "longitude": "-89.99042226055359"
    }
  },
  {
    "service_request": "2025-1233479",
    "request_type": "Property Maintenance",
    "request_reason": "Property Maintenance",
    "date_created": "2025-10-14T22:14:52.000",
    "date_modified": "2025-10-14T22:14:53.000",
    "request_status": "Pending",
    "responsible_agency": "Department of Code Enforcement",
    "final_address": "7135 Bundy Rd, New Orleans, Louisiana, 70127",
    "address_councildis": "E",
    "status": "Pending",
    "rowid": "1233479",
    "final_x": "3706989.53572",
    "final_y": "561619.399583",
    "longitude": "-89.98646707843045",
    "latitude": "30.037459128529374",
    "geocoded_column": {
      "latitude": "30.037459128529374",
      "longitude": "-89.98646707843045"
    }
  },
  {
    "service_request": "2025-1233478",
    "request_type": "Street and Traffic Signs",
    "request_reason": "Additional Signage Request",
    "date_created": "2025-10-14T21:53:48.000",
    "date_modified": "2025-10-14T21:53:50.000",
    "request_status": "Pending",
    "responsible_agency": "Department of Public Works",
    "final_address": "1000 BLK Saint Charles Ave",
    "address_councildis": "B",
    "status": "Pending",
    "rowid": "1233478",
    "final_x": "3679998.04318",
    "final_y": "527038.320055",
    "longitude": "-90.07296861871036",
    "latitude": "29.943218084111038",
    "geocoded_column": {
      "latitude": "29.943218084111038",
      "longitude": "-90.07296861871036"
    }
  },
  {
    "service_request": "2025-1233477",
    "request_type": "Roads and Streets",
    "request_reason": "Road Shoulder Damage",
    "date_created": "2025-10-14T21:43:41.000",
    "date_modified": "2025-10-14T21:43:43.000",
    "request_status": "Pending",
    "responsible_agency": "Department of Public Works",
    "final_address": "1901 Clouet St",
    "address_councildis": "D",
    "status": "Pending",
    "rowid": "1233477",
    "final_x": "3689800.69212",
    "final_y": "539031.615946",
    "longitude": "-90.04159241950566",
    "latitude": "29.97589535822424",
    "geocoded_column": {
      "latitude": "29.97589535822424",
      "longitude": "-90.04159241950566"
    }
  },
  {
    "service_request": "2025-1233476",
    "request_type": "Property Maintenance",
    "request_reason": "Property Maintenance",
    "date_created": "2025-10-14T21:37:11.000",
    "date_modified": "2025-10-14T21:37:13.000",
    "request_status": "Pending",
    "responsible_agency": "Department of Code Enforcement",
    "final_address": "4724 Majestic Oaks Dr",
    "address_councildis": "D",
    "status": "Pending",
    "rowid": "1233476",
    "final_x": "3697687.87011",
    "final_y": "554365.36028",
    "longitude": "-90.0161258936677",
    "latitude": "30.017810648133633",
    "geocoded_column": {
      "latitude": "30.017810648133633",
      "longitude": "-90.0161258936677"
    }
  },
  {
    "service_request": "2025-1233475",
    "request_type": "Roads and Streets",
    "request_reason": "Sidewalk Damaged or Missing",
    "date_created": "2025-10-14T21:33:39.000",
    "date_modified": "2025-10-14T21:33:41.000",
    "request_status": "Pending",
    "responsible_agency": "Department of Public Works",
    "final_address": "1920 Clouet St",
    "address_councildis": "D",
    "status": "Pending",
    "rowid": "1233475",
    "final_x": "3689766.44675",
    "final_y": "539172.77953",
    "longitude": "-90.04169555018466",
    "latitude": "29.976284569570048",
    "geocoded_column": {
      "latitude": "29.976284569570048",
      "longitude": "-90.04169555018466"
    }
  },
  {
    "service_request": "2025-1233474",
    "request_type": "Property Maintenance",
    "request_reason": "Property Maintenance",
    "date_created": "2025-10-14T21:30:27.000",
    "date_modified": "2025-10-14T21:30:29.000",
    "request_status": "Pending",
    "responsible_agency": "Department of Code Enforcement",
    "final_address": "4722 Majestic Oaks Dr",
    "address_councildis": "D",
    "status": "Pending",
    "rowid": "1233474",
    "final_x": "3697677.87914",
    "final_y": "554306.931928",
    "longitude": "-90.01615958323194",
    "latitude": "30.01765030807066",
    "geocoded_column": {
      "latitude": "30.01765030807066",
      "longitude": "-90.01615958323194"
    }
  },
  {
    "service_request": "2025-1233473",
    "request_type": "Trash/Recycling",
    "request_reason": "Request a Large Item Pick Up",
    "date_created": "2025-10-14T21:29:14.000",
    "date_modified": "2025-10-14T21:29:16.000",
    "request_status": "Pending",
    "responsible_agency": "Department of Sanitation",
    "final_address": "1929 Iberville St",
    "address_councildis": "B",
    "status": "Assigned to Contractor",
    "contractor": "IV Waste",
    "rowid": "1233473",
    "final_x": "3677902.3787",
    "final_y": "533762.693061",
    "longitude": "-90.079352818974",
    "latitude": "29.961771074273166",
    "geocoded_column": {
      "latitude": "29.961771074273166",
      "longitude": "-90.079352818974"
    }
  },
  {
    "service_request": "2025-1233472",
    "request_type": "Trash/Recycling",
    "request_reason": "Order Recycling Cart",
    "date_created": "2025-10-14T20:57:42.000",
    "date_modified": "2025-10-14T20:57:45.000",
    "request_status": "Pending",
    "responsible_agency": "Department of Sanitation",
    "final_address": "2411 Lark St",
    "address_councildis": "D",
    "status": "Pending",
    "rowid": "1233472",
    "final_x": "3684733.50293",
    "final_y": "557983.515803",
    "longitude": "-90.0569292641928",
    "latitude": "30.028162345465997",
    "geocoded_column": {
      "latitude": "30.028162345465997",
      "longitude": "-90.0569292641928"
    }
  },
  {
    "service_request": "2025-1233471",
    "request_type": "Streetlights",
    "request_reason": "Streetlight Outage/Malfunction",
    "date_created": "2025-10-14T20:02:51.000",
    "date_modified": "2025-10-14T20:02:52.000",
    "request_status": "Pending",
    "responsible_agency": "Department of Public Works",
    "final_address": "3027 Jena St",
    "address_councildis": "B",
    "status": "Pending",
    "rowid": "1233471",
    "final_x": "3669959.12417",
    "final_y": "526135.094078",
    "longitude": "-90.1046946764278",
    "latitude": "29.941034314356507",
    "geocoded_column": {
      "latitude": "29.941034314356507",
      "longitude": "-90.1046946764278"
    }
  },
  {
    "service_request": "2025-1233470",
    "request_type": "Streetlights",
    "request_reason": "Streetlight Outage/Malfunction",
    "date_created": "2025-10-14T19:47:04.000",
    "date_modified": "2025-10-14T19:47:06.000",
    "request_status": "Pending",
    "responsible_agency": "Department of Public Works",
    "final_address": "7471 Restgate Rd",
    "address_councildis": "E",
    "status": "Pending",
    "rowid": "1233470",
    "final_x": "3710163.25118",
    "final_y": "564186.242913",
    "longitude": "-89.97634142194904",
    "latitude": "30.044413964759823",
    "geocoded_column": {
      "latitude": "30.044413964759823",
      "longitude": "-89.97634142194904"
    }
  },
  {
    "service_request": "2025-1233469",
    "request_type": "Drainage",
    "request_reason": "Catch Basin Not Draining",
    "date_created": "2025-10-14T19:37:16.000",
    "date_modified": "2025-10-14T19:37:18.000",
    "request_status": "Pending",
    "responsible_agency": "Sewerage & Water Board",
    "final_address": "7622 Cohn St",
    "address_councildis": "A",
    "status": "Pending",
    "rowid": "1233469",
    "final_x": "3664760.12621",
    "final_y": "529101.658496",
    "longitude": "-90.12100983733222",
    "latitude": "29.94934367413492",
    "geocoded_column": {
      "latitude": "29.94934367413492",
      "longitude": "-90.12100983733222"
    }
  },
  {
    "service_request": "2025-1233468",
    "request_type": "Trash/Recycling",
    "request_reason": "Request a Large Item Pick Up",
    "date_created": "2025-10-14T19:33:06.000",
    "date_modified": "2025-10-14T19:33:07.000",
    "request_status": "Pending",
    "responsible_agency": "Department of Sanitation",
    "final_address": "4777 Charlene Dr",
    "address_councildis": "E",
    "status": "Assigned to Contractor",
    "contractor": "Waste Pro",
    "rowid": "1233468",
    "final_x": "3707945.83185",
    "final_y": "555814.582297",
    "longitude": "-89.98366106286178",
    "latitude": "30.021467217828825",
    "geocoded_column": {
      "latitude": "30.021467217828825",
      "longitude": "-89.98366106286178"
    }
  },
  {
    "service_request": "2025-1233467",
    "request_type": "Streetlights",
    "request_reason": "Streetlight Outage/Malfunction",
    "date_created": "2025-10-14T19:30:05.000",
    "date_modified": "2025-10-14T19:30:08.000",
    "request_status": "Pending",
    "responsible_agency": "Department of Public Works",
    "final_address": "7622 Cohn St",
    "address_councildis": "A",
    "status": "Pending",
    "rowid": "1233467",
    "final_x": "3664760.12621",
    "final_y": "529101.658496",
    "longitude": "-90.12100983733222",
    "latitude": "29.94934367413492",
    "geocoded_column": {
      "latitude": "29.94934367413492",
      "longitude": "-90.12100983733222"
    }
  },
  {
    "service_request": "2025-1233466",
    "request_type": "Trash/Recycling",
    "request_reason": "Replace Recycling Cart",
    "date_created": "2025-10-14T19:13:01.000",
    "date_modified": "2025-10-14T19:13:03.000",
    "request_status": "Pending",
    "responsible_agency": "Department of Sanitation",
    "final_address": "2420 Delery St",
    "address_councildis": "E",
    "status": "Pending",
    "rowid": "1233466",
    "final_x": "3702353.26417",
    "final_y": "537780.948424",
    "longitude": "-90.00199399214037",
    "latitude": "29.972061406914264",
    "geocoded_column": {
      "latitude": "29.972061406914264",
      "longitude": "-90.00199399214037"
    }
  },
  {
    "service_request": "2025-1233465",
    "request_type": "Streetlights",
    "request_reason": "Streetlight Outage/Malfunction",
    "date_created": "2025-10-14T19:11:09.000",
    "date_modified": "2025-10-14T19:11:11.000",
    "request_status": "Pending",
    "responsible_agency": "Department of Public Works",
    "final_address": "100 BLK Baronne St",
    "address_councildis": "B",
    "status": "Pending",
    "rowid": "1233465",
    "final_x": "3680400.33733",
    "final_y": "530892.199486",
    "longitude": "-90.07156448832164",
    "latitude": "29.95380278606142",
    "geocoded_column": {
      "latitude": "29.95380278606142",
      "longitude": "-90.07156448832164"
    }
  },
  {
    "service_request": "2025-1233464",
    "request_type": "Trash/Recycling",
    "request_reason": "Request a Large Item Pick Up",
    "date_created": "2025-10-14T19:11:06.000",
    "date_modified": "2025-10-14T19:11:07.000",
    "request_status": "Pending",
    "responsible_agency": "Department of Sanitation",
    "final_address": "428 Delery St",
    "address_councildis": "E",
    "status": "Assigned to Contractor",
    "contractor": "Waste Pro",
    "rowid": "1233464",
    "final_x": "3699539.8746",
    "final_y": "530814.071362",
    "longitude": "-90.01113297204942",
    "latitude": "29.952994565922367",
    "geocoded_column": {
      "latitude": "29.952994565922367",
      "longitude": "-90.01113297204942"
    }
  },
  {
    "service_request": "2025-1233463",
    "request_type": "Trash/Recycling",
    "request_reason": "Request a Large Item Pick Up",
    "date_created": "2025-10-14T19:10:17.000",
    "date_modified": "2025-10-14T19:10:19.000",
    "request_status": "Pending",
    "responsible_agency": "Department of Sanitation",
    "final_address": "414 Delery St",
    "address_councildis": "E",
    "status": "Assigned to Contractor",
    "contractor": "Waste Pro",
    "rowid": "1233463",
    "final_x": "3699495.33661",
    "final_y": "530717.42925",
    "longitude": "-90.0112771233871",
    "latitude": "29.95273024733034",
    "geocoded_column": {
      "latitude": "29.95273024733034",
      "longitude": "-90.0112771233871"
    }
  },
  {
    "service_request": "2025-1233462",
    "request_type": "Trash/Recycling",
    "request_reason": "Request a Large Item Pick Up",
    "date_created": "2025-10-14T18:56:53.000",
    "date_modified": "2025-10-14T18:56:55.000",
    "request_status": "Pending",
    "responsible_agency": "Department of Sanitation",
    "final_address": "1031 Leontine St",
    "address_councildis": "B",
    "status": "Assigned to Contractor",
    "contractor": "IV Waste",
    "rowid": "1233462",
    "final_x": "3667299.86548",
    "final_y": "519409.149623",
    "longitude": "-90.11331656826961",
    "latitude": "29.92261824671207",
    "geocoded_column": {
      "latitude": "29.92261824671207",
      "longitude": "-90.11331656826961"
    }
  },
  {
    "service_request": "2025-1233461",
    "request_type": "Mosquito, Termite & Rodent Control",
    "request_reason": "Mosquito Complaint",
    "date_created": "2025-10-14T18:52:21.000",
    "date_modified": "2025-10-14T18:52:23.000",
    "request_status": "Pending",
    "responsible_agency": "Mosquito, Termite & Rodent Control Board",
    "final_address": "829 Pleasant St",
    "address_councildis": "B",
    "status": "Pending",
    "rowid": "1233461",
    "final_x": "3675973.1444",
    "final_y": "519111.475319",
    "longitude": "-90.08594869846623",
    "latitude": "29.92154296342679",
    "geocoded_column": {
      "latitude": "29.92154296342679",
      "longitude": "-90.08594869846623"
    }
  },
  {
    "service_request": "2025-1233460",
    "request_type": "Mosquito, Termite & Rodent Control",
    "request_reason": "Mosquito Complaint",
    "date_created": "2025-10-14T18:45:49.000",
    "date_modified": "2025-10-14T18:45:50.000",
    "request_status": "Pending",
    "responsible_agency": "Mosquito, Termite & Rodent Control Board",
    "final_address": "800 BLK Pleasant St",
    "address_councildis": "B",
    "status": "Pending",
    "rowid": "1233460",
    "final_x": "3675969.87079",
    "final_y": "519049.878027",
    "longitude": "-90.0859611484896",
    "latitude": "29.921373688694214",
    "geocoded_column": {
      "latitude": "29.921373688694214",
      "longitude": "-90.0859611484896"
    }
  },
  {
    "service_request": "2025-1233459",
    "request_type": "Trash/Recycling",
    "request_reason": "Replace Trash Cart",
    "date_created": "2025-10-14T18:42:28.000",
    "date_modified": "2025-10-14T18:42:31.000",
    "request_status": "Pending",
    "responsible_agency": "Department of Sanitation",
    "final_address": "4901 Danneel St",
    "address_councildis": "B",
    "status": "Assigned to Contractor",
    "contractor": "IV Waste",
    "rowid": "1233459",
    "final_x": "3669067.54228",
    "final_y": "522221.092666",
    "longitude": "-90.10764175539965",
    "latitude": "29.930298325450593",
    "geocoded_column": {
      "latitude": "29.930298325450593",
      "longitude": "-90.10764175539965"
    }
  },
  {
    "service_request": "2025-1233458",
    "request_type": "Drainage",
    "request_reason": "Ditch and Culvert Maintenance",
    "date_created": "2025-10-14T18:18:06.000",
    "date_modified": "2025-10-14T18:18:08.000",
    "request_status": "Pending",
    "responsible_agency": "Department of Public Works",
    "final_address": "5933 Camp St",
    "address_councildis": "A",
    "status": "Pending",
    "rowid": "1233458",
    "final_x": "3665037.81581",
    "final_y": "519507.049463",
    "longitude": "-90.12045371311692",
    "latitude": "29.922953472345682",
    "geocoded_column": {
      "latitude": "29.922953472345682",
      "longitude": "-90.12045371311692"
    }
  },
  {
    "service_request": "2025-1233457",
    "request_type": "Trash/Recycling",
    "request_reason": "Request a Large Item Pick Up",
    "date_created": "2025-10-14T18:06:32.000",
    "date_modified": "2025-10-14T18:06:33.000",
    "request_status": "Pending",
    "responsible_agency": "Department of Sanitation",
    "final_address": "222 Bermuda St",
    "address_councildis": "C",
    "status": "Assigned to Contractor",
    "contractor": "Richards Disposal",
    "rowid": "1233457",
    "final_x": "3686189.28252",
    "final_y": "530959.197314",
    "longitude": "-90.05328306967309",
    "latitude": "29.953810456675818",
    "geocoded_column": {
      "latitude": "29.953810456675818",
      "longitude": "-90.05328306967309"
    }
  },
  {
    "service_request": "2025-1233456",
    "request_type": "Trash/Recycling",
    "request_reason": "Start Trash Service",
    "date_created": "2025-10-14T18:05:45.000",
    "date_modified": "2025-10-14T18:05:46.000",
    "request_status": "Pending",
    "responsible_agency": "Department of Sanitation",
    "final_address": "2700 Tulane Ave",
    "address_councildis": "B",
    "status": "Assigned to Contractor",
    "contractor": "IV Waste",
    "rowid": "1233456",
    "final_x": "3673969.52104",
    "final_y": "533787.066053",
    "longitude": "-90.0917713338198",
    "latitude": "29.961955851912233",
    "geocoded_column": {
      "latitude": "29.961955851912233",
      "longitude": "-90.0917713338198"
    }
  },
  {
    "service_request": "2025-1233455",
    "request_type": "Mosquito, Termite & Rodent Control",
    "request_reason": "Mosquito Complaint",
    "date_created": "2025-10-14T18:02:32.000",
    "date_modified": "2025-10-14T18:02:34.000",
    "request_status": "Pending",
    "responsible_agency": "Mosquito, Termite & Rodent Control Board",
    "final_address": "1100 BLK Milton St",
    "address_councildis": "D",
    "status": "Pending",
    "rowid": "1233455",
    "final_x": "3676345.34183",
    "final_y": "546053.637995",
    "longitude": "-90.08384645771105",
    "latitude": "29.99561370718072",
    "geocoded_column": {
      "latitude": "29.99561370718072",
      "longitude": "-90.08384645771105"
    }
  },
  {
    "service_request": "2025-1233454",
    "request_type": "Drainage",
    "request_reason": "Ditch and Culvert Maintenance",
    "date_created": "2025-10-14T17:35:13.000",
    "date_modified": "2025-10-14T17:35:14.000",
    "request_status": "Pending",
    "responsible_agency": "Department of Public Works",
    "final_address": "1923 Calhoun St",
    "address_councildis": "A",
    "status": "Pending",
    "rowid": "1233454",
    "final_x": "3665487.97965",
    "final_y": "524263.588028",
    "longitude": "-90.11887357826116",
    "latitude": "29.93601933908067",
    "geocoded_column": {
      "latitude": "29.93601933908067",
      "longitude": "-90.11887357826116"
    }
  },
  {
    "service_request": "2025-1233453",
    "request_type": "Streetlights",
    "request_reason": "Streetlight Outage/Malfunction",
    "date_created": "2025-10-14T17:25:34.000",
    "date_modified": "2025-10-14T17:25:35.000",
    "request_status": "Pending",
    "responsible_agency": "Department of Public Works",
    "final_address": "9600 Lake Forest Blvd",
    "address_councildis": "E",
    "status": "Pending",
    "rowid": "1233453",
    "final_x": "3708616.80081",
    "final_y": "558345.998684",
    "longitude": "-89.98144663383816",
    "latitude": "30.028405874469446",
    "geocoded_column": {
      "latitude": "30.028405874469446",
      "longitude": "-89.98144663383816"
    }
  },
  {
    "service_request": "2025-1233452",
    "request_type": "Streetlights",
    "request_reason": "Streetlight Outage/Malfunction",
    "date_created": "2025-10-14T17:21:08.000",
    "date_modified": "2025-10-14T17:21:10.000",
    "request_status": "Pending",
    "responsible_agency": "Department of Public Works",
    "final_address": "8500 BLK Lake Forest Blvd",
    "address_councildis": "E",
    "status": "Pending",
    "rowid": "1233452",
    "final_x": "3705865.20733",
    "final_y": "558114.582377",
    "longitude": "-89.9901500271503",
    "latitude": "30.027858546353464",
    "geocoded_column": {
      "latitude": "30.027858546353464",
      "longitude": "-89.9901500271503"
    }
  },
  {
    "service_request": "2025-1233451",
    "request_type": "General Services",
    "request_reason": "General Service Request",
    "date_created": "2025-10-14T17:20:14.000",
    "date_modified": "2025-10-14T17:20:15.000",
    "request_status": "Pending",
    "responsible_agency": "Orleans Parish Communication District",
    "final_address": "1526 Arabella St",
    "address_councildis": "A",
    "status": "Pending",
    "rowid": "1233451",
    "final_x": "3666414.48007",
    "final_y": "521798.180346",
    "longitude": "-90.11603127103817",
    "latitude": "29.929213218441564",
    "geocoded_column": {
      "latitude": "29.929213218441564",
      "longitude": "-90.11603127103817"
    }
  },
  {
    "service_request": "2025-1233450",
    "request_type": "Traffic Signals",
    "request_reason": "Traffic Signal Malfunctioning or Damaged",
    "date_created": "2025-10-14T17:05:45.000",
    "date_modified": "2025-10-14T17:05:47.000",
    "request_status": "Pending",
    "responsible_agency": "Department of Public Works",
    "final_address": "HAYNE BLVD & HAYNE BLVD EXIT",
    "address_councildis": "E",
    "status": "Pending",
    "rowid": "1233450",
    "final_x": "3696016.2",
    "final_y": "560462.02",
    "longitude": "-90.0211871078024",
    "latitude": "30.034626874529053",
    "geocoded_column": {
      "latitude": "30.034626874529053",
      "longitude": "-90.0211871078024"
    }
  },
  {
    "service_request": "2025-1233449",
    "request_type": "Trash/Recycling",
    "request_reason": "Replace Trash Cart",
    "date_created": "2025-10-14T17:00:31.000",
    "date_modified": "2025-10-14T17:00:33.000",
    "request_status": "Pending",
    "responsible_agency": "Department of Sanitation",
    "final_address": "6710 Canal Blvd",
    "address_councildis": "A",
    "status": "Assigned to Contractor",
    "contractor": "IV Waste",
    "rowid": "1233449",
    "final_x": "3668758.39508",
    "final_y": "552141.010646",
    "longitude": "-90.10760731143765",
    "latitude": "30.012577164790596",
    "geocoded_column": {
      "latitude": "30.012577164790596",
      "longitude": "-90.10760731143765"
    }
  },
  {
    "service_request": "2025-1233448",
    "request_type": "Trash/Recycling",
    "request_reason": "Request a Large Item Pick Up",
    "date_created": "2025-10-14T16:57:46.000",
    "date_modified": "2025-10-14T16:57:47.000",
    "request_status": "Pending",
    "responsible_agency": "Department of Sanitation",
    "final_address": "6050 Eastover Dr",
    "address_councildis": "E",
    "status": "Assigned to Contractor",
    "contractor": "Waste Pro",
    "rowid": "1233448",
    "final_x": "3718364.03077",
    "final_y": "565718.50813",
    "longitude": "-89.95036509433938",
    "latitude": "30.048357473822985",
    "geocoded_column": {
      "latitude": "30.048357473822985",
      "longitude": "-89.95036509433938"
    }
  },
  {
    "service_request": "2025-1233447",
    "request_type": "Trash/Recycling",
    "request_reason": "Order Trash Cart",
    "date_created": "2025-10-14T16:56:35.000",
    "date_modified": "2025-10-14T16:56:37.000",
    "request_status": "Pending",
    "responsible_agency": "Department of Sanitation",
    "final_address": "7841 Symmes Ave",
    "address_councildis": "E",
    "status": "Assigned to Contractor",
    "contractor": "Waste Pro",
    "rowid": "1233447",
    "final_x": "3707523.60657",
    "final_y": "565305.309794",
    "longitude": "-89.98464219945024",
    "latitude": "30.047576642043303",
    "geocoded_column": {
      "latitude": "30.047576642043303",
      "longitude": "-89.98464219945024"
    }
  },
  {
    "service_request": "2025-1233446",
    "request_type": "Trash/Recycling",
    "request_reason": "Request a Large Item Pick Up",
    "date_created": "2025-10-14T16:56:28.000",
    "date_modified": "2025-10-14T16:56:29.000",
    "request_status": "Pending",
    "responsible_agency": "Department of Sanitation",
    "final_address": "2132 Lizardi St",
    "address_councildis": "E",
    "status": "Assigned to Contractor",
    "contractor": "Waste Pro",
    "rowid": "1233446",
    "final_x": "3697623.52394",
    "final_y": "538114.795657",
    "longitude": "-90.01691909002827",
    "latitude": "29.973129624283953",
    "geocoded_column": {
      "latitude": "29.973129624283953",
      "longitude": "-90.01691909002827"
    }
  },
  {
    "service_request": "2025-1233445",
    "request_type": "Trash/Recycling",
    "request_reason": "Order Trash Cart",
    "date_created": "2025-10-14T16:47:11.000",
    "date_modified": "2025-10-14T16:47:12.000",
    "request_status": "Pending",
    "responsible_agency": "Department of Sanitation",
    "final_address": "1320 Dante St",
    "address_councildis": "A",
    "status": "Assigned to Contractor",
    "contractor": "IV Waste",
    "rowid": "1233445",
    "final_x": "3661754.88794",
    "final_y": "529291.068673",
    "longitude": "-90.13049248361928",
    "latitude": "29.94995157786169",
    "geocoded_column": {
      "latitude": "29.94995157786169",
      "longitude": "-90.13049248361928"
    }
  },
  {
    "service_request": "2025-1233444",
    "request_type": "Streetlights",
    "request_reason": "Streetlight Outage/Malfunction",
    "date_created": "2025-10-14T16:43:11.000",
    "date_modified": "2025-10-14T16:43:12.000",
    "request_status": "Pending",
    "responsible_agency": "Department of Public Works",
    "final_address": "1907 Bordeaux St",
    "address_councildis": "B",
    "status": "Pending",
    "rowid": "1233444",
    "final_x": "3669299.35937",
    "final_y": "521891.38489",
    "longitude": "-90.1069210833639",
    "latitude": "29.929384913943508",
    "geocoded_column": {
      "latitude": "29.929384913943508",
      "longitude": "-90.1069210833639"
    }
  },
  {
    "service_request": "2025-1233443",
    "request_type": "Trash/Recycling",
    "request_reason": "Repair Trash Cart",
    "date_created": "2025-10-14T16:43:10.000",
    "date_modified": "2025-10-14T16:43:12.000",
    "request_status": "Pending",
    "responsible_agency": "Department of Sanitation",
    "final_address": "5801 Bancroft Dr",
    "address_councildis": "D",
    "status": "Assigned to Contractor",
    "contractor": "IV Waste",
    "rowid": "1233443",
    "final_x": "3676583.60936",
    "final_y": "553721.594391",
    "longitude": "-90.08282944237718",
    "latitude": "30.016690715057525",
    "geocoded_column": {
      "latitude": "30.016690715057525",
      "longitude": "-90.08282944237718"
    }
  },
  {
    "service_request": "2025-1233442",
    "request_type": "Trash/Recycling",
    "request_reason": "Request a Large Item Pick Up",
    "date_created": "2025-10-14T16:42:18.000",
    "date_modified": "2025-10-14T16:42:19.000",
    "request_status": "Pending",
    "responsible_agency": "Department of Sanitation",
    "final_address": "1741 Touro St",
    "address_councildis": "D",
    "status": "Assigned to Contractor",
    "contractor": "IV Waste",
    "rowid": "1233442",
    "final_x": "3684060.29212",
    "final_y": "538790.298313",
    "longitude": "-90.05973068618486",
    "latitude": "29.975408509335963",
    "geocoded_column": {
      "latitude": "29.975408509335963",
      "longitude": "-90.05973068618486"
    }
  },
  {
    "service_request": "2025-1233441",
    "request_type": "Trash/Recycling",
    "request_reason": "Repair Trash Cart",
    "date_created": "2025-10-14T16:41:19.000",
    "date_modified": "2025-10-14T16:41:22.000",
    "request_status": "Pending",
    "responsible_agency": "Department of Sanitation",
    "final_address": "1709 St Anthony St",
    "address_councildis": "D",
    "status": "Assigned to Contractor",
    "contractor": "IV Waste",
    "rowid": "1233441",
    "final_x": "3683373.91887",
    "final_y": "538493.606537",
    "longitude": "-90.06190883285542",
    "latitude": "29.974613669667814",
    "geocoded_column": {
      "latitude": "29.974613669667814",
      "longitude": "-90.06190883285542"
    }
  },
  {
    "service_request": "2025-1233440",
    "request_type": "Trash/Recycling",
    "request_reason": "Request a Large Item Pick Up",
    "date_created": "2025-10-14T16:36:33.000",
    "date_modified": "2025-10-14T16:36:35.000",
    "request_status": "Pending",
    "responsible_agency": "Department of Sanitation",
    "final_address": "6059 Dorothea St",
    "address_councildis": "D",
    "status": "Assigned to Contractor",
    "contractor": "Waste Pro",
    "rowid": "1233440",
    "final_x": "3695811.93962",
    "final_y": "557386.719515",
    "longitude": "-90.02194382182032",
    "latitude": "30.0261774040424",
    "geocoded_column": {
      "latitude": "30.0261774040424",
      "longitude": "-90.02194382182032"
    }
  },
  {
    "service_request": "2025-1233439",
    "request_type": "Trash/Recycling",
    "request_reason": "Request a Large Item Pick Up",
    "date_created": "2025-10-14T16:32:03.000",
    "date_modified": "2025-10-14T16:32:06.000",
    "request_status": "Pending",
    "responsible_agency": "Department of Sanitation",
    "final_address": "2430 Arts St",
    "address_councildis": "D",
    "status": "Assigned to Contractor",
    "contractor": "IV Waste",
    "rowid": "1233439",
    "final_x": "3686765.3551",
    "final_y": "541556.086796",
    "longitude": "-90.05108963703803",
    "latitude": "29.98293050130337",
    "geocoded_column": {
      "latitude": "29.98293050130337",
      "longitude": "-90.05108963703803"
    }
  },
  {
    "service_request": "2025-1233438",
    "request_type": "Mosquito, Termite & Rodent Control",
    "request_reason": "Mosquito Complaint",
    "date_created": "2025-10-14T16:26:49.000",
    "date_modified": "2025-10-14T16:26:50.000",
    "request_status": "Pending",
    "responsible_agency": "Mosquito, Termite & Rodent Control Board",
    "final_address": "4455 Francesco Rd",
    "address_councildis": "E",
    "status": "Pending",
    "rowid": "1233438",
    "final_x": "3762133.03363",
    "final_y": "573043.939113",
    "longitude": "-89.81172597980368",
    "latitude": "30.066973888273928",
    "geocoded_column": {
      "latitude": "30.066973888273928",
      "longitude": "-89.81172597980368"
    }
  },
  {
    "service_request": "2025-1233437",
    "request_type": "Mosquito, Termite & Rodent Control",
    "request_reason": "Rodent Complaint (Mice & Rats)",
    "date_created": "2025-10-14T16:26:10.000",
    "date_modified": "2025-10-14T16:26:11.000",
    "request_status": "Pending",
    "responsible_agency": "Mosquito, Termite & Rodent Control Board",
    "final_address": "521 Baronne St",
    "address_councildis": "B",
    "status": "Pending",
    "rowid": "1233437",
    "final_x": "3679846.69474",
    "final_y": "529353.524673",
    "longitude": "-90.07336608636082",
    "latitude": "29.949588699596685",
    "geocoded_column": {
      "latitude": "29.949588699596685",
      "longitude": "-90.07336608636082"
    }
  },
  {
    "service_request": "2025-1233436",
    "request_type": "Trash/Recycling",
    "request_reason": "Request a Large Item Pick Up",
    "date_created": "2025-10-14T16:26:06.000",
    "date_modified": "2025-10-14T16:26:07.000",
    "request_status": "Pending",
    "responsible_agency": "Department of Sanitation",
    "final_address": "5930 Doral Ct",
    "address_councildis": "E",
    "status": "Assigned to Contractor",
    "contractor": "Waste Pro",
    "rowid": "1233436",
    "final_x": "3719806.395",
    "final_y": "565047.176994",
    "longitude": "-89.94583213722274",
    "latitude": "30.046463643755448",
    "geocoded_column": {
      "latitude": "30.046463643755448",
      "longitude": "-89.94583213722274"
    }
  },
  {
    "service_request": "2025-1233435",
    "request_type": "Trash/Recycling",
    "request_reason": "Request a Large Item Pick Up",
    "date_created": "2025-10-14T16:22:26.000",
    "date_modified": "2025-10-14T16:22:28.000",
    "request_status": "Pending",
    "responsible_agency": "Department of Sanitation",
    "final_address": "4911 Charlene Dr",
    "address_councildis": "E",
    "status": "Assigned to Contractor",
    "contractor": "Waste Pro",
    "rowid": "1233435",
    "final_x": "3707864.74276",
    "final_y": "556610.069978",
    "longitude": "-89.98388767861574",
    "latitude": "30.02365712514013",
    "geocoded_column": {
      "latitude": "30.02365712514013",
      "longitude": "-89.98388767861574"
    }
  },
  {
    "service_request": "2025-1233434",
    "request_type": "Property Maintenance",
    "request_reason": "Property Maintenance",
    "date_created": "2025-10-14T16:20:48.000",
    "date_modified": "2025-10-14T16:20:50.000",
    "request_status": "Pending",
    "responsible_agency": "Department of Code Enforcement",
    "final_address": "3525 Gentilly Blvd",
    "address_councildis": "D",
    "status": "Pending",
    "rowid": "1233434",
    "final_x": "3685683.04342",
    "final_y": "548884.383699",
    "longitude": "-90.05424974012617",
    "latitude": "30.00311395526073",
    "geocoded_column": {
      "latitude": "30.00311395526073",
      "longitude": "-90.05424974012617"
    }
  },
  {
    "service_request": "2025-1233433",
    "request_type": "Trash/Recycling",
    "request_reason": "Request a Large Item Pick Up",
    "date_created": "2025-10-14T16:20:19.000",
    "date_modified": "2025-10-14T16:20:21.000",
    "request_status": "Pending",
    "responsible_agency": "Department of Sanitation",
    "final_address": "11130 N Idlewood Ct",
    "address_councildis": "E",
    "status": "Assigned to Contractor",
    "contractor": "Waste Pro",
    "rowid": "1233433",
    "final_x": "3716039.81464",
    "final_y": "560093.223261",
    "longitude": "-89.95792429316029",
    "latitude": "30.032967146083504",
    "geocoded_column": {
      "latitude": "30.032967146083504",
      "longitude": "-89.95792429316029"
    }
  },
  {
    "service_request": "2025-1233432",
    "request_type": "Property Maintenance",
    "request_reason": "Property Maintenance",
    "date_created": "2025-10-14T16:19:38.000",
    "date_modified": "2025-10-14T16:19:40.000",
    "request_status": "Pending",
    "responsible_agency": "Department of Code Enforcement",
    "final_address": "3525 Gentilly Blvd",
    "address_councildis": "D",
    "status": "Pending",
    "rowid": "1233432",
    "final_x": "3685683.04342",
    "final_y": "548884.383699",
    "longitude": "-90.05424974012617",
    "latitude": "30.00311395526073",
    "geocoded_column": {
      "latitude": "30.00311395526073",
      "longitude": "-90.05424974012617"
    }
  },
  {
    "service_request": "2025-1233431",
    "request_type": "Property Maintenance",
    "request_reason": "Property Maintenance",
    "date_created": "2025-10-14T16:18:51.000",
    "date_modified": "2025-10-14T16:18:52.000",
    "request_status": "Pending",
    "responsible_agency": "Department of Code Enforcement",
    "final_address": "3525 Gentilly Blvd",
    "address_councildis": "D",
    "status": "Pending",
    "rowid": "1233431",
    "final_x": "3685683.04342",
    "final_y": "548884.383699",
    "longitude": "-90.05424974012617",
    "latitude": "30.00311395526073",
    "geocoded_column": {
      "latitude": "30.00311395526073",
      "longitude": "-90.05424974012617"
    }
  },
  {
    "service_request": "2025-1233430",
    "request_type": "Trash/Recycling",
    "request_reason": "Request a Large Item Pick Up",
    "date_created": "2025-10-14T16:18:48.000",
    "date_modified": "2025-10-14T16:18:50.000",
    "request_status": "Pending",
    "responsible_agency": "Department of Sanitation",
    "final_address": "11 Christy Ln",
    "address_councildis": "E",
    "status": "Assigned to Contractor",
    "contractor": "Waste Pro",
    "rowid": "1233430",
    "final_x": "3708074.2675",
    "final_y": "557745.192347",
    "longitude": "-89.98318336591589",
    "latitude": "30.026771481476395",
    "geocoded_column": {
      "latitude": "30.026771481476395",
      "longitude": "-89.98318336591589"
    }
  },
  {
    "service_request": "2025-1233429",
    "request_type": "Trash/Recycling",
    "request_reason": "Request a Large Item Pick Up",
    "date_created": "2025-10-14T16:18:01.000",
    "date_modified": "2025-10-14T16:18:02.000",
    "request_status": "Pending",
    "responsible_agency": "Department of Sanitation",
    "final_address": "4706 W Adams Ct",
    "address_councildis": "E",
    "status": "Assigned to Contractor",
    "contractor": "Waste Pro",
    "rowid": "1233429",
    "final_x": "3718486.30373",
    "final_y": "556767.886682",
    "longitude": "-89.95032009037851",
    "latitude": "30.02374283268497",
    "geocoded_column": {
      "latitude": "30.02374283268497",
      "longitude": "-89.95032009037851"
    }
  },
  {
    "service_request": "2025-1233428",
    "request_type": "Property Maintenance",
    "request_reason": "Property Maintenance",
    "date_created": "2025-10-14T16:17:59.000",
    "date_modified": "2025-10-14T16:18:00.000",
    "request_status": "Pending",
    "responsible_agency": "Department of Code Enforcement",
    "final_address": "3525 Gentilly Blvd",
    "address_councildis": "D",
    "status": "Pending",
    "rowid": "1233428",
    "final_x": "3685683.04342",
    "final_y": "548884.383699",
    "longitude": "-90.05424974012617",
    "latitude": "30.00311395526073",
    "geocoded_column": {
      "latitude": "30.00311395526073",
      "longitude": "-90.05424974012617"
    }
  },
  {
    "service_request": "2025-1233427",
    "request_type": "Property Maintenance",
    "request_reason": "Property Maintenance",
    "date_created": "2025-10-14T16:17:08.000",
    "date_modified": "2025-10-14T16:17:10.000",
    "request_status": "Pending",
    "responsible_agency": "Department of Code Enforcement",
    "final_address": "3525 Gentilly Blvd",
    "address_councildis": "D",
    "status": "Pending",
    "rowid": "1233427",
    "final_x": "3685683.04342",
    "final_y": "548884.383699",
    "longitude": "-90.05424974012617",
    "latitude": "30.00311395526073",
    "geocoded_column": {
      "latitude": "30.00311395526073",
      "longitude": "-90.05424974012617"
    }
  },
  {
    "service_request": "2025-1233426",
    "request_type": "Trash/Recycling",
    "request_reason": "Request a Large Item Pick Up",
    "date_created": "2025-10-14T16:16:16.000",
    "date_modified": "2025-10-14T16:16:18.000",
    "request_status": "Pending",
    "responsible_agency": "Department of Sanitation",
    "final_address": "5435 N Villere St",
    "address_councildis": "E",
    "status": "Assigned to Contractor",
    "contractor": "Waste Pro",
    "rowid": "1233426",
    "final_x": "3697818.25123",
    "final_y": "535017.973062",
    "longitude": "-90.01641651211898",
    "latitude": "29.964608318670507",
    "geocoded_column": {
      "latitude": "29.964608318670507",
      "longitude": "-90.01641651211898"
    }
  },
  {
    "service_request": "2025-1233425",
    "request_type": "Property Maintenance",
    "request_reason": "Property Maintenance",
    "date_created": "2025-10-14T16:16:13.000",
    "date_modified": "2025-10-14T16:16:15.000",
    "request_status": "Pending",
    "responsible_agency": "Department of Code Enforcement",
    "final_address": "3525 Gentilly Blvd",
    "address_councildis": "D",
    "status": "Pending",
    "rowid": "1233425",
    "final_x": "3685683.04342",
    "final_y": "548884.383699",
    "longitude": "-90.05424974012617",
    "latitude": "30.00311395526073",
    "geocoded_column": {
      "latitude": "30.00311395526073",
      "longitude": "-90.05424974012617"
    }
  },
  {
    "service_request": "2025-1233424",
    "request_type": "Property Maintenance",
    "request_reason": "Property Maintenance",
    "date_created": "2025-10-14T16:15:04.000",
    "date_modified": "2025-10-14T16:15:05.000",
    "request_status": "Pending",
    "responsible_agency": "Department of Code Enforcement",
    "final_address": "3525 Gentilly Blvd",
    "address_councildis": "D",
    "status": "Pending",
    "rowid": "1233424",
    "final_x": "3685683.04342",
    "final_y": "548884.383699",
    "longitude": "-90.05424974012617",
    "latitude": "30.00311395526073",
    "geocoded_column": {
      "latitude": "30.00311395526073",
      "longitude": "-90.05424974012617"
    }
  },
  {
    "service_request": "2025-1233423",
    "request_type": "Trash/Recycling",
    "request_reason": "Request a Large Item Pick Up",
    "date_created": "2025-10-14T16:15:00.000",
    "date_modified": "2025-10-14T16:15:02.000",
    "request_status": "Pending",
    "responsible_agency": "Department of Sanitation",
    "final_address": "5900 Airway St",
    "address_councildis": "D",
    "status": "Assigned to Contractor",
    "contractor": "Waste Pro",
    "rowid": "1233423",
    "final_x": "3696344.93482",
    "final_y": "552789.556374",
    "longitude": "-90.02042607542076",
    "latitude": "30.0135201603081",
    "geocoded_column": {
      "latitude": "30.0135201603081",
      "longitude": "-90.02042607542076"
    }
  },
  {
    "service_request": "2025-1233422",
    "request_type": "Trash/Recycling",
    "request_reason": "Request a Large Item Pick Up",
    "date_created": "2025-10-14T16:14:40.000",
    "date_modified": "2025-10-14T16:14:42.000",
    "request_status": "Pending",
    "responsible_agency": "Department of Sanitation",
    "final_address": "4927 Bergerac St",
    "address_councildis": "E",
    "status": "Assigned to Contractor",
    "contractor": "Waste Pro",
    "rowid": "1233422",
    "final_x": "3726000.12012",
    "final_y": "561788.758047",
    "longitude": "-89.92638348304118",
    "latitude": "30.03729666723915",
    "geocoded_column": {
      "latitude": "30.03729666723915",
      "longitude": "-89.92638348304118"
    }
  },
  {
    "service_request": "2025-1233421",
    "request_type": "Streetlights",
    "request_reason": "Streetlight Outage/Malfunction",
    "date_created": "2025-10-14T16:14:00.000",
    "date_modified": "2025-10-14T16:14:01.000",
    "request_status": "Pending",
    "responsible_agency": "Department of Public Works",
    "final_address": "8315 Apple St",
    "address_councildis": "A",
    "status": "Pending",
    "rowid": "1233421",
    "final_x": "3664725.79117",
    "final_y": "532732.2121",
    "longitude": "-90.12099696347526",
    "latitude": "29.95932751581627",
    "geocoded_column": {
      "latitude": "29.95932751581627",
      "longitude": "-90.12099696347526"
    }
  },
  {
    "service_request": "2025-1233420",
    "request_type": "Parks & Parkways",
    "request_reason": "Request Tree Service (Right of Way/Public Property)",
    "date_created": "2025-10-14T16:13:33.000",
    "date_modified": "2025-10-14T16:13:35.000",
    "request_status": "Pending",
    "responsible_agency": "Department of Parks & Parkway",
    "final_address": "1510 N Dorgenois St",
    "address_councildis": "D",
    "status": "Pending",
    "rowid": "1233420",
    "final_x": "3679197.35925",
    "final_y": "539280.197834",
    "longitude": "-90.07507215130843",
    "latitude": "29.97690329078881",
    "geocoded_column": {
      "latitude": "29.97690329078881",
      "longitude": "-90.07507215130843"
    }
  },
  {
    "service_request": "2025-1233419",
    "request_type": "Trash/Recycling",
    "request_reason": "MIssed Recycling Pick-Up",
    "date_created": "2025-10-14T16:10:42.000",
    "date_modified": "2025-10-14T17:16:30.000",
    "case_close_date": "2025-10-14T12:16:28.000",
    "request_status": "Closed",
    "responsible_agency": "Department of Sanitation",
    "final_address": "330 Polk St",
    "address_councildis": "A",
    "status": "Invalid Request",
    "contractor": "IV Waste",
    "contractor_action": "Invalid",
    "rowid": "1233419",
    "final_x": "3667357.68058",
    "final_y": "547317.986769",
    "longitude": "-90.11219520509641",
    "latitude": "29.999356652361396",
    "geocoded_column": {
      "latitude": "29.999356652361396",
      "longitude": "-90.11219520509641"
    }
  },
  {
    "service_request": "2025-1233418",
    "request_type": "Abandoned Vehicles",
    "request_reason": "Abandoned/Junk Vehicles",
    "date_created": "2025-10-14T16:03:51.000",
    "date_modified": "2025-10-14T16:03:53.000",
    "request_status": "Pending",
    "responsible_agency": "Department of Public Works",
    "final_address": "312 Wallace Dr",
    "address_councildis": "D",
    "status": "Pending",
    "rowid": "1233418",
    "final_x": "3682165.45487",
    "final_y": "547864.802002",
    "longitude": "-90.0653979528456",
    "latitude": "30.000417970137242",
    "geocoded_column": {
      "latitude": "30.000417970137242",
      "longitude": "-90.0653979528456"
    }
  },
  {
    "service_request": "2025-1233417",
    "request_type": "Streetlights",
    "request_reason": "Streetlight Outage/Malfunction",
    "date_created": "2025-10-14T16:03:00.000",
    "date_modified": "2025-10-14T16:03:02.000",
    "request_status": "Pending",
    "responsible_agency": "Department of Public Works",
    "final_address": "1616 Philip St",
    "address_councildis": "B",
    "status": "Pending",
    "rowid": "1233417",
    "final_x": "3677014.04546",
    "final_y": "523484.195451",
    "longitude": "-90.08251234971773",
    "latitude": "29.93353532394311",
    "geocoded_column": {
      "latitude": "29.93353532394311",
      "longitude": "-90.08251234971773"
    }
  },
  {
    "service_request": "2025-1233416",
    "request_type": "Trash/Recycling",
    "request_reason": "Replace Trash Cart",
    "date_created": "2025-10-14T16:02:28.000",
    "date_modified": "2025-10-14T16:02:30.000",
    "request_status": "Pending",
    "responsible_agency": "Department of Sanitation",
    "final_address": "5401 S Claiborne Ave",
    "address_councildis": "A",
    "status": "Assigned to Contractor",
    "contractor": "IV Waste",
    "rowid": "1233416",
    "final_x": "3668320.44404",
    "final_y": "526558.557758",
    "longitude": "-90.10985402986397",
    "latitude": "29.942246915184466",
    "geocoded_column": {
      "latitude": "29.942246915184466",
      "longitude": "-90.10985402986397"
    }
  },
  {
    "service_request": "2025-1233415",
    "request_type": "Trash/Recycling",
    "request_reason": "Replace Trash Cart",
    "date_created": "2025-10-14T16:01:45.000",
    "date_modified": "2025-10-14T16:01:47.000",
    "request_status": "Pending",
    "responsible_agency": "Department of Sanitation",
    "final_address": "3609 N Robertson St",
    "address_councildis": "D",
    "status": "Assigned to Contractor",
    "contractor": "IV Waste",
    "rowid": "1233415",
    "final_x": "3691183.9007",
    "final_y": "537083.761608",
    "longitude": "-90.03729345069085",
    "latitude": "29.970496499976818",
    "geocoded_column": {
      "latitude": "29.970496499976818",
      "longitude": "-90.03729345069085"
    }
  },
  {
    "service_request": "2025-1233414",
    "request_type": "Property Maintenance",
    "request_reason": "Property Maintenance",
    "date_created": "2025-10-14T16:01:33.000",
    "date_modified": "2025-10-14T16:01:35.000",
    "request_status": "Pending",
    "responsible_agency": "Department of Code Enforcement",
    "final_address": "4867 Savoie Ct",
    "address_councildis": "E",
    "status": "Pending",
    "rowid": "1233414",
    "final_x": "3725342.10694",
    "final_y": "561307.789022",
    "longitude": "-89.92848156094144",
    "latitude": "30.035996399774625",
    "geocoded_column": {
      "latitude": "30.035996399774625",
      "longitude": "-89.92848156094144"
    }
  },
  {
    "service_request": "2025-1233413",
    "request_type": "Mosquito, Termite & Rodent Control",
    "request_reason": "Mosquito Complaint",
    "date_created": "2025-10-14T16:00:06.000",
    "date_modified": "2025-10-14T16:00:09.000",
    "request_status": "Pending",
    "responsible_agency": "Mosquito, Termite & Rodent Control Board",
    "final_address": "4341 Alba Rd",
    "address_councildis": "E",
    "status": "Pending",
    "rowid": "1233413",
    "final_x": "3761691.69321",
    "final_y": "572743.674025",
    "longitude": "-89.81313368679389",
    "latitude": "30.06616440488415",
    "geocoded_column": {
      "latitude": "30.06616440488415",
      "longitude": "-89.81313368679389"
    }
  },
  {
    "service_request": "2025-1233412",
    "request_type": "General Services",
    "request_reason": "General Service Request",
    "date_created": "2025-10-14T15:55:39.000",
    "date_modified": "2025-10-14T15:55:40.000",
    "request_status": "Pending",
    "responsible_agency": "Orleans Parish Communication District",
    "final_address": "1510 N Dorgenois St",
    "address_councildis": "D",
    "status": "Pending",
    "rowid": "1233412",
    "final_x": "3679197.35925",
    "final_y": "539280.197834",
    "longitude": "-90.07507215130843",
    "latitude": "29.97690329078881",
    "geocoded_column": {
      "latitude": "29.97690329078881",
      "longitude": "-90.07507215130843"
    }
  },
  {
    "service_request": "2025-1233411",
    "request_type": "Trash/Recycling",
    "request_reason": "Missed Trash Pick-Up",
    "date_created": "2025-10-14T15:52:37.000",
    "date_modified": "2025-10-14T16:45:46.000",
    "case_close_date": "2025-10-14T11:45:44.000",
    "request_status": "Closed",
    "responsible_agency": "Department of Sanitation",
    "final_address": "2314 Delery St",
    "address_councildis": "E",
    "status": "Invalid Request",
    "contractor": "Waste Pro",
    "contractor_action": "Invalid Request",
    "rowid": "1233411",
    "final_x": "3702208.70065",
    "final_y": "537434.866696",
    "longitude": "-90.00246323893724",
    "latitude": "29.971114425544155",
    "geocoded_column": {
      "latitude": "29.971114425544155",
      "longitude": "-90.00246323893724"
    }
  },
  {
    "service_request": "2025-1233410",
    "request_type": "Trash/Recycling",
    "request_reason": "Request a Large Item Pick Up",
    "date_created": "2025-10-14T15:52:22.000",
    "date_modified": "2025-10-14T15:59:27.000",
    "request_status": "Pending",
    "responsible_agency": "Department of Sanitation",
    "final_address": "4791 Knight Dr",
    "address_councildis": "E",
    "status": "Assigned to Contractor",
    "contractor": "Waste Pro",
    "rowid": "1233410",
    "final_x": "3708170.47793",
    "final_y": "555917.716505",
    "longitude": "-89.98294740817497",
    "latitude": "30.02174351909754",
    "geocoded_column": {
      "latitude": "30.02174351909754",
      "longitude": "-89.98294740817497"
    }
  },
  {
    "service_request": "2025-1233409",
    "request_type": "Trash/Recycling",
    "request_reason": "Order Second Trash Cart",
    "date_created": "2025-10-14T15:52:11.000",
    "date_modified": "2025-10-14T15:52:13.000",
    "request_status": "Pending",
    "responsible_agency": "Department of Sanitation",
    "final_address": "1505 Nashville Ave",
    "address_councildis": "A",
    "status": "Assigned to Contractor",
    "contractor": "IV Waste",
    "rowid": "1233409",
    "final_x": "3666188.94471",
    "final_y": "521704.476409",
    "longitude": "-90.11674638643406",
    "latitude": "29.928962148618314",
    "geocoded_column": {
      "latitude": "29.928962148618314",
      "longitude": "-90.11674638643406"
    }
  },
  {
    "service_request": "2025-1233408",
    "request_type": "Trash/Recycling",
    "request_reason": "Request a Large Item Pick Up",
    "date_created": "2025-10-14T15:49:16.000",
    "date_modified": "2025-10-14T15:49:18.000",
    "request_status": "Pending",
    "responsible_agency": "Department of Sanitation",
    "final_address": "913 Lowerline St",
    "address_councildis": "A",
    "status": "Assigned to Contractor",
    "contractor": "IV Waste",
    "rowid": "1233408",
    "final_x": "3663183.63424",
    "final_y": "526017.711934",
    "longitude": "-90.12609014022782",
    "latitude": "29.940909577820378",
    "geocoded_column": {
      "latitude": "29.940909577820378",
      "longitude": "-90.12609014022782"
    }
  },
  {
    "service_request": "2025-1233407",
    "request_type": "Abandoned Vehicles",
    "request_reason": "Abandoned/Junk Vehicles",
    "date_created": "2025-10-14T15:49:06.000",
    "date_modified": "2025-10-14T15:49:07.000",
    "request_status": "Pending",
    "responsible_agency": "Department of Public Works",
    "final_address": "2241 N Galvez St",
    "address_councildis": "D",
    "status": "Pending",
    "rowid": "1233407",
    "final_x": "3685189.33596",
    "final_y": "540058.716171",
    "longitude": "-90.05612021432206",
    "latitude": "29.978861659032194",
    "geocoded_column": {
      "latitude": "29.978861659032194",
      "longitude": "-90.05612021432206"
    }
  },
  {
    "service_request": "2025-1233406",
    "request_type": "Property Maintenance",
    "request_reason": "Property Maintenance",
    "date_created": "2025-10-14T15:48:26.000",
    "date_modified": "2025-10-14T15:48:27.000",
    "request_status": "Pending",
    "responsible_agency": "Department of Code Enforcement",
    "final_address": "5503 Elysian Fields Ave",
    "address_councildis": "D",
    "status": "Pending",
    "rowid": "1233406",
    "final_x": "3683787.83881",
    "final_y": "553085.423447",
    "longitude": "-90.0600894887778",
    "latitude": "30.0147233257954",
    "geocoded_column": {
      "latitude": "30.0147233257954",
      "longitude": "-90.0600894887778"
    }
  },
  {
    "service_request": "2025-1233405",
    "request_type": "Trash/Recycling",
    "request_reason": "Request a Large Item Pick Up",
    "date_created": "2025-10-14T15:48:06.000",
    "date_modified": "2025-10-14T15:48:08.000",
    "request_status": "Pending",
    "responsible_agency": "Department of Sanitation",
    "final_address": "2241 N Galvez St",
    "address_councildis": "D",
    "status": "Assigned to Contractor",
    "contractor": "IV Waste",
    "rowid": "1233405",
    "final_x": "3685189.33596",
    "final_y": "540058.716171",
    "longitude": "-90.05612021432206",
    "latitude": "29.978861659032194",
    "geocoded_column": {
      "latitude": "29.978861659032194",
      "longitude": "-90.05612021432206"
    }
  },
  {
    "service_request": "2025-1233404",
    "request_type": "Streetlights",
    "request_reason": "Streetlight Outage/Malfunction",
    "date_created": "2025-10-14T15:45:52.000",
    "date_modified": "2025-10-14T15:47:05.000",
    "request_status": "Pending",
    "responsible_agency": "Department of Public Works",
    "final_address": "5528 Pitt St",
    "address_councildis": "A",
    "status": "Pending",
    "rowid": "1233404",
    "final_x": "3666612.63405",
    "final_y": "520655.049593",
    "longitude": "-90.11544409007924",
    "latitude": "29.926064180798278",
    "geocoded_column": {
      "latitude": "29.926064180798278",
      "longitude": "-90.11544409007924"
    }
  },
  {
    "service_request": "2025-1233403",
    "request_type": "Trash/Recycling",
    "request_reason": "Repair Recycling Cart",
    "date_created": "2025-10-14T15:45:46.000",
    "date_modified": "2025-10-14T15:45:48.000",
    "request_status": "Pending",
    "responsible_agency": "Department of Sanitation",
    "final_address": "1420 Athis St",
    "address_councildis": "D",
    "status": "Pending",
    "rowid": "1233403",
    "final_x": "3677687.39816",
    "final_y": "553636.171479",
    "longitude": "-90.07934488839736",
    "latitude": "30.016422664236572",
    "geocoded_column": {
      "latitude": "30.016422664236572",
      "longitude": "-90.07934488839736"
    }
  },
  {
    "service_request": "2025-1233402",
    "request_type": "Streetlights",
    "request_reason": "Streetlight Outage/Malfunction",
    "date_created": "2025-10-14T15:43:17.000",
    "date_modified": "2025-10-14T15:45:28.000",
    "request_status": "Pending",
    "responsible_agency": "Department of Public Works",
    "final_address": "1457 Harrison Ave",
    "address_councildis": "D",
    "status": "Pending",
    "rowid": "1233402",
    "final_x": "3678503.14933",
    "final_y": "547698.933778",
    "longitude": "-90.0769731506444",
    "latitude": "30.000072813458942",
    "geocoded_column": {
      "latitude": "30.000072813458942",
      "longitude": "-90.0769731506444"
    }
  },
  {
    "service_request": "2025-1233401",
    "request_type": "Streetlights",
    "request_reason": "Streetlight Outage/Malfunction",
    "date_created": "2025-10-14T15:38:33.000",
    "date_modified": "2025-10-14T15:38:35.000",
    "request_status": "Pending",
    "responsible_agency": "Department of Public Works",
    "final_address": "702 Governor Nicholls St",
    "address_councildis": "C",
    "status": "Pending",
    "rowid": "1233401",
    "final_x": "3683553.42825",
    "final_y": "533952.850757",
    "longitude": "-90.06150107568942",
    "latitude": "29.962122683438583",
    "geocoded_column": {
      "latitude": "29.962122683438583",
      "longitude": "-90.06150107568942"
    }
  },
  {
    "service_request": "2025-1233400",
    "request_type": "Street and Traffic Signs",
    "request_reason": "Additional Signage Request",
    "date_created": "2025-10-14T15:36:49.000",
    "date_modified": "2025-10-14T15:39:27.000",
    "request_status": "Pending",
    "responsible_agency": "Department of Public Works",
    "final_address": "LEON C SIMON DR & PRESS DR",
    "address_councildis": "D",
    "status": "Pending",
    "rowid": "1233400",
    "final_x": "3688450.8",
    "final_y": "558159.08",
    "longitude": "-90.04517662187004",
    "latitude": "30.02853069869081",
    "geocoded_column": {
      "latitude": "30.02853069869081",
      "longitude": "-90.04517662187004"
    }
  },
  {
    "service_request": "2025-1233399",
    "request_type": "Trash/Recycling",
    "request_reason": "Request a Large Item Pick Up",
    "date_created": "2025-10-14T15:30:28.000",
    "date_modified": "2025-10-14T15:30:30.000",
    "request_status": "Pending",
    "responsible_agency": "Department of Sanitation",
    "final_address": "5564 Woodlawn Pl",
    "address_councildis": "A",
    "status": "Assigned to Contractor",
    "contractor": "IV Waste",
    "rowid": "1233399",
    "final_x": "3667384.57901",
    "final_y": "544336.210831",
    "longitude": "-90.11221061582651",
    "latitude": "29.99115700415472",
    "geocoded_column": {
      "latitude": "29.99115700415472",
      "longitude": "-90.11221061582651"
    }
  },
  {
    "service_request": "2025-1233398",
    "request_type": "Trash/Recycling",
    "request_reason": "Replace Trash Cart",
    "date_created": "2025-10-14T15:28:45.000",
    "date_modified": "2025-10-14T15:28:47.000",
    "request_status": "Pending",
    "responsible_agency": "Department of Sanitation",
    "final_address": "3317 Toledano St",
    "address_councildis": "B",
    "status": "Assigned to Contractor",
    "contractor": "IV Waste",
    "rowid": "1233398",
    "final_x": "3672105.8658",
    "final_y": "527802.636991",
    "longitude": "-90.09786024143823",
    "latitude": "29.94555604432485",
    "geocoded_column": {
      "latitude": "29.94555604432485",
      "longitude": "-90.09786024143823"
    }
  },
  {
    "service_request": "2025-1233397",
    "request_type": "Property Maintenance",
    "request_reason": "Property Maintenance",
    "date_created": "2025-10-14T15:28:37.000",
    "date_modified": "2025-10-14T15:28:38.000",
    "request_status": "Pending",
    "responsible_agency": "Department of Code Enforcement",
    "final_address": "4128 Fontainebleau Dr",
    "address_councildis": "B",
    "status": "Pending",
    "rowid": "1233397",
    "final_x": "3669765.84058",
    "final_y": "529100.76064",
    "longitude": "-90.10520455396781",
    "latitude": "29.949194629425016",
    "geocoded_column": {
      "latitude": "29.949194629425016",
      "longitude": "-90.10520455396781"
    }
  },
  {
    "service_request": "2025-1233396",
    "request_type": "Trash/Recycling",
    "request_reason": "Request a Large Item Pick Up",
    "date_created": "2025-10-14T15:25:53.000",
    "date_modified": "2025-10-14T15:25:57.000",
    "request_status": "Pending",
    "responsible_agency": "Department of Sanitation",
    "final_address": "3311 Dumaine St",
    "address_councildis": "A",
    "status": "Assigned to Contractor",
    "contractor": "IV Waste",
    "rowid": "1233396",
    "final_x": "3675064.89902",
    "final_y": "539178.134666",
    "longitude": "-90.08812729171063",
    "latitude": "29.976746781567908",
    "geocoded_column": {
      "latitude": "29.976746781567908",
      "longitude": "-90.08812729171063"
    }
  },
  {
    "service_request": "2025-1233395",
    "request_type": "Streetlights",
    "request_reason": "Streetlight Outage/Malfunction",
    "date_created": "2025-10-14T15:24:17.000",
    "date_modified": "2025-10-14T15:24:18.000",
    "request_status": "Pending",
    "responsible_agency": "Department of Public Works",
    "final_address": "LEON C SIMON DR & LEROY JOHNSON DR",
    "address_councildis": "D",
    "status": "Pending",
    "rowid": "1233395",
    "final_x": "3689985.44",
    "final_y": "558878.98",
    "longitude": "-90.04030157773151",
    "latitude": "30.03046262516882",
    "geocoded_column": {
      "latitude": "30.03046262516882",
      "longitude": "-90.04030157773151"
    }
  },
  {
    "service_request": "2025-1233394",
    "request_type": "Trash/Recycling",
    "request_reason": "Order Recycling Cart",
    "date_created": "2025-10-14T15:23:04.000",
    "date_modified": "2025-10-14T15:23:06.000",
    "request_status": "Pending",
    "responsible_agency": "Department of Sanitation",
    "final_address": "7371 Beaconfield Dr",
    "address_councildis": "E",
    "status": "Pending",
    "rowid": "1233394",
    "final_x": "3713387.32395",
    "final_y": "566048.178275",
    "longitude": "-89.96608177613894",
    "latitude": "30.0494281523308",
    "geocoded_column": {
      "latitude": "30.0494281523308",
      "longitude": "-89.96608177613894"
    }
  },
  {
    "service_request": "2025-1233393",
    "request_type": "Trash/Recycling",
    "request_reason": "Repair Recycling Cart",
    "date_created": "2025-10-14T15:16:23.000",
    "date_modified": "2025-10-14T15:19:06.000",
    "request_status": "Pending",
    "responsible_agency": "Department of Sanitation",
    "final_address": "6326 Cartwright Dr",
    "address_councildis": "D",
    "status": "Pending",
    "rowid": "1233393",
    "final_x": "3678699.70517",
    "final_y": "556769.77929",
    "longitude": "-90.0760377952173",
    "latitude": "30.02500844581126",
    "geocoded_column": {
      "latitude": "30.02500844581126",
      "longitude": "-90.0760377952173"
    }
  },
  {
    "service_request": "2025-1233392",
    "request_type": "Trash/Recycling",
    "request_reason": "Repair Recycling Cart",
    "date_created": "2025-10-14T15:16:18.000",
    "date_modified": "2025-10-14T15:16:19.000",
    "request_status": "Pending",
    "responsible_agency": "Department of Sanitation",
    "final_address": "9003 Fig St",
    "address_councildis": "A",
    "status": "Pending",
    "rowid": "1233392",
    "final_x": "3663942.18503",
    "final_y": "535339.756102",
    "longitude": "-90.12338446872319",
    "latitude": "29.96652018130879",
    "geocoded_column": {
      "latitude": "29.96652018130879",
      "longitude": "-90.12338446872319"
    }
  },
  {
    "service_request": "2025-1233391",
    "request_type": "Safety & Permits",
    "request_reason": "Licenses & Permits",
    "date_created": "2025-10-14T15:14:25.000",
    "date_modified": "2025-10-14T15:14:26.000",
    "request_status": "Pending",
    "responsible_agency": "Safety and Permits",
    "final_address": "8480 Morrison Rd",
    "address_councildis": "E",
    "status": "Pending",
    "rowid": "1233391",
    "final_x": "3704479.74218",
    "final_y": "561055.522014",
    "longitude": "-89.99441937676208",
    "latitude": "30.03598956474207",
    "geocoded_column": {
      "latitude": "30.03598956474207",
      "longitude": "-89.99441937676208"
    }
  },
  {
    "service_request": "2025-1233390",
    "request_type": "Trash/Recycling",
    "request_reason": "Missed Trash Pick-Up",
    "date_created": "2025-10-14T15:14:14.000",
    "date_modified": "2025-10-14T15:35:57.000",
    "case_close_date": "2025-10-14T10:35:54.000",
    "request_status": "Closed",
    "responsible_agency": "Department of Sanitation",
    "final_address": "7200 Briarheath Dr",
    "address_councildis": "E",
    "status": "Invalid Request",
    "contractor": "Waste Pro",
    "contractor_action": "Invalid Request",
    "rowid": "1233390",
    "final_x": "3714498.5004",
    "final_y": "566007.541923",
    "longitude": "-89.96257135105316",
    "latitude": "30.049279915271477",
    "geocoded_column": {
      "latitude": "30.049279915271477",
      "longitude": "-89.96257135105316"
    }
  },
  {
    "service_request": "2025-1233389",
    "request_type": "Streetlights",
    "request_reason": "Streetlight Outage/Malfunction",
    "date_created": "2025-10-14T15:12:38.000",
    "date_modified": "2025-10-14T15:12:39.000",
    "request_status": "Pending",
    "responsible_agency": "Department of Public Works",
    "final_address": "5415 St Roch Ave",
    "address_councildis": "D",
    "status": "Pending",
    "rowid": "1233389",
    "final_x": "3685253.38869",
    "final_y": "552955.763031",
    "longitude": "-90.05546363909114",
    "latitude": "30.014321947854913",
    "geocoded_column": {
      "latitude": "30.014321947854913",
      "longitude": "-90.05546363909114"
    }
  },
  {
    "service_request": "2025-1233388",
    "request_type": "Mosquito, Termite & Rodent Control",
    "request_reason": "Mosquito Complaint",
    "date_created": "2025-10-14T15:12:34.000",
    "date_modified": "2025-10-14T15:12:36.000",
    "request_status": "Pending",
    "responsible_agency": "Mosquito, Termite & Rodent Control Board",
    "final_address": "4506 St Claude Ave",
    "address_councildis": "C",
    "status": "Pending",
    "rowid": "1233388",
    "final_x": "3693370.41769",
    "final_y": "534863.163846",
    "longitude": "-90.03046794882333",
    "latitude": "29.964322458050418",
    "geocoded_column": {
      "latitude": "29.964322458050418",
      "longitude": "-90.03046794882333"
    }
  },
  {
    "service_request": "2025-1233387",
    "request_type": "Trash/Recycling",
    "request_reason": "Replace Trash Cart",
    "date_created": "2025-10-14T15:11:22.000",
    "date_modified": "2025-10-14T15:11:24.000",
    "request_status": "Pending",
    "responsible_agency": "Department of Sanitation",
    "final_address": "5610 New England Dr",
    "address_councildis": "E",
    "status": "Assigned to Contractor",
    "contractor": "Waste Pro",
    "rowid": "1233387",
    "final_x": "3723583.8366",
    "final_y": "564171.601761",
    "longitude": "-89.9339274200175",
    "latitude": "30.043929862825557",
    "geocoded_column": {
      "latitude": "30.043929862825557",
      "longitude": "-89.9339274200175"
    }
  },
  {
    "service_request": "2025-1233386",
    "request_type": "Trash/Recycling",
    "request_reason": "Repair Recycling Cart",
    "date_created": "2025-10-14T15:11:19.000",
    "date_modified": "2025-10-14T15:11:21.000",
    "request_status": "Pending",
    "responsible_agency": "Department of Sanitation",
    "final_address": "47 Yellowstone Dr",
    "address_councildis": "C",
    "status": "Pending",
    "rowid": "1233386",
    "final_x": "3700204.9864",
    "final_y": "517142.738677",
    "longitude": "-90.00953157889631",
    "latitude": "29.915382027346656",
    "geocoded_column": {
      "latitude": "29.915382027346656",
      "longitude": "-90.00953157889631"
    }
  },
  {
    "service_request": "2025-1233385",
    "request_type": "Trash/Recycling",
    "request_reason": "Request a Large Item Pick Up",
    "date_created": "2025-10-14T15:10:58.000",
    "date_modified": "2025-10-14T15:11:00.000",
    "request_status": "Pending",
    "responsible_agency": "Department of Sanitation",
    "final_address": "4228 S Johnson St",
    "address_councildis": "B",
    "status": "Assigned to Contractor",
    "contractor": "IV Waste",
    "rowid": "1233385",
    "final_x": "3670723.62497",
    "final_y": "527231.549695",
    "longitude": "-90.10224380924073",
    "latitude": "29.9440266482561",
    "geocoded_column": {
      "latitude": "29.9440266482561",
      "longitude": "-90.10224380924073"
    }
  },
  {
    "service_request": "2025-1233384",
    "request_type": "Trash/Recycling",
    "request_reason": "Repair Trash Cart",
    "date_created": "2025-10-14T15:10:15.000",
    "date_modified": "2025-10-14T15:10:17.000",
    "request_status": "Pending",
    "responsible_agency": "Department of Sanitation",
    "final_address": "47 Yellowstone Dr",
    "address_councildis": "C",
    "status": "Assigned to Contractor",
    "contractor": "Richards Disposal",
    "rowid": "1233384",
    "final_x": "3700204.9864",
    "final_y": "517142.738677",
    "longitude": "-90.00953157889631",
    "latitude": "29.915382027346656",
    "geocoded_column": {
      "latitude": "29.915382027346656",
      "longitude": "-90.00953157889631"
    }
  },
  {
    "service_request": "2025-1233383",
    "request_type": "Trash/Recycling",
    "request_reason": "Request a Large Item Pick Up",
    "date_created": "2025-10-14T15:08:59.000",
    "date_modified": "2025-10-14T15:09:01.000",
    "request_status": "Pending",
    "responsible_agency": "Department of Sanitation",
    "final_address": "2941 Hudson St",
    "address_councildis": "C",
    "status": "Assigned to Contractor",
    "contractor": "Richards Disposal",
    "rowid": "1233383",
    "final_x": "3694170.35254",
    "final_y": "520212.68172",
    "longitude": "-90.0284686887166",
    "latitude": "29.924013661679744",
    "geocoded_column": {
      "latitude": "29.924013661679744",
      "longitude": "-90.0284686887166"
    }
  },
  {
    "service_request": "2025-1233382",
    "request_type": "Trash/Recycling",
    "request_reason": "Request a Large Item Pick Up",
    "date_created": "2025-10-14T15:05:42.000",
    "date_modified": "2025-10-14T15:05:45.000",
    "request_status": "Pending",
    "responsible_agency": "Department of Sanitation",
    "final_address": "47 Yellowstone Dr",
    "address_councildis": "C",
    "status": "Assigned to Contractor",
    "contractor": "Richards Disposal",
    "rowid": "1233382",
    "final_x": "3700204.9864",
    "final_y": "517142.738677",
    "longitude": "-90.00953157889631",
    "latitude": "29.915382027346656",
    "geocoded_column": {
      "latitude": "29.915382027346656",
      "longitude": "-90.00953157889631"
    }
  },
  {
    "service_request": "2025-1233381",
    "request_type": "Trash/Recycling",
    "request_reason": "Return Recycling Cart",
    "date_created": "2025-10-14T15:05:05.000",
    "date_modified": "2025-10-14T15:05:07.000",
    "request_status": "Pending",
    "responsible_agency": "Department of Sanitation",
    "final_address": "8326 Green St",
    "address_councildis": "A",
    "status": "Pending",
    "rowid": "1233381",
    "final_x": "3662414.10701",
    "final_y": "530279.004289",
    "longitude": "-90.12837820939558",
    "latitude": "29.95264903828684",
    "geocoded_column": {
      "latitude": "29.95264903828684",
      "longitude": "-90.12837820939558"
    }
  },
  {
    "service_request": "2025-1233380",
    "request_type": "Abandoned Vehicles",
    "request_reason": "Abandoned/Junk Vehicles",
    "date_created": "2025-10-14T15:03:14.000",
    "date_modified": "2025-10-14T15:04:48.000",
    "request_status": "Pending",
    "responsible_agency": "Department of Public Works",
    "final_address": "7644 Lucerne St",
    "address_councildis": "E",
    "status": "Inspected",
    "rowid": "1233380",
    "final_x": "3710613.20683",
    "final_y": "565959.030307",
    "longitude": "-89.97485294563732",
    "latitude": "30.049273756240908",
    "geocoded_column": {
      "latitude": "30.049273756240908",
      "longitude": "-89.97485294563732"
    }
  },
  {
    "service_request": "2025-1233379",
    "request_type": "Roads and Streets",
    "request_reason": "Road Shoulder Damage",
    "date_created": "2025-10-14T15:02:21.000",
    "date_modified": "2025-10-14T15:08:56.000",
    "request_status": "Pending",
    "responsible_agency": "Department of Public Works",
    "final_address": "1461 Harrison Ave",
    "address_councildis": "D",
    "status": "Pending",
    "rowid": "1233379",
    "final_x": "3678563.20661",
    "final_y": "547700.07509",
    "longitude": "-90.07678338705855",
    "latitude": "30.00007414088467",
    "geocoded_column": {
      "latitude": "30.00007414088467",
      "longitude": "-90.07678338705855"
    }
  },
  {
    "service_request": "2025-1233378",
    "request_type": "General Services",
    "request_reason": "General Service Request",
    "date_created": "2025-10-14T15:01:52.000",
    "date_modified": "2025-10-14T15:22:43.000",
    "case_close_date": "2025-10-14T10:22:41.000",
    "request_status": "Closed",
    "responsible_agency": "Orleans Parish Communication District",
    "final_address": "5855 W Louis Prima Dr",
    "address_councildis": "E",
    "status": "Referred to Risk Management",
    "rowid": "1233378",
    "final_x": "3715371.92594",
    "final_y": "562939.381024",
    "longitude": "-89.95992705612096",
    "latitude": "30.040814960685704",
    "geocoded_column": {
      "latitude": "30.040814960685704",
      "longitude": "-89.95992705612096"
    }
  },
  {
    "service_request": "2025-1233377",
    "request_type": "Trash/Recycling",
    "request_reason": "Order Trash Cart",
    "date_created": "2025-10-14T15:01:51.000",
    "date_modified": "2025-10-14T15:01:53.000",
    "request_status": "Pending",
    "responsible_agency": "Department of Sanitation",
    "final_address": "9115 Stroelitz St",
    "address_councildis": "A",
    "status": "Assigned to Contractor",
    "contractor": "IV Waste",
    "rowid": "1233377",
    "final_x": "3665263.43028",
    "final_y": "537480.057736",
    "longitude": "-90.11914035125224",
    "latitude": "29.97236687342132",
    "geocoded_column": {
      "latitude": "29.97236687342132",
      "longitude": "-90.11914035125224"
    }
  },
  {
    "service_request": "2025-1233376",
    "request_type": "Streetlights",
    "request_reason": "Streetlight Outage/Malfunction",
    "date_created": "2025-10-14T14:58:20.000",
    "date_modified": "2025-10-14T14:58:22.000",
    "request_status": "Pending",
    "responsible_agency": "Department of Public Works",
    "final_address": "5855 W Louis Prima Dr",
    "address_councildis": "E",
    "status": "Pending",
    "rowid": "1233376",
    "final_x": "3715371.92594",
    "final_y": "562939.381024",
    "longitude": "-89.95992705612096",
    "latitude": "30.040814960685704",
    "geocoded_column": {
      "latitude": "30.040814960685704",
      "longitude": "-89.95992705612096"
    }
  },
  {
    "service_request": "2025-1233375",
    "request_type": "Trash/Recycling",
    "request_reason": "Request a Large Item Pick Up",
    "date_created": "2025-10-14T14:55:54.000",
    "date_modified": "2025-10-14T14:56:09.000",
    "request_status": "Pending",
    "responsible_agency": "Department of Sanitation",
    "final_address": "5053 Good Dr",
    "address_councildis": "E",
    "status": "Assigned to Contractor",
    "contractor": "Waste Pro",
    "rowid": "1233375",
    "final_x": "3714714.14181",
    "final_y": "558256.843228",
    "longitude": "-89.96218293759814",
    "latitude": "30.027961521302625",
    "geocoded_column": {
      "latitude": "30.027961521302625",
      "longitude": "-89.96218293759814"
    }
  },
  {
    "service_request": "2025-1233374",
    "request_type": "Abandoned Vehicles",
    "request_reason": "Abandoned/Junk Vehicles",
    "date_created": "2025-10-14T14:54:48.000",
    "date_modified": "2025-10-14T14:54:50.000",
    "request_status": "Pending",
    "responsible_agency": "Department of Public Works",
    "final_address": "1613 Caton St",
    "address_councildis": "D",
    "status": "Pending",
    "rowid": "1233374",
    "final_x": "3679718.32776",
    "final_y": "547038.903633",
    "longitude": "-90.07315727182628",
    "latitude": "29.99822127309127",
    "geocoded_column": {
      "latitude": "29.99822127309127",
      "longitude": "-90.07315727182628"
    }
  },
  {
    "service_request": "2025-1233373",
    "request_type": "Trash/Recycling",
    "request_reason": "Request a Large Item Pick Up",
    "date_created": "2025-10-14T14:53:49.000",
    "date_modified": "2025-10-14T14:53:50.000",
    "request_status": "Pending",
    "responsible_agency": "Department of Sanitation",
    "final_address": "6853 Lake Willow Dr",
    "address_councildis": "E",
    "status": "Assigned to Contractor",
    "contractor": "Waste Pro",
    "rowid": "1233373",
    "final_x": "3703256.03274",
    "final_y": "558875.381212",
    "longitude": "-89.9983667687891",
    "latitude": "30.030034288089308",
    "geocoded_column": {
      "latitude": "30.030034288089308",
      "longitude": "-89.9983667687891"
    }
  },
  {
    "service_request": "2025-1233372",
    "request_type": "Safety & Permits",
    "request_reason": "Licenses & Permits",
    "date_created": "2025-10-14T14:53:11.000",
    "date_modified": "2025-10-14T14:54:49.000",
    "request_status": "Pending",
    "responsible_agency": "Safety and Permits",
    "final_address": "1309 Dauphine St",
    "address_councildis": "C",
    "status": "Pending",
    "rowid": "1233372",
    "final_x": "3683328.33058",
    "final_y": "534727.719174",
    "longitude": "-90.0621847542875",
    "latitude": "29.964260173408874",
    "geocoded_column": {
      "latitude": "29.964260173408874",
      "longitude": "-90.0621847542875"
    }
  },
  {
    "service_request": "2025-1233371",
    "request_type": "Abandoned Vehicles",
    "request_reason": "Abandoned/Junk Vehicles",
    "date_created": "2025-10-14T14:52:05.000",
    "date_modified": "2025-10-14T14:52:07.000",
    "request_status": "Pending",
    "responsible_agency": "Department of Public Works",
    "final_address": "1916 Eagle St",
    "address_councildis": "A",
    "status": "Pending",
    "rowid": "1233371",
    "final_x": "3661845.1129",
    "final_y": "531989.388803",
    "longitude": "-90.13011813532385",
    "latitude": "29.95736848383849",
    "geocoded_column": {
      "latitude": "29.95736848383849",
      "longitude": "-90.13011813532385"
    }
  },
  {
    "service_request": "2025-1233370",
    "request_type": "Abandoned Vehicles",
    "request_reason": "Abandoned/Junk Vehicles",
    "date_created": "2025-10-14T14:49:58.000",
    "date_modified": "2025-10-14T14:50:59.000",
    "request_status": "Pending",
    "responsible_agency": "Department of Public Works",
    "final_address": "6212 Marigny St",
    "address_councildis": "D",
    "status": "Pending",
    "rowid": "1233370",
    "final_x": "3683790.38754",
    "final_y": "555968.375961",
    "longitude": "-90.05998021228554",
    "latitude": "30.02265030956349",
    "geocoded_column": {
      "latitude": "30.02265030956349",
      "longitude": "-90.05998021228554"
    }
  },
  {
    "service_request": "2025-1233369",
    "request_type": "Trash/Recycling",
    "request_reason": "Request a Large Item Pick Up",
    "date_created": "2025-10-14T14:46:51.000",
    "date_modified": "2025-10-14T14:46:53.000",
    "request_status": "Pending",
    "responsible_agency": "Department of Sanitation",
    "final_address": "3200 River Oaks Dr",
    "address_councildis": "C",
    "status": "Assigned to Contractor",
    "contractor": "Richards Disposal",
    "rowid": "1233369",
    "final_x": "3701501.84375",
    "final_y": "519451.431223",
    "longitude": "-90.00535379010971",
    "latitude": "29.921688879545165",
    "geocoded_column": {
      "latitude": "29.921688879545165",
      "longitude": "-90.00535379010971"
    }
  },
  {
    "service_request": "2025-1233368",
    "request_type": "Trash/Recycling",
    "request_reason": "Order Recycling Cart",
    "date_created": "2025-10-14T14:46:34.000",
    "date_modified": "2025-10-14T14:46:36.000",
    "request_status": "Pending",
    "responsible_agency": "Department of Sanitation",
    "final_address": "1109 Austerlitz St",
    "address_councildis": "B",
    "status": "Pending",
    "rowid": "1233368",
    "final_x": "3672815.65268",
    "final_y": "519809.978808",
    "longitude": "-90.09589173709816",
    "latitude": "29.923557761936582",
    "geocoded_column": {
      "latitude": "29.923557761936582",
      "longitude": "-90.09589173709816"
    }
  },
  {
    "service_request": "2025-1233367",
    "request_type": "Safety & Permits",
    "request_reason": "Licenses & Permits",
    "date_created": "2025-10-14T14:46:32.000",
    "date_modified": "2025-10-14T14:46:33.000",
    "request_status": "Pending",
    "responsible_agency": "Safety and Permits",
    "final_address": "1958 Evergreen Ave",
    "address_councildis": "C",
    "status": "Pending",
    "rowid": "1233367",
    "final_x": "3688196.10102",
    "final_y": "524494.964412",
    "longitude": "-90.04717549270661",
    "latitude": "29.935974222159242",
    "geocoded_column": {
      "latitude": "29.935974222159242",
      "longitude": "-90.04717549270661"
    }
  },
  {
    "service_request": "2025-1233366",
    "request_type": "Trash/Recycling",
    "request_reason": "Order Trash Cart",
    "date_created": "2025-10-14T14:45:41.000",
    "date_modified": "2025-10-14T14:45:43.000",
    "request_status": "Pending",
    "responsible_agency": "Department of Sanitation",
    "final_address": "1109 Austerlitz St",
    "address_councildis": "B",
    "status": "Assigned to Contractor",
    "contractor": "IV Waste",
    "rowid": "1233366",
    "final_x": "3672815.65268",
    "final_y": "519809.978808",
    "longitude": "-90.09589173709816",
    "latitude": "29.923557761936582",
    "geocoded_column": {
      "latitude": "29.923557761936582",
      "longitude": "-90.09589173709816"
    }
  },
  {
    "service_request": "2025-1233365",
    "request_type": "Abandoned Vehicles",
    "request_reason": "Abandoned/Junk Vehicles",
    "date_created": "2025-10-14T14:45:33.000",
    "date_modified": "2025-10-14T14:45:35.000",
    "request_status": "Pending",
    "responsible_agency": "Department of Public Works",
    "final_address": "1900 Louisiana Ave",
    "address_councildis": "B",
    "status": "Pending",
    "rowid": "1233365",
    "final_x": "3673654.92769",
    "final_y": "522561.15513",
    "longitude": "-90.0931484573448",
    "latitude": "29.931097661730835",
    "geocoded_column": {
      "latitude": "29.931097661730835",
      "longitude": "-90.0931484573448"
    }
  },
  {
    "service_request": "2025-1233364",
    "request_type": "Property Maintenance",
    "request_reason": "Property Maintenance",
    "date_created": "2025-10-14T14:45:06.000",
    "date_modified": "2025-10-14T14:45:07.000",
    "request_status": "Pending",
    "responsible_agency": "Department of Code Enforcement",
    "final_address": "1918 Eagle St",
    "address_councildis": "A",
    "status": "Pending",
    "rowid": "1233364",
    "final_x": "3661858.90803",
    "final_y": "532001.064835",
    "longitude": "-90.13007418705969",
    "latitude": "29.95740019082541",
    "geocoded_column": {
      "latitude": "29.95740019082541",
      "longitude": "-90.13007418705969"
    }
  },
  {
    "service_request": "2025-1233363",
    "request_type": "Trash/Recycling",
    "request_reason": "Order Recycling Cart",
    "date_created": "2025-10-14T14:44:34.000",
    "date_modified": "2025-10-14T14:44:35.000",
    "request_status": "Pending",
    "responsible_agency": "Department of Sanitation",
    "final_address": "330 Polk St",
    "address_councildis": "A",
    "status": "Pending",
    "rowid": "1233363",
    "final_x": "3667357.68058",
    "final_y": "547317.986769",
    "longitude": "-90.11219520509641",
    "latitude": "29.999356652361396",
    "geocoded_column": {
      "latitude": "29.999356652361396",
      "longitude": "-90.11219520509641"
    }
  },
  {
    "service_request": "2025-1233362",
    "request_type": "Trash/Recycling",
    "request_reason": "Request a Large Item Pick Up",
    "date_created": "2025-10-14T14:40:50.000",
    "date_modified": "2025-10-14T14:40:51.000",
    "request_status": "Pending",
    "responsible_agency": "Department of Sanitation",
    "final_address": "109 Rhodes Ave",
    "address_councildis": "C",
    "status": "Assigned to Contractor",
    "contractor": "Richards Disposal",
    "rowid": "1233362",
    "final_x": "3705967.50577",
    "final_y": "519358.418743",
    "longitude": "-89.99126116941251",
    "latitude": "29.921290062941367",
    "geocoded_column": {
      "latitude": "29.921290062941367",
      "longitude": "-89.99126116941251"
    }
  },
  {
    "service_request": "2025-1233361",
    "request_type": "Trash/Recycling",
    "request_reason": "Replace Trash Cart",
    "date_created": "2025-10-14T14:40:13.000",
    "date_modified": "2025-10-14T14:40:15.000",
    "request_status": "Pending",
    "responsible_agency": "Department of Sanitation",
    "final_address": "2109 Fourth St",
    "address_councildis": "B",
    "status": "Assigned to Contractor",
    "contractor": "IV Waste",
    "rowid": "1233361",
    "final_x": "3675175.88021",
    "final_y": "524294.320124",
    "longitude": "-90.08828755424433",
    "latitude": "29.93581794891627",
    "geocoded_column": {
      "latitude": "29.93581794891627",
      "longitude": "-90.08828755424433"
    }
  },
  {
    "service_request": "2025-1233360",
    "request_type": "Trash/Recycling",
    "request_reason": "Request a Large Item Pick Up",
    "date_created": "2025-10-14T14:39:02.000",
    "date_modified": "2025-10-14T14:39:04.000",
    "request_status": "Pending",
    "responsible_agency": "Department of Sanitation",
    "final_address": "8733 Curran Rd",
    "address_councildis": "E",
    "status": "Assigned to Contractor",
    "contractor": "Waste Pro",
    "rowid": "1233360",
    "final_x": "3704556.31646",
    "final_y": "562831.82192",
    "longitude": "-89.99411178154045",
    "latitude": "30.040871229756565",
    "geocoded_column": {
      "latitude": "30.040871229756565",
      "longitude": "-89.99411178154045"
    }
  },
  {
    "service_request": "2025-1233359",
    "request_type": "Street and Traffic Signs",
    "request_reason": "Stop Sign Missing or Damaged",
    "date_created": "2025-10-14T14:36:55.000",
    "date_modified": "2025-10-14T14:36:58.000",
    "request_status": "Pending",
    "responsible_agency": "Department of Public Works",
    "final_address": "503 French St",
    "address_councildis": "A",
    "status": "Pending",
    "rowid": "1233359",
    "final_x": "3667926.02631",
    "final_y": "548712.063315",
    "longitude": "-90.11035277466601",
    "latitude": "30.003173213362263",
    "geocoded_column": {
      "latitude": "30.003173213362263",
      "longitude": "-90.11035277466601"
    }
  },
  {
    "service_request": "2025-1233358",
    "request_type": "Streetlights",
    "request_reason": "Streetlight Outage/Malfunction",
    "date_created": "2025-10-14T14:36:40.000",
    "date_modified": "2025-10-14T14:36:42.000",
    "request_status": "Pending",
    "responsible_agency": "Department of Public Works",
    "final_address": "6537 Marshal Foch St",
    "address_councildis": "A",
    "status": "Pending",
    "rowid": "1233358",
    "final_x": "3670253.28506",
    "final_y": "550878.484501",
    "longitude": "-90.1029271057722",
    "latitude": "30.009061608112315",
    "geocoded_column": {
      "latitude": "30.009061608112315",
      "longitude": "-90.1029271057722"
    }
  },
  {
    "service_request": "2025-1233357",
    "request_type": "Trash/Recycling",
    "request_reason": "Request a Large Item Pick Up",
    "date_created": "2025-10-14T14:36:17.000",
    "date_modified": "2025-10-14T14:40:28.000",
    "request_status": "Pending",
    "responsible_agency": "Department of Sanitation",
    "final_address": "330 Polk St",
    "address_councildis": "A",
    "status": "Assigned to Contractor",
    "contractor": "IV Waste",
    "rowid": "1233357",
    "final_x": "3667357.68058",
    "final_y": "547317.986769",
    "longitude": "-90.11219520509641",
    "latitude": "29.999356652361396",
    "geocoded_column": {
      "latitude": "29.999356652361396",
      "longitude": "-90.11219520509641"
    }
  },
  {
    "service_request": "2025-1233356",
    "request_type": "Trash/Recycling",
    "request_reason": "Request a Large Item Pick Up",
    "date_created": "2025-10-14T14:34:31.000",
    "date_modified": "2025-10-14T14:34:32.000",
    "request_status": "Pending",
    "responsible_agency": "Department of Sanitation",
    "final_address": "4700 Charlene Dr",
    "address_councildis": "E",
    "status": "Assigned to Contractor",
    "contractor": "Waste Pro",
    "rowid": "1233356",
    "final_x": "3707874.30148",
    "final_y": "555235.476697",
    "longitude": "-89.98390862657341",
    "latitude": "30.019877219010986",
    "geocoded_column": {
      "latitude": "30.019877219010986",
      "longitude": "-89.98390862657341"
    }
  },
  {
    "service_request": "2025-1233355",
    "request_type": "Trash/Recycling",
    "request_reason": "Illegal Dumping",
    "date_created": "2025-10-14T14:34:19.000",
    "date_modified": "2025-10-14T16:09:57.000",
    "request_status": "Pending",
    "responsible_agency": "Department of Sanitation",
    "final_address": "4963 Tulip St",
    "address_councildis": "E",
    "status": "Assigned to Contractor",
    "rowid": "1233355",
    "final_x": "3702028.68778",
    "final_y": "555642.616601",
    "longitude": "-90.00236381146011",
    "latitude": "30.021184692637778",
    "geocoded_column": {
      "latitude": "30.021184692637778",
      "longitude": "-90.00236381146011"
    }
  },
  {
    "service_request": "2025-1233354",
    "request_type": "Trash/Recycling",
    "request_reason": "Request a Large Item Pick Up",
    "date_created": "2025-10-14T14:28:51.000",
    "date_modified": "2025-10-14T14:28:53.000",
    "request_status": "Pending",
    "responsible_agency": "Department of Sanitation",
    "final_address": "4841 Major Dr",
    "address_councildis": "E",
    "status": "Assigned to Contractor",
    "contractor": "Waste Pro",
    "rowid": "1233354",
    "final_x": "3718225.39877",
    "final_y": "557535.123099",
    "longitude": "-89.95111524366727",
    "latitude": "30.02586108227232",
    "geocoded_column": {
      "latitude": "30.02586108227232",
      "longitude": "-89.95111524366727"
    }
  },
  {
    "service_request": "2025-1233353",
    "request_type": "Abandoned Vehicles",
    "request_reason": "Abandoned/Junk Vehicles",
    "date_created": "2025-10-14T14:28:47.000",
    "date_modified": "2025-10-14T14:28:49.000",
    "request_status": "Pending",
    "responsible_agency": "Department of Public Works",
    "final_address": "4501 Bundy Rd",
    "address_councildis": "E",
    "status": "Pending",
    "rowid": "1233353",
    "final_x": "3709576.93163",
    "final_y": "554427.214232",
    "longitude": "-89.97855910947135",
    "latitude": "30.017599568111656",
    "geocoded_column": {
      "latitude": "30.017599568111656",
      "longitude": "-89.97855910947135"
    }
  },
  {
    "service_request": "2025-1233352",
    "request_type": "Abandoned Vehicles",
    "request_reason": "Abandoned/Junk Vehicles",
    "date_created": "2025-10-14T14:16:39.000",
    "date_modified": "2025-10-14T14:16:41.000",
    "request_status": "Pending",
    "responsible_agency": "Department of Public Works",
    "final_address": "232 Lake Marina Ave",
    "address_councildis": "A",
    "status": "Pending",
    "rowid": "1233352",
    "final_x": "3666001.5442",
    "final_y": "555381.200665",
    "longitude": "-90.1162087291086",
    "latitude": "30.021567348518722",
    "geocoded_column": {
      "latitude": "30.021567348518722",
      "longitude": "-90.1162087291086"
    }
  },
  {
    "service_request": "2025-1233351",
    "request_type": "Trash/Recycling",
    "request_reason": "Request a Large Item Pick Up",
    "date_created": "2025-10-14T14:12:34.000",
    "date_modified": "2025-10-14T14:12:36.000",
    "request_status": "Pending",
    "responsible_agency": "Department of Sanitation",
    "final_address": "5240 Glouster Rd",
    "address_councildis": "E",
    "status": "Assigned to Contractor",
    "contractor": "Waste Pro",
    "rowid": "1233351",
    "final_x": "3707620.273",
    "final_y": "557544.048987",
    "longitude": "-89.98462541007596",
    "latitude": "30.026233117032994",
    "geocoded_column": {
      "latitude": "30.026233117032994",
      "longitude": "-89.98462541007596"
    }
  },
  {
    "service_request": "2025-1233350",
    "request_type": "Trash/Recycling",
    "request_reason": "Request a Large Item Pick Up",
    "date_created": "2025-10-14T14:08:30.000",
    "date_modified": "2025-10-14T14:08:31.000",
    "request_status": "Pending",
    "responsible_agency": "Department of Sanitation",
    "final_address": "4859 Perelli Dr",
    "address_councildis": "E",
    "status": "Assigned to Contractor",
    "contractor": "Waste Pro",
    "rowid": "1233350",
    "final_x": "3711725.09266",
    "final_y": "556785.924698",
    "longitude": "-89.97168327427099",
    "latitude": "30.024015085248674",
    "geocoded_column": {
      "latitude": "30.024015085248674",
      "longitude": "-89.97168327427099"
    }
  },
  {
    "service_request": "2025-1233349",
    "request_type": "Trash/Recycling",
    "request_reason": "Request a Large Item Pick Up",
    "date_created": "2025-10-14T14:06:29.000",
    "date_modified": "2025-10-14T14:06:33.000",
    "request_status": "Pending",
    "responsible_agency": "Department of Sanitation",
    "final_address": "1520 Bartholomew St",
    "address_councildis": "D",
    "status": "Assigned to Contractor",
    "contractor": "IV Waste",
    "rowid": "1233349",
    "final_x": "3692169.89763",
    "final_y": "536988.433928",
    "longitude": "-90.03418298514738",
    "latitude": "29.970203680418766",
    "geocoded_column": {
      "latitude": "29.970203680418766",
      "longitude": "-90.03418298514738"
    }
  },
  {
    "service_request": "2025-1233348",
    "request_type": "Trash/Recycling",
    "request_reason": "Repair Trash Cart",
    "date_created": "2025-10-14T14:03:17.000",
    "date_modified": "2025-10-14T14:03:18.000",
    "request_status": "Pending",
    "responsible_agency": "Department of Sanitation",
    "final_address": "1021 N Lopez St",
    "address_councildis": "A",
    "status": "Assigned to Contractor",
    "contractor": "IV Waste",
    "rowid": "1233348",
    "final_x": "3676007.44238",
    "final_y": "539110.331658",
    "longitude": "-90.08515277509954",
    "latitude": "29.97653214872048",
    "geocoded_column": {
      "latitude": "29.97653214872048",
      "longitude": "-90.08515277509954"
    }
  },
  {
    "service_request": "2025-1233347",
    "request_type": "Trash/Recycling",
    "request_reason": "Request a Large Item Pick Up",
    "date_created": "2025-10-14T14:02:11.000",
    "date_modified": "2025-10-14T14:02:14.000",
    "request_status": "Pending",
    "responsible_agency": "Department of Sanitation",
    "final_address": "3721 Rue Nichole",
    "address_councildis": "C",
    "status": "Assigned to Contractor",
    "contractor": "Richards Disposal",
    "rowid": "1233347",
    "final_x": "3703926.39889",
    "final_y": "516806.285173",
    "longitude": "-89.99779788805958",
    "latitude": "29.914338152277136",
    "geocoded_column": {
      "latitude": "29.914338152277136",
      "longitude": "-89.99779788805958"
    }
  },
  {
    "service_request": "2025-1233346",
    "request_type": "Trash/Recycling",
    "request_reason": "Replace Recycling Cart",
    "date_created": "2025-10-14T13:58:45.000",
    "date_modified": "2025-10-14T13:58:47.000",
    "request_status": "Pending",
    "responsible_agency": "Department of Sanitation",
    "final_address": "431 26Th St",
    "address_councildis": "A",
    "status": "Pending",
    "rowid": "1233346",
    "final_x": "3664515.89492",
    "final_y": "550012.328084",
    "longitude": "-90.12108247740822",
    "latitude": "30.006848130970262",
    "geocoded_column": {
      "latitude": "30.006848130970262",
      "longitude": "-90.12108247740822"
    }
  },