[
  {
    "service_request": "2025-1181691",
    "request_type": "Abandoned Vehicles",
    "request_reason": "Abandoned/Junk Vehicles",
    "date_created": "2025-04-05T23:26:00.000",
    "date_modified": "2025-04-05T23:26:03.000",
    "request_status": "Pending",
    "responsible_agency": "Department of Public Works",
    "final_address": "1038 Bartholomew St",
    "address_councildis": "C",
    "status": "Pending",
    "rowid": "1181691",
    "final_x": "3691736.77712",
    "final_y": "535172.015558",
    "longitude": "-90.03561578785629",
    "latitude": "29.965222665836176",
    "geocoded_column": {
      "latitude": "29.965222665836176",
      "longitude": "-90.03561578785629"
    }
  },
  {
    "service_request": "2025-1181690",
    "request_type": "Streetlights",
    "request_reason": "Streetlight Outage/Malfunction",
    "date_created": "2025-04-05T22:26:09.000",
    "date_modified": "2025-04-05T22:26:11.000",
    "request_status": "Pending",
    "responsible_agency": "Department of Public Works",
    "final_address": "2469 Athis St",
    "address_councildis": "D",
    "status": "Pending",
    "contractor": "Legacy Professional Services",
    "rowid": "1181690",
    "final_x": "3685713.83222",
    "final_y": "554442.547608",
    "longitude": "-90.05395642014705",
    "latitude": "30.018395931660475",
    "geocoded_column": {
      "latitude": "30.018395931660475",
      "longitude": "-90.05395642014705"
    }
  },
  {
    "service_request": "2025-1181689",
    "request_type": "Streetlights",
    "request_reason": "Streetlight Outage/Malfunction",
    "date_created": "2025-04-05T21:41:08.000",
    "date_modified": "2025-04-05T21:41:10.000",
    "request_status": "Pending",
    "responsible_agency": "Department of Public Works",
    "final_address": "1710 Laharpe St",
    "address_councildis": "D",
    "status": "Pending",
    "contractor": "Legacy Professional Services",
    "rowid": "1181689",
    "final_x": "3681557.64533",
    "final_y": "537738.169352",
    "longitude": "-90.06767141893798",
    "latitude": "29.972591768752327",
    "geocoded_column": {
      "latitude": "29.972591768752327",
      "longitude": "-90.06767141893798"
    }
  },
  {
    "service_request": "2025-1181688",
    "request_type": "Streetlights",
    "request_reason": "Streetlight Outage/Malfunction",
    "date_created": "2025-04-05T21:37:57.000",
    "date_modified": "2025-04-05T21:38:00.000",
    "request_status": "Pending",
    "responsible_agency": "Department of Public Works",
    "final_address": "1710 Laharpe St",
    "address_councildis": "D",
    "status": "Pending",
    "contractor": "Legacy Professional Services",
    "rowid": "1181688",
    "final_x": "3681557.64533",
    "final_y": "537738.169352",
    "longitude": "-90.06767141893798",
    "latitude": "29.972591768752327",
    "geocoded_column": {
      "latitude": "29.972591768752327",
      "longitude": "-90.06767141893798"
    }
  },
  {
    "service_request": "2025-1181687",
    "request_type": "General Services",
    "request_reason": "General Service Request",
    "date_created": "2025-04-05T20:58:23.000",
    "date_modified": "2025-04-05T20:58:24.000",
    "request_status": "Pending",
    "responsible_agency": "Orleans Parish Communication District",
    "final_address": "921 Lafayette St",
    "address_councildis": "B",
    "status": "Pending",
    "rowid": "1181687",
    "final_x": "3679623.52079",
    "final_y": "529178.056256",
    "longitude": "-90.07407683625019",
    "latitude": "29.94911296611653",
    "geocoded_column": {
      "latitude": "29.94911296611653",
      "longitude": "-90.07407683625019"
    }
  },
  {
    "service_request": "2025-1181686",
    "request_type": "Trash/Recycling",
    "request_reason": "Order Trash Cart",
    "date_created": "2025-04-05T20:42:30.000",
    "date_modified": "2025-04-05T20:42:32.000",
    "request_status": "Pending",
    "responsible_agency": "Department of Sanitation",
    "final_address": "1820 Pine St",
    "address_councildis": "A",
    "status": "Assigned to Contractor",
    "contractor": "IV Waste",
    "rowid": "1181686",
    "final_x": "3665176.05088",
    "final_y": "528593.828928",
    "longitude": "-90.11971355541885",
    "latitude": "29.947935200230518",
    "geocoded_column": {
      "latitude": "29.947935200230518",
      "longitude": "-90.11971355541885"
    }
  },
  {
    "service_request": "2025-1181685",
    "request_type": "Streetlights",
    "request_reason": "Streetlight Outage/Malfunction",
    "date_created": "2025-04-05T20:27:05.000",
    "date_modified": "2025-04-05T20:27:06.000",
    "request_status": "Pending",
    "responsible_agency": "Department of Public Works",
    "final_address": "6650 Avenue A",
    "address_councildis": "A",
    "status": "Pending",
    "contractor": "Legacy Professional Services",
    "rowid": "1181685",
    "final_x": "3665992.13556",
    "final_y": "552395.712278",
    "longitude": "-90.11633864947274",
    "latitude": "30.013358580266235",
    "geocoded_column": {
      "latitude": "30.013358580266235",
      "longitude": "-90.11633864947274"
    }
  },
  {
    "service_request": "2025-1181684",
    "request_type": "Trash/Recycling",
    "request_reason": "Request a Large Item Pick Up",
    "date_created": "2025-04-05T20:20:12.000",
    "date_modified": "2025-04-05T20:20:14.000",
    "request_status": "Pending",
    "responsible_agency": "Department of Sanitation",
    "final_address": "1938 Bienville Ave",
    "address_councildis": "B",
    "status": "Assigned to Contractor",
    "contractor": "IV Waste",
    "rowid": "1181684",
    "final_x": "3678005.36846",
    "final_y": "533990.310405",
    "longitude": "-90.07901972559526",
    "latitude": "29.96239384534065",
    "geocoded_column": {
      "latitude": "29.96239384534065",
      "longitude": "-90.07901972559526"
    }
  },
  {
    "service_request": "2025-1181683",
    "request_type": "Trash/Recycling",
    "request_reason": "Request a Large Item Pick Up",
    "date_created": "2025-04-05T20:18:26.000",
    "date_modified": "2025-04-05T20:18:27.000",
    "request_status": "Pending",
    "responsible_agency": "Department of Sanitation",
    "final_address": "1938 Bienville Ave",
    "address_councildis": "B",
    "status": "Assigned to Contractor",
    "contractor": "IV Waste",
    "rowid": "1181683",
    "final_x": "3678005.36846",
    "final_y": "533990.310405",
    "longitude": "-90.07901972559526",
    "latitude": "29.96239384534065",
    "geocoded_column": {
      "latitude": "29.96239384534065",
      "longitude": "-90.07901972559526"
    }
  },
  {
    "service_request": "2025-1181682",
    "request_type": "Abandoned Vehicles",
    "request_reason": "Abandoned/Junk Vehicles",
    "date_created": "2025-04-05T18:58:05.000",
    "date_modified": "2025-04-05T18:58:06.000",
    "request_status": "Pending",
    "responsible_agency": "Department of Public Works",
    "final_address": "7309 Cohn St",
    "address_councildis": "A",
    "status": "Pending",
    "rowid": "1181682",
    "final_x": "3665238.39437",
    "final_y": "528813.814592",
    "longitude": "-90.11950935328315",
    "latitude": "29.94853827396418",
    "geocoded_column": {
      "latitude": "29.94853827396418",
      "longitude": "-90.11950935328315"
    }
  },
  {
    "service_request": "2025-1181681",
    "request_type": "Health Related Request",
    "request_reason": "Homeless Encampment Complaint",
    "date_created": "2025-04-05T18:08:56.000",
    "date_modified": "2025-04-05T18:08:58.000",
    "request_status": "Pending",
    "responsible_agency": "Health Department",
    "final_address": "800 BLK N Derbigny St",
    "address_councildis": "D",
    "status": "Pending",
    "rowid": "1181681",
    "final_x": "3679774.11679",
    "final_y": "535288.759591",
    "longitude": "-90.07338918388304",
    "latitude": "29.96591078066911",
    "geocoded_column": {
      "latitude": "29.96591078066911",
      "longitude": "-90.07338918388304"
    }
  },
  {
    "service_request": "2025-1181680",
    "request_type": "Trash/Recycling",
    "request_reason": "Request a Large Item Pick Up",
    "date_created": "2025-04-05T18:01:35.000",
    "date_modified": "2025-04-05T18:01:37.000",
    "request_status": "Pending",
    "responsible_agency": "Department of Sanitation",
    "final_address": "1915 Mediamolle Dr",
    "address_councildis": "C",
    "status": "Assigned to Contractor",
    "contractor": "Richards Disposal",
    "rowid": "1181680",
    "final_x": "3699427.23792",
    "final_y": "524283.515132",
    "longitude": "-90.0117264638219",
    "latitude": "29.93504139585885",
    "geocoded_column": {
      "latitude": "29.93504139585885",
      "longitude": "-90.0117264638219"
    }
  },
  {
    "service_request": "2025-1181679",
    "request_type": "Trash/Recycling",
    "request_reason": "Request a Large Item Pick Up",
    "date_created": "2025-04-05T17:38:33.000",
    "date_modified": "2025-04-05T17:38:36.000",
    "request_status": "Pending",
    "responsible_agency": "Department of Sanitation",
    "final_address": "2019 Easter Ln",
    "address_councildis": "C",
    "status": "Assigned to Contractor",
    "contractor": "Richards Disposal",
    "rowid": "1181679",
    "final_x": "3699453.84183",
    "final_y": "524027.80902",
    "longitude": "-90.01165178742752",
    "latitude": "29.93433744893314",
    "geocoded_column": {
      "latitude": "29.93433744893314",
      "longitude": "-90.01165178742752"
    }
  },
  {
    "service_request": "2025-1181678",
    "request_type": "Health Related Request",
    "request_reason": "Noise Ordinance Complaint",
    "date_created": "2025-04-05T17:30:55.000",
    "date_modified": "2025-04-05T17:30:56.000",
    "request_status": "Pending",
    "responsible_agency": "Health Department",
    "final_address": "3232 Loyola Ave",
    "address_councildis": "B",
    "status": "Pending",
    "rowid": "1181678",
    "final_x": "3673761.31227",
    "final_y": "523650.518267",
    "longitude": "-90.09277538220518",
    "latitude": "29.934089890768963",
    "geocoded_column": {
      "latitude": "29.934089890768963",
      "longitude": "-90.09277538220518"
    }
  },
  {
    "service_request": "2025-1181677",
    "request_type": "Trash/Recycling",
    "request_reason": "Request a Large Item Pick Up",
    "date_created": "2025-04-05T17:29:33.000",
    "date_modified": "2025-04-05T17:29:35.000",
    "request_status": "Pending",
    "responsible_agency": "Department of Sanitation",
    "final_address": "6745 Avenue A",
    "address_councildis": "A",
    "status": "Assigned to Contractor",
    "contractor": "IV Waste",
    "rowid": "1181677",
    "final_x": "3666136.45351",
    "final_y": "553046.543767",
    "longitude": "-90.11586083085304",
    "latitude": "30.015143923355883",
    "geocoded_column": {
      "latitude": "30.015143923355883",
      "longitude": "-90.11586083085304"
    }
  },
  {
    "service_request": "2025-1181676",
    "request_type": "General Services",
    "request_reason": "General Service Request",
    "date_created": "2025-04-05T17:25:14.000",
    "date_modified": "2025-04-05T17:25:16.000",
    "request_status": "Pending",
    "responsible_agency": "Orleans Parish Communication District",
    "final_address": "1109 Burgundy St",
    "address_councildis": "C",
    "status": "Pending",
    "rowid": "1181676",
    "final_x": "3682603.96079",
    "final_y": "534359.402501",
    "longitude": "-90.06448513153015",
    "latitude": "29.96326950496278",
    "geocoded_column": {
      "latitude": "29.96326950496278",
      "longitude": "-90.06448513153015"
    }
  },
  {
    "service_request": "2025-1181675",
    "request_type": "Abandoned Vehicles",
    "request_reason": "Abandoned/Junk Vehicles",
    "date_created": "2025-04-05T16:48:57.000",
    "date_modified": "2025-04-05T16:48:59.000",
    "request_status": "Pending",
    "responsible_agency": "Department of Public Works",
    "final_address": "3315 Loyola Ave",
    "address_councildis": "B",
    "status": "Pending",
    "rowid": "1181675",
    "final_x": "3673578.36904",
    "final_y": "523648.363835",
    "longitude": "-90.09335300174516",
    "latitude": "29.93408941166968",
    "geocoded_column": {
      "latitude": "29.93408941166968",
      "longitude": "-90.09335300174516"
    }
  },
  {
    "service_request": "2025-1181674",
    "request_type": "Abandoned Vehicles",
    "request_reason": "Abandoned/Junk Vehicles",
    "date_created": "2025-04-05T16:48:00.000",
    "date_modified": "2025-04-05T16:48:02.000",
    "request_status": "Pending",
    "responsible_agency": "Department of Public Works",
    "final_address": "3317 Loyola Ave",
    "address_councildis": "B",
    "status": "Pending",
    "rowid": "1181674",
    "final_x": "3673560.61684",
    "final_y": "523640.520187",
    "longitude": "-90.09340931282696",
    "latitude": "29.93406837240181",
    "geocoded_column": {
      "latitude": "29.93406837240181",
      "longitude": "-90.09340931282696"
    }
  },
  {
    "service_request": "2025-1181673",
    "request_type": "Trash/Recycling",
    "request_reason": "Request a Large Item Pick Up",
    "date_created": "2025-04-05T16:22:51.000",
    "date_modified": "2025-04-05T16:22:53.000",
    "request_status": "Pending",
    "responsible_agency": "Department of Sanitation",
    "final_address": "15 Five Oaks Dr",
    "address_councildis": "C",
    "status": "Assigned to Contractor",
    "contractor": "Richards Disposal",
    "rowid": "1181673",
    "final_x": "3699349.41943",
    "final_y": "526321.897662",
    "longitude": "-90.01189792167229",
    "latitude": "29.94064870678968",
    "geocoded_column": {
      "latitude": "29.94064870678968",
      "longitude": "-90.01189792167229"
    }
  },
  {
    "service_request": "2025-1181672",
    "request_type": "Abandoned Vehicles",
    "request_reason": "Abandoned/Junk Vehicles",
    "date_created": "2025-04-05T16:21:52.000",
    "date_modified": "2025-04-05T16:21:54.000",
    "request_status": "Pending",
    "responsible_agency": "Department of Public Works",
    "final_address": "1132 Amelia St",
    "address_councildis": "B",
    "status": "Pending",
    "rowid": "1181672",
    "final_x": "3673549.66638",
    "final_y": "519392.580407",
    "longitude": "-90.09358897923889",
    "latitude": "29.922388233218154",
    "geocoded_column": {
      "latitude": "29.922388233218154",
      "longitude": "-90.09358897923889"
    }
  },
  {
    "service_request": "2025-1181671",
    "request_type": "Street and Traffic Signs",
    "request_reason": "Traffic or Parking Sign Damaged or Missing",
    "date_created": "2025-04-05T15:53:23.000",
    "date_modified": "2025-04-05T15:53:24.000",
    "request_status": "Pending",
    "responsible_agency": "Department of Public Works",
    "final_address": "2729 Octavia St",
    "address_councildis": "A",
    "status": "Pending",
    "rowid": "1181671",
    "final_x": "3667979.27002",
    "final_y": "525608.885565",
    "longitude": "-90.11096318100708",
    "latitude": "29.93964563529448",
    "geocoded_column": {
      "latitude": "29.93964563529448",
      "longitude": "-90.11096318100708"
    }
  },
  {
    "service_request": "2025-1181670",
    "request_type": "Abandoned Vehicles",
    "request_reason": "Abandoned/Junk Vehicles",
    "date_created": "2025-04-05T15:48:04.000",
    "date_modified": "2025-04-05T15:48:06.000",
    "request_status": "Pending",
    "responsible_agency": "Department of Public Works",
    "final_address": "8613 Jeannette St",
    "address_councildis": "A",
    "status": "Pending",
    "rowid": "1181670",
    "final_x": "3661288.15162",
    "final_y": "530461.821762",
    "longitude": "-90.13192743599427",
    "latitude": "29.95318423680016",
    "geocoded_column": {
      "latitude": "29.95318423680016",
      "longitude": "-90.13192743599427"
    }
  },
  {
    "service_request": "2025-1181669",
    "request_type": "Trash/Recycling",
    "request_reason": "Damaged Caused By Contractor",
    "date_created": "2025-04-05T15:46:19.000",
    "date_modified": "2025-04-05T15:46:21.000",
    "request_status": "Pending",
    "responsible_agency": "Department of Sanitation",
    "final_address": "4601 Galahad Dr",
    "address_councildis": "E",
    "status": "Assigned to Contractor",
    "contractor": "Waste Pro",
    "rowid": "1181669",
    "final_x": "3707386.21726",
    "final_y": "554455.328536",
    "longitude": "-89.98547979802179",
    "latitude": "30.01774790974244",
    "geocoded_column": {
      "latitude": "30.01774790974244",
      "longitude": "-89.98547979802179"
    }
  },
  {
    "service_request": "2025-1181668",
    "request_type": "Trash/Recycling",
    "request_reason": "Request a Large Item Pick Up",
    "date_created": "2025-04-05T15:41:38.000",
    "date_modified": "2025-04-05T15:41:40.000",
    "request_status": "Pending",
    "responsible_agency": "Department of Sanitation",
    "final_address": "6218 Cambridge St",
    "address_councildis": "C",
    "status": "Assigned to Contractor",
    "contractor": "Richards Disposal",
    "rowid": "1181668",
    "final_x": "3707098.50372",
    "final_y": "518465.167158",
    "longitude": "-89.98772425163699",
    "latitude": "29.91879745907295",
    "geocoded_column": {
      "latitude": "29.91879745907295",
      "longitude": "-89.98772425163699"
    }
  },
  {
    "service_request": "2025-1181667",
    "request_type": "Property Maintenance",
    "request_reason": "Property Maintenance",
    "date_created": "2025-04-05T15:10:14.000",
    "date_modified": "2025-04-05T15:10:16.000",
    "request_status": "Pending",
    "responsible_agency": "Department of Code Enforcement",
    "final_address": "1951 Rosary Dr",
    "address_councildis": "D",
    "status": "Pending",
    "rowid": "1181667",
    "final_x": "3681886.82229",
    "final_y": "555168.450841",
    "longitude": "-90.06602298374405",
    "latitude": "30.02050883710618",
    "geocoded_column": {
      "latitude": "30.02050883710618",
      "longitude": "-90.06602298374405"
    }
  },
  {
    "service_request": "2025-1181666",
    "request_type": "Trash/Recycling",
    "request_reason": "Request a Large Item Pick Up",
    "date_created": "2025-04-05T15:06:31.000",
    "date_modified": "2025-04-05T15:06:33.000",
    "request_status": "Pending",
    "responsible_agency": "Department of Sanitation",
    "final_address": "194 Walnut St",
    "address_councildis": "A",
    "status": "Assigned to Contractor",
    "contractor": "IV Waste",
    "rowid": "1181666",
    "final_x": "3661110.41741",
    "final_y": "520951.576633",
    "longitude": "-90.13280327214392",
    "latitude": "29.927039197369798",
    "geocoded_column": {
      "latitude": "29.927039197369798",
      "longitude": "-90.13280327214392"
    }
  },
  {
    "service_request": "2025-1181665",
    "request_type": "General Services",
    "request_reason": "General Service Request",
    "date_created": "2025-04-05T15:05:57.000",
    "date_modified": "2025-04-05T15:05:58.000",
    "request_status": "Pending",
    "responsible_agency": "Orleans Parish Communication District",
    "final_address": "3201 Rue Parc Fontaine, New Orleans, Louisiana, 70131",
    "address_councildis": "C",
    "status": "Pending",
    "rowid": "1181665",
    "final_x": "3700081.13136",
    "final_y": "518907.818039",
    "longitude": "-90.00985815966307",
    "latitude": "29.920239327415114",
    "geocoded_column": {
      "latitude": "29.920239327415114",
      "longitude": "-90.00985815966307"
    }
  },
  {
    "service_request": "2025-1181664",
    "request_type": "General Services",
    "request_reason": "General Service Request",
    "date_created": "2025-04-05T15:02:39.000",
    "date_modified": "2025-04-05T15:02:42.000",
    "request_status": "Pending",
    "responsible_agency": "Orleans Parish Communication District",
    "final_address": "La Fontaine St, Chalmette, Louisiana, 70043",
    "status": "Pending",
    "rowid": "1181664",
    "longitude": "0.0",
    "latitude": "0.0",
    "geocoded_column": {
      "latitude": "0.0",
      "longitude": "0.0"
    }
  },
  {
    "service_request": "2025-1181663",
    "request_type": "General Services",
    "request_reason": "General Service Request",
    "date_created": "2025-04-05T14:40:37.000",
    "date_modified": "2025-04-05T14:40:39.000",
    "request_status": "Pending",
    "responsible_agency": "Orleans Parish Communication District",
    "final_address": "2430 State St",
    "address_councildis": "A",
    "status": "Pending",
    "rowid": "1181663",
    "final_x": "3666711.30036",
    "final_y": "525653.453245",
    "longitude": "-90.1149648555609",
    "latitude": "29.939805314814762",
    "geocoded_column": {
      "latitude": "29.939805314814762",
      "longitude": "-90.1149648555609"
    }
  },
  {
    "service_request": "2025-1181662",
    "request_type": "Trash/Recycling",
    "request_reason": "Replace Trash Cart",
    "date_created": "2025-04-05T14:14:22.000",
    "date_modified": "2025-04-05T14:14:24.000",
    "request_status": "Pending",
    "responsible_agency": "Department of Sanitation",
    "final_address": "2733 Comet St",
    "address_councildis": "C",
    "status": "Assigned to Contractor",
    "contractor": "Richards Disposal",
    "rowid": "1181662",
    "final_x": "3699767.55466",
    "final_y": "520822.178105",
    "longitude": "-90.01077821960307",
    "latitude": "29.92551311691348",
    "geocoded_column": {
      "latitude": "29.92551311691348",
      "longitude": "-90.01077821960307"
    }
  },
  {
    "service_request": "2025-1181661",
    "request_type": "Trash/Recycling",
    "request_reason": "Missed Trash Pick-Up",
    "date_created": "2025-04-05T13:17:17.000",
    "date_modified": "2025-04-05T13:17:18.000",
    "request_status": "Pending",
    "responsible_agency": "Department of Sanitation",
    "final_address": "7633 Primrose Dr",
    "address_councildis": "E",
    "status": "Assigned to Contractor",
    "contractor": "Waste Pro",
    "rowid": "1181661",
    "final_x": "3701775.00106",
    "final_y": "561384.271774",
    "longitude": "-90.00295474721266",
    "latitude": "30.036980122385625",
    "geocoded_column": {
      "latitude": "30.036980122385625",
      "longitude": "-90.00295474721266"
    }
  },
  {
    "service_request": "2025-1181660",
    "request_type": "Property Maintenance",
    "request_reason": "Property Maintenance",
    "date_created": "2025-04-05T13:16:59.000",
    "date_modified": "2025-04-05T13:17:00.000",
    "request_status": "Pending",
    "responsible_agency": "Department of Code Enforcement",
    "final_address": "4427 Iberville St",
    "address_councildis": "A",
    "status": "Pending",
    "rowid": "1181660",
    "final_x": "3670104.8761",
    "final_y": "539697.965514",
    "longitude": "-90.10377501912335",
    "latitude": "29.97832341879295",
    "geocoded_column": {
      "latitude": "29.97832341879295",
      "longitude": "-90.10377501912335"
    }
  },
  {
    "service_request": "2025-1181659",
    "request_type": "Trash/Recycling",
    "request_reason": "Request a Large Item Pick Up",
    "date_created": "2025-04-05T13:12:54.000",
    "date_modified": "2025-04-05T13:12:56.000",
    "request_status": "Pending",
    "responsible_agency": "Department of Sanitation",
    "final_address": "26 Audubon Blvd",
    "address_councildis": "A",
    "status": "Assigned to Contractor",
    "contractor": "IV Waste",
    "rowid": "1181659",
    "final_x": "3665289.67373",
    "final_y": "527090.601855",
    "longitude": "-90.1194050843645",
    "latitude": "29.943798500484146",
    "geocoded_column": {
      "latitude": "29.943798500484146",
      "longitude": "-90.1194050843645"
    }
  },
  {
    "service_request": "2025-1181658",
    "request_type": "Trash/Recycling",
    "request_reason": "Stop Trash Service",
    "date_created": "2025-04-05T12:59:25.000",
    "date_modified": "2025-04-05T12:59:27.000",
    "request_status": "Pending",
    "responsible_agency": "Department of Sanitation",
    "final_address": "4416 N Villere St",
    "address_councildis": "D",
    "status": "Assigned to Contractor",
    "contractor": "IV Waste",
    "rowid": "1181658",
    "final_x": "3693499.47011",
    "final_y": "535980.176007",
    "longitude": "-90.03002029147564",
    "latitude": "29.967389811453415",
    "geocoded_column": {
      "latitude": "29.967389811453415",
      "longitude": "-90.03002029147564"
    }
  },
  {
    "service_request": "2025-1181657",
    "request_type": "Street and Traffic Signs",
    "request_reason": "Crosswalk Signage Damaged or Missing",
    "date_created": "2025-04-05T12:44:54.000",
    "date_modified": "2025-04-05T12:44:56.000",
    "request_status": "Pending",
    "responsible_agency": "Department of Public Works",
    "final_address": "1301 Convention Center Blvd",
    "address_councildis": "B",
    "status": "Pending",
    "rowid": "1181657",
    "final_x": "3682604.68463",
    "final_y": "524723.56134",
    "longitude": "-90.06481971151234",
    "latitude": "29.936774176126892",
    "geocoded_column": {
      "latitude": "29.936774176126892",
      "longitude": "-90.06481971151234"
    }
  },
  {
    "service_request": "2025-1181656",
    "request_type": "Trash/Recycling",
    "request_reason": "Request a Large Item Pick Up",
    "date_created": "2025-04-05T12:44:18.000",
    "date_modified": "2025-04-05T12:44:19.000",
    "request_status": "Pending",
    "responsible_agency": "Department of Sanitation",
    "final_address": "225 S Telemachus St",
    "address_councildis": "A",
    "status": "Assigned to Contractor",
    "contractor": "IV Waste",
    "rowid": "1181656",
    "final_x": "3671923.04385",
    "final_y": "536927.305416",
    "longitude": "-90.09812690634303",
    "latitude": "29.97065127034987",
    "geocoded_column": {
      "latitude": "29.97065127034987",
      "longitude": "-90.09812690634303"
    }
  },
  {
    "service_request": "2025-1181655",
    "request_type": "Trash/Recycling",
    "request_reason": "Illegal Dumping",
    "date_created": "2025-04-05T12:39:50.000",
    "date_modified": "2025-04-05T12:39:51.000",
    "request_status": "Pending",
    "responsible_agency": "Department of Sanitation",
    "final_address": "1401 Feliciana St",
    "address_councildis": "C",
    "status": "Pending",
    "rowid": "1181655",
    "final_x": "3689043.06339",
    "final_y": "537202.697224",
    "longitude": "-90.04405021357874",
    "latitude": "29.97088993931938",
    "geocoded_column": {
      "latitude": "29.97088993931938",
      "longitude": "-90.04405021357874"
    }
  },
  {
    "service_request": "2025-1181654",
    "request_type": "Street and Traffic Signs",
    "request_reason": "Crosswalk Signage Damaged or Missing",
    "date_created": "2025-04-05T12:38:05.000",
    "date_modified": "2025-04-05T12:38:06.000",
    "request_status": "Pending",
    "responsible_agency": "Department of Public Works",
    "final_address": "1001 Convention Center Blvd",
    "address_councildis": "B",
    "status": "Pending",
    "rowid": "1181654",
    "final_x": "3682572.4685",
    "final_y": "526397.642366",
    "longitude": "-90.06486291148202",
    "latitude": "29.941378320772703",
    "geocoded_column": {
      "latitude": "29.941378320772703",
      "longitude": "-90.06486291148202"
    }
  },
  {
    "service_request": "2025-1181653",
    "request_type": "Trash/Recycling",
    "request_reason": "Illegal Dumping",
    "date_created": "2025-04-05T12:37:34.000",
    "date_modified": "2025-04-05T12:37:36.000",
    "request_status": "Pending",
    "responsible_agency": "Department of Sanitation",
    "final_address": "1355 Clouet St",
    "address_councildis": "C",
    "status": "Pending",
    "rowid": "1181653",
    "final_x": "3689257.61724",
    "final_y": "536958.248968",
    "longitude": "-90.0433813182594",
    "latitude": "29.970211152775615",
    "geocoded_column": {
      "latitude": "29.970211152775615",
      "longitude": "-90.0433813182594"
    }
  },
  {
    "service_request": "2025-1181652",
    "request_type": "Trash/Recycling",
    "request_reason": "Dead Animal Pick Up",
    "date_created": "2025-04-05T12:36:17.000",
    "date_modified": "2025-04-05T12:36:19.000",
    "request_status": "Pending",
    "responsible_agency": "Department of Sanitation",
    "final_address": "3200 Nashville Ave, New Orleans, Louisiana, 70125",
    "address_councildis": "A",
    "status": "Assigned to Contractor",
    "contractor": "IV Waste",
    "rowid": "1181652",
    "final_x": "3667811.03521",
    "final_y": "527543.226431",
    "longitude": "-90.11142919954386",
    "latitude": "29.94496938197459",
    "geocoded_column": {
      "latitude": "29.94496938197459",
      "longitude": "-90.11142919954386"
    }
  },
  {
    "service_request": "2025-1181651",
    "request_type": "Trash/Recycling",
    "request_reason": "Illegal Dumping",
    "date_created": "2025-04-05T12:34:54.000",
    "date_modified": "2025-04-05T12:34:56.000",
    "request_status": "Pending",
    "responsible_agency": "Department of Sanitation",
    "final_address": "1338 Clouet St",
    "address_councildis": "C",
    "status": "Pending",
    "rowid": "1181651",
    "final_x": "3689233.23203",
    "final_y": "537060.216072",
    "longitude": "-90.0434547040658",
    "latitude": "29.97049228129597",
    "geocoded_column": {
      "latitude": "29.97049228129597",
      "longitude": "-90.0434547040658"
    }
  },
  {
    "service_request": "2025-1181650",
    "request_type": "Trash/Recycling",
    "request_reason": "Replace Trash Cart",
    "date_created": "2025-04-05T12:10:21.000",
    "date_modified": "2025-04-05T12:10:22.000",
    "request_status": "Pending",
    "responsible_agency": "Department of Sanitation",
    "final_address": "6111 Eastover Dr",
    "address_councildis": "E",
    "status": "Assigned to Contractor",
    "contractor": "Waste Pro",
    "rowid": "1181650",
    "final_x": "3718225.93068",
    "final_y": "565157.258402",
    "longitude": "-89.95082296798299",
    "latitude": "30.046818849579694",
    "geocoded_column": {
      "latitude": "30.046818849579694",
      "longitude": "-89.95082296798299"
    }
  },
  {
    "service_request": "2025-1181649",
    "request_type": "Trash/Recycling",
    "request_reason": "Order Recycling Cart",
    "date_created": "2025-04-05T12:04:34.000",
    "date_modified": "2025-04-05T12:04:36.000",
    "request_status": "Pending",
    "responsible_agency": "Department of Sanitation",
    "final_address": "3428 Iberville St",
    "address_councildis": "B",
    "status": "Pending",
    "rowid": "1181649",
    "final_x": "3673142.72443",
    "final_y": "537287.986376",
    "longitude": "-90.09426268475211",
    "latitude": "29.97160681195749",
    "geocoded_column": {
      "latitude": "29.97160681195749",
      "longitude": "-90.09426268475211"
    }
  },
  {
    "service_request": "2025-1181648",
    "request_type": "Drainage",
    "request_reason": "Catch Basin Clogged",
    "date_created": "2025-04-05T11:21:35.000",
    "date_modified": "2025-04-05T11:21:36.000",
    "request_status": "Pending",
    "responsible_agency": "Sewerage & Water Board ",
    "final_address": "207 River Oaks Dr",
    "address_councildis": "C",
    "status": "Pending",
    "rowid": "1181648",
    "final_x": "3701542.86692",
    "final_y": "523224.971067",
    "longitude": "-90.00508622249473",
    "latitude": "29.932063502452092",
    "geocoded_column": {
      "latitude": "29.932063502452092",
      "longitude": "-90.00508622249473"
    }
  },
  {
    "service_request": "2025-1181647",
    "request_type": "Property Maintenance",
    "request_reason": "Property Maintenance",
    "date_created": "2025-04-05T11:20:04.000",
    "date_modified": "2025-04-05T11:20:06.000",
    "request_status": "Pending",
    "responsible_agency": "Department of Code Enforcement",
    "final_address": "5803 Tall Timbers Dr",
    "address_councildis": "C",
    "status": "Pending",
    "rowid": "1181647",
    "final_x": "3705241.10103",
    "final_y": "513951.84453",
    "longitude": "-89.9937536061482",
    "latitude": "29.906447219720548",
    "geocoded_column": {
      "latitude": "29.906447219720548",
      "longitude": "-89.9937536061482"
    }
  },
  {
    "service_request": "2025-1181646",
    "request_type": "Roads and Streets",
    "request_reason": "Street Flooding",
    "date_created": "2025-04-05T11:17:18.000",
    "date_modified": "2025-04-05T11:17:20.000",
    "request_status": "Pending",
    "responsible_agency": "Sewerage & Water Board ",
    "final_address": "2201 General Pershing St, New Orleans, Louisiana, 70115",
    "address_councildis": "B",
    "status": "Pending",
    "rowid": "1181646",
    "final_x": "3671116.44647",
    "final_y": "523085.599227",
    "longitude": "-90.10114432350021",
    "latitude": "29.932615017234376",
    "geocoded_column": {
      "latitude": "29.932615017234376",
      "longitude": "-90.10114432350021"
    }
  },
  {
    "service_request": "2025-1181645",
    "request_type": "Roads and Streets",
    "request_reason": "Street Flooding",
    "date_created": "2025-04-05T11:16:13.000",
    "date_modified": "2025-04-05T11:16:14.000",
    "request_status": "Pending",
    "responsible_agency": "Sewerage & Water Board ",
    "final_address": "4214 Loyola Ave, New Orleans, Louisiana, 70115",
    "address_councildis": "B",
    "status": "Pending",
    "rowid": "1181645",
    "final_x": "3671262.69697",
    "final_y": "523023.309691",
    "longitude": "-90.1006847372496",
    "latitude": "29.93243941580251",
    "geocoded_column": {
      "latitude": "29.93243941580251",
      "longitude": "-90.1006847372496"
    }
  },
  {
    "service_request": "2025-1181644",
    "request_type": "Roads and Streets",
    "request_reason": "Debris in Driving Lanes",
    "date_created": "2025-04-05T11:14:47.000",
    "date_modified": "2025-04-05T11:14:49.000",
    "request_status": "Pending",
    "responsible_agency": "Department of Public Works",
    "final_address": "5803 Tall Timbers Dr",
    "address_councildis": "C",
    "status": "Pending",
    "rowid": "1181644",
    "final_x": "3705241.10103",
    "final_y": "513951.84453",
    "longitude": "-89.9937536061482",
    "latitude": "29.906447219720548",
    "geocoded_column": {
      "latitude": "29.906447219720548",
      "longitude": "-89.9937536061482"
    }
  },
  {
    "service_request": "2025-1181643",
    "request_type": "Streetlights",
    "request_reason": "Streetlight Outage/Malfunction",
    "date_created": "2025-04-05T11:10:21.000",
    "date_modified": "2025-04-05T11:10:22.000",
    "request_status": "Pending",
    "responsible_agency": "Department of Public Works",
    "final_address": "5803 Tall Timbers Dr",
    "address_councildis": "C",
    "status": "Pending",
    "contractor": "Legacy Professional Services",
    "rowid": "1181643",
    "final_x": "3705241.10103",
    "final_y": "513951.84453",
    "longitude": "-89.9937536061482",
    "latitude": "29.906447219720548",
    "geocoded_column": {
      "latitude": "29.906447219720548",
      "longitude": "-89.9937536061482"
    }
  },
  {
    "service_request": "2025-1181642",
    "request_type": "Streetlights",
    "request_reason": "Streetlight Outage/Malfunction",
    "date_created": "2025-04-05T11:08:50.000",
    "date_modified": "2025-04-05T11:08:51.000",
    "request_status": "Pending",
    "responsible_agency": "Department of Public Works",
    "final_address": "4413 Woodland Dr",
    "address_councildis": "C",
    "status": "Pending",
    "contractor": "Legacy Professional Services",
    "rowid": "1181642",
    "final_x": "3705322.21252",
    "final_y": "513892.279218",
    "longitude": "-89.99349981138127",
    "latitude": "29.90628082782015",
    "geocoded_column": {
      "latitude": "29.90628082782015",
      "longitude": "-89.99349981138127"
    }
  },
  {
    "service_request": "2025-1181641",
    "request_type": "Streetlights",
    "request_reason": "Streetlight Outage/Malfunction",
    "date_created": "2025-04-05T11:07:26.000",
    "date_modified": "2025-04-05T11:07:27.000",
    "request_status": "Pending",
    "responsible_agency": "Department of Public Works",
    "final_address": "4413 Woodland Dr",
    "address_councildis": "C",
    "status": "Pending",
    "contractor": "Legacy Professional Services",
    "rowid": "1181641",
    "final_x": "3705322.21252",
    "final_y": "513892.279218",
    "longitude": "-89.99349981138127",
    "latitude": "29.90628082782015",
    "geocoded_column": {
      "latitude": "29.90628082782015",
      "longitude": "-89.99349981138127"
    }
  },
  {
    "service_request": "2025-1181640",
    "request_type": "Streetlights",
    "request_reason": "Streetlight Outage/Malfunction",
    "date_created": "2025-04-05T11:06:05.000",
    "date_modified": "2025-04-05T11:08:19.000",
    "request_status": "Pending",
    "responsible_agency": "Department of Public Works",
    "final_address": "4479 Woodland Dr",
    "address_councildis": "C",
    "status": "Pending",
    "contractor": "Legacy Professional Services",
    "rowid": "1181640",
    "final_x": "3705560.85022",
    "final_y": "513516.665586",
    "longitude": "-89.99276052639111",
    "latitude": "29.90524034387719",
    "geocoded_column": {
      "latitude": "29.90524034387719",
      "longitude": "-89.99276052639111"
    }
  },
  {
    "service_request": "2025-1181639",
    "request_type": "Streetlights",
    "request_reason": "Streetlight Outage/Malfunction",
    "date_created": "2025-04-05T11:04:07.000",
    "date_modified": "2025-04-05T11:04:09.000",
    "request_status": "Pending",
    "responsible_agency": "Department of Public Works",
    "final_address": "4499 Woodland Dr",
    "address_councildis": "C",
    "status": "Pending",
    "contractor": "Legacy Professional Services",
    "rowid": "1181639",
    "final_x": "3705642.68491",
    "final_y": "513414.235506",
    "longitude": "-89.99250603695168",
    "latitude": "29.90495606329674",
    "geocoded_column": {
      "latitude": "29.90495606329674",
      "longitude": "-89.99250603695168"
    }
  },
  {
    "service_request": "2025-1181638",
    "request_type": "Streetlights",
    "request_reason": "Streetlight Outage/Malfunction",
    "date_created": "2025-04-05T11:02:52.000",
    "date_modified": "2025-04-05T11:02:55.000",
    "request_status": "Pending",
    "responsible_agency": "Department of Public Works",
    "final_address": "4499 Woodland Dr",
    "address_councildis": "C",
    "status": "Pending",
    "contractor": "Legacy Professional Services",
    "rowid": "1181638",
    "final_x": "3705642.68491",
    "final_y": "513414.235506",
    "longitude": "-89.99250603695168",
    "latitude": "29.90495606329674",
    "geocoded_column": {
      "latitude": "29.90495606329674",
      "longitude": "-89.99250603695168"
    }
  },
  {
    "service_request": "2025-1181637",
    "request_type": "Streetlights",
    "request_reason": "Streetlight Outage/Malfunction",
    "date_created": "2025-04-05T11:00:38.000",
    "date_modified": "2025-04-05T11:00:49.000",
    "request_status": "Pending",
    "responsible_agency": "Department of Public Works",
    "final_address": "4413 Woodland Dr",
    "address_councildis": "C",
    "status": "Pending",
    "contractor": "Legacy Professional Services",
    "rowid": "1181637",
    "final_x": "3705322.21252",
    "final_y": "513892.279218",
    "longitude": "-89.99349981138127",
    "latitude": "29.90628082782015",
    "geocoded_column": {
      "latitude": "29.90628082782015",
      "longitude": "-89.99349981138127"
    }
  },
  {
    "service_request": "2025-1181636",
    "request_type": "Trash/Recycling",
    "request_reason": "Request a Large Item Pick Up",
    "date_created": "2025-04-05T10:53:12.000",
    "date_modified": "2025-04-05T16:31:00.000",
    "case_close_date": "2025-04-05T11:30:59.000",
    "request_status": "Closed",
    "responsible_agency": "Department of Sanitation",
    "final_address": "6320 Lincoln Beach Blvd",
    "address_councildis": "E",
    "status": "Assigned to Contractor",
    "contractor": "Waste Pro",
    "contractor_action": "Completed",
    "rowid": "1181636",
    "final_x": "3696153.75722",
    "final_y": "560460.461918",
    "longitude": "-90.02075246562768",
    "latitude": "30.03461825841804",
    "geocoded_column": {
      "latitude": "30.03461825841804",
      "longitude": "-90.02075246562768"
    }
  },
  {
    "service_request": "2025-1181635",
    "request_type": "Abandoned Vehicles",
    "request_reason": "Abandoned/Junk Vehicles",
    "date_created": "2025-04-05T10:41:13.000",
    "date_modified": "2025-04-05T10:41:16.000",
    "request_status": "Pending",
    "responsible_agency": "Department of Public Works",
    "final_address": "1323 France St",
    "address_councildis": "D",
    "status": "Pending",
    "rowid": "1181635",
    "final_x": "3692672.30806",
    "final_y": "536070.480519",
    "longitude": "-90.03262923461662",
    "latitude": "29.967663960849997",
    "geocoded_column": {
      "latitude": "29.967663960849997",
      "longitude": "-90.03262923461662"
    }
  },
  {
    "service_request": "2025-1181634",
    "request_type": "Trash/Recycling",
    "request_reason": "Order Trash Cart",
    "date_created": "2025-04-05T10:23:57.000",
    "date_modified": "2025-04-05T10:23:59.000",
    "request_status": "Pending",
    "responsible_agency": "Department of Sanitation",
    "final_address": "136 S Alexander St",
    "address_councildis": "A",
    "status": "Assigned to Contractor",
    "contractor": "IV Waste",
    "rowid": "1181634",
    "final_x": "3669804.63028",
    "final_y": "538860.014409",
    "longitude": "-90.10475168352647",
    "latitude": "29.97602819192874",
    "geocoded_column": {
      "latitude": "29.97602819192874",
      "longitude": "-90.10475168352647"
    }
  },
  {
    "service_request": "2025-1181633",
    "request_type": "Safety & Permits",
    "request_reason": "Licenses & Permits",
    "date_created": "2025-04-05T10:22:02.000",
    "date_modified": "2025-04-05T10:22:04.000",
    "request_status": "Pending",
    "responsible_agency": "Safety and Permits",
    "final_address": "1823 Urquhart St",
    "address_councildis": "C",
    "status": "Pending",
    "rowid": "1181633",
    "final_x": "3683680.51337",
    "final_y": "536993.278472",
    "longitude": "-90.06099314880873",
    "latitude": "29.970478931144125",
    "geocoded_column": {
      "latitude": "29.970478931144125",
      "longitude": "-90.06099314880873"
    }
  },
  {
    "service_request": "2025-1181632",
    "request_type": "Trash/Recycling",
    "request_reason": "Request a Large Item Pick Up",
    "date_created": "2025-04-05T10:20:33.000",
    "date_modified": "2025-04-05T10:20:35.000",
    "request_status": "Pending",
    "responsible_agency": "Department of Sanitation",
    "final_address": "2611 Burdette St",
    "address_councildis": "A",
    "status": "Assigned to Contractor",
    "contractor": "IV Waste",
    "rowid": "1181632",
    "final_x": "3666375.4914",
    "final_y": "531424.583491",
    "longitude": "-90.11583145851121",
    "latitude": "29.95568386852713",
    "geocoded_column": {
      "latitude": "29.95568386852713",
      "longitude": "-90.11583145851121"
    }
  },
  {
    "service_request": "2025-1181631",
    "request_type": "Property Maintenance",
    "request_reason": "Property Maintenance",
    "date_created": "2025-04-05T10:19:22.000",
    "date_modified": "2025-04-05T10:19:24.000",
    "request_status": "Pending",
    "responsible_agency": "Department of Code Enforcement",
    "final_address": "2606 Gordon St",
    "address_councildis": "E",
    "status": "Pending",
    "rowid": "1181631",
    "final_x": "3701309.80452",
    "final_y": "538869.135625",
    "longitude": "-90.00524955372448",
    "latitude": "29.975086821609285",
    "geocoded_column": {
      "latitude": "29.975086821609285",
      "longitude": "-90.00524955372448"
    }
  },
  {
    "service_request": "2025-1181630",
    "request_type": "Trash/Recycling",
    "request_reason": "Replace Trash Cart",
    "date_created": "2025-04-05T10:15:41.000",
    "date_modified": "2025-04-05T10:15:43.000",
    "request_status": "Pending",
    "responsible_agency": "Department of Sanitation",
    "final_address": "1335 Joseph St",
    "address_councildis": "A",
    "status": "Assigned to Contractor",
    "contractor": "IV Waste",
    "rowid": "1181630",
    "final_x": "3666580.58605",
    "final_y": "520827.091129",
    "longitude": "-90.11553948477771",
    "latitude": "29.926538177243188",
    "geocoded_column": {
      "latitude": "29.926538177243188",
      "longitude": "-90.11553948477771"
    }
  },
  {
    "service_request": "2025-1181629",
    "request_type": "Trash/Recycling",
    "request_reason": "Replace Trash Cart",
    "date_created": "2025-04-05T10:14:27.000",
    "date_modified": "2025-04-05T10:14:29.000",
    "request_status": "Pending",
    "responsible_agency": "Department of Sanitation",
    "final_address": "1335 Joseph St",
    "address_councildis": "A",
    "status": "Assigned to Contractor",
    "contractor": "IV Waste",
    "rowid": "1181629",
    "final_x": "3666580.58605",
    "final_y": "520827.091129",
    "longitude": "-90.11553948477771",
    "latitude": "29.926538177243188",
    "geocoded_column": {
      "latitude": "29.926538177243188",
      "longitude": "-90.11553948477771"
    }
  },
  {
    "service_request": "2025-1181628",
    "request_type": "Abandoned Vehicles",
    "request_reason": "Abandoned/Junk Vehicles",
    "date_created": "2025-04-05T10:12:38.000",
    "date_modified": "2025-04-05T10:12:39.000",
    "request_status": "Pending",
    "responsible_agency": "Department of Public Works",
    "final_address": "1642 Jo Ann Pl",
    "address_councildis": "C",
    "status": "Pending",
    "rowid": "1181628",
    "final_x": "3694997.01795",
    "final_y": "525070.082173",
    "longitude": "-90.02568422998213",
    "latitude": "29.937343943956822",
    "geocoded_column": {
      "latitude": "29.937343943956822",
      "longitude": "-90.02568422998213"
    }
  },
  {
    "service_request": "2025-1181627",
    "request_type": "Trash/Recycling",
    "request_reason": "Request a Large Item Pick Up",
    "date_created": "2025-04-05T10:06:58.000",
    "date_modified": "2025-04-05T10:07:00.000",
    "request_status": "Pending",
    "responsible_agency": "Department of Sanitation",
    "final_address": "501 S Cortez St",
    "address_councildis": "B",
    "status": "Assigned to Contractor",
    "contractor": "IV Waste",
    "rowid": "1181627",
    "final_x": "3671042.87502",
    "final_y": "536310.541127",
    "longitude": "-90.10092754119889",
    "latitude": "29.96898143561401",
    "geocoded_column": {
      "latitude": "29.96898143561401",
      "longitude": "-90.10092754119889"
    }
  },
  {
    "service_request": "2025-1181626",
    "request_type": "Trash/Recycling",
    "request_reason": "Return Recycling Cart",
    "date_created": "2025-04-05T10:04:45.000",
    "date_modified": "2025-04-05T10:04:46.000",
    "request_status": "Pending",
    "responsible_agency": "Department of Sanitation",
    "final_address": "5852 General Diaz St",
    "address_councildis": "A",
    "status": "Pending",
    "rowid": "1181626",
    "final_x": "3669326.29255",
    "final_y": "546285.741072",
    "longitude": "-90.10601121353952",
    "latitude": "29.996460500008144",
    "geocoded_column": {
      "latitude": "29.996460500008144",
      "longitude": "-90.10601121353952"
    }
  },
  {
    "service_request": "2025-1181625",
    "request_type": "Trash/Recycling",
    "request_reason": "Illegal Dumping",
    "date_created": "2025-04-05T10:01:55.000",
    "date_modified": "2025-04-05T10:01:57.000",
    "request_status": "Pending",
    "responsible_agency": "Department of Sanitation",
    "final_address": "501 S Cortez St",
    "address_councildis": "B",
    "status": "Pending",
    "rowid": "1181625",
    "final_x": "3671042.87502",
    "final_y": "536310.541127",
    "longitude": "-90.10092754119889",
    "latitude": "29.96898143561401",
    "geocoded_column": {
      "latitude": "29.96898143561401",
      "longitude": "-90.10092754119889"
    }
  },
  {
    "service_request": "2025-1181623",
    "request_type": "Property Maintenance",
    "request_reason": "Property Maintenance",
    "date_created": "2025-04-05T09:55:49.000",
    "date_modified": "2025-04-05T09:55:50.000",
    "request_status": "Pending",
    "responsible_agency": "Department of Code Enforcement",
    "final_address": "4152 DHemecourt St",
    "address_councildis": "A",
    "status": "Pending",
    "rowid": "1181623",
    "final_x": "3669403.9618",
    "final_y": "537083.946568",
    "longitude": "-90.1060771934209",
    "latitude": "29.97115640891978",
    "geocoded_column": {
      "latitude": "29.97115640891978",
      "longitude": "-90.1060771934209"
    }
  },
  {
    "service_request": "2025-1181624",
    "request_type": "Property Maintenance",
    "request_reason": "Property Maintenance",
    "date_created": "2025-04-05T09:55:49.000",
    "date_modified": "2025-04-05T09:55:51.000",
    "request_status": "Pending",
    "responsible_agency": "Department of Code Enforcement",
    "final_address": "4152 DHemecourt St",
    "address_councildis": "A",
    "status": "Pending",
    "rowid": "1181624",
    "final_x": "3669403.9618",
    "final_y": "537083.946568",
    "longitude": "-90.1060771934209",
    "latitude": "29.97115640891978",
    "geocoded_column": {
      "latitude": "29.97115640891978",
      "longitude": "-90.1060771934209"
    }
  },
  {
    "service_request": "2025-1181622",
    "request_type": "Parks & Parkways",
    "request_reason": "Request Tree Service (Right of Way/Public Property)",
    "date_created": "2025-04-05T09:48:02.000",
    "date_modified": "2025-04-05T10:25:13.000",
    "request_status": "Pending",
    "responsible_agency": "Department of Parks & Parkway",
    "final_address": "734 France St",
    "address_councildis": "C",
    "status": "Pending",
    "rowid": "1181622",
    "final_x": "3692052.47664",
    "final_y": "533940.510725",
    "longitude": "-90.03466290654639",
    "latitude": "29.961826624951083",
    "geocoded_column": {
      "latitude": "29.961826624951083",
      "longitude": "-90.03466290654639"
    }
  },
  {
    "service_request": "2025-1181621",
    "request_type": "Trash/Recycling",
    "request_reason": "Repair Recycling Cart",
    "date_created": "2025-04-05T09:14:48.000",
    "date_modified": "2025-04-05T09:14:50.000",
    "request_status": "Pending",
    "responsible_agency": "Department of Sanitation",
    "final_address": "300 S Telemachus St",
    "address_councildis": "B",
    "status": "Pending",
    "rowid": "1181621",
    "final_x": "3671868.83751",
    "final_y": "536700.846727",
    "longitude": "-90.09830580532841",
    "latitude": "29.97003019187266",
    "geocoded_column": {
      "latitude": "29.97003019187266",
      "longitude": "-90.09830580532841"
    }
  },
  {
    "service_request": "2025-1181620",
    "request_type": "Trash/Recycling",
    "request_reason": "Illegal Dumping",
    "date_created": "2025-04-05T08:44:27.000",
    "date_modified": "2025-04-05T08:44:28.000",
    "request_status": "Pending",
    "responsible_agency": "Department of Sanitation",
    "final_address": "TERRY PW EXIT & GEN DE GAULLE EXIT",
    "address_councildis": "C",
    "status": "Pending",
    "rowid": "1181620",
    "final_x": "3690888.2",
    "final_y": "522435.95",
    "longitude": "-90.038749948126",
    "latitude": "29.93022926669733",
    "geocoded_column": {
      "latitude": "29.93022926669733",
      "longitude": "-90.038749948126"
    }
  },
  {
    "service_request": "2025-1181619",
    "request_type": "Traffic Signals",
    "request_reason": "Traffic Signal Malfunctioning or Damaged",
    "date_created": "2025-04-05T08:43:29.000",
    "date_modified": "2025-04-05T08:43:31.000",
    "request_status": "Pending",
    "responsible_agency": "Department of Public Works",
    "final_address": "3753 Gentilly Blvd",
    "address_councildis": "D",
    "status": "Pending",
    "rowid": "1181619",
    "final_x": "3687493.31702",
    "final_y": "549019.750931",
    "longitude": "-90.04852603854562",
    "latitude": "30.003430477536895",
    "geocoded_column": {
      "latitude": "30.003430477536895",
      "longitude": "-90.04852603854562"
    }
  },
  {
    "service_request": "2025-1181618",
    "request_type": "Abandoned Vehicles",
    "request_reason": "Abandoned/Junk Vehicles",
    "date_created": "2025-04-05T08:33:15.000",
    "date_modified": "2025-04-05T08:33:17.000",
    "request_status": "Pending",
    "responsible_agency": "Department of Public Works",
    "final_address": "413 Cherokee St",
    "address_councildis": "A",
    "status": "Pending",
    "rowid": "1181618",
    "final_x": "3661804.77216",
    "final_y": "524916.513788",
    "longitude": "-90.13047997302154",
    "latitude": "29.937921505860167",
    "geocoded_column": {
      "latitude": "29.937921505860167",
      "longitude": "-90.13047997302154"
    }
  },
  {
    "service_request": "2025-1181617",
    "request_type": "Road Striping",
    "request_reason": "Lane Striping or other Pavement Markings",
    "date_created": "2025-04-05T08:02:49.000",
    "date_modified": "2025-04-05T08:02:50.000",
    "request_status": "Pending",
    "responsible_agency": "Department of Public Works",
    "final_address": "400 Lakeshore Prkwy",
    "address_councildis": "D",
    "status": "Pending",
    "rowid": "1181617",
    "final_x": "3667865.81281",
    "final_y": "556926.420634",
    "longitude": "-90.11026600468664",
    "latitude": "30.025761572046914",
    "geocoded_column": {
      "latitude": "30.025761572046914",
      "longitude": "-90.11026600468664"
    }
  },
  {
    "service_request": "2025-1181616",
    "request_type": "Trash/Recycling",
    "request_reason": "Illegal Dumping",
    "date_created": "2025-04-05T07:55:04.000",
    "date_modified": "2025-04-05T07:55:06.000",
    "request_status": "Pending",
    "responsible_agency": "Department of Sanitation",
    "final_address": "3801 Washington Ave",
    "address_councildis": "B",
    "status": "Pending",
    "rowid": "1181616",
    "final_x": "3671692.62971",
    "final_y": "529000.389696",
    "longitude": "-90.09912423171585",
    "latitude": "29.948861716589217",
    "geocoded_column": {
      "latitude": "29.948861716589217",
      "longitude": "-90.09912423171585"
    }
  },
  {
    "service_request": "2025-1181615",
    "request_type": "Road Striping",
    "request_reason": "Lane Striping or other Pavement Markings",
    "date_created": "2025-04-05T07:53:30.000",
    "date_modified": "2025-04-05T07:53:32.000",
    "request_status": "Pending",
    "responsible_agency": "Department of Public Works",
    "final_address": "400 Lakeshore Prkwy",
    "address_councildis": "D",
    "status": "Pending",
    "rowid": "1181615",
    "final_x": "3667865.81281",
    "final_y": "556926.420634",
    "longitude": "-90.11026600468664",
    "latitude": "30.025761572046914",
    "geocoded_column": {
      "latitude": "30.025761572046914",
      "longitude": "-90.11026600468664"
    }
  },
  {
    "service_request": "2025-1181614",
    "request_type": "Road Striping",
    "request_reason": "Lane Striping or other Pavement Markings",
    "date_created": "2025-04-05T07:48:03.000",
    "date_modified": "2025-04-05T07:48:05.000",
    "request_status": "Pending",
    "responsible_agency": "Department of Public Works",
    "final_address": "400 Lakeshore Prkwy",
    "address_councildis": "D",
    "status": "Pending",
    "rowid": "1181614",
    "final_x": "3667865.81281",
    "final_y": "556926.420634",
    "longitude": "-90.11026600468664",
    "latitude": "30.025761572046914",
    "geocoded_column": {
      "latitude": "30.025761572046914",
      "longitude": "-90.11026600468664"
    }
  },
  {
    "service_request": "2025-1181613",
    "request_type": "Road Striping",
    "request_reason": "Lane Striping or other Pavement Markings",
    "date_created": "2025-04-05T07:43:12.000",
    "date_modified": "2025-04-05T07:43:14.000",
    "request_status": "Pending",
    "responsible_agency": "Department of Public Works",
    "final_address": "400 BLK Lakeshore Pkwy",
    "address_councildis": "D",
    "status": "Pending",
    "rowid": "1181613",
    "final_x": "3668367.11861",
    "final_y": "557127.282515",
    "longitude": "-90.10867515746642",
    "latitude": "30.026299147803925",
    "geocoded_column": {
      "latitude": "30.026299147803925",
      "longitude": "-90.10867515746642"
    }
  },
  {
    "service_request": "2025-1181612",
    "request_type": "Abandoned Vehicles",
    "request_reason": "Abandoned/Junk Vehicles",
    "date_created": "2025-04-05T07:40:27.000",
    "date_modified": "2025-04-05T07:40:28.000",
    "request_status": "Pending",
    "responsible_agency": "Department of Public Works",
    "final_address": "8415 S Claiborne Ave",
    "address_councildis": "A",
    "status": "Pending",
    "rowid": "1181612",
    "final_x": "3664028.86919",
    "final_y": "532414.782915",
    "longitude": "-90.12320827256829",
    "latitude": "29.9584749457659",
    "geocoded_column": {
      "latitude": "29.9584749457659",
      "longitude": "-90.12320827256829"
    }
  },
  {
    "service_request": "2025-1181611",
    "request_type": "Trash/Recycling",
    "request_reason": "MIssed Recycling Pick-Up",
    "date_created": "2025-04-05T07:37:06.000",
    "date_modified": "2025-04-05T07:37:08.000",
    "request_status": "Pending",
    "responsible_agency": "Department of Sanitation",
    "final_address": "4709 Urquhart St",
    "address_councildis": "E",
    "status": "Assigned to Contractor",
    "contractor": "Waste Pro",
    "rowid": "1181611",
    "final_x": "3694984.37853",
    "final_y": "535337.33607",
    "longitude": "-90.0253541229052",
    "latitude": "29.965575705085477",
    "geocoded_column": {
      "latitude": "29.965575705085477",
      "longitude": "-90.0253541229052"
    }
  },
  {
    "service_request": "2025-1181610",
    "request_type": "Law Enforcement Services",
    "request_reason": "Off Duty Officer for Hire",
    "date_created": "2025-04-05T07:22:33.000",
    "date_modified": "2025-04-05T07:22:36.000",
    "request_status": "Pending",
    "responsible_agency": "Office of Police Secondary Employment",
    "final_address": "2422 Allen St",
    "address_councildis": "D",
    "status": "Pending",
    "rowid": "1181610",
    "final_x": "3682336.19317",
    "final_y": "541146.268492",
    "longitude": "-90.06509349493841",
    "latitude": "29.981939185329992",
    "geocoded_column": {
      "latitude": "29.981939185329992",
      "longitude": "-90.06509349493841"
    }
  },
  {
    "service_request": "2025-1181609",
    "request_type": "Mosquito, Termite & Rodent Control",
    "request_reason": "Rodent Complaint (Rats)",
    "date_created": "2025-04-05T07:19:59.000",
    "date_modified": "2025-04-05T07:20:01.000",
    "request_status": "Pending",
    "responsible_agency": "Mosquito, Termite & Rodent Control Board",
    "final_address": "2424 Allen St",
    "address_councildis": "D",
    "status": "Pending",
    "rowid": "1181609",
    "final_x": "3682346.602",
    "final_y": "541165.211596",
    "longitude": "-90.06505995667837",
    "latitude": "29.98199095544814",
    "geocoded_column": {
      "latitude": "29.98199095544814",
      "longitude": "-90.06505995667837"
    }
  },
  {
    "service_request": "2025-1181608",
    "request_type": "Trash/Recycling",
    "request_reason": "Return Trash Cart",
    "date_created": "2025-04-05T05:56:01.000",
    "date_modified": "2025-04-05T05:56:02.000",
    "request_status": "Pending",
    "responsible_agency": "Department of Sanitation",
    "final_address": "2114 Milan St",
    "address_councildis": "B",
    "status": "Assigned to Contractor",
    "contractor": "IV Waste",
    "rowid": "1181608",
    "final_x": "3671363.55278",
    "final_y": "522871.182075",
    "longitude": "-90.10037151141792",
    "latitude": "29.932018130159733",
    "geocoded_column": {
      "latitude": "29.932018130159733",
      "longitude": "-90.10037151141792"
    }
  },
  {
    "service_request": "2025-1181607",
    "request_type": "Parks & Parkways",
    "request_reason": "Request Tree Service (Right of Way/Public Property)",
    "date_created": "2025-04-05T05:51:50.000",
    "date_modified": "2025-04-05T05:51:52.000",
    "request_status": "Pending",
    "responsible_agency": "Department of Parks & Parkway",
    "final_address": "2114 Milan St",
    "address_councildis": "B",
    "status": "Pending",
    "rowid": "1181607",
    "final_x": "3671363.55278",
    "final_y": "522871.182075",
    "longitude": "-90.10037151141792",
    "latitude": "29.932018130159733",
    "geocoded_column": {
      "latitude": "29.932018130159733",
      "longitude": "-90.10037151141792"
    }
  },
  {
    "service_request": "2025-1181606",
    "request_type": "Trash/Recycling",
    "request_reason": "Illegal Dumping",
    "date_created": "2025-04-05T05:51:33.000",
    "date_modified": "2025-04-05T05:51:35.000",
    "request_status": "Pending",
    "responsible_agency": "Department of Sanitation",
    "final_address": "5240 Pasteur Blvd",
    "address_councildis": "D",
    "status": "Pending",
    "rowid": "1181606",
    "final_x": "3682895.5254",
    "final_y": "552108.567318",
    "longitude": "-90.06294298200275",
    "latitude": "30.01206456011248",
    "geocoded_column": {
      "latitude": "30.01206456011248",
      "longitude": "-90.06294298200275"
    }
  },
  {
    "service_request": "2025-1181602",
    "request_type": "Abandoned Vehicles",
    "request_reason": "Abandoned/Junk Vehicles",
    "date_created": "2025-04-05T02:28:49.000",
    "date_modified": "2025-04-05T02:28:52.000",
    "request_status": "Pending",
    "responsible_agency": "Department of Public Works",
    "final_address": "2836 Palmyra St",
    "address_councildis": "B",
    "status": "Pending",
    "rowid": "1181602",
    "final_x": "3674133.47867",
    "final_y": "534959.23239",
    "longitude": "-90.09121345494623",
    "latitude": "29.965174029470326",
    "geocoded_column": {
      "latitude": "29.965174029470326",
      "longitude": "-90.09121345494623"
    }
  },
  {
    "service_request": "2025-1181601",
    "request_type": "Safety & Permits",
    "request_reason": "Zoning Enforcement",
    "date_created": "2025-04-05T00:06:48.000",
    "date_modified": "2025-04-05T00:06:51.000",
    "request_status": "Pending",
    "responsible_agency": "Safety and Permits",
    "final_address": "3112 Esplanade Ave",
    "address_councildis": "A",
    "status": "Pending",
    "rowid": "1181601",
    "final_x": "3676427.73217",
    "final_y": "540230.439819",
    "longitude": "-90.0837867921193",
    "latitude": "29.97959946577619",
    "geocoded_column": {
      "latitude": "29.97959946577619",
      "longitude": "-90.0837867921193"
    }
  },
  {
    "service_request": "2025-1181600",
    "request_type": "Trash/Recycling",
    "request_reason": "Return Trash Cart",
    "date_created": "2025-04-04T23:01:25.000",
    "date_modified": "2025-04-04T23:01:26.000",
    "request_status": "Pending",
    "responsible_agency": "Department of Sanitation",
    "final_address": "8018 Burthe St",
    "address_councildis": "A",
    "status": "Assigned to Contractor",
    "contractor": "IV Waste",
    "rowid": "1181600",
    "final_x": "3661370.48736",
    "final_y": "527294.107071",
    "longitude": "-90.13177234087067",
    "latitude": "29.944471661471727",
    "geocoded_column": {
      "latitude": "29.944471661471727",
      "longitude": "-90.13177234087067"
    }
  },
  {
    "service_request": "2025-1181599",
    "request_type": "Streetlights",
    "request_reason": "Streetlight Outage/Malfunction",
    "date_created": "2025-04-04T22:59:07.000",
    "date_modified": "2025-04-04T22:59:13.000",
    "request_status": "Pending",
    "responsible_agency": "Department of Public Works",
    "final_address": "8018 Burthe St",
    "address_councildis": "A",
    "status": "Pending",
    "contractor": "Legacy Professional Services",
    "rowid": "1181599",
    "final_x": "3661370.48736",
    "final_y": "527294.107071",
    "longitude": "-90.13177234087067",
    "latitude": "29.944471661471727",
    "geocoded_column": {
      "latitude": "29.944471661471727",
      "longitude": "-90.13177234087067"
    }
  },
  {
    "service_request": "2025-1181598",
    "request_type": "General Services",
    "request_reason": "General Service Request",
    "date_created": "2025-04-04T21:52:02.000",
    "date_modified": "2025-04-04T21:52:04.000",
    "request_status": "Pending",
    "responsible_agency": "Orleans Parish Communication District",
    "final_address": "Mardi Gras Blvd and Landry",
    "status": "Pending",
    "rowid": "1181598",
    "longitude": "0.0",
    "latitude": "0.0",
    "geocoded_column": {
      "latitude": "0.0",
      "longitude": "0.0"
    }
  },
  {
    "service_request": "2025-1181597",
    "request_type": "Property Maintenance",
    "request_reason": "Property Maintenance",
    "date_created": "2025-04-04T20:29:20.000",
    "date_modified": "2025-04-04T20:29:22.000",
    "request_status": "Pending",
    "responsible_agency": "Department of Code Enforcement",
    "final_address": "1509 Dublin St",
    "address_councildis": "A",
    "status": "Pending",
    "rowid": "1181597",
    "final_x": "3662509.00506",
    "final_y": "529432.362241",
    "longitude": "-90.12810668129698",
    "latitude": "29.95031830096214",
    "geocoded_column": {
      "latitude": "29.95031830096214",
      "longitude": "-90.12810668129698"
    }
  },
  {
    "service_request": "2025-1181596",
    "request_type": "Streetlights",
    "request_reason": "Streetlight Knocked Down/Leaning",
    "date_created": "2025-04-04T20:16:35.000",
    "date_modified": "2025-04-04T20:17:59.000",
    "request_status": "Pending",
    "responsible_agency": "Department of Public Works",
    "final_address": "3401 Magazine St",
    "address_councildis": "B",
    "status": "Pending",
    "contractor": "Legacy Professional Services",
    "rowid": "1181596",
    "final_x": "3674875.41038",
    "final_y": "519612.877304",
    "longitude": "-90.08939659076124",
    "latitude": "29.92295447118205",
    "geocoded_column": {
      "latitude": "29.92295447118205",
      "longitude": "-90.08939659076124"
    }
  },
  {
    "service_request": "2025-1181595",
    "request_type": "Trash/Recycling",
    "request_reason": "Request a Large Item Pick Up",
    "date_created": "2025-04-04T19:33:47.000",
    "date_modified": "2025-04-04T19:33:49.000",
    "request_status": "Pending",
    "responsible_agency": "Department of Sanitation",
    "final_address": "1715 Richland Rd",
    "address_councildis": "C",
    "status": "Assigned to Contractor",
    "contractor": "Richards Disposal",
    "rowid": "1181595",
    "final_x": "3697820.95299",
    "final_y": "524711.570748",
    "longitude": "-90.01678193765017",
    "latitude": "29.936269245668818",
    "geocoded_column": {
      "latitude": "29.936269245668818",
      "longitude": "-90.01678193765017"
    }
  },
  {
    "service_request": "2025-1181594",
    "request_type": "Trash/Recycling",
    "request_reason": "Replace Trash Cart",
    "date_created": "2025-04-04T19:16:22.000",
    "date_modified": "2025-04-04T19:16:24.000",
    "request_status": "Pending",
    "responsible_agency": "Department of Sanitation",
    "final_address": "1745 N Rocheblave St",
    "address_councildis": "D",
    "status": "Assigned to Contractor",
    "contractor": "IV Waste",
    "rowid": "1181594",
    "final_x": "3680598.60885",
    "final_y": "540451.724235",
    "longitude": "-90.07060578725249",
    "latitude": "29.98008219732063",
    "geocoded_column": {
      "latitude": "29.98008219732063",
      "longitude": "-90.07060578725249"
    }
  },
  {
    "service_request": "2025-1181593",
    "request_type": "Abandoned Vehicles",
    "request_reason": "Abandoned/Junk Vehicles",
    "date_created": "2025-04-04T18:47:54.000",
    "date_modified": "2025-04-04T18:47:55.000",
    "request_status": "Pending",
    "responsible_agency": "Department of Public Works",
    "final_address": "117 Wilshire Pl",
    "address_councildis": "D",
    "status": "Pending",
    "rowid": "1181593",
    "final_x": "3677531.96014",
    "final_y": "544537.874383",
    "longitude": "-90.08015040276419",
    "latitude": "29.991410256676865",
    "geocoded_column": {
      "latitude": "29.991410256676865",
      "longitude": "-90.08015040276419"
    }
  },
  {
    "service_request": "2025-1181592",
    "request_type": "Trash/Recycling",
    "request_reason": "Request a Large Item Pick Up",
    "date_created": "2025-04-04T18:09:19.000",
    "date_modified": "2025-04-04T18:09:20.000",
    "request_status": "Pending",
    "responsible_agency": "Department of Sanitation",
    "final_address": "2301 Delachaise St",
    "address_councildis": "B",
    "status": "Assigned to Contractor",
    "contractor": "IV Waste",
    "rowid": "1181592",
    "final_x": "3672877.89102",
    "final_y": "523729.840059",
    "longitude": "-90.09556161040238",
    "latitude": "29.934334269584994",
    "geocoded_column": {
      "latitude": "29.934334269584994",
      "longitude": "-90.09556161040238"
    }
  },
  {
    "service_request": "2025-1181591",
    "request_type": "Trash/Recycling",
    "request_reason": "Missed Trash Pick-Up",
    "date_created": "2025-04-04T18:08:16.000",
    "date_modified": "2025-04-05T07:58:49.000",
    "case_close_date": "2025-04-05T02:58:48.000",
    "request_status": "Closed",
    "responsible_agency": "Department of Sanitation",
    "final_address": "2768 N Dorgenois St",
    "address_councildis": "D",
    "status": "Invalid Request",
    "contractor": "IV Waste",
    "contractor_action": "Invalid",
    "rowid": "1181591",
    "final_x": "3687828.54582",
    "final_y": "541684.987532",
    "longitude": "-90.04772698133753",
    "latitude": "29.983252175589712",
    "geocoded_column": {
      "latitude": "29.983252175589712",
      "longitude": "-90.04772698133753"
    }
  },
  {
    "service_request": "2025-1181590",
    "request_type": "Trash/Recycling",
    "request_reason": "Request a Large Item Pick Up",
    "date_created": "2025-04-04T18:06:27.000",
    "date_modified": "2025-04-04T18:06:28.000",
    "request_status": "Pending",
    "responsible_agency": "Department of Sanitation",
    "final_address": "2301 Delachaise St",
    "address_councildis": "B",
    "status": "Assigned to Contractor",
    "contractor": "IV Waste",
    "rowid": "1181590",
    "final_x": "3672877.89102",
    "final_y": "523729.840059",
    "longitude": "-90.09556161040238",
    "latitude": "29.934334269584994",
    "geocoded_column": {
      "latitude": "29.934334269584994",
      "longitude": "-90.09556161040238"
    }
  },
  {
    "service_request": "2025-1181589",
    "request_type": "General Services",
    "request_reason": "General Service Request",
    "date_created": "2025-04-04T17:57:29.000",
    "date_modified": "2025-04-04T17:57:31.000",
    "request_status": "Pending",
    "responsible_agency": "Orleans Parish Communication District",
    "final_address": "100 S Cortez St",
    "address_councildis": "A",
    "status": "Pending",
    "rowid": "1181589",
    "final_x": "3672012.10247",
    "final_y": "537460.97812",
    "longitude": "-90.09782747505909",
    "latitude": "29.972116050114195",
    "geocoded_column": {
      "latitude": "29.972116050114195",
      "longitude": "-90.09782747505909"
    }
  },
  {
    "service_request": "2025-1181588",
    "request_type": "Utility Poles",
    "request_reason": "Wires Sagging/Hanging Low",
    "date_created": "2025-04-04T17:49:36.000",
    "date_modified": "2025-04-04T17:49:39.000",
    "request_status": "Pending",
    "responsible_agency": "Utility Company Collective",
    "final_address": "4732 St Claude Ave",
    "address_councildis": "E",
    "status": "Pending",
    "rowid": "1181588",
    "final_x": "3694923.81027",
    "final_y": "534435.078213",
    "longitude": "-90.02557791317464",
    "latitude": "29.963096716249932",
    "geocoded_column": {
      "latitude": "29.963096716249932",
      "longitude": "-90.02557791317464"
    }
  },
  {
    "service_request": "2025-1181587",
    "request_type": "Road Striping",
    "request_reason": "Lane Striping or other Pavement Markings",
    "date_created": "2025-04-04T17:48:43.000",
    "date_modified": "2025-04-04T17:48:45.000",
    "request_status": "Pending",
    "responsible_agency": "Department of Public Works",
    "final_address": "100 S Cortez St",
    "address_councildis": "A",
    "status": "Pending",
    "rowid": "1181587",
    "final_x": "3672012.10247",
    "final_y": "537460.97812",
    "longitude": "-90.09782747505909",
    "latitude": "29.972116050114195",
    "geocoded_column": {
      "latitude": "29.972116050114195",
      "longitude": "-90.09782747505909"
    }
  },
  {
    "service_request": "2025-1181586",
    "request_type": "Trash/Recycling",
    "request_reason": "Request a Large Item Pick Up",
    "date_created": "2025-04-04T17:40:14.000",
    "date_modified": "2025-04-04T17:40:16.000",
    "request_status": "Pending",
    "responsible_agency": "Department of Sanitation",
    "final_address": "812 Frenchmen St",
    "address_councildis": "C",
    "status": "Assigned to Contractor",
    "contractor": "IV Waste",
    "rowid": "1181586",
    "final_x": "3684635.05039",
    "final_y": "535319.065414",
    "longitude": "-90.05803746410008",
    "latitude": "29.965846246978117",
    "geocoded_column": {
      "latitude": "29.965846246978117",
      "longitude": "-90.05803746410008"
    }
  },
  {
    "service_request": "2025-1181585",
    "request_type": "Streetlights",
    "request_reason": "Streetlight Knocked Down/Leaning",
    "date_created": "2025-04-04T17:27:52.000",
    "date_modified": "2025-04-04T17:27:54.000",
    "request_status": "Pending",
    "responsible_agency": "Department of Public Works",
    "final_address": "1 St Maurice Ave",
    "address_councildis": "E",
    "status": "Pending",
    "contractor": "Legacy Professional Services",
    "rowid": "1181585",
    "final_x": "3700147.36484",
    "final_y": "533716.706565",
    "longitude": "-90.00910887653636",
    "latitude": "29.960956491674477",
    "geocoded_column": {
      "latitude": "29.960956491674477",
      "longitude": "-90.00910887653636"
    }
  },
  {
    "service_request": "2025-1181584",
    "request_type": "Trash/Recycling",
    "request_reason": "Request a Large Item Pick Up",
    "date_created": "2025-04-04T17:21:26.000",
    "date_modified": "2025-04-04T17:21:28.000",
    "request_status": "Pending",
    "responsible_agency": "Department of Sanitation",
    "final_address": "8023 Ebbtide Ct, New Orleans, Louisiana, 70126",
    "status": "Assigned to Contractor",
    "rowid": "1181584",
    "longitude": "0.0",
    "latitude": "0.0",
    "geocoded_column": {
      "latitude": "0.0",
      "longitude": "0.0"
    }
  },
  {
    "service_request": "2025-1181583",
    "request_type": "General Services",
    "request_reason": "General Service Request",
    "date_created": "2025-04-04T17:18:53.000",
    "date_modified": "2025-04-04T17:18:55.000",
    "request_status": "Pending",
    "responsible_agency": "Orleans Parish Communication District",
    "final_address": "6355 Colbert St",
    "address_councildis": "A",
    "status": "Pending",
    "rowid": "1181583",
    "final_x": "3667736.80468",
    "final_y": "549874.354708",
    "longitude": "-90.11091138344791",
    "latitude": "30.0063746624505",
    "geocoded_column": {
      "latitude": "30.0063746624505",
      "longitude": "-90.11091138344791"
    }
  },
  {
    "service_request": "2025-1181582",
    "request_type": "Trash/Recycling",
    "request_reason": "Request a Large Item Pick Up",
    "date_created": "2025-04-04T17:09:43.000",
    "date_modified": "2025-04-04T17:09:46.000",
    "request_status": "Pending",
    "responsible_agency": "Department of Sanitation",
    "final_address": "3525 Gibson St",
    "address_councildis": "D",
    "status": "Assigned to Contractor",
    "contractor": "IV Waste",
    "rowid": "1181582",
    "final_x": "3678948.51579",
    "final_y": "545315.307471",
    "longitude": "-90.0756488650686",
    "latitude": "29.993505249031422",
    "geocoded_column": {
      "latitude": "29.993505249031422",
      "longitude": "-90.0756488650686"
    }
  },
  {
    "service_request": "2025-1181581",
    "request_type": "Health Related Request",
    "request_reason": "Homeless Encampment Complaint",
    "date_created": "2025-04-04T16:54:23.000",
    "date_modified": "2025-04-04T16:54:29.000",
    "request_status": "Pending",
    "responsible_agency": "Health Department",
    "final_address": "5700 Read Blvd",
    "address_councildis": "E",
    "status": "Pending",
    "rowid": "1181581",
    "final_x": "3710002.44875",
    "final_y": "560091.278045",
    "longitude": "-89.97700281937084",
    "latitude": "30.033159679139082",
    "geocoded_column": {
      "latitude": "30.033159679139082",
      "longitude": "-89.97700281937084"
    }
  },
  {
    "service_request": "2025-1181580",
    "request_type": "Health Related Request",
    "request_reason": "Homeless Encampment Complaint",
    "date_created": "2025-04-04T16:47:29.000",
    "date_modified": "2025-04-04T16:47:31.000",
    "request_status": "Pending",
    "responsible_agency": "Health Department",
    "final_address": "5700 Read Blvd",
    "address_councildis": "E",
    "status": "Pending",
    "rowid": "1181580",
    "final_x": "3710002.44875",
    "final_y": "560091.278045",
    "longitude": "-89.97700281937084",
    "latitude": "30.033159679139082",
    "geocoded_column": {
      "latitude": "30.033159679139082",
      "longitude": "-89.97700281937084"
    }
  },
  {
    "service_request": "2025-1181579",
    "request_type": "Abandoned Vehicles",
    "request_reason": "Abandoned/Junk Vehicles",
    "date_created": "2025-04-04T16:35:54.000",
    "date_modified": "2025-04-04T16:35:56.000",
    "request_status": "Pending",
    "responsible_agency": "Department of Public Works",
    "final_address": "2730 Ursulines Ave",
    "address_councildis": "A",
    "status": "Pending",
    "rowid": "1181579",
    "final_x": "3677344.24546",
    "final_y": "538297.869897",
    "longitude": "-90.08095878574314",
    "latitude": "29.974258049711814",
    "geocoded_column": {
      "latitude": "29.974258049711814",
      "longitude": "-90.08095878574314"
    }
  },
  {
    "service_request": "2025-1181578",
    "request_type": "Abandoned Vehicles",
    "request_reason": "Abandoned/Junk Vehicles",
    "date_created": "2025-04-04T16:33:53.000",
    "date_modified": "2025-04-04T16:33:56.000",
    "request_status": "Pending",
    "responsible_agency": "Department of Public Works",
    "final_address": "2730 Ursulines Ave",
    "address_councildis": "A",
    "status": "Pending",
    "rowid": "1181578",
    "final_x": "3677344.24546",
    "final_y": "538297.869897",
    "longitude": "-90.08095878574314",
    "latitude": "29.974258049711814",
    "geocoded_column": {
      "latitude": "29.974258049711814",
      "longitude": "-90.08095878574314"
    }
  },
  {
    "service_request": "2025-1181577",
    "request_type": "Abandoned Vehicles",
    "request_reason": "Abandoned/Junk Vehicles",
    "date_created": "2025-04-04T16:32:24.000",
    "date_modified": "2025-04-04T16:32:26.000",
    "request_status": "Pending",
    "responsible_agency": "Department of Public Works",
    "final_address": "2730 Ursulines Ave",
    "address_councildis": "A",
    "status": "Pending",
    "rowid": "1181577",
    "final_x": "3677344.24546",
    "final_y": "538297.869897",
    "longitude": "-90.08095878574314",
    "latitude": "29.974258049711814",
    "geocoded_column": {
      "latitude": "29.974258049711814",
      "longitude": "-90.08095878574314"
    }
  },
  {
    "service_request": "2025-1181576",
    "request_type": "Trash/Recycling",
    "request_reason": "Replace Trash Cart",
    "date_created": "2025-04-04T16:30:31.000",
    "date_modified": "2025-04-04T16:30:34.000",
    "request_status": "Pending",
    "responsible_agency": "Department of Sanitation",
    "final_address": "2101 Rousseau St",
    "address_councildis": "B",
    "status": "Assigned to Contractor",
    "contractor": "IV Waste",
    "rowid": "1181576",
    "final_x": "3680483.89743",
    "final_y": "520536.234808",
    "longitude": "-90.07166069470726",
    "latitude": "29.925324793740835",
    "geocoded_column": {
      "latitude": "29.925324793740835",
      "longitude": "-90.07166069470726"
    }
  },
  {
    "service_request": "2025-1181575",
    "request_type": "Trash/Recycling",
    "request_reason": "Request a Large Item Pick Up",
    "date_created": "2025-04-04T16:25:20.000",
    "date_modified": "2025-04-04T16:25:24.000",
    "request_status": "Pending",
    "responsible_agency": "Department of Sanitation",
    "final_address": "20532 E Alba Rd",
    "address_councildis": "E",
    "status": "Assigned to Contractor",
    "contractor": "Waste Pro",
    "rowid": "1181575",
    "final_x": "3762022.476",
    "final_y": "573161.421801",
    "longitude": "-89.81207053112631",
    "latitude": "30.067300947772036",
    "geocoded_column": {
      "latitude": "30.067300947772036",
      "longitude": "-89.81207053112631"
    }
  },
  {
    "service_request": "2025-1181574",
    "request_type": "Trash/Recycling",
    "request_reason": "Missed Trash Pick-Up",
    "date_created": "2025-04-04T16:20:13.000",
    "date_modified": "2025-04-04T16:23:51.000",
    "case_close_date": "2025-04-04T11:23:50.000",
    "request_status": "Closed",
    "responsible_agency": "Department of Sanitation",
    "final_address": "500 BLK Washington Ave",
    "address_councildis": "B",
    "status": "Duplicate Request",
    "contractor": "IV Waste",
    "contractor_action": "Duplicate",
    "rowid": "1181574",
    "final_x": "3678044.65601",
    "final_y": "519325.910939",
    "longitude": "-90.07940242580376",
    "latitude": "29.922070421805188",
    "geocoded_column": {
      "latitude": "29.922070421805188",
      "longitude": "-90.07940242580376"
    }
  },
  {
    "service_request": "2025-1181573",
    "request_type": "Trash/Recycling",
    "request_reason": "Request a Large Item Pick Up",
    "date_created": "2025-04-04T16:19:23.000",
    "date_modified": "2025-04-04T16:19:25.000",
    "request_status": "Pending",
    "responsible_agency": "Department of Sanitation",
    "final_address": "22 Egret St",
    "address_councildis": "D",
    "status": "Assigned to Contractor",
    "contractor": "IV Waste",
    "rowid": "1181573",
    "final_x": "3673940.55227",
    "final_y": "554840.029848",
    "longitude": "-90.09114208964907",
    "latitude": "30.0198450595014",
    "geocoded_column": {
      "latitude": "30.0198450595014",
      "longitude": "-90.09114208964907"
    }
  },
  {
    "service_request": "2025-1181572",
    "request_type": "Trash/Recycling",
    "request_reason": "Missed Trash Pick-Up",
    "date_created": "2025-04-04T16:17:25.000",
    "date_modified": "2025-04-04T18:06:15.000",
    "case_close_date": "2025-04-04T13:06:14.000",
    "request_status": "Closed",
    "responsible_agency": "Department of Sanitation",
    "final_address": "512 Washington Ave",
    "address_councildis": "B",
    "status": "Invalid Request",
    "contractor": "IV Waste",
    "contractor_action": "Invalid Request",
    "rowid": "1181572",
    "final_x": "3678109.19496",
    "final_y": "519150.511095",
    "longitude": "-90.07920476309067",
    "latitude": "29.921586186860587",
    "geocoded_column": {
      "latitude": "29.921586186860587",
      "longitude": "-90.07920476309067"
    }
  },
  {
    "service_request": "2025-1181571",
    "request_type": "Trash/Recycling",
    "request_reason": "Illegal Dumping",
    "date_created": "2025-04-04T16:11:30.000",
    "date_modified": "2025-04-04T16:12:53.000",
    "request_status": "Pending",
    "responsible_agency": "Department of Sanitation",
    "final_address": "1828 Washington Ave",
    "address_councildis": "B",
    "status": "Pending",
    "rowid": "1181571",
    "final_x": "3675304.3844",
    "final_y": "523356.957947",
    "longitude": "-90.0879140282435",
    "latitude": "29.93323666860289",
    "geocoded_column": {
      "latitude": "29.93323666860289",
      "longitude": "-90.0879140282435"
    }
  },
  {
    "service_request": "2025-1181570",
    "request_type": "Trash/Recycling",
    "request_reason": "Request a Large Item Pick Up",
    "date_created": "2025-04-04T16:09:52.000",
    "date_modified": "2025-04-04T16:09:53.000",
    "request_status": "Pending",
    "responsible_agency": "Department of Sanitation",
    "final_address": "7559 Marquis St",
    "address_councildis": "E",
    "status": "Assigned to Contractor",
    "contractor": "Waste Pro",
    "rowid": "1181570",
    "final_x": "3711552.69042",
    "final_y": "565896.551267",
    "longitude": "-89.97188598103175",
    "latitude": "30.04907130470957",
    "geocoded_column": {
      "latitude": "30.04907130470957",
      "longitude": "-89.97188598103175"
    }
  },
  {
    "service_request": "2025-1181569",
    "request_type": "Trash/Recycling",
    "request_reason": "Request a Large Item Pick Up",
    "date_created": "2025-04-04T16:06:48.000",
    "date_modified": "2025-04-04T16:06:50.000",
    "request_status": "Pending",
    "responsible_agency": "Department of Sanitation",
    "final_address": "1731 N Dupre St",
    "address_councildis": "D",
    "status": "Assigned to Contractor",
    "contractor": "IV Waste",
    "rowid": "1181569",
    "final_x": "3679078.85967",
    "final_y": "541397.476684",
    "longitude": "-90.0753729969871",
    "latitude": "29.982728651188168",
    "geocoded_column": {
      "latitude": "29.982728651188168",
      "longitude": "-90.0753729969871"
    }
  },
  {
    "service_request": "2025-1181568",
    "request_type": "Trash/Recycling",
    "request_reason": "Request a Large Item Pick Up",
    "date_created": "2025-04-04T16:02:28.000",
    "date_modified": "2025-04-04T16:02:31.000",
    "request_status": "Pending",
    "responsible_agency": "Department of Sanitation",
    "final_address": "3304 Lamarque St",
    "address_councildis": "C",
    "status": "Assigned to Contractor",
    "contractor": "Richards Disposal",
    "rowid": "1181568",
    "final_x": "3696432.87139",
    "final_y": "526671.164158",
    "longitude": "-90.02109328294362",
    "latitude": "29.941701231243528",
    "geocoded_column": {
      "latitude": "29.941701231243528",
      "longitude": "-90.02109328294362"
    }
  },
  {
    "service_request": "2025-1181567",
    "request_type": "Trash/Recycling",
    "request_reason": "Request a Large Item Pick Up",
    "date_created": "2025-04-04T16:00:53.000",
    "date_modified": "2025-04-04T16:00:55.000",
    "request_status": "Pending",
    "responsible_agency": "Department of Sanitation",
    "final_address": "1110 Valmont St",
    "address_councildis": "B",
    "status": "Assigned to Contractor",
    "contractor": "IV Waste",
    "rowid": "1181567",
    "final_x": "3667561.31617",
    "final_y": "519486.984759",
    "longitude": "-90.11248865239399",
    "latitude": "29.922824611750997",
    "geocoded_column": {
      "latitude": "29.922824611750997",
      "longitude": "-90.11248865239399"
    }
  },
  {
    "service_request": "2025-1181566",
    "request_type": "Trash/Recycling",
    "request_reason": "Order Trash Cart",
    "date_created": "2025-04-04T15:59:27.000",
    "date_modified": "2025-04-04T15:59:28.000",
    "request_status": "Pending",
    "responsible_agency": "Department of Sanitation",
    "final_address": "221 Millaudon St",
    "address_councildis": "A",
    "status": "Assigned to Contractor",
    "contractor": "IV Waste",
    "rowid": "1181566",
    "final_x": "3661172.5008",
    "final_y": "523781.036411",
    "longitude": "-90.13251368550243",
    "latitude": "29.934817536425708",
    "geocoded_column": {
      "latitude": "29.934817536425708",
      "longitude": "-90.13251368550243"
    }
  },
  {
    "service_request": "2025-1181565",
    "request_type": "Trash/Recycling",
    "request_reason": "Request a Large Item Pick Up",
    "date_created": "2025-04-04T15:58:35.000",
    "date_modified": "2025-04-04T15:58:37.000",
    "request_status": "Pending",
    "responsible_agency": "Department of Sanitation",
    "final_address": "7940 Cynthia Dr",
    "address_councildis": "E",
    "status": "Assigned to Contractor",
    "contractor": "Waste Pro",
    "rowid": "1181565",
    "final_x": "3702321.51402",
    "final_y": "560456.240094",
    "longitude": "-90.00126175267742",
    "latitude": "30.034410939112213",
    "geocoded_column": {
      "latitude": "30.034410939112213",
      "longitude": "-90.00126175267742"
    }
  },
  {
    "service_request": "2025-1181564",
    "request_type": "Property Maintenance",
    "request_reason": "Property Maintenance",
    "date_created": "2025-04-04T15:51:05.000",
    "date_modified": "2025-04-04T15:51:06.000",
    "request_status": "Pending",
    "responsible_agency": "Department of Code Enforcement",
    "final_address": "8258 Lake Forest Blvd",
    "address_councildis": "E",
    "status": "Pending",
    "rowid": "1181564",
    "final_x": "3705238.57553",
    "final_y": "557036.30601",
    "longitude": "-89.99217000523349",
    "latitude": "30.02491388822137",
    "geocoded_column": {
      "latitude": "30.02491388822137",
      "longitude": "-89.99217000523349"
    }
  },
  {
    "service_request": "2025-1181563",
    "request_type": "Trash/Recycling",
    "request_reason": "Request a Large Item Pick Up",
    "date_created": "2025-04-04T15:50:39.000",
    "date_modified": "2025-04-04T15:50:42.000",
    "request_status": "Pending",
    "responsible_agency": "Department of Sanitation",
    "final_address": "1118 Orange St",
    "address_councildis": "B",
    "status": "Assigned to Contractor",
    "contractor": "IV Waste",
    "rowid": "1181563",
    "final_x": "3679919.82043",
    "final_y": "523495.636923",
    "longitude": "-90.073338582148",
    "latitude": "29.933479244861044",
    "geocoded_column": {
      "latitude": "29.933479244861044",
      "longitude": "-90.073338582148"
    }
  },
  {
    "service_request": "2025-1181562",
    "request_type": "Trash/Recycling",
    "request_reason": "Replace Trash Cart",
    "date_created": "2025-04-04T15:49:53.000",
    "date_modified": "2025-04-04T15:49:55.000",
    "request_status": "Pending",
    "responsible_agency": "Department of Sanitation",
    "final_address": "1402 Delery St",
    "address_councildis": "E",
    "status": "Assigned to Contractor",
    "contractor": "Waste Pro",
    "rowid": "1181562",
    "final_x": "3700840.33111",
    "final_y": "534045.670149",
    "longitude": "-90.00690860838613",
    "latitude": "29.961838985063952",
    "geocoded_column": {
      "latitude": "29.961838985063952",
      "longitude": "-90.00690860838613"
    }
  },
  {
    "service_request": "2025-1181561",
    "request_type": "Trash/Recycling",
    "request_reason": "Request a Large Item Pick Up",
    "date_created": "2025-04-04T15:49:42.000",
    "date_modified": "2025-04-04T15:49:45.000",
    "request_status": "Pending",
    "responsible_agency": "Department of Sanitation",
    "final_address": "2821 General Collins Ave",
    "address_councildis": "C",
    "status": "Assigned to Contractor",
    "contractor": "Richards Disposal",
    "rowid": "1181561",
    "final_x": "3698304.82301",
    "final_y": "520864.144057",
    "longitude": "-90.0153940611707",
    "latitude": "29.925674851023857",
    "geocoded_column": {
      "latitude": "29.925674851023857",
      "longitude": "-90.0153940611707"
    }
  },
  {
    "service_request": "2025-1181560",
    "request_type": "Roads and Streets",
    "request_reason": "Pothole",
    "date_created": "2025-04-04T15:46:42.000",
    "date_modified": "2025-04-04T15:46:44.000",
    "request_status": "Pending",
    "responsible_agency": "Department of Public Works",
    "final_address": "7026 S Claiborne Ave",
    "address_councildis": "A",
    "status": "Pending",
    "rowid": "1181560",
    "final_x": "3666411.97549",
    "final_y": "529160.377088",
    "longitude": "-90.1157922237702",
    "latitude": "29.949456972113836",
    "geocoded_column": {
      "latitude": "29.949456972113836",
      "longitude": "-90.1157922237702"
    }
  },
  {
    "service_request": "2025-1181559",
    "request_type": "Trash/Recycling",
    "request_reason": "Replace Recycling Cart",
    "date_created": "2025-04-04T15:46:13.000",
    "date_modified": "2025-04-04T15:46:16.000",
    "request_status": "Pending",
    "responsible_agency": "Department of Sanitation",
    "final_address": "629 Alix St",
    "address_councildis": "C",
    "status": "Pending",
    "rowid": "1181559",
    "final_x": "3687475.50249",
    "final_y": "530312.081666",
    "longitude": "-90.04924462754893",
    "latitude": "29.95199153888767",
    "geocoded_column": {
      "latitude": "29.95199153888767",
      "longitude": "-90.04924462754893"
    }
  },
  {
    "service_request": "2025-1181558",
    "request_type": "Roads and Streets",
    "request_reason": "Pothole",
    "date_created": "2025-04-04T15:45:37.000",
    "date_modified": "2025-04-04T15:45:38.000",
    "request_status": "Pending",
    "responsible_agency": "Department of Public Works",
    "final_address": "OAK ST & EAGLE ST",
    "address_councildis": "A",
    "status": "Pending",
    "rowid": "1181558",
    "final_x": "3660129.3",
    "final_y": "530043.78",
    "longitude": "-90.13560040574403",
    "latitude": "29.952068114889247",
    "geocoded_column": {
      "latitude": "29.952068114889247",
      "longitude": "-90.13560040574403"
    }
  },
  {
    "service_request": "2025-1181557",
    "request_type": "Trash/Recycling",
    "request_reason": "Missed Trash Pick-Up",
    "date_created": "2025-04-04T15:44:36.000",
    "date_modified": "2025-04-04T18:51:19.000",
    "case_close_date": "2025-04-04T13:51:15.000",
    "request_status": "Closed",
    "responsible_agency": "Department of Sanitation",
    "final_address": "1402 Delery St",
    "address_councildis": "E",
    "status": "Invalid Request",
    "contractor": "Waste Pro",
    "contractor_action": "Invalid",
    "rowid": "1181557",
    "final_x": "3700840.33111",
    "final_y": "534045.670149",
    "longitude": "-90.00690860838613",
    "latitude": "29.961838985063952",
    "geocoded_column": {
      "latitude": "29.961838985063952",
      "longitude": "-90.00690860838613"
    }
  },
  {
    "service_request": "2025-1181556",
    "request_type": "Trash/Recycling",
    "request_reason": "Replace Trash Cart",
    "date_created": "2025-04-04T15:44:09.000",
    "date_modified": "2025-04-04T15:44:10.000",
    "request_status": "Pending",
    "responsible_agency": "Department of Sanitation",
    "final_address": "629 Alix St",
    "address_councildis": "C",
    "status": "Assigned to Contractor",
    "contractor": "Richards Disposal",
    "rowid": "1181556",
    "final_x": "3687475.50249",
    "final_y": "530312.081666",
    "longitude": "-90.04924462754893",
    "latitude": "29.95199153888767",
    "geocoded_column": {
      "latitude": "29.95199153888767",
      "longitude": "-90.04924462754893"
    }
  },
  {
    "service_request": "2025-1181555",
    "request_type": "Trash/Recycling",
    "request_reason": "Repair Trash Cart",
    "date_created": "2025-04-04T15:33:27.000",
    "date_modified": "2025-04-04T15:33:29.000",
    "request_status": "Pending",
    "responsible_agency": "Department of Sanitation",
    "final_address": "5116 N Miro St",
    "address_councildis": "E",
    "status": "Assigned to Contractor",
    "contractor": "Waste Pro",
    "rowid": "1181555",
    "final_x": "3697523.46915",
    "final_y": "538190.484489",
    "longitude": "-90.01723233548113",
    "latitude": "29.97334090167188",
    "geocoded_column": {
      "latitude": "29.97334090167188",
      "longitude": "-90.01723233548113"
    }
  },
  {
    "service_request": "2025-1181554",
    "request_type": "Trash/Recycling",
    "request_reason": "Repair Trash Cart",
    "date_created": "2025-04-04T15:31:58.000",
    "date_modified": "2025-04-04T15:32:00.000",
    "request_status": "Pending",
    "responsible_agency": "Department of Sanitation",
    "final_address": "5701 Rhodes Ave",
    "address_councildis": "C",
    "status": "Assigned to Contractor",
    "contractor": "Richards Disposal",
    "rowid": "1181554",
    "final_x": "3704424.90385",
    "final_y": "519718.179768",
    "longitude": "-89.9961171907915",
    "latitude": "29.922328871507645",
    "geocoded_column": {
      "latitude": "29.922328871507645",
      "longitude": "-89.9961171907915"
    }
  },
  {
    "service_request": "2025-1181553",
    "request_type": "Abandoned Vehicles",
    "request_reason": "Abandoned/Junk Vehicles",
    "date_created": "2025-04-04T15:31:39.000",
    "date_modified": "2025-04-04T15:31:40.000",
    "request_status": "Pending",
    "responsible_agency": "Department of Public Works",
    "final_address": "4659 Nottingham Dr",
    "address_councildis": "E",
    "status": "Pending",
    "rowid": "1181553",
    "final_x": "3716517.27263",
    "final_y": "556476.09961",
    "longitude": "-89.95655284089473",
    "latitude": "30.0230057346418",
    "geocoded_column": {
      "latitude": "30.0230057346418",
      "longitude": "-89.95655284089473"
    }
  },
  {
    "service_request": "2025-1181552",
    "request_type": "Trash/Recycling",
    "request_reason": "Order Recycling Cart",
    "date_created": "2025-04-04T15:29:49.000",
    "date_modified": "2025-04-04T15:29:51.000",
    "request_status": "Pending",
    "responsible_agency": "Department of Sanitation",
    "final_address": "3115 Burgundy St",
    "address_councildis": "C",
    "status": "Pending",
    "rowid": "1181552",
    "final_x": "3688940.56649",
    "final_y": "535204.34215",
    "longitude": "-90.04444490016739",
    "latitude": "29.965398333579937",
    "geocoded_column": {
      "latitude": "29.965398333579937",
      "longitude": "-90.04444490016739"
    }
  },
  {
    "service_request": "2025-1181551",
    "request_type": "Parks & Parkways",
    "request_reason": "Request Tree Service (Right of Way/Public Property)",
    "date_created": "2025-04-04T15:27:41.000",
    "date_modified": "2025-04-04T15:27:44.000",
    "request_status": "Pending",
    "responsible_agency": "Department of Parks & Parkway",
    "final_address": "2238 Fats Domino Ave",
    "address_councildis": "E",
    "status": "Pending",
    "rowid": "1181551",
    "final_x": "3699171.07658",
    "final_y": "538213.598665",
    "longitude": "-90.01202804449794",
    "latitude": "29.9733523193546",
    "geocoded_column": {
      "latitude": "29.9733523193546",
      "longitude": "-90.01202804449794"
    }
  },
  {
    "service_request": "2025-1181550",
    "request_type": "Property Maintenance",
    "request_reason": "Property Maintenance",
    "date_created": "2025-04-04T15:27:33.000",
    "date_modified": "2025-04-04T15:27:35.000",
    "request_status": "Pending",
    "responsible_agency": "Department of Code Enforcement",
    "final_address": "5108 Sandhurst Dr",
    "address_councildis": "E",
    "status": "Pending",
    "rowid": "1181550",
    "final_x": "3705097.04369",
    "final_y": "556725.911706",
    "longitude": "-89.9926286951745",
    "latitude": "30.024064978491367",
    "geocoded_column": {
      "latitude": "30.024064978491367",
      "longitude": "-89.9926286951745"
    }
  },