[
  {
    "service_request": "2022-915819",
    "request_type": "Traffic Signals/Signs/Striping/Streetlights",
    "request_reason": "Street Light Outage/Malfunction",
    "date_created": "2022-09-02T00:38:23.000",
    "date_modified": "2022-09-02T00:38:24.000",
    "request_status": "Pending",
    "responsible_agency": "Department of Public Works",
    "final_address": "7500 Jonlee Dr",
    "address_councildis": "E",
    "status": "Pending",
    "contractor": "Legacy Professional Services",
    "rowid": "915819",
    "final_x": "3717487.51224",
    "final_y": "569870.57783",
    "longitude": "-89.95297728110366",
    "latitude": "30.059803012119666",
    "geocoded_column": {
      "latitude": "30.059803012119666",
      "longitude": "-89.95297728110366"
    }
  },
  {
    "service_request": "2022-915818",
    "request_type": "Traffic Signals/Signs/Striping/Streetlights",
    "request_reason": "Street Light Outage/Malfunction",
    "date_created": "2022-09-02T00:36:12.000",
    "date_modified": "2022-09-02T00:36:13.000",
    "request_status": "Pending",
    "responsible_agency": "Department of Public Works",
    "final_address": "7600 Gannon Rd",
    "address_councildis": "E",
    "status": "Pending",
    "contractor": "Legacy Professional Services",
    "rowid": "915818",
    "final_x": "3716469.08671",
    "final_y": "569659.73431",
    "longitude": "-89.95620443875303",
    "latitude": "30.059256974348585",
    "geocoded_column": {
      "latitude": "30.059256974348585",
      "longitude": "-89.95620443875303"
    }
  },
  {
    "service_request": "2022-915817",
    "request_type": "Traffic Signals/Signs/Striping/Streetlights",
    "request_reason": "Street Light Outage/Malfunction",
    "date_created": "2022-09-02T00:34:35.000",
    "date_modified": "2022-09-02T00:34:36.000",
    "request_status": "Pending",
    "responsible_agency": "Department of Public Works",
    "final_address": "7500 Bullard Ave",
    "address_councildis": "E",
    "status": "Pending",
    "contractor": "Legacy Professional Services",
    "rowid": "915817",
    "final_x": "3713397.11979",
    "final_y": "566755.044771",
    "longitude": "-89.96602415621832",
    "latitude": "30.05137142606786",
    "geocoded_column": {
      "latitude": "30.05137142606786",
      "longitude": "-89.96602415621832"
    }
  },
  {
    "service_request": "2022-915816",
    "request_type": "Property Maintenance",
    "request_reason": "Property Maintenance",
    "date_created": "2022-09-02T00:32:49.000",
    "date_modified": "2022-09-02T00:32:49.000",
    "request_status": "Pending",
    "responsible_agency": "Department of Code Enforcement",
    "final_address": "11900 Morrison Rd",
    "address_councildis": "E",
    "status": "Pending",
    "rowid": "915816",
    "final_x": "3713772.89419",
    "final_y": "566695.978467",
    "longitude": "-89.96483869755869",
    "latitude": "30.051196683083706",
    "geocoded_column": {
      "latitude": "30.051196683083706",
      "longitude": "-89.96483869755869"
    }
  },
  {
    "service_request": "2022-915815",
    "request_type": "Trash/Recycling",
    "request_reason": "Missed Trash Pick-Up",
    "date_created": "2022-09-02T00:25:28.000",
    "date_modified": "2022-09-02T01:39:56.000",
    "case_close_date": "2022-09-01T20:39:56.000",
    "request_status": "Closed",
    "responsible_agency": "Department of Sanitation",
    "final_address": "2305 Washington Ave",
    "address_councildis": "B",
    "status": "Resolved",
    "contractor": "Richards Disposal",
    "rowid": "915815",
    "final_x": "3674543.3236",
    "final_y": "524690.378236",
    "longitude": "-90.09027098473226",
    "latitude": "29.93692586350669",
    "geocoded_column": {
      "latitude": "29.93692586350669",
      "longitude": "-90.09027098473226"
    }
  },
  {
    "service_request": "2022-915814",
    "request_type": "Abandoned Vehicles",
    "request_reason": "Vehicle Blocking Your Driveway",
    "date_created": "2022-09-02T00:01:31.000",
    "date_modified": "2022-09-02T00:01:31.000",
    "request_status": "Pending",
    "responsible_agency": "Department of Public Works",
    "final_address": "950 Wilson Dr",
    "address_councildis": "A",
    "status": "Pending",
    "rowid": "915814",
    "final_x": "3674182.00507",
    "final_y": "540254.494475",
    "longitude": "-90.09087888970289",
    "latitude": "29.97973275521195",
    "geocoded_column": {
      "latitude": "29.97973275521195",
      "longitude": "-90.09087888970289"
    }
  },
  {
    "service_request": "2022-915813",
    "request_type": "Trash/Recycling",
    "request_reason": "MIssed Recycling Pick-Up",
    "date_created": "2022-09-01T23:19:29.000",
    "date_modified": "2022-09-01T23:19:30.000",
    "request_status": "Pending",
    "responsible_agency": "Department of Sanitation",
    "final_address": "2329 General Meyer Ave",
    "address_councildis": "C",
    "status": "Assigned to Contractor",
    "contractor": "Richards Disposal",
    "rowid": "915813",
    "final_x": "3692652.05296",
    "final_y": "527621.965631",
    "longitude": "-90.03299598049206",
    "latitude": "29.944434123735533",
    "geocoded_column": {
      "latitude": "29.944434123735533",
      "longitude": "-90.03299598049206"
    }
  },
  {
    "service_request": "2022-915812",
    "request_type": "Roads/Drainage",
    "request_reason": "Street Flooding / Drainage",
    "date_created": "2022-09-01T23:08:53.000",
    "date_modified": "2022-09-01T23:08:53.000",
    "request_status": "Pending",
    "responsible_agency": "Department of Public Works",
    "final_address": "204 Cherokee St",
    "address_councildis": "A",
    "status": "Pending",
    "rowid": "915812",
    "final_x": "3661006.51098",
    "final_y": "524231.507772",
    "longitude": "-90.13302281843323",
    "latitude": "29.93606097296627",
    "geocoded_column": {
      "latitude": "29.93606097296627",
      "longitude": "-90.13302281843323"
    }
  },
  {
    "service_request": "2022-915811",
    "request_type": "Trash/Recycling",
    "request_reason": "Missed Trash Pick-Up",
    "date_created": "2022-09-01T23:04:00.000",
    "date_modified": "2022-09-01T23:04:00.000",
    "request_status": "Pending",
    "responsible_agency": "Department of Sanitation",
    "final_address": "1123 France St",
    "address_councildis": "C",
    "status": "Assigned to Contractor",
    "contractor": "Metro Disposal",
    "rowid": "915811",
    "final_x": "3692492.58192",
    "final_y": "535435.640262",
    "longitude": "-90.03321955958957",
    "latitude": "29.96592398263895",
    "geocoded_column": {
      "latitude": "29.96592398263895",
      "longitude": "-90.03321955958957"
    }
  },
  {
    "service_request": "2022-915810",
    "request_type": "Trash/Recycling",
    "request_reason": "Missed Trash Pick-Up",
    "date_created": "2022-09-01T22:52:41.000",
    "date_modified": "2022-09-01T22:52:42.000",
    "request_status": "Pending",
    "responsible_agency": "Department of Sanitation",
    "final_address": "2629 Eton St",
    "address_councildis": "C",
    "status": "Assigned to Contractor",
    "contractor": "Richards Disposal",
    "rowid": "915810",
    "final_x": "3703893.11934",
    "final_y": "521250.737401",
    "longitude": "-89.99773941628024",
    "latitude": "29.926559927227427",
    "geocoded_column": {
      "latitude": "29.926559927227427",
      "longitude": "-89.99773941628024"
    }
  },
  {
    "service_request": "2022-915809",
    "request_type": "Traffic Signals/Signs/Striping/Streetlights",
    "request_reason": "Street Light Outage/Malfunction",
    "date_created": "2022-09-01T22:30:52.000",
    "date_modified": "2022-09-01T22:30:53.000",
    "request_status": "Pending",
    "responsible_agency": "Department of Public Works",
    "final_address": "205 River Oaks Dr",
    "address_councildis": "C",
    "status": "Pending",
    "contractor": "Legacy Professional Services",
    "rowid": "915809",
    "final_x": "3701545.14788",
    "final_y": "523277.056763",
    "longitude": "-90.00507711572857",
    "latitude": "29.932206647310906",
    "geocoded_column": {
      "latitude": "29.932206647310906",
      "longitude": "-90.00507711572857"
    }
  },
  {
    "service_request": "2022-915808",
    "request_type": "Trash/Recycling",
    "request_reason": "Replace Trash Cart",
    "date_created": "2022-09-01T22:23:27.000",
    "date_modified": "2022-09-01T22:23:28.000",
    "request_status": "Pending",
    "responsible_agency": "Department of Sanitation",
    "final_address": "7836 Nelson St",
    "address_councildis": "A",
    "status": "Assigned to Contractor",
    "contractor": "Richards Disposal",
    "rowid": "915808",
    "final_x": "3665705.8786",
    "final_y": "531260.180546",
    "longitude": "-90.1179513734152",
    "latitude": "29.95525136067576",
    "geocoded_column": {
      "latitude": "29.95525136067576",
      "longitude": "-90.1179513734152"
    }
  },
  {
    "service_request": "2022-915807",
    "request_type": "Trash/Recycling",
    "request_reason": "Missed Trash Pick-Up",
    "date_created": "2022-09-01T22:22:21.000",
    "date_modified": "2022-09-01T22:22:22.000",
    "request_status": "Pending",
    "responsible_agency": "Department of Sanitation",
    "final_address": "7836 Nelson St",
    "address_councildis": "A",
    "status": "Assigned to Contractor",
    "contractor": "Richards Disposal",
    "rowid": "915807",
    "final_x": "3665705.8786",
    "final_y": "531260.180546",
    "longitude": "-90.1179513734152",
    "latitude": "29.95525136067576",
    "geocoded_column": {
      "latitude": "29.95525136067576",
      "longitude": "-90.1179513734152"
    }
  },
  {
    "service_request": "2022-915806",
    "request_type": "Trash/Recycling",
    "request_reason": "Start Trash Service",
    "date_created": "2022-09-01T22:21:21.000",
    "date_modified": "2022-09-01T22:21:22.000",
    "request_status": "Pending",
    "responsible_agency": "Department of Sanitation",
    "final_address": "7836 Nelson St",
    "address_councildis": "A",
    "status": "Assigned to Contractor",
    "contractor": "Richards Disposal",
    "rowid": "915806",
    "final_x": "3665705.8786",
    "final_y": "531260.180546",
    "longitude": "-90.1179513734152",
    "latitude": "29.95525136067576",
    "geocoded_column": {
      "latitude": "29.95525136067576",
      "longitude": "-90.1179513734152"
    }
  },
  {
    "service_request": "2022-915805",
    "request_type": "Traffic Signals/Signs/Striping/Streetlights",
    "request_reason": "Street Light Outage/Malfunction",
    "date_created": "2022-09-01T22:18:20.000",
    "date_modified": "2022-09-01T22:18:20.000",
    "request_status": "Pending",
    "responsible_agency": "Department of Public Works",
    "final_address": "7464 Benjamin St",
    "address_councildis": "A",
    "status": "Pending",
    "contractor": "Legacy Professional Services",
    "rowid": "915805",
    "final_x": "3661473.89862",
    "final_y": "524496.032124",
    "longitude": "-90.13153849727155",
    "latitude": "29.93677486060675",
    "geocoded_column": {
      "latitude": "29.93677486060675",
      "longitude": "-90.13153849727155"
    }
  },
  {
    "service_request": "2022-915804",
    "request_type": "Trash/Recycling",
    "request_reason": "MIssed Recycling Pick-Up",
    "date_created": "2022-09-01T21:40:05.000",
    "date_modified": "2022-09-01T21:40:06.000",
    "request_status": "Pending",
    "responsible_agency": "Department of Sanitation",
    "final_address": "5026 Loyola Ave",
    "address_councildis": "B",
    "status": "Assigned to Contractor",
    "contractor": "Richards Disposal",
    "rowid": "915804",
    "final_x": "3668572.8779",
    "final_y": "522828.316283",
    "longitude": "-90.10918285886576",
    "latitude": "29.93198253673753",
    "geocoded_column": {
      "latitude": "29.93198253673753",
      "longitude": "-90.10918285886576"
    }
  },
  {
    "service_request": "2022-915802",
    "request_type": "Trash/Recycling",
    "request_reason": "Replace Trash Cart",
    "date_created": "2022-09-01T21:33:10.000",
    "date_modified": "2022-09-01T21:33:10.000",
    "request_status": "Pending",
    "responsible_agency": "Department of Sanitation",
    "final_address": "5700 Durham Dr",
    "address_councildis": "C",
    "status": "Assigned to Contractor",
    "contractor": "Richards Disposal",
    "rowid": "915802",
    "final_x": "3705108.06321",
    "final_y": "518888.382391",
    "longitude": "-89.99399137022776",
    "latitude": "29.920025276796313",
    "geocoded_column": {
      "latitude": "29.920025276796313",
      "longitude": "-89.99399137022776"
    }
  },
  {
    "service_request": "2022-915801",
    "request_type": "Trash/Recycling",
    "request_reason": "Order Recycling Cart",
    "date_created": "2022-09-01T21:32:37.000",
    "date_modified": "2022-09-01T21:32:37.000",
    "request_status": "Pending",
    "responsible_agency": "Department of Sanitation",
    "final_address": "1612 Gentilly Blvd",
    "address_councildis": "D",
    "status": "Pending",
    "rowid": "915801",
    "final_x": "3678506.73026",
    "final_y": "540752.866443",
    "longitude": "-90.07720238889529",
    "latitude": "29.980973455182728",
    "geocoded_column": {
      "latitude": "29.980973455182728",
      "longitude": "-90.07720238889529"
    }
  },
  {
    "service_request": "2022-915800",
    "request_type": "Property Maintenance",
    "request_reason": "Property Maintenance",
    "date_created": "2022-09-01T21:27:36.000",
    "date_modified": "2022-09-01T21:27:36.000",
    "request_status": "Pending",
    "responsible_agency": "Department of Code Enforcement",
    "final_address": "4427 DHemecourt St",
    "address_councildis": "A",
    "status": "Pending",
    "rowid": "915800",
    "final_x": "3668631.33498",
    "final_y": "537767.399304",
    "longitude": "-90.10849418881416",
    "latitude": "29.97305840649281",
    "geocoded_column": {
      "latitude": "29.97305840649281",
      "longitude": "-90.10849418881416"
    }
  },
  {
    "service_request": "2022-915799",
    "request_type": "Trash/Recycling",
    "request_reason": "Missed Trash Pick-Up",
    "date_created": "2022-09-01T21:18:27.000",
    "date_modified": "2022-09-01T21:18:27.000",
    "request_status": "Pending",
    "responsible_agency": "Department of Sanitation",
    "final_address": "1241 Louisa St",
    "address_councildis": "C",
    "status": "Assigned to Contractor",
    "contractor": "Metro Disposal",
    "rowid": "915799",
    "final_x": "3689769.20848",
    "final_y": "536543.812295",
    "longitude": "-90.04178041706983",
    "latitude": "29.96905575152679",
    "geocoded_column": {
      "latitude": "29.96905575152679",
      "longitude": "-90.04178041706983"
    }
  },
  {
    "service_request": "2022-915798",
    "request_type": "Trash/Recycling",
    "request_reason": "Order Trash Cart",
    "date_created": "2022-09-01T20:45:33.000",
    "date_modified": "2022-09-01T20:45:34.000",
    "request_status": "Pending",
    "responsible_agency": "Department of Sanitation",
    "final_address": "7601 Plum St",
    "address_councildis": "A",
    "status": "Assigned to Contractor",
    "contractor": "Richards Disposal",
    "rowid": "915798",
    "final_x": "3663537.27155",
    "final_y": "527475.967295",
    "longitude": "-90.12492508518777",
    "latitude": "29.944909064273364",
    "geocoded_column": {
      "latitude": "29.944909064273364",
      "longitude": "-90.12492508518777"
    }
  },
  {
    "service_request": "2022-915797",
    "request_type": "Traffic Signals/Signs/Striping/Streetlights",
    "request_reason": "Street Light Outage/Malfunction",
    "date_created": "2022-09-01T20:41:16.000",
    "date_modified": "2022-09-01T20:42:00.000",
    "request_status": "Pending",
    "responsible_agency": "Department of Public Works",
    "final_address": "11 Fortress Rd",
    "address_councildis": "D",
    "status": "Pending",
    "contractor": "Legacy Professional Services",
    "rowid": "915797",
    "final_x": "3676531.5275",
    "final_y": "554558.107224",
    "longitude": "-90.08296515783212",
    "latitude": "30.018992386574578",
    "geocoded_column": {
      "latitude": "30.018992386574578",
      "longitude": "-90.08296515783212"
    }
  },
  {
    "service_request": "2022-915795",
    "request_type": "Mosquito, Termite & Rodent Control",
    "request_reason": "Non-Rodent Complaint (Mice, Possums, Snakes)",
    "date_created": "2022-09-01T20:28:12.000",
    "date_modified": "2022-09-01T20:28:12.000",
    "request_status": "Pending",
    "responsible_agency": "Mosquito, Termite & Rodent Control Board",
    "final_address": "7861 Scottwood Dr",
    "address_councildis": "E",
    "status": "Pending",
    "rowid": "915795",
    "final_x": "3716431.62156",
    "final_y": "571955.108584",
    "longitude": "-89.9562356638789",
    "latitude": "30.06556953804076",
    "geocoded_column": {
      "latitude": "30.06556953804076",
      "longitude": "-89.9562356638789"
    }
  },
  {
    "service_request": "2022-915794",
    "request_type": "Trash/Recycling",
    "request_reason": "Order Recycling Cart",
    "date_created": "2022-09-01T20:22:28.000",
    "date_modified": "2022-09-01T20:22:28.000",
    "request_status": "Pending",
    "responsible_agency": "Department of Sanitation",
    "final_address": "5514 Laurel St",
    "address_councildis": "A",
    "status": "Pending",
    "rowid": "915794",
    "final_x": "3666083.38048",
    "final_y": "517829.268726",
    "longitude": "-90.11720946932336",
    "latitude": "29.91830962832792",
    "geocoded_column": {
      "latitude": "29.91830962832792",
      "longitude": "-90.11720946932336"
    }
  },
  {
    "service_request": "2022-915793",
    "request_type": "Traffic Signals/Signs/Striping/Streetlights",
    "request_reason": "Traffic Sign Missing/Damaged",
    "date_created": "2022-09-01T20:10:20.000",
    "date_modified": "2022-09-01T20:10:20.000",
    "request_status": "Pending",
    "responsible_agency": "Department of Public Works",
    "final_address": "1849 Shirley Dr",
    "address_councildis": "C",
    "status": "Pending",
    "rowid": "915793",
    "final_x": "3692859.29053",
    "final_y": "522521.142074",
    "longitude": "-90.03252450245756",
    "latitude": "29.93040213480876",
    "geocoded_column": {
      "latitude": "29.93040213480876",
      "longitude": "-90.03252450245756"
    }
  },
  {
    "service_request": "2022-915792",
    "request_type": "Traffic Signals/Signs/Striping/Streetlights",
    "request_reason": "Street Light Outage/Malfunction",
    "date_created": "2022-09-01T20:09:56.000",
    "date_modified": "2022-09-01T20:09:57.000",
    "request_status": "Pending",
    "responsible_agency": "Department of Public Works",
    "final_address": "MARQUIS ST & CURRAN BLVD",
    "address_councildis": "E",
    "status": "Pending",
    "contractor": "Legacy Professional Services",
    "rowid": "915792",
    "final_x": "3711090.8",
    "final_y": "566500.68",
    "longitude": "-89.97332315591635",
    "latitude": "30.050747496054413",
    "geocoded_column": {
      "latitude": "30.050747496054413",
      "longitude": "-89.97332315591635"
    }
  },
  {
    "service_request": "2022-915791",
    "request_type": "Trash/Recycling",
    "request_reason": "Missed Trash Pick-Up",
    "date_created": "2022-09-01T19:50:56.000",
    "date_modified": "2022-09-01T19:50:57.000",
    "request_status": "Pending",
    "responsible_agency": "Department of Sanitation",
    "final_address": "1235 Constance St",
    "address_councildis": "B",
    "status": "Assigned to Contractor",
    "contractor": "Richards Disposal",
    "rowid": "915791",
    "final_x": "3680897.28527",
    "final_y": "525255.723197",
    "longitude": "-90.07019152936448",
    "latitude": "29.938289308260263",
    "geocoded_column": {
      "latitude": "29.938289308260263",
      "longitude": "-90.07019152936448"
    }
  },
  {
    "service_request": "2022-915790",
    "request_type": "Trash/Recycling",
    "request_reason": "Missed Trash Pick-Up",
    "date_created": "2022-09-01T19:50:02.000",
    "date_modified": "2022-09-01T19:50:02.000",
    "request_status": "Pending",
    "responsible_agency": "Department of Sanitation",
    "final_address": "1241 Constance St",
    "address_councildis": "B",
    "status": "Assigned to Contractor",
    "contractor": "Richards Disposal",
    "rowid": "915790",
    "final_x": "3680888.57999",
    "final_y": "525219.218237",
    "longitude": "-90.0702202832014",
    "latitude": "29.938189195610676",
    "geocoded_column": {
      "latitude": "29.938189195610676",
      "longitude": "-90.0702202832014"
    }
  },
  {
    "service_request": "2022-915789",
    "request_type": "Trash/Recycling",
    "request_reason": "Missed Trash Pick-Up",
    "date_created": "2022-09-01T19:49:04.000",
    "date_modified": "2022-09-01T19:49:05.000",
    "request_status": "Pending",
    "responsible_agency": "Department of Sanitation",
    "final_address": "1239 Constance St",
    "address_councildis": "B",
    "status": "Assigned to Contractor",
    "contractor": "Richards Disposal",
    "rowid": "915789",
    "final_x": "3680891.55976",
    "final_y": "525230.147517",
    "longitude": "-90.07021049543229",
    "latitude": "29.938219157181614",
    "geocoded_column": {
      "latitude": "29.938219157181614",
      "longitude": "-90.07021049543229"
    }
  },
  {
    "service_request": "2022-915788",
    "request_type": "Trash/Recycling",
    "request_reason": "Missed Trash Pick-Up",
    "date_created": "2022-09-01T19:45:15.000",
    "date_modified": "2022-09-01T19:45:15.000",
    "request_status": "Pending",
    "responsible_agency": "Department of Sanitation",
    "final_address": "2500 Caffin Ave",
    "address_councildis": "E",
    "status": "Assigned to Contractor",
    "contractor": "Metro Disposal",
    "rowid": "915788",
    "final_x": "3699406.48336",
    "final_y": "539214.37601",
    "longitude": "-90.01124811827164",
    "latitude": "29.976096628677436",
    "geocoded_column": {
      "latitude": "29.976096628677436",
      "longitude": "-90.01124811827164"
    }
  },
  {
    "service_request": "2022-915787",
    "request_type": "Trash/Recycling",
    "request_reason": "Order Recycling Cart",
    "date_created": "2022-09-01T19:44:45.000",
    "date_modified": "2022-09-01T19:44:45.000",
    "request_status": "Pending",
    "responsible_agency": "Department of Sanitation",
    "final_address": "407 S Pierce St",
    "address_councildis": "A",
    "status": "Pending",
    "rowid": "915787",
    "final_x": "3670648.27732",
    "final_y": "537030.489224",
    "longitude": "-90.10214928033112",
    "latitude": "29.970972715041356",
    "geocoded_column": {
      "latitude": "29.970972715041356",
      "longitude": "-90.10214928033112"
    }
  },
  {
    "service_request": "2022-915786",
    "request_type": "Traffic Signals/Signs/Striping/Streetlights",
    "request_reason": "Street Light Outage/Malfunction",
    "date_created": "2022-09-01T19:42:32.000",
    "date_modified": "2022-09-01T19:42:33.000",
    "request_status": "Pending",
    "responsible_agency": "Department of Public Works",
    "final_address": "New Orleans, Louisiana",
    "status": "Pending",
    "contractor": "Legacy Professional Services",
    "rowid": "915786",
    "longitude": "0.0",
    "latitude": "0.0",
    "geocoded_column": {
      "latitude": "0.0",
      "longitude": "0.0"
    }
  },
  {
    "service_request": "2022-915785",
    "request_type": "Trash/Recycling",
    "request_reason": "MIssed Recycling Pick-Up",
    "date_created": "2022-09-01T19:33:55.000",
    "date_modified": "2022-09-01T19:33:56.000",
    "request_status": "Pending",
    "responsible_agency": "Department of Sanitation",
    "final_address": "2716 Magazine St",
    "address_councildis": "B",
    "status": "Assigned to Contractor",
    "contractor": "Richards Disposal",
    "rowid": "915785",
    "final_x": "3677218.3396",
    "final_y": "520856.278713",
    "longitude": "-90.08195800683177",
    "latitude": "29.926303275937578",
    "geocoded_column": {
      "latitude": "29.926303275937578",
      "longitude": "-90.08195800683177"
    }
  },
  {
    "service_request": "2022-915784",
    "request_type": "Safety & Permits",
    "request_reason": "Licenses & Permits",
    "date_created": "2022-09-01T19:31:38.000",
    "date_modified": "2022-09-01T19:31:38.000",
    "request_status": "Pending",
    "responsible_agency": "Safety and Permits",
    "final_address": "2544 Dumaine St",
    "address_councildis": "D",
    "status": "Pending",
    "rowid": "915784",
    "final_x": "3677652.67042",
    "final_y": "537080.595336",
    "longitude": "-90.08002675719123",
    "latitude": "29.9709016889274",
    "geocoded_column": {
      "latitude": "29.9709016889274",
      "longitude": "-90.08002675719123"
    }
  },
  {
    "service_request": "2022-915783",
    "request_type": "Trash/Recycling",
    "request_reason": "MIssed Recycling Pick-Up",
    "date_created": "2022-09-01T19:18:06.000",
    "date_modified": "2022-09-01T19:18:07.000",
    "request_status": "Pending",
    "responsible_agency": "Department of Sanitation",
    "final_address": "6220 Freret St",
    "address_councildis": "A",
    "status": "Assigned to Contractor",
    "contractor": "Richards Disposal",
    "rowid": "915783",
    "final_x": "3665733.71892",
    "final_y": "524645.390204",
    "longitude": "-90.11808498670464",
    "latitude": "29.93706200929093",
    "geocoded_column": {
      "latitude": "29.93706200929093",
      "longitude": "-90.11808498670464"
    }
  },
  {
    "service_request": "2022-915782",
    "request_type": "Trash/Recycling",
    "request_reason": "MIssed Recycling Pick-Up",
    "date_created": "2022-09-01T19:17:02.000",
    "date_modified": "2022-09-01T19:17:02.000",
    "request_status": "Pending",
    "responsible_agency": "Department of Sanitation",
    "final_address": "4620 S Liberty St",
    "address_councildis": "B",
    "status": "Assigned to Contractor",
    "contractor": "Richards Disposal",
    "rowid": "915782",
    "final_x": "3669668.0187",
    "final_y": "523214.864827",
    "longitude": "-90.10571252941148",
    "latitude": "29.933013205025297",
    "geocoded_column": {
      "latitude": "29.933013205025297",
      "longitude": "-90.10571252941148"
    }
  },
  {
    "service_request": "2022-915781",
    "request_type": "Trash/Recycling",
    "request_reason": "Missed Trash Pick-Up",
    "date_created": "2022-09-01T19:12:52.000",
    "date_modified": "2022-09-01T19:12:53.000",
    "request_status": "Pending",
    "responsible_agency": "Department of Sanitation",
    "final_address": "4033 St Claude Ave",
    "address_councildis": "C",
    "status": "Assigned to Contractor",
    "contractor": "Metro Disposal",
    "rowid": "915781",
    "final_x": "3692077.42038",
    "final_y": "535398.111046",
    "longitude": "-90.03453196541587",
    "latitude": "29.965833736445788",
    "geocoded_column": {
      "latitude": "29.965833736445788",
      "longitude": "-90.03453196541587"
    }
  },
  {
    "service_request": "2022-915780",
    "request_type": "Trash/Recycling",
    "request_reason": "Missed Trash Pick-Up",
    "date_created": "2022-09-01T19:12:13.000",
    "date_modified": "2022-09-01T19:12:14.000",
    "request_status": "Pending",
    "responsible_agency": "Department of Sanitation",
    "final_address": "1220 Gallier St",
    "address_councildis": "C",
    "status": "Assigned to Contractor",
    "contractor": "Metro Disposal",
    "rowid": "915780",
    "final_x": "3690564.23542",
    "final_y": "536177.716295",
    "longitude": "-90.03928273286918",
    "latitude": "29.96802445196129",
    "geocoded_column": {
      "latitude": "29.96802445196129",
      "longitude": "-90.03928273286918"
    }
  },
  {
    "service_request": "2022-915779",
    "request_type": "Trash/Recycling",
    "request_reason": "Illegal Dumping",
    "date_created": "2022-09-01T19:08:29.000",
    "date_modified": "2022-09-01T19:08:29.000",
    "request_status": "Pending",
    "responsible_agency": "Department of Sanitation",
    "final_address": "1843 Marigny St",
    "address_councildis": "D",
    "status": "Pending",
    "rowid": "915779",
    "final_x": "3685217.64853",
    "final_y": "539254.242634",
    "longitude": "-90.05605911542231",
    "latitude": "29.97664877134958",
    "geocoded_column": {
      "latitude": "29.97664877134958",
      "longitude": "-90.05605911542231"
    }
  },
  {
    "service_request": "2022-915778",
    "request_type": "Trash/Recycling",
    "request_reason": "Request a Large Item Pick Up",
    "date_created": "2022-09-01T19:01:38.000",
    "date_modified": "2022-09-01T19:01:38.000",
    "request_status": "Pending",
    "responsible_agency": "Department of Sanitation",
    "final_address": "1843 Marigny St",
    "address_councildis": "D",
    "status": "Assigned to Contractor",
    "contractor": "Metro Disposal",
    "rowid": "915778",
    "final_x": "3685217.64853",
    "final_y": "539254.242634",
    "longitude": "-90.05605911542231",
    "latitude": "29.97664877134958",
    "geocoded_column": {
      "latitude": "29.97664877134958",
      "longitude": "-90.05605911542231"
    }
  },
  {
    "service_request": "2022-915777",
    "request_type": "Trash/Recycling",
    "request_reason": "MIssed Recycling Pick-Up",
    "date_created": "2022-09-01T18:58:00.000",
    "date_modified": "2022-09-01T18:58:01.000",
    "case_close_date": "2022-04-17T19:00:00.000",
    "request_status": "Pending",
    "responsible_agency": "Department of Sanitation",
    "final_address": "2303 State St",
    "address_councildis": "A",
    "status": "Assigned to Contractor",
    "contractor": "Richards Disposal",
    "rowid": "915777",
    "final_x": "3666677.26817",
    "final_y": "525054.613053",
    "longitude": "-90.11509240133883",
    "latitude": "29.938159691294814",
    "geocoded_column": {
      "latitude": "29.938159691294814",
      "longitude": "-90.11509240133883"
    }
  },
  {
    "service_request": "2022-915776",
    "request_type": "Trash/Recycling",
    "request_reason": "Order Trash Cart",
    "date_created": "2022-09-01T18:55:31.000",
    "date_modified": "2022-09-01T18:55:31.000",
    "request_status": "Pending",
    "responsible_agency": "Department of Sanitation",
    "final_address": "6202 Baccich St",
    "address_councildis": "D",
    "status": "Assigned to Contractor",
    "contractor": "Metro Disposal",
    "rowid": "915776",
    "final_x": "3687381.89257",
    "final_y": "556192.014362",
    "longitude": "-90.04862400165791",
    "latitude": "30.023155000212228",
    "geocoded_column": {
      "latitude": "30.023155000212228",
      "longitude": "-90.04862400165791"
    }
  },
  {
    "service_request": "2022-915775",
    "request_type": "Trash/Recycling",
    "request_reason": "Missed Trash Pick-Up",
    "date_created": "2022-09-01T18:53:45.000",
    "date_modified": "2022-09-01T18:53:46.000",
    "request_status": "Pending",
    "responsible_agency": "Department of Sanitation",
    "final_address": "1832 France St",
    "address_councildis": "D",
    "status": "Assigned to Contractor",
    "contractor": "Metro Disposal",
    "rowid": "915775",
    "final_x": "3693036.40752",
    "final_y": "538023.034441",
    "longitude": "-90.03140934283263",
    "latitude": "29.973021422067077",
    "geocoded_column": {
      "latitude": "29.973021422067077",
      "longitude": "-90.03140934283263"
    }
  },
  {
    "service_request": "2022-915774",
    "request_type": "Trash/Recycling",
    "request_reason": "Request a Large Item Pick Up",
    "date_created": "2022-09-01T18:48:33.000",
    "date_modified": "2022-09-01T18:48:34.000",
    "request_status": "Pending",
    "responsible_agency": "Department of Sanitation",
    "final_address": "2726 Republic St",
    "address_councildis": "D",
    "status": "Assigned to Contractor",
    "contractor": "Metro Disposal",
    "rowid": "915774",
    "final_x": "3680663.64277",
    "final_y": "542546.486541",
    "longitude": "-90.07032745651374",
    "latitude": "29.985840091334772",
    "geocoded_column": {
      "latitude": "29.985840091334772",
      "longitude": "-90.07032745651374"
    }
  },
  {
    "service_request": "2022-915773",
    "request_type": "Trash/Recycling",
    "request_reason": "Missed Trash Pick-Up",
    "date_created": "2022-09-01T18:46:38.000",
    "date_modified": "2022-09-01T18:46:39.000",
    "request_status": "Pending",
    "responsible_agency": "Department of Sanitation",
    "final_address": "1117 Verret St",
    "address_councildis": "C",
    "status": "Assigned to Contractor",
    "contractor": "Richards Disposal",
    "rowid": "915773",
    "final_x": "3687252.59158",
    "final_y": "527444.221567",
    "longitude": "-90.0500498887739",
    "latitude": "29.944112768778087",
    "geocoded_column": {
      "latitude": "29.944112768778087",
      "longitude": "-90.0500498887739"
    }
  },
  {
    "service_request": "2022-915772",
    "request_type": "Parks & Parkways",
    "request_reason": "Request Tree Service (Right of Way/Public Property)",
    "date_created": "2022-09-01T18:45:25.000",
    "date_modified": "2022-09-01T18:45:25.000",
    "request_status": "Pending",
    "responsible_agency": "Department of Parks & Parkway",
    "final_address": "6201 Franklin Ave",
    "address_councildis": "D",
    "status": "Pending",
    "rowid": "915772",
    "final_x": "3686473.07625",
    "final_y": "556098.021274",
    "longitude": "-90.05149897935681",
    "latitude": "30.022924540427255",
    "geocoded_column": {
      "latitude": "30.022924540427255",
      "longitude": "-90.05149897935681"
    }
  },
  {
    "service_request": "2022-915770",
    "request_type": "Abandoned Vehicles",
    "request_reason": "Abandoned/Junk Vehicles",
    "date_created": "2022-09-01T18:44:02.000",
    "date_modified": "2022-09-01T18:44:03.000",
    "request_status": "Pending",
    "responsible_agency": "Department of Public Works",
    "final_address": "1715 Seventh St",
    "address_councildis": "B",
    "status": "Pending",
    "rowid": "915770",
    "final_x": "3674970.54677",
    "final_y": "522553.515322",
    "longitude": "-90.08899547804418",
    "latitude": "29.931037435413128",
    "geocoded_column": {
      "latitude": "29.931037435413128",
      "longitude": "-90.08899547804418"
    }
  },
  {
    "service_request": "2022-915769",
    "request_type": "Trash/Recycling",
    "request_reason": "Missed Trash Pick-Up",
    "date_created": "2022-09-01T18:33:05.000",
    "date_modified": "2022-09-01T18:33:06.000",
    "request_status": "Pending",
    "responsible_agency": "Department of Sanitation",
    "final_address": "1014 Desire St",
    "address_councildis": "C",
    "status": "Assigned to Contractor",
    "contractor": "Metro Disposal",
    "rowid": "915769",
    "final_x": "3690078.27043",
    "final_y": "535408.076614",
    "longitude": "-90.04084483903002",
    "latitude": "29.96592329460682",
    "geocoded_column": {
      "latitude": "29.96592329460682",
      "longitude": "-90.04084483903002"
    }
  },
  {
    "service_request": "2022-915768",
    "request_type": "Traffic Signals/Signs/Striping/Streetlights",
    "request_reason": "Street Light Outage/Malfunction",
    "date_created": "2022-09-01T18:31:37.000",
    "date_modified": "2022-09-01T18:31:38.000",
    "request_status": "Pending",
    "responsible_agency": "Department of Public Works",
    "final_address": "6318 Pandora St",
    "address_councildis": "D",
    "status": "Pending",
    "contractor": "Legacy Professional Services",
    "rowid": "915768",
    "final_x": "3696890.41763",
    "final_y": "557285.858907",
    "longitude": "-90.01853963860286",
    "latitude": "30.025866093212738",
    "geocoded_column": {
      "latitude": "30.025866093212738",
      "longitude": "-90.01853963860286"
    }
  },
  {
    "service_request": "2022-915767",
    "request_type": "Parks & Parkways",
    "request_reason": "Request Tree Service (Right of Way/Public Property)",
    "date_created": "2022-09-01T18:30:46.000",
    "date_modified": "2022-09-01T18:30:46.000",
    "request_status": "Pending",
    "responsible_agency": "Department of Parks & Parkway",
    "final_address": "7471 Bullard Ave",
    "address_councildis": "E",
    "status": "Pending",
    "rowid": "915767",
    "final_x": "3713249.04024",
    "final_y": "567360.719588",
    "longitude": "-89.9664693467727",
    "latitude": "30.053041642593595",
    "geocoded_column": {
      "latitude": "30.053041642593595",
      "longitude": "-89.9664693467727"
    }
  },
  {
    "service_request": "2022-915766",
    "request_type": "Health Related Questions",
    "request_reason": "Noise Ordinance Complaint",
    "date_created": "2022-09-01T18:30:45.000",
    "date_modified": "2022-09-01T18:30:45.000",
    "request_status": "Pending",
    "responsible_agency": "Health Department",
    "final_address": "316 Chartres St, New Orleans, Louisiana, 70130",
    "address_councildis": "C",
    "status": "Pending",
    "rowid": "915766",
    "final_x": "3682048.77532",
    "final_y": "531162.123394",
    "longitude": "-90.06634998337161",
    "latitude": "29.954494970034958",
    "geocoded_column": {
      "latitude": "29.954494970034958",
      "longitude": "-90.06634998337161"
    }
  },
  {
    "service_request": "2022-915765",
    "request_type": "Trash/Recycling",
    "request_reason": "Missed Trash Pick-Up",
    "date_created": "2022-09-01T18:30:21.000",
    "date_modified": "2022-09-01T18:30:21.000",
    "request_status": "Pending",
    "responsible_agency": "Department of Sanitation",
    "final_address": "700 BLK Clouet St",
    "address_councildis": "C",
    "status": "Assigned to Contractor",
    "contractor": "Metro Disposal",
    "rowid": "915765",
    "final_x": "3688671.03273",
    "final_y": "534680.210939",
    "longitude": "-90.04531467830236",
    "latitude": "29.96396548923943",
    "geocoded_column": {
      "latitude": "29.96396548923943",
      "longitude": "-90.04531467830236"
    }
  },
  {
    "service_request": "2022-915764",
    "request_type": "Traffic Signals/Signs/Striping/Streetlights",
    "request_reason": "Street Light Outage/Malfunction",
    "date_created": "2022-09-01T18:28:52.000",
    "date_modified": "2022-09-01T18:28:53.000",
    "request_status": "Pending",
    "responsible_agency": "Department of Public Works",
    "final_address": "5525 Wimbledon Ct",
    "address_councildis": "C",
    "status": "Pending",
    "contractor": "Legacy Professional Services",
    "rowid": "915764",
    "final_x": "3704486.58474",
    "final_y": "518999.667831",
    "longitude": "-89.99594896277956",
    "latitude": "29.920351233040307",
    "geocoded_column": {
      "latitude": "29.920351233040307",
      "longitude": "-89.99594896277956"
    }
  },
  {
    "service_request": "2022-915763",
    "request_type": "Mayor's Request",
    "request_reason": "Entergy Bill Payment Assistance",
    "date_created": "2022-09-01T18:26:53.000",
    "date_modified": "2022-09-01T18:26:53.000",
    "request_status": "Pending",
    "responsible_agency": "Executive Office of the Mayor",
    "status": "Pending",
    "rowid": "915763",
    "longitude": "0.0",
    "latitude": "0.0",
    "geocoded_column": {
      "latitude": "0.0",
      "longitude": "0.0"
    }
  },
  {
    "service_request": "2022-915762",
    "request_type": "Trash/Recycling",
    "request_reason": "Missed Trash Pick-Up",
    "date_created": "2022-09-01T18:18:46.000",
    "date_modified": "2022-09-01T18:18:47.000",
    "request_status": "Pending",
    "responsible_agency": "Department of Sanitation",
    "final_address": "3212 St Charles Ave",
    "address_councildis": "B",
    "status": "Assigned to Contractor",
    "contractor": "Richards Disposal",
    "rowid": "915762",
    "final_x": "3674753.54094",
    "final_y": "521705.572025",
    "longitude": "-90.08970959013618",
    "latitude": "29.928712344124584",
    "geocoded_column": {
      "latitude": "29.928712344124584",
      "longitude": "-90.08970959013618"
    }
  },
  {
    "service_request": "2022-915761",
    "request_type": "Trash/Recycling",
    "request_reason": "Order Recycling Cart",
    "date_created": "2022-09-01T18:10:43.000",
    "date_modified": "2022-09-01T18:10:43.000",
    "request_status": "Pending",
    "responsible_agency": "Department of Sanitation",
    "final_address": "1112 Ninth St Apt B",
    "address_councildis": "B",
    "status": "Pending",
    "rowid": "915761",
    "final_x": "3675763.01877",
    "final_y": "520133.399928",
    "longitude": "-90.0865768758394",
    "latitude": "29.9243592148701",
    "geocoded_column": {
      "latitude": "29.9243592148701",
      "longitude": "-90.0865768758394"
    }
  },
  {
    "service_request": "2022-915760",
    "request_type": "Trash/Recycling",
    "request_reason": "Missed Trash Pick-Up",
    "date_created": "2022-09-01T18:09:19.000",
    "date_modified": "2022-09-01T18:09:19.000",
    "request_status": "Pending",
    "responsible_agency": "Department of Sanitation",
    "final_address": "910 Piety St",
    "address_councildis": "C",
    "status": "Assigned to Contractor",
    "contractor": "Metro Disposal",
    "rowid": "915760",
    "final_x": "3689630.76156",
    "final_y": "535108.50087",
    "longitude": "-90.04226871357393",
    "latitude": "29.96511343830445",
    "geocoded_column": {
      "latitude": "29.96511343830445",
      "longitude": "-90.04226871357393"
    }
  },
  {
    "service_request": "2022-915759",
    "request_type": "Trash/Recycling",
    "request_reason": "Replace Trash Cart",
    "date_created": "2022-09-01T18:08:34.000",
    "date_modified": "2022-09-01T18:08:35.000",
    "request_status": "Pending",
    "responsible_agency": "Department of Sanitation",
    "final_address": "1112 Ninth St Apt B",
    "address_councildis": "B",
    "status": "Assigned to Contractor",
    "contractor": "Richards Disposal",
    "rowid": "915759",
    "final_x": "3675763.01877",
    "final_y": "520133.399928",
    "longitude": "-90.0865768758394",
    "latitude": "29.9243592148701",
    "geocoded_column": {
      "latitude": "29.9243592148701",
      "longitude": "-90.0865768758394"
    }
  },
  {
    "service_request": "2022-915758",
    "request_type": "Trash/Recycling",
    "request_reason": "Return Recycling Cart",
    "date_created": "2022-09-01T18:08:15.000",
    "date_modified": "2022-09-01T18:08:16.000",
    "request_status": "Pending",
    "responsible_agency": "Department of Sanitation",
    "final_address": "1524 Melpomene St",
    "address_councildis": "B",
    "status": "Pending",
    "rowid": "915758",
    "final_x": "3679424.24008",
    "final_y": "525308.875837",
    "longitude": "-90.07484023043668",
    "latitude": "29.93848002854146",
    "geocoded_column": {
      "latitude": "29.93848002854146",
      "longitude": "-90.07484023043668"
    }
  },
  {
    "service_request": "2022-915757",
    "request_type": "Trash/Recycling",
    "request_reason": "Return Trash Cart",
    "date_created": "2022-09-01T18:08:01.000",
    "date_modified": "2022-09-01T18:08:02.000",
    "request_status": "Pending",
    "responsible_agency": "Department of Sanitation",
    "final_address": "1524 Melpomene St",
    "address_councildis": "B",
    "status": "Assigned to Contractor",
    "contractor": "Richards Disposal",
    "rowid": "915757",
    "final_x": "3679424.24008",
    "final_y": "525308.875837",
    "longitude": "-90.07484023043668",
    "latitude": "29.93848002854146",
    "geocoded_column": {
      "latitude": "29.93848002854146",
      "longitude": "-90.07484023043668"
    }
  },
  {
    "service_request": "2022-915756",
    "request_type": "Trash/Recycling",
    "request_reason": "Start Trash Service",
    "date_created": "2022-09-01T18:06:57.000",
    "date_modified": "2022-09-01T18:06:57.000",
    "request_status": "Pending",
    "responsible_agency": "Department of Sanitation",
    "final_address": "1112 Ninth St Apt B",
    "address_councildis": "B",
    "status": "Assigned to Contractor",
    "contractor": "Richards Disposal",
    "rowid": "915756",
    "final_x": "3675763.01877",
    "final_y": "520133.399928",
    "longitude": "-90.0865768758394",
    "latitude": "29.9243592148701",
    "geocoded_column": {
      "latitude": "29.9243592148701",
      "longitude": "-90.0865768758394"
    }
  },
  {
    "service_request": "2022-915755",
    "request_type": "Traffic Signals/Signs/Striping/Streetlights",
    "request_reason": "Street Light Outage/Malfunction",
    "date_created": "2022-09-01T18:03:15.000",
    "date_modified": "2022-09-01T18:03:16.000",
    "request_status": "Pending",
    "responsible_agency": "Department of Public Works",
    "final_address": "1225 Gallier St",
    "address_councildis": "C",
    "status": "Pending",
    "contractor": "Legacy Professional Services",
    "rowid": "915755",
    "final_x": "3690636.7864",
    "final_y": "536196.303687",
    "longitude": "-90.039052952",
    "latitude": "29.968073307618344",
    "geocoded_column": {
      "latitude": "29.968073307618344",
      "longitude": "-90.039052952"
    }
  },
  {
    "service_request": "2022-915754",
    "request_type": "Mosquito, Termite & Rodent Control",
    "request_reason": "Mosquito Complaint",
    "date_created": "2022-09-01T18:00:50.000",
    "date_modified": "2022-09-01T18:00:50.000",
    "request_status": "Pending",
    "responsible_agency": "Mosquito, Termite & Rodent Control Board",
    "final_address": "244 Olivier St",
    "address_councildis": "C",
    "status": "Pending",
    "rowid": "915754",
    "final_x": "3687275.37698",
    "final_y": "530825.124418",
    "longitude": "-90.04985838281196",
    "latitude": "29.953408395722434",
    "geocoded_column": {
      "latitude": "29.953408395722434",
      "longitude": "-90.04985838281196"
    }
  },
  {
    "service_request": "2022-915753",
    "request_type": "Trash/Recycling",
    "request_reason": "Missed Trash Pick-Up",
    "date_created": "2022-09-01T17:59:45.000",
    "date_modified": "2022-09-01T17:59:45.000",
    "request_status": "Pending",
    "responsible_agency": "Department of Sanitation",
    "final_address": "932 Clouet St, New Orleans, Louisiana, 70117",
    "address_councildis": "C",
    "status": "Assigned to Contractor",
    "contractor": "Metro Disposal",
    "rowid": "915753",
    "final_x": "3688828.00278",
    "final_y": "535465.096646",
    "longitude": "-90.04479111004211",
    "latitude": "29.966118798408317",
    "geocoded_column": {
      "latitude": "29.966118798408317",
      "longitude": "-90.04479111004211"
    }
  },
  {
    "service_request": "2022-915752",
    "request_type": "Trash/Recycling",
    "request_reason": "Missed Trash Pick-Up",
    "date_created": "2022-09-01T17:57:39.000",
    "date_modified": "2022-09-01T17:57:40.000",
    "request_status": "Pending",
    "responsible_agency": "Department of Sanitation",
    "final_address": "1225 Gallier St",
    "address_councildis": "C",
    "status": "Assigned to Contractor",
    "contractor": "Metro Disposal",
    "rowid": "915752",
    "final_x": "3690636.7864",
    "final_y": "536196.303687",
    "longitude": "-90.039052952",
    "latitude": "29.968073307618344",
    "geocoded_column": {
      "latitude": "29.968073307618344",
      "longitude": "-90.039052952"
    }
  },
  {
    "service_request": "2022-915751",
    "request_type": "Abandoned Vehicles",
    "request_reason": "Abandoned/Junk Vehicles",
    "date_created": "2022-09-01T17:54:41.000",
    "date_modified": "2022-09-01T17:55:22.000",
    "request_status": "Pending",
    "responsible_agency": "Department of Public Works",
    "final_address": "5966 Dreux Ave",
    "address_councildis": "D",
    "status": "Pending",
    "rowid": "915751",
    "final_x": "3696536.32752",
    "final_y": "553761.832983",
    "longitude": "-90.01978616299986",
    "latitude": "30.016187523975905",
    "geocoded_column": {
      "latitude": "30.016187523975905",
      "longitude": "-90.01978616299986"
    }
  },
  {
    "service_request": "2022-915750",
    "request_type": "Roads/Drainage",
    "request_reason": "Man hole cover issue",
    "date_created": "2022-09-01T17:51:04.000",
    "date_modified": "2022-09-01T17:51:04.000",
    "request_status": "Pending",
    "responsible_agency": "Department of Public Works",
    "final_address": "2020 Royal St",
    "address_councildis": "C",
    "status": "Pending",
    "rowid": "915750",
    "final_x": "3684383.18089",
    "final_y": "534781.372102",
    "longitude": "-90.05885174502613",
    "latitude": "29.96437548158009",
    "geocoded_column": {
      "latitude": "29.96437548158009",
      "longitude": "-90.05885174502613"
    }
  },
  {
    "service_request": "2022-915749",
    "request_type": "Trash/Recycling",
    "request_reason": "MIssed Recycling Pick-Up",
    "date_created": "2022-09-01T17:45:07.000",
    "date_modified": "2022-09-01T17:45:08.000",
    "request_status": "Pending",
    "responsible_agency": "Department of Sanitation",
    "final_address": "6221 York St, New Orleans, Louisiana, 70125",
    "address_councildis": "A",
    "status": "Assigned to Contractor",
    "contractor": "Richards Disposal",
    "rowid": "915749",
    "final_x": "3667738.24698",
    "final_y": "529103.088",
    "longitude": "-90.11160650374352",
    "latitude": "29.949260629078395",
    "geocoded_column": {
      "latitude": "29.949260629078395",
      "longitude": "-90.11160650374352"
    }
  },
  {
    "service_request": "2022-915748",
    "request_type": "Trash/Recycling",
    "request_reason": "Missed Trash Pick-Up",
    "date_created": "2022-09-01T17:45:02.000",
    "date_modified": "2022-09-01T17:45:02.000",
    "request_status": "Pending",
    "responsible_agency": "Department of Sanitation",
    "final_address": "1515 Jefferson Ave",
    "address_councildis": "B",
    "status": "Assigned to Contractor",
    "contractor": "Richards Disposal",
    "rowid": "915748",
    "final_x": "3667248.21767",
    "final_y": "520687.835257",
    "longitude": "-90.11343662860484",
    "latitude": "29.926135740304627",
    "geocoded_column": {
      "latitude": "29.926135740304627",
      "longitude": "-90.11343662860484"
    }
  },
  {
    "service_request": "2022-915747",
    "request_type": "Property Maintenance",
    "request_reason": "Property Maintenance",
    "date_created": "2022-09-01T17:40:41.000",
    "date_modified": "2022-09-01T17:40:41.000",
    "request_status": "Pending",
    "responsible_agency": "Department of Code Enforcement",
    "final_address": "7210 Read Blvd",
    "address_councildis": "E",
    "status": "Pending",
    "rowid": "915747",
    "final_x": "3709378.5123",
    "final_y": "562655.347808",
    "longitude": "-89.97887872289387",
    "latitude": "30.040230145298533",
    "geocoded_column": {
      "latitude": "30.040230145298533",
      "longitude": "-89.97887872289387"
    }
  },
  {
    "service_request": "2022-915746",
    "request_type": "Abandoned Vehicles",
    "request_reason": "Abandoned/Junk Vehicles",
    "date_created": "2022-09-01T17:33:26.000",
    "date_modified": "2022-09-01T17:33:26.000",
    "request_status": "Pending",
    "responsible_agency": "Department of Public Works",
    "final_address": "5545 Catina St",
    "address_councildis": "A",
    "status": "Pending",
    "rowid": "915746",
    "final_x": "3666653.08717",
    "final_y": "544309.457295",
    "longitude": "-90.114522136879",
    "latitude": "29.991104855721158",
    "geocoded_column": {
      "latitude": "29.991104855721158",
      "longitude": "-90.114522136879"
    }
  },
  {
    "service_request": "2022-915745",
    "request_type": "Trash/Recycling",
    "request_reason": "Request a Large Item Pick Up",
    "date_created": "2022-09-01T17:29:26.000",
    "date_modified": "2022-09-01T17:29:26.000",
    "request_status": "Pending",
    "responsible_agency": "Department of Sanitation",
    "final_address": "3306 Annunciation St",
    "address_councildis": "B",
    "status": "Assigned to Contractor",
    "contractor": "Richards Disposal",
    "rowid": "915745",
    "final_x": "3675774.84129",
    "final_y": "518707.833975",
    "longitude": "-90.08658851918011",
    "latitude": "29.920439013965208",
    "geocoded_column": {
      "latitude": "29.920439013965208",
      "longitude": "-90.08658851918011"
    }
  },
  {
    "service_request": "2022-915744",
    "request_type": "Traffic Signals/Signs/Striping/Streetlights",
    "request_reason": "Street Light Knocked Down/Leaning",
    "date_created": "2022-09-01T17:26:16.000",
    "date_modified": "2022-09-01T17:26:17.000",
    "request_status": "Pending",
    "responsible_agency": "Department of Public Works",
    "final_address": "CANAL ST & S CLAIBORNE AVE & N CLAIBORNE AVE",
    "address_councildis": "B",
    "status": "Pending",
    "contractor": "Legacy Professional Services",
    "rowid": "915744",
    "final_x": "3678486.9",
    "final_y": "532785.18",
    "longitude": "-90.07754082504775",
    "latitude": "29.95906564206216",
    "geocoded_column": {
      "latitude": "29.95906564206216",
      "longitude": "-90.07754082504775"
    }
  },
  {
    "service_request": "2022-915743",
    "request_type": "Trash/Recycling",
    "request_reason": "MIssed Recycling Pick-Up",
    "date_created": "2022-09-01T17:21:05.000",
    "date_modified": "2022-09-01T17:21:05.000",
    "request_status": "Pending",
    "responsible_agency": "Department of Sanitation",
    "final_address": "5824 Magnolia St",
    "address_councildis": "A",
    "status": "Assigned to Contractor",
    "contractor": "Richards Disposal",
    "rowid": "915743",
    "final_x": "3666837.57722",
    "final_y": "524892.224188",
    "longitude": "-90.11459174208953",
    "latitude": "29.937708486484265",
    "geocoded_column": {
      "latitude": "29.937708486484265",
      "longitude": "-90.11459174208953"
    }
  },
  {
    "service_request": "2022-915742",
    "request_type": "Traffic Signals/Signs/Striping/Streetlights",
    "request_reason": "Street Light Outage/Malfunction",
    "date_created": "2022-09-01T17:18:02.000",
    "date_modified": "2022-09-01T17:18:03.000",
    "request_status": "Pending",
    "responsible_agency": "Department of Public Works",
    "final_address": "5530 Vicksburg St",
    "address_councildis": "A",
    "status": "Pending",
    "contractor": "Legacy Professional Services",
    "rowid": "915742",
    "final_x": "3668647.87118",
    "final_y": "543727.930766",
    "longitude": "-90.10824069863268",
    "latitude": "29.989447363409585",
    "geocoded_column": {
      "latitude": "29.989447363409585",
      "longitude": "-90.10824069863268"
    }
  },
  {
    "service_request": "2022-915741",
    "request_type": "Trash/Recycling",
    "request_reason": "Missed Trash Pick-Up",
    "date_created": "2022-09-01T17:16:17.000",
    "date_modified": "2022-09-01T17:16:18.000",
    "request_status": "Pending",
    "responsible_agency": "Department of Sanitation",
    "final_address": "1700 BLK Saint Thomas St",
    "address_councildis": "B",
    "status": "Assigned to Contractor",
    "contractor": "Richards Disposal",
    "rowid": "915741",
    "final_x": "3681317.76167",
    "final_y": "521884.880887",
    "longitude": "-90.06898147353424",
    "latitude": "29.929007854845825",
    "geocoded_column": {
      "latitude": "29.929007854845825",
      "longitude": "-90.06898147353424"
    }
  },
  {
    "service_request": "2022-915740",
    "request_type": "Trash/Recycling",
    "request_reason": "Request a Large Item Pick Up",
    "date_created": "2022-09-01T17:15:14.000",
    "date_modified": "2022-09-01T17:15:14.000",
    "request_status": "Pending",
    "responsible_agency": "Department of Sanitation",
    "final_address": "3921 Prytania St",
    "address_councildis": "B",
    "status": "Assigned to Contractor",
    "contractor": "Richards Disposal",
    "rowid": "915740",
    "final_x": "3672567.72584",
    "final_y": "520536.72556",
    "longitude": "-90.09664959239527",
    "latitude": "29.925563442607892",
    "geocoded_column": {
      "latitude": "29.925563442607892",
      "longitude": "-90.09664959239527"
    }
  },
  {
    "service_request": "2022-915739",
    "request_type": "Roads/Drainage",
    "request_reason": "Pothole",
    "date_created": "2022-09-01T17:13:19.000",
    "date_modified": "2022-09-01T17:13:19.000",
    "request_status": "Pending",
    "responsible_agency": "Department of Public Works",
    "final_address": "8100 Burthe St, New Orleans, Louisiana, 70118",
    "status": "Pending",
    "rowid": "915739",
    "longitude": "0.0",
    "latitude": "0.0",
    "geocoded_column": {
      "latitude": "0.0",
      "longitude": "0.0"
    }
  },
  {
    "service_request": "2022-915738",
    "request_type": "Trash/Recycling",
    "request_reason": "MIssed Recycling Pick-Up",
    "date_created": "2022-09-01T17:06:19.000",
    "date_modified": "2022-09-01T17:06:20.000",
    "request_status": "Pending",
    "responsible_agency": "Department of Sanitation",
    "final_address": "1549 Chippewa St",
    "address_councildis": "B",
    "status": "Assigned to Contractor",
    "contractor": "Richards Disposal",
    "rowid": "915738",
    "final_x": "3681150.24322",
    "final_y": "523129.816251",
    "longitude": "-90.06946694760248",
    "latitude": "29.932436098376765",
    "geocoded_column": {
      "latitude": "29.932436098376765",
      "longitude": "-90.06946694760248"
    }
  },
  {
    "service_request": "2022-915737",
    "request_type": "Trash/Recycling",
    "request_reason": "Missed Trash Pick-Up",
    "date_created": "2022-09-01T17:05:32.000",
    "date_modified": "2022-09-01T17:05:34.000",
    "request_status": "Pending",
    "responsible_agency": "Department of Sanitation",
    "final_address": "1549 Chippewa St",
    "address_councildis": "B",
    "status": "Assigned to Contractor",
    "contractor": "Richards Disposal",
    "rowid": "915737",
    "final_x": "3681150.24322",
    "final_y": "523129.816251",
    "longitude": "-90.06946694760248",
    "latitude": "29.932436098376765",
    "geocoded_column": {
      "latitude": "29.932436098376765",
      "longitude": "-90.06946694760248"
    }
  },
  {
    "service_request": "2022-915736",
    "request_type": "Roads/Drainage",
    "request_reason": "Man hole cover issue",
    "date_created": "2022-09-01T16:58:36.000",
    "date_modified": "2022-09-01T16:58:37.000",
    "request_status": "Pending",
    "responsible_agency": "Department of Public Works",
    "final_address": "134 Polk St",
    "address_councildis": "A",
    "status": "Pending",
    "rowid": "915736",
    "final_x": "3666718.31303",
    "final_y": "547457.121169",
    "longitude": "-90.11421031641152",
    "latitude": "29.99975794415133",
    "geocoded_column": {
      "latitude": "29.99975794415133",
      "longitude": "-90.11421031641152"
    }
  },
  {
    "service_request": "2022-915735",
    "request_type": "Health Related Questions",
    "request_reason": "Noise Ordinance Complaint",
    "date_created": "2022-09-01T16:47:38.000",
    "date_modified": "2022-09-01T16:47:38.000",
    "request_status": "Pending",
    "responsible_agency": "Health Department",
    "final_address": "1723 Henriette Delille St",
    "address_councildis": "C",
    "status": "Pending",
    "rowid": "915735",
    "final_x": "3683338.40943",
    "final_y": "536195.373255",
    "longitude": "-90.06210150700602",
    "latitude": "29.968295408632137",
    "geocoded_column": {
      "latitude": "29.968295408632137",
      "longitude": "-90.06210150700602"
    }
  },
  {
    "service_request": "2022-915734",
    "request_type": "Trash/Recycling",
    "request_reason": "MIssed Recycling Pick-Up",
    "date_created": "2022-09-01T16:46:05.000",
    "date_modified": "2022-09-01T16:46:06.000",
    "request_status": "Pending",
    "responsible_agency": "Department of Sanitation",
    "final_address": "5521 S Claiborne Ave",
    "address_councildis": "A",
    "status": "Assigned to Contractor",
    "contractor": "Richards Disposal",
    "rowid": "915734",
    "final_x": "3668020.69805",
    "final_y": "526758.56755",
    "longitude": "-90.11079365983107",
    "latitude": "29.942805674570323",
    "geocoded_column": {
      "latitude": "29.942805674570323",
      "longitude": "-90.11079365983107"
    }
  },
  {
    "service_request": "2022-915733",
    "request_type": "Trash/Recycling",
    "request_reason": "Missed Trash Pick-Up",
    "date_created": "2022-09-01T16:46:02.000",
    "date_modified": "2022-09-01T16:46:03.000",
    "request_status": "Pending",
    "responsible_agency": "Department of Sanitation",
    "final_address": "1719 Toledano St",
    "address_councildis": "B",
    "status": "Assigned to Contractor",
    "contractor": "Richards Disposal",
    "rowid": "915733",
    "final_x": "3674403.64788",
    "final_y": "522246.697082",
    "longitude": "-90.09079560780958",
    "latitude": "29.930210700280217",
    "geocoded_column": {
      "latitude": "29.930210700280217",
      "longitude": "-90.09079560780958"
    }
  },
  {
    "service_request": "2022-915731",
    "request_type": "Trash/Recycling",
    "request_reason": "Request a Large Item Pick Up",
    "date_created": "2022-09-01T16:37:03.000",
    "date_modified": "2022-09-01T16:37:04.000",
    "request_status": "Pending",
    "responsible_agency": "Department of Sanitation",
    "final_address": "5135 Canal Blvd, New Orleans, Louisiana, 70124",
    "address_councildis": "A",
    "status": "Assigned to Contractor",
    "contractor": "Metro Disposal",
    "rowid": "915731",
    "final_x": "3668064.12852",
    "final_y": "541617.541708",
    "longitude": "-90.11015574166689",
    "latitude": "29.98366165987784",
    "geocoded_column": {
      "latitude": "29.98366165987784",
      "longitude": "-90.11015574166689"
    }
  },
  {
    "service_request": "2022-915730",
    "request_type": "Property Maintenance",
    "request_reason": "Property Maintenance",
    "date_created": "2022-09-01T16:36:37.000",
    "date_modified": "2022-09-01T16:36:37.000",
    "request_status": "Pending",
    "responsible_agency": "Department of Code Enforcement",
    "final_address": "2410 St Anthony St",
    "address_councildis": "D",
    "status": "Pending",
    "rowid": "915730",
    "final_x": "3683088.33039",
    "final_y": "541067.431692",
    "longitude": "-90.06272065094934",
    "latitude": "29.98169950002115",
    "geocoded_column": {
      "latitude": "29.98169950002115",
      "longitude": "-90.06272065094934"
    }
  },
  {
    "service_request": "2022-915728",
    "request_type": "Traffic Signals/Signs/Striping/Streetlights",
    "request_reason": "Traffic Sign Missing/Damaged",
    "date_created": "2022-09-01T16:35:26.000",
    "date_modified": "2022-09-01T16:35:26.000",
    "request_status": "Pending",
    "responsible_agency": "Department of Public Works",
    "final_address": "MAPLE ST & AUDUBON ST",
    "address_councildis": "A",
    "status": "Pending",
    "rowid": "915728",
    "final_x": "3663625.7",
    "final_y": "525151.98",
    "longitude": "-90.12472328332706",
    "latitude": "29.93851627661273",
    "geocoded_column": {
      "latitude": "29.93851627661273",
      "longitude": "-90.12472328332706"
    }
  },
  {
    "service_request": "2022-915727",
    "request_type": "Trash/Recycling",
    "request_reason": "MIssed Recycling Pick-Up",
    "date_created": "2022-09-01T16:34:04.000",
    "date_modified": "2022-09-01T16:34:04.000",
    "request_status": "Pending",
    "responsible_agency": "Department of Sanitation",
    "final_address": "2362 Laurel St",
    "address_councildis": "B",
    "status": "Assigned to Contractor",
    "contractor": "Richards Disposal",
    "rowid": "915727",
    "final_x": "3678612.80981",
    "final_y": "520922.457017",
    "longitude": "-90.07755376943358",
    "latitude": "29.926443296148406",
    "geocoded_column": {
      "latitude": "29.926443296148406",
      "longitude": "-90.07755376943358"
    }
  },
  {
    "service_request": "2022-915726",
    "request_type": "Trash/Recycling",
    "request_reason": "Illegal Dumping",
    "date_created": "2022-09-01T16:34:03.000",
    "date_modified": "2022-09-01T16:34:03.000",
    "request_status": "Pending",
    "responsible_agency": "Department of Sanitation",
    "final_address": "515 General Taylor St",
    "address_councildis": "B",
    "status": "Pending",
    "rowid": "915726",
    "final_x": "3673423.35329",
    "final_y": "517826.948278",
    "longitude": "-90.09404115018458",
    "latitude": "29.918087002171305",
    "geocoded_column": {
      "latitude": "29.918087002171305",
      "longitude": "-90.09404115018458"
    }
  },
  {
    "service_request": "2022-915725",
    "request_type": "Trash/Recycling",
    "request_reason": "MIssed Recycling Pick-Up",
    "date_created": "2022-09-01T16:32:24.000",
    "date_modified": "2022-09-01T16:32:24.000",
    "request_status": "Pending",
    "responsible_agency": "Department of Sanitation",
    "final_address": "809 N Rocheblave St",
    "address_councildis": "D",
    "status": "Assigned to Contractor",
    "contractor": "Richards Disposal",
    "rowid": "915725",
    "final_x": "3677765.29634",
    "final_y": "536713.153927",
    "longitude": "-90.07968376611245",
    "latitude": "29.969887962881344",
    "geocoded_column": {
      "latitude": "29.969887962881344",
      "longitude": "-90.07968376611245"
    }
  },
  {
    "service_request": "2022-915724",
    "request_type": "Trash/Recycling",
    "request_reason": "Missed Trash Pick-Up",
    "date_created": "2022-09-01T16:32:16.000",
    "date_modified": "2022-09-01T16:32:16.000",
    "request_status": "Pending",
    "responsible_agency": "Department of Sanitation",
    "final_address": "7501 Jeannette St",
    "address_councildis": "A",
    "status": "Assigned to Contractor",
    "contractor": "Richards Disposal",
    "rowid": "915724",
    "final_x": "3664279.05735",
    "final_y": "527806.046207",
    "longitude": "-90.12257201874463",
    "latitude": "29.945795144022227",
    "geocoded_column": {
      "latitude": "29.945795144022227",
      "longitude": "-90.12257201874463"
    }
  },
  {
    "service_request": "2022-915723",
    "request_type": "Trash/Recycling",
    "request_reason": "Missed Trash Pick-Up",
    "date_created": "2022-09-01T16:31:46.000",
    "date_modified": "2022-09-01T16:31:47.000",
    "request_status": "Pending",
    "responsible_agency": "Department of Sanitation",
    "final_address": "809 N Rocheblave St",
    "address_councildis": "D",
    "status": "Assigned to Contractor",
    "contractor": "Richards Disposal",
    "rowid": "915723",
    "final_x": "3677765.29634",
    "final_y": "536713.153927",
    "longitude": "-90.07968376611245",
    "latitude": "29.969887962881344",
    "geocoded_column": {
      "latitude": "29.969887962881344",
      "longitude": "-90.07968376611245"
    }
  },
  {
    "service_request": "2022-915722",
    "request_type": "Roads/Drainage",
    "request_reason": "Debris in Roadway",
    "date_created": "2022-09-01T16:29:07.000",
    "date_modified": "2022-09-01T16:29:11.000",
    "request_status": "Pending",
    "responsible_agency": "Department of Public Works",
    "final_address": "KENILWORTH ST & GENERAL HAIG ST",
    "address_councildis": "A",
    "status": "Pending",
    "rowid": "915722",
    "final_x": "3670395.7",
    "final_y": "545616.08",
    "longitude": "-90.10265573470208",
    "latitude": "29.99458762440026",
    "geocoded_column": {
      "latitude": "29.99458762440026",
      "longitude": "-90.10265573470208"
    }
  },
  {
    "service_request": "2022-915721",
    "request_type": "Trash/Recycling",
    "request_reason": "MIssed Recycling Pick-Up",
    "date_created": "2022-09-01T16:28:22.000",
    "date_modified": "2022-09-01T16:28:22.000",
    "request_status": "Pending",
    "responsible_agency": "Department of Sanitation",
    "final_address": "2511 Joseph St",
    "address_councildis": "A",
    "status": "Assigned to Contractor",
    "contractor": "Richards Disposal",
    "rowid": "915721",
    "final_x": "3667607.26791",
    "final_y": "525216.626365",
    "longitude": "-90.11215084571305",
    "latitude": "29.938577955375134",
    "geocoded_column": {
      "latitude": "29.938577955375134",
      "longitude": "-90.11215084571305"
    }
  },
  {
    "service_request": "2022-915720",
    "request_type": "Trash/Recycling",
    "request_reason": "Missed Trash Pick-Up",
    "date_created": "2022-09-01T16:23:00.000",
    "date_modified": "2022-09-01T16:23:01.000",
    "request_status": "Pending",
    "responsible_agency": "Department of Sanitation",
    "final_address": "1411 France St",
    "address_councildis": "D",
    "status": "Assigned to Contractor",
    "contractor": "Metro Disposal",
    "rowid": "915720",
    "final_x": "3692724.13616",
    "final_y": "536367.807623",
    "longitude": "-90.03245490074592",
    "latitude": "29.968479887481976",
    "geocoded_column": {
      "latitude": "29.968479887481976",
      "longitude": "-90.03245490074592"
    }
  },
  {
    "service_request": "2022-915719",
    "request_type": "Trash/Recycling",
    "request_reason": "MIssed Recycling Pick-Up",
    "date_created": "2022-09-01T16:21:54.000",
    "date_modified": "2022-09-01T16:21:54.000",
    "request_status": "Pending",
    "responsible_agency": "Department of Sanitation",
    "final_address": "6316 Story St, New Orleans, Louisiana, 70118",
    "address_councildis": "A",
    "status": "Assigned to Contractor",
    "contractor": "Richards Disposal",
    "rowid": "915719",
    "final_x": "3666276.49396",
    "final_y": "526644.957054",
    "longitude": "-90.11630435900773",
    "latitude": "29.942544337178976",
    "geocoded_column": {
      "latitude": "29.942544337178976",
      "longitude": "-90.11630435900773"
    }
  },
  {
    "service_request": "2022-915718",
    "request_type": "Trash/Recycling",
    "request_reason": "Missed Trash Pick-Up",
    "date_created": "2022-09-01T16:18:58.000",
    "date_modified": "2022-09-01T16:18:59.000",
    "request_status": "Pending",
    "responsible_agency": "Department of Sanitation",
    "final_address": "1323 St Andrew St",
    "address_councildis": "B",
    "status": "Assigned to Contractor",
    "contractor": "Richards Disposal",
    "rowid": "915718",
    "final_x": "3678947.4708",
    "final_y": "523300.927675",
    "longitude": "-90.07641497790495",
    "latitude": "29.93297322263293",
    "geocoded_column": {
      "latitude": "29.93297322263293",
      "longitude": "-90.07641497790495"
    }
  },
  {
    "service_request": "2022-915717",
    "request_type": "Roads/Drainage",
    "request_reason": "Street Subsidence (Sinking)",
    "date_created": "2022-09-01T16:13:59.000",
    "date_modified": "2022-09-01T16:15:36.000",
    "request_status": "Pending",
    "responsible_agency": "Department of Public Works",
    "final_address": "2539 Pauger St",
    "address_councildis": "D",
    "status": "Pending",
    "rowid": "915717",
    "final_x": "3683731.03202",
    "final_y": "539101.068298",
    "longitude": "-90.06075967656498",
    "latitude": "29.976273077237394",
    "geocoded_column": {
      "latitude": "29.976273077237394",
      "longitude": "-90.06075967656498"
    }
  },
  {
    "service_request": "2022-915716",
    "request_type": "Trash/Recycling",
    "request_reason": "Replace Trash Cart",
    "date_created": "2022-09-01T16:13:42.000",
    "date_modified": "2022-09-01T16:13:43.000",
    "request_status": "Pending",
    "responsible_agency": "Department of Sanitation",
    "final_address": "2257 Carondelet St",
    "address_councildis": "B",
    "status": "Assigned to Contractor",
    "contractor": "Richards Disposal",
    "rowid": "915716",
    "final_x": "3676946.78216",
    "final_y": "523751.035835",
    "longitude": "-90.0827155021044",
    "latitude": "29.934271066483923",
    "geocoded_column": {
      "latitude": "29.934271066483923",
      "longitude": "-90.0827155021044"
    }
  },
  {
    "service_request": "2022-915715",
    "request_type": "Trash/Recycling",
    "request_reason": "MIssed Recycling Pick-Up",
    "date_created": "2022-09-01T16:13:33.000",
    "date_modified": "2022-09-01T16:13:33.000",
    "request_status": "Pending",
    "responsible_agency": "Department of Sanitation",
    "final_address": "18 Richmond Pl",
    "address_councildis": "A",
    "status": "Assigned to Contractor",
    "contractor": "Richards Disposal",
    "rowid": "915715",
    "final_x": "3666565.54554",
    "final_y": "524105.339644",
    "longitude": "-90.11547697427197",
    "latitude": "29.935552758662038",
    "geocoded_column": {
      "latitude": "29.935552758662038",
      "longitude": "-90.11547697427197"
    }
  },
  {
    "service_request": "2022-915713",
    "request_type": "Trash/Recycling",
    "request_reason": "Request a Large Item Pick Up",
    "date_created": "2022-09-01T16:11:41.000",
    "date_modified": "2022-09-01T16:11:42.000",
    "request_status": "Pending",
    "responsible_agency": "Department of Sanitation",
    "final_address": "2269 Carondelet St",
    "address_councildis": "B",
    "status": "Assigned to Contractor",
    "contractor": "Richards Disposal",
    "rowid": "915713",
    "final_x": "3676921.16174",
    "final_y": "523710.837051",
    "longitude": "-90.0827977700355",
    "latitude": "29.934161301856264",
    "geocoded_column": {
      "latitude": "29.934161301856264",
      "longitude": "-90.0827977700355"
    }
  },
  {
    "service_request": "2022-915712",
    "request_type": "Abandoned Vehicles",
    "request_reason": "Abandoned/Junk Vehicles",
    "date_created": "2022-09-01T16:10:00.000",
    "date_modified": "2022-09-01T16:10:00.000",
    "request_status": "Pending",
    "responsible_agency": "Department of Public Works",
    "final_address": "1811 River Oaks Dr",
    "address_councildis": "C",
    "status": "Pending",
    "rowid": "915712",
    "final_x": "3701641.80573",
    "final_y": "524058.940028",
    "longitude": "-90.00474335842702",
    "latitude": "29.93435347292639",
    "geocoded_column": {
      "latitude": "29.93435347292639",
      "longitude": "-90.00474335842702"
    }
  },
  {
    "service_request": "2022-915711",
    "request_type": "Property Maintenance",
    "request_reason": "Property Maintenance",
    "date_created": "2022-09-01T16:09:43.000",
    "date_modified": "2022-09-01T16:09:43.000",
    "request_status": "Pending",
    "responsible_agency": "Department of Code Enforcement",
    "final_address": "1464 Mandolin St",
    "address_councildis": "D",
    "status": "Pending",
    "rowid": "915711",
    "final_x": "3678422.69038",
    "final_y": "547956.039058",
    "longitude": "-90.07721842088255",
    "latitude": "30.000782187290213",
    "geocoded_column": {
      "latitude": "30.000782187290213",
      "longitude": "-90.07721842088255"
    }
  },
  {
    "service_request": "2022-915710",
    "request_type": "Property Maintenance",
    "request_reason": "Property Maintenance",
    "date_created": "2022-09-01T16:09:17.000",
    "date_modified": "2022-09-01T16:09:17.000",
    "request_status": "Pending",
    "responsible_agency": "Department of Code Enforcement",
    "final_address": "1257 Lauradale Dr",
    "address_councildis": "C",
    "status": "Pending",
    "rowid": "915710",
    "final_x": "3692766.37488",
    "final_y": "526481.880958",
    "longitude": "-90.03267589373716",
    "latitude": "29.941295715114656",
    "geocoded_column": {
      "latitude": "29.941295715114656",
      "longitude": "-90.03267589373716"
    }
  },
  {
    "service_request": "2022-915709",
    "request_type": "Property Maintenance",
    "request_reason": "Property Maintenance",
    "date_created": "2022-09-01T16:06:54.000",
    "date_modified": "2022-09-01T16:06:54.000",
    "request_status": "Pending",
    "responsible_agency": "Department of Code Enforcement",
    "final_address": "1412 Lauradale Dr",
    "address_councildis": "C",
    "status": "Pending",
    "rowid": "915709",
    "final_x": "3692846.90825",
    "final_y": "526068.16051",
    "longitude": "-90.03243646507919",
    "latitude": "29.940155612011157",
    "geocoded_column": {
      "latitude": "29.940155612011157",
      "longitude": "-90.03243646507919"
    }
  },
  {
    "service_request": "2022-915708",
    "request_type": "Trash/Recycling",
    "request_reason": "MIssed Recycling Pick-Up",
    "date_created": "2022-09-01T15:59:02.000",
    "date_modified": "2022-09-01T16:02:27.000",
    "request_status": "Pending",
    "responsible_agency": "Department of Sanitation",
    "final_address": "New Orleans,LA",
    "address_councildis": "C",
    "status": "Assigned to Contractor",
    "contractor": "Richards Disposal",
    "rowid": "915708",
    "final_x": "3686419.06268",
    "final_y": "530937.203842",
    "longitude": "-90.05255829676403",
    "latitude": "29.95374292195084",
    "geocoded_column": {
      "latitude": "29.95374292195084",
      "longitude": "-90.05255829676403"
    }
  },
  {
    "service_request": "2022-915706",
    "request_type": "Property Maintenance",
    "request_reason": "Property Maintenance",
    "date_created": "2022-09-01T15:57:09.000",
    "date_modified": "2022-09-01T15:57:09.000",
    "request_status": "Pending",
    "responsible_agency": "Department of Code Enforcement",
    "final_address": "4816 Rosalia Dr",
    "address_councildis": "E",
    "status": "Pending",
    "rowid": "915706",
    "final_x": "3711073.17387",
    "final_y": "556410.031834",
    "longitude": "-89.97375728571141",
    "latitude": "30.02300281281995",
    "geocoded_column": {
      "latitude": "30.02300281281995",
      "longitude": "-89.97375728571141"
    }
  },
  {
    "service_request": "2022-915705",
    "request_type": "Trash/Recycling",
    "request_reason": "Request a Large Item Pick Up",
    "date_created": "2022-09-01T15:56:17.000",
    "date_modified": "2022-09-01T15:56:18.000",
    "request_status": "Pending",
    "responsible_agency": "Department of Sanitation",
    "final_address": "7625 Hickory St",
    "address_councildis": "A",
    "status": "Assigned to Contractor",
    "contractor": "Richards Disposal",
    "rowid": "915705",
    "final_x": "3664556.16141",
    "final_y": "528906.345024",
    "longitude": "-90.12166036906066",
    "latitude": "29.948812557311605",
    "geocoded_column": {
      "latitude": "29.948812557311605",
      "longitude": "-90.12166036906066"
    }
  },
  {
    "service_request": "2022-915704",
    "request_type": "Trash/Recycling",
    "request_reason": "Request a Large Item Pick Up",
    "date_created": "2022-09-01T15:56:07.000",
    "date_modified": "2022-09-01T15:56:08.000",
    "request_status": "Pending",
    "responsible_agency": "Department of Sanitation",
    "final_address": "63 Lakewood Estates Dr",
    "address_councildis": "C",
    "status": "Assigned to Contractor",
    "contractor": "Richards Disposal",
    "rowid": "915704",
    "final_x": "3701549.57661",
    "final_y": "512665.516273",
    "longitude": "-90.00545135127228",
    "latitude": "29.903028403003287",
    "geocoded_column": {
      "latitude": "29.903028403003287",
      "longitude": "-90.00545135127228"
    }
  },
  {
    "service_request": "2022-915703",
    "request_type": "Property Maintenance",
    "request_reason": "Property Maintenance",
    "date_created": "2022-09-01T15:54:03.000",
    "date_modified": "2022-09-01T15:54:04.000",
    "request_status": "Pending",
    "responsible_agency": "Department of Code Enforcement",
    "final_address": "3400 Toledano St",
    "address_councildis": "B",
    "status": "Pending",
    "rowid": "915703",
    "final_x": "3671865.80353",
    "final_y": "527939.877951",
    "longitude": "-90.0986135285597",
    "latitude": "29.94594052711484",
    "geocoded_column": {
      "latitude": "29.94594052711484",
      "longitude": "-90.0986135285597"
    }
  },
  {
    "service_request": "2022-915702",
    "request_type": "Trash/Recycling",
    "request_reason": "Return Recycling Cart",
    "date_created": "2022-09-01T15:53:21.000",
    "date_modified": "2022-09-01T15:53:24.000",
    "request_status": "Pending",
    "responsible_agency": "Department of Sanitation",
    "final_address": "7041 Ridgefield Dr",
    "address_councildis": "E",
    "status": "Pending",
    "rowid": "915702",
    "final_x": "3719434.38092",
    "final_y": "569649.538214",
    "longitude": "-89.94683187187516",
    "latitude": "30.05913061424178",
    "geocoded_column": {
      "latitude": "30.05913061424178",
      "longitude": "-89.94683187187516"
    }
  },
  {
    "service_request": "2022-915700",
    "request_type": "Trash/Recycling",
    "request_reason": "Illegal Dumping",
    "date_created": "2022-09-01T15:49:40.000",
    "date_modified": "2022-09-01T15:49:40.000",
    "request_status": "Pending",
    "responsible_agency": "Department of Sanitation",
    "final_address": "6816 W Coronet Ct",
    "address_councildis": "E",
    "status": "Pending",
    "rowid": "915700",
    "final_x": "3702351.37028",
    "final_y": "557329.794843",
    "longitude": "-90.00128225916838",
    "latitude": "30.02581347318809",
    "geocoded_column": {
      "latitude": "30.02581347318809",
      "longitude": "-90.00128225916838"
    }
  },
  {
    "service_request": "2022-915699",
    "request_type": "Trash/Recycling",
    "request_reason": "Request a Large Item Pick Up",
    "date_created": "2022-09-01T15:49:38.000",
    "date_modified": "2022-09-01T15:49:39.000",
    "request_status": "Pending",
    "responsible_agency": "Department of Sanitation",
    "final_address": "5752 Bancroft Dr",
    "address_councildis": "D",
    "status": "Assigned to Contractor",
    "contractor": "Metro Disposal",
    "rowid": "915699",
    "final_x": "3676427.42049",
    "final_y": "553678.681879",
    "longitude": "-90.0833244127266",
    "latitude": "30.016577407077214",
    "geocoded_column": {
      "latitude": "30.016577407077214",
      "longitude": "-90.0833244127266"
    }
  },
  {
    "service_request": "2022-915698",
    "request_type": "Trash/Recycling",
    "request_reason": "Request a Large Item Pick Up",
    "date_created": "2022-09-01T15:47:08.000",
    "date_modified": "2022-09-01T15:47:08.000",
    "request_status": "Pending",
    "responsible_agency": "Department of Sanitation",
    "final_address": "2028 Mazant St",
    "address_councildis": "D",
    "status": "Assigned to Contractor",
    "contractor": "Metro Disposal",
    "rowid": "915698",
    "final_x": "3692965.10659",
    "final_y": "538854.633801",
    "longitude": "-90.03160468752725",
    "latitude": "29.975310251552305",
    "geocoded_column": {
      "latitude": "29.975310251552305",
      "longitude": "-90.03160468752725"
    }
  },
  {
    "service_request": "2022-915697",
    "request_type": "Traffic Signals/Signs/Striping/Streetlights",
    "request_reason": "Traffic Sign Missing/Damaged",
    "date_created": "2022-09-01T15:46:42.000",
    "date_modified": "2022-09-01T15:46:42.000",
    "request_status": "Pending",
    "responsible_agency": "Department of Public Works",
    "final_address": "6816 W Coronet Ct",
    "address_councildis": "E",
    "status": "Pending",
    "rowid": "915697",
    "final_x": "3702351.37028",
    "final_y": "557329.794843",
    "longitude": "-90.00128225916838",
    "latitude": "30.02581347318809",
    "geocoded_column": {
      "latitude": "30.02581347318809",
      "longitude": "-90.00128225916838"
    }
  },
  {
    "service_request": "2022-915696",
    "request_type": "Trash/Recycling",
    "request_reason": "Request a Large Item Pick Up",
    "date_created": "2022-09-01T15:45:27.000",
    "date_modified": "2022-09-01T15:45:28.000",
    "request_status": "Pending",
    "responsible_agency": "Department of Sanitation",
    "final_address": "20 Muirfield Pl",
    "address_councildis": "C",
    "status": "Assigned to Contractor",
    "contractor": "Richards Disposal",
    "rowid": "915696",
    "final_x": "3720515.68985",
    "final_y": "513927.216946",
    "longitude": "-89.9455472217894",
    "latitude": "29.90587965267561",
    "geocoded_column": {
      "latitude": "29.90587965267561",
      "longitude": "-89.9455472217894"
    }
  },
  {
    "service_request": "2022-915695",
    "request_type": "Trash/Recycling",
    "request_reason": "Request a Large Item Pick Up",
    "date_created": "2022-09-01T15:44:42.000",
    "date_modified": "2022-09-01T15:44:43.000",
    "request_status": "Pending",
    "responsible_agency": "Department of Sanitation",
    "final_address": "1040 Bourbon St",
    "address_councildis": "C",
    "status": "Assigned to Contractor",
    "contractor": "Empire Services",
    "rowid": "915695",
    "final_x": "3683154.64757",
    "final_y": "533813.056645",
    "longitude": "-90.06276525860265",
    "latitude": "29.961750462335154",
    "geocoded_column": {
      "latitude": "29.961750462335154",
      "longitude": "-90.06276525860265"
    }
  },
  {
    "service_request": "2022-915694",
    "request_type": "Property Maintenance",
    "request_reason": "Property Maintenance",
    "date_created": "2022-09-01T15:43:49.000",
    "date_modified": "2022-09-01T15:43:50.000",
    "case_close_date": "2022-08-31T19:00:00.000",
    "request_status": "Pending",
    "responsible_agency": "Department of Code Enforcement",
    "final_address": "1629 N Roman St",
    "address_councildis": "D",
    "status": "Pending",
    "rowid": "915694",
    "final_x": "3681734.01058",
    "final_y": "538450.041161",
    "longitude": "-90.06708958140588",
    "latitude": "29.974543811952678",
    "geocoded_column": {
      "latitude": "29.974543811952678",
      "longitude": "-90.06708958140588"
    }
  },
  {
    "service_request": "2022-915693",
    "request_type": "Safety & Permits",
    "request_reason": "Short term Rental (Enforcement)",
    "date_created": "2022-09-01T15:43:39.000",
    "date_modified": "2022-09-01T15:43:40.000",
    "case_close_date": "2022-08-31T19:00:00.000",
    "request_status": "Pending",
    "responsible_agency": "Safety and Permits",
    "final_address": "1629 N Roman St",
    "address_councildis": "D",
    "status": "Pending",
    "rowid": "915693",
    "final_x": "3681734.01058",
    "final_y": "538450.041161",
    "longitude": "-90.06708958140588",
    "latitude": "29.974543811952678",
    "geocoded_column": {
      "latitude": "29.974543811952678",
      "longitude": "-90.06708958140588"
    }
  },
  {
    "service_request": "2022-915691",
    "request_type": "Parks & Parkways",
    "request_reason": "Request Tree Service (Right of Way/Public Property)",
    "date_created": "2022-09-01T15:40:54.000",
    "date_modified": "2022-09-01T15:50:21.000",
    "request_status": "Pending",
    "responsible_agency": "Department of Parks & Parkway",
    "final_address": "1701 N Rampart St",
    "address_councildis": "C",
    "status": "Pending",
    "rowid": "915691",
    "final_x": "3683160.6374",
    "final_y": "535852.082887",
    "longitude": "-90.06267494060579",
    "latitude": "29.96735690048506",
    "geocoded_column": {
      "latitude": "29.96735690048506",
      "longitude": "-90.06267494060579"
    }
  },
  {
    "service_request": "2022-915690",
    "request_type": "Trash/Recycling",
    "request_reason": "Order Trash Cart",
    "date_created": "2022-09-01T15:35:57.000",
    "date_modified": "2022-09-01T15:35:58.000",
    "request_status": "Pending",
    "responsible_agency": "Department of Sanitation",
    "final_address": "828 Baronne St",
    "address_councildis": "B",
    "status": "Assigned to Contractor",
    "contractor": "Empire Services",
    "rowid": "915690",
    "final_x": "3679580.80898",
    "final_y": "527970.005695",
    "longitude": "-90.07425360914912",
    "latitude": "29.94579252168469",
    "geocoded_column": {
      "latitude": "29.94579252168469",
      "longitude": "-90.07425360914912"
    }
  },
  {
    "service_request": "2022-915689",
    "request_type": "Property Maintenance",
    "request_reason": "Property Maintenance",
    "date_created": "2022-09-01T15:32:39.000",
    "date_modified": "2022-09-01T15:32:40.000",
    "request_status": "Pending",
    "responsible_agency": "Department of Code Enforcement",
    "final_address": "4962 Painters St",
    "address_councildis": "D",
    "status": "Pending",
    "rowid": "915689",
    "final_x": "3686052.7359",
    "final_y": "551488.036629",
    "longitude": "-90.05298992121591",
    "latitude": "30.01026170157804",
    "geocoded_column": {
      "latitude": "30.01026170157804",
      "longitude": "-90.05298992121591"
    }
  },
  {
    "service_request": "2022-915688",
    "request_type": "Property Maintenance",
    "request_reason": "Property Maintenance",
    "date_created": "2022-09-01T15:28:59.000",
    "date_modified": "2022-09-01T15:29:00.000",
    "request_status": "Pending",
    "responsible_agency": "Department of Code Enforcement",
    "final_address": "2111 Dumaine St",
    "address_councildis": "D",
    "status": "Pending",
    "rowid": "915688",
    "final_x": "3679060.30075",
    "final_y": "536186.917319",
    "longitude": "-90.07561226026215",
    "latitude": "29.968401970352737",
    "geocoded_column": {
      "latitude": "29.968401970352737",
      "longitude": "-90.07561226026215"
    }
  },
  {
    "service_request": "2022-915687",
    "request_type": "Trash/Recycling",
    "request_reason": "Request a Large Item Pick Up",
    "date_created": "2022-09-01T15:28:51.000",
    "date_modified": "2022-09-01T15:28:52.000",
    "request_status": "Pending",
    "responsible_agency": "Department of Sanitation",
    "final_address": "7815 Spruce St, New Orleans, Louisiana, 70118",
    "address_councildis": "A",
    "status": "Assigned to Contractor",
    "contractor": "Richards Disposal",
    "rowid": "915687",
    "final_x": "3664598.66586",
    "final_y": "529826.574081",
    "longitude": "-90.12149543457527",
    "latitude": "29.951341653876096",
    "geocoded_column": {
      "latitude": "29.951341653876096",
      "longitude": "-90.12149543457527"
    }
  },
  {
    "service_request": "2022-915686",
    "request_type": "Trash/Recycling",
    "request_reason": "Missed Trash Pick-Up",
    "date_created": "2022-09-01T15:28:09.000",
    "date_modified": "2022-09-01T15:28:10.000",
    "request_status": "Pending",
    "responsible_agency": "Department of Sanitation",
    "final_address": "7815 Spruce St, New Orleans, Louisiana, 70118",
    "address_councildis": "A",
    "status": "Assigned to Contractor",
    "contractor": "Richards Disposal",
    "rowid": "915686",
    "final_x": "3664598.66586",
    "final_y": "529826.574081",
    "longitude": "-90.12149543457527",
    "latitude": "29.951341653876096",
    "geocoded_column": {
      "latitude": "29.951341653876096",
      "longitude": "-90.12149543457527"
    }
  },
  {
    "service_request": "2022-915685",
    "request_type": "Trash/Recycling",
    "request_reason": "Order Recycling Cart",
    "date_created": "2022-09-01T15:25:54.000",
    "date_modified": "2022-09-01T15:25:54.000",
    "request_status": "Pending",
    "responsible_agency": "Department of Sanitation",
    "final_address": "2241 Valentine Ct",
    "address_councildis": "C",
    "status": "Pending",
    "rowid": "915685",
    "final_x": "3699418.35056",
    "final_y": "522819.036859",
    "longitude": "-90.0118078430483",
    "latitude": "29.93101486918151",
    "geocoded_column": {
      "latitude": "29.93101486918151",
      "longitude": "-90.0118078430483"
    }
  },
  {
    "service_request": "2022-915684",
    "request_type": "Property Maintenance",
    "request_reason": "Property Maintenance",
    "date_created": "2022-09-01T15:23:35.000",
    "date_modified": "2022-09-01T15:23:35.000",
    "request_status": "Pending",
    "responsible_agency": "Department of Code Enforcement",
    "final_address": "1481 N Roman St",
    "address_councildis": "D",
    "status": "Pending",
    "rowid": "915684",
    "final_x": "3681102.83535",
    "final_y": "537614.391176",
    "longitude": "-90.06911210332368",
    "latitude": "29.972265227118175",
    "geocoded_column": {
      "latitude": "29.972265227118175",
      "longitude": "-90.06911210332368"
    }
  },
  {
    "service_request": "2022-915683",
    "request_type": "Roads/Drainage",
    "request_reason": "Catch Basin - Clogged",
    "date_created": "2022-09-01T15:23:27.000",
    "date_modified": "2022-09-01T15:23:28.000",
    "request_status": "Pending",
    "responsible_agency": "Department of Public Works",
    "final_address": "3023 Cherry St",
    "address_councildis": "A",
    "status": "Pending",
    "rowid": "915683",
    "final_x": "3663370.61997",
    "final_y": "536153.059527",
    "longitude": "-90.12516239202435",
    "latitude": "29.96877308120348",
    "geocoded_column": {
      "latitude": "29.96877308120348",
      "longitude": "-90.12516239202435"
    }
  },
  {
    "service_request": "2022-915682",
    "request_type": "Property Maintenance",
    "request_reason": "Property Maintenance",
    "date_created": "2022-09-01T15:23:18.000",
    "date_modified": "2022-09-01T15:23:19.000",
    "request_status": "Pending",
    "responsible_agency": "Department of Code Enforcement",
    "final_address": "3047 Pocahontas St",
    "address_councildis": "D",
    "status": "Pending",
    "rowid": "915682",
    "final_x": "3689587.12227",
    "final_y": "548445.92085",
    "longitude": "-90.0419318304385",
    "latitude": "30.001787933590375",
    "geocoded_column": {
      "latitude": "30.001787933590375",
      "longitude": "-90.0419318304385"
    }
  },
  {
    "service_request": "2022-915681",
    "request_type": "Trash/Recycling",
    "request_reason": "Missed Trash Pick-Up",
    "date_created": "2022-09-01T15:20:36.000",
    "date_modified": "2022-09-01T15:20:37.000",
    "request_status": "Pending",
    "responsible_agency": "Department of Sanitation",
    "final_address": "7737 Belfast St",
    "address_councildis": "A",
    "status": "Assigned to Contractor",
    "contractor": "Richards Disposal",
    "rowid": "915681",
    "final_x": "3666517.67079",
    "final_y": "531633.258051",
    "longitude": "-90.11537550072751",
    "latitude": "29.95625350061506",
    "geocoded_column": {
      "latitude": "29.95625350061506",
      "longitude": "-90.11537550072751"
    }
  },
  {
    "service_request": "2022-915680",
    "request_type": "Trash/Recycling",
    "request_reason": "Illegal Dumping",
    "date_created": "2022-09-01T15:19:25.000",
    "date_modified": "2022-09-01T15:19:25.000",
    "request_status": "Pending",
    "responsible_agency": "Department of Sanitation",
    "final_address": "2821 Cleveland Ave",
    "address_councildis": "B",
    "status": "Pending",
    "rowid": "915680",
    "final_x": "3674515.62888",
    "final_y": "535275.823366",
    "longitude": "-90.08999579498824",
    "latitude": "29.9660331516106",
    "geocoded_column": {
      "latitude": "29.9660331516106",
      "longitude": "-90.08999579498824"
    }
  },
  {
    "service_request": "2022-915679",
    "request_type": "Abandoned Vehicles",
    "request_reason": "Abandoned/Junk Vehicles",
    "date_created": "2022-09-01T15:17:32.000",
    "date_modified": "2022-09-01T15:17:32.000",
    "request_status": "Pending",
    "responsible_agency": "Department of Public Works",
    "final_address": "1811 Columbus St",
    "address_councildis": "D",
    "status": "Pending",
    "rowid": "915679",
    "final_x": "3681062.46767",
    "final_y": "537737.37428",
    "longitude": "-90.0692353064028",
    "latitude": "29.972604612770255",
    "geocoded_column": {
      "latitude": "29.972604612770255",
      "longitude": "-90.0692353064028"
    }
  },
  {
    "service_request": "2022-915677",
    "request_type": "Property Maintenance",
    "request_reason": "Property Maintenance",
    "date_created": "2022-09-01T15:12:27.000",
    "date_modified": "2022-09-01T15:12:27.000",
    "request_status": "Pending",
    "responsible_agency": "Department of Code Enforcement",
    "final_address": "4224 Hollygrove St",
    "address_councildis": "A",
    "status": "Pending",
    "rowid": "915677",
    "final_x": "3666895.46311",
    "final_y": "538576.010761",
    "longitude": "-90.11394925535127",
    "latitude": "29.975332724703527",
    "geocoded_column": {
      "latitude": "29.975332724703527",
      "longitude": "-90.11394925535127"
    }
  },
  {
    "service_request": "2022-915676",
    "request_type": "Roads/Drainage",
    "request_reason": "Catch Basin - Clogged",
    "date_created": "2022-09-01T15:12:18.000",
    "date_modified": "2022-09-01T15:12:18.000",
    "request_status": "Pending",
    "responsible_agency": "Department of Public Works",
    "final_address": "3526 N Prieur St",
    "address_councildis": "D",
    "status": "Pending",
    "rowid": "915676",
    "final_x": "3691423.17667",
    "final_y": "538553.278217",
    "longitude": "-90.03648526750597",
    "latitude": "29.974529706392506",
    "geocoded_column": {
      "latitude": "29.974529706392506",
      "longitude": "-90.03648526750597"
    }
  },
  {
    "service_request": "2022-915675",
    "request_type": "Trash/Recycling",
    "request_reason": "Request a Large Item Pick Up",
    "date_created": "2022-09-01T15:10:10.000",
    "date_modified": "2022-09-01T15:10:11.000",
    "request_status": "Pending",
    "responsible_agency": "Department of Sanitation",
    "final_address": "6531 Canal Blvd, New Orleans, Louisiana, 70124",
    "address_councildis": "A",
    "status": "Assigned to Contractor",
    "contractor": "Metro Disposal",
    "rowid": "915675",
    "final_x": "3668973.84084",
    "final_y": "550944.112661",
    "longitude": "-90.10696709281471",
    "latitude": "30.00927977703264",
    "geocoded_column": {
      "latitude": "30.00927977703264",
      "longitude": "-90.10696709281471"
    }
  },
  {
    "service_request": "2022-915674",
    "request_type": "Mosquito, Termite & Rodent Control",
    "request_reason": "Mosquito Complaint",
    "date_created": "2022-09-01T15:09:40.000",
    "date_modified": "2022-09-01T15:09:40.000",
    "request_status": "Pending",
    "responsible_agency": "Mosquito, Termite & Rodent Control Board",
    "final_address": "1421 Athis St",
    "address_councildis": "D",
    "status": "Pending",
    "rowid": "915674",
    "final_x": "3677679.73179",
    "final_y": "553718.197143",
    "longitude": "-90.07936627461442",
    "latitude": "30.01664843590398",
    "geocoded_column": {
      "latitude": "30.01664843590398",
      "longitude": "-90.07936627461442"
    }
  },
  {
    "service_request": "2022-915673",
    "request_type": "Trash/Recycling",
    "request_reason": "Order Trash Cart",
    "date_created": "2022-09-01T15:08:20.000",
    "date_modified": "2022-09-01T15:08:21.000",
    "request_status": "Pending",
    "responsible_agency": "Department of Sanitation",
    "final_address": "6531 Canal Blvd, New Orleans, Louisiana, 70124",
    "address_councildis": "A",
    "status": "Assigned to Contractor",
    "contractor": "Metro Disposal",
    "rowid": "915673",
    "final_x": "3668973.84084",
    "final_y": "550944.112661",
    "longitude": "-90.10696709281471",
    "latitude": "30.00927977703264",
    "geocoded_column": {
      "latitude": "30.00927977703264",
      "longitude": "-90.10696709281471"
    }
  },