[
  {
    "service_request": "2023-1003070",
    "request_type": "Health Related Request",
    "request_reason": "Noise Ordinance Complaint",
    "date_created": "2023-05-26T00:16:16.000",
    "date_modified": "2023-05-26T00:16:16.000",
    "request_status": "Pending",
    "responsible_agency": "Health Department",
    "final_address": "309 Decatur St, New Orleans, Louisiana, 70130",
    "address_councildis": "C",
    "status": "Pending",
    "rowid": "1003070",
    "final_x": "3682303.87119",
    "final_y": "530935.66509",
    "longitude": "-90.06555240294671",
    "latitude": "29.953864528206758",
    "geocoded_column": {
      "latitude": "29.953864528206758",
      "longitude": "-90.06555240294671"
    }
  },
  {
    "service_request": "2023-1003069",
    "request_type": "Health Related Request",
    "request_reason": "Noise Ordinance Complaint",
    "date_created": "2023-05-25T23:58:11.000",
    "date_modified": "2023-05-25T23:58:11.000",
    "request_status": "Pending",
    "responsible_agency": "Health Department",
    "final_address": "Bienville, Louisiana",
    "status": "Pending",
    "rowid": "1003069",
    "longitude": "0.0",
    "latitude": "0.0",
    "geocoded_column": {
      "latitude": "0.0",
      "longitude": "0.0"
    }
  },
  {
    "service_request": "2023-1003068",
    "request_type": "Health Related Request",
    "request_reason": "Noise Ordinance Complaint",
    "date_created": "2023-05-25T22:30:51.000",
    "date_modified": "2023-05-25T22:30:51.000",
    "request_status": "Pending",
    "responsible_agency": "Health Department",
    "final_address": "711 Bourbon St, New Orleans, Louisiana, 70116",
    "address_councildis": "C",
    "status": "Pending",
    "rowid": "1003068",
    "final_x": "3682299.38447",
    "final_y": "532765.705988",
    "longitude": "-90.06550263299877",
    "latitude": "29.95889665479323",
    "geocoded_column": {
      "latitude": "29.95889665479323",
      "longitude": "-90.06550263299877"
    }
  },
  {
    "service_request": "2023-1003067",
    "request_type": "Health Related Request",
    "request_reason": "Noise Ordinance Complaint",
    "date_created": "2023-05-25T22:24:20.000",
    "date_modified": "2023-05-25T22:24:20.000",
    "request_status": "Pending",
    "responsible_agency": "Health Department",
    "final_address": "Bienville, Louisiana",
    "status": "Pending",
    "rowid": "1003067",
    "longitude": "0.0",
    "latitude": "0.0",
    "geocoded_column": {
      "latitude": "0.0",
      "longitude": "0.0"
    }
  },
  {
    "service_request": "2023-1003065",
    "request_type": "Health Related Request",
    "request_reason": "Noise Ordinance Complaint",
    "date_created": "2023-05-25T21:49:43.000",
    "date_modified": "2023-05-25T21:49:43.000",
    "request_status": "Pending",
    "responsible_agency": "Health Department",
    "final_address": "2618 Short St",
    "address_councildis": "A",
    "status": "Pending",
    "rowid": "1003065",
    "final_x": "3665750.02304",
    "final_y": "531967.032003",
    "longitude": "-90.1177883033815",
    "latitude": "29.957193683871928",
    "geocoded_column": {
      "latitude": "29.957193683871928",
      "longitude": "-90.1177883033815"
    }
  },
  {
    "service_request": "2023-1003064",
    "request_type": "Traffic Signals/Signs/Striping/Streetlights",
    "request_reason": "Street Light Outage/Malfunction",
    "date_created": "2023-05-25T21:39:53.000",
    "date_modified": "2023-05-25T21:39:53.000",
    "request_status": "Pending",
    "responsible_agency": "Department of Public Works",
    "final_address": "2323 Filmore Ave",
    "address_councildis": "D",
    "status": "Assigned to Contractor",
    "contractor": "Legacy Professional Services",
    "rowid": "1003064",
    "final_x": "3684630.42613",
    "final_y": "552543.253782",
    "longitude": "-90.0574463999321",
    "latitude": "30.01320678639251",
    "geocoded_column": {
      "latitude": "30.01320678639251",
      "longitude": "-90.0574463999321"
    }
  },
  {
    "service_request": "2023-1003063",
    "request_type": "Trash/Recycling",
    "request_reason": "Replace Trash Cart",
    "date_created": "2023-05-25T21:38:40.000",
    "date_modified": "2023-05-25T21:38:40.000",
    "request_status": "Pending",
    "responsible_agency": "Department of Sanitation",
    "final_address": "4512 S Rocheblave St",
    "address_councildis": "B",
    "status": "Assigned to Contractor",
    "contractor": "Richards Disposal",
    "rowid": "1003063",
    "final_x": "3669602.29511",
    "final_y": "528380.511168",
    "longitude": "-90.10574530446097",
    "latitude": "29.947218997433932",
    "geocoded_column": {
      "latitude": "29.947218997433932",
      "longitude": "-90.10574530446097"
    }
  },
  {
    "service_request": "2023-1003062",
    "request_type": "Traffic Signals/Signs/Striping/Streetlights",
    "request_reason": "Street Light Outage/Malfunction",
    "date_created": "2023-05-25T21:37:45.000",
    "date_modified": "2023-05-25T21:37:46.000",
    "request_status": "Pending",
    "responsible_agency": "Department of Public Works",
    "final_address": "2323 Filmore Ave",
    "address_councildis": "D",
    "status": "Assigned to Contractor",
    "contractor": "Legacy Professional Services",
    "rowid": "1003062",
    "final_x": "3684630.42613",
    "final_y": "552543.253782",
    "longitude": "-90.0574463999321",
    "latitude": "30.01320678639251",
    "geocoded_column": {
      "latitude": "30.01320678639251",
      "longitude": "-90.0574463999321"
    }
  },
  {
    "service_request": "2023-1003061",
    "request_type": "Traffic Signals/Signs/Striping/Streetlights",
    "request_reason": "Street Light Outage/Malfunction",
    "date_created": "2023-05-25T21:36:52.000",
    "date_modified": "2023-05-25T21:36:52.000",
    "request_status": "Pending",
    "responsible_agency": "Department of Public Works",
    "final_address": "2323 Filmore Ave",
    "address_councildis": "D",
    "status": "Assigned to Contractor",
    "contractor": "Legacy Professional Services",
    "rowid": "1003061",
    "final_x": "3684630.42613",
    "final_y": "552543.253782",
    "longitude": "-90.0574463999321",
    "latitude": "30.01320678639251",
    "geocoded_column": {
      "latitude": "30.01320678639251",
      "longitude": "-90.0574463999321"
    }
  },
  {
    "service_request": "2023-1003060",
    "request_type": "Traffic Signals/Signs/Striping/Streetlights",
    "request_reason": "Street Light Outage/Malfunction",
    "date_created": "2023-05-25T21:36:26.000",
    "date_modified": "2023-05-25T21:36:27.000",
    "request_status": "Pending",
    "responsible_agency": "Department of Public Works",
    "final_address": "2323 Filmore Ave",
    "address_councildis": "D",
    "status": "Assigned to Contractor",
    "contractor": "Legacy Professional Services",
    "rowid": "1003060",
    "final_x": "3684630.42613",
    "final_y": "552543.253782",
    "longitude": "-90.0574463999321",
    "latitude": "30.01320678639251",
    "geocoded_column": {
      "latitude": "30.01320678639251",
      "longitude": "-90.0574463999321"
    }
  },
  {
    "service_request": "2023-1003059",
    "request_type": "Traffic Signals/Signs/Striping/Streetlights",
    "request_reason": "Street Light Outage/Malfunction",
    "date_created": "2023-05-25T21:12:55.000",
    "date_modified": "2023-05-25T21:12:55.000",
    "request_status": "Pending",
    "responsible_agency": "Department of Public Works",
    "final_address": "300 16Th St",
    "address_councildis": "A",
    "status": "Assigned to Contractor",
    "contractor": "Legacy Professional Services",
    "rowid": "1003059",
    "final_x": "3665108.13607",
    "final_y": "548344.571922",
    "longitude": "-90.11926724858851",
    "latitude": "30.002245135988154",
    "geocoded_column": {
      "latitude": "30.002245135988154",
      "longitude": "-90.11926724858851"
    }
  },
  {
    "service_request": "2023-1003057",
    "request_type": "Trash/Recycling",
    "request_reason": "Missed Trash Pick-Up",
    "date_created": "2023-05-25T21:02:55.000",
    "date_modified": "2023-05-25T21:02:56.000",
    "request_status": "Pending",
    "responsible_agency": "Department of Sanitation",
    "final_address": "1012 Richard St",
    "address_councildis": "B",
    "status": "Assigned to Contractor",
    "contractor": "Richards Disposal",
    "rowid": "1003057",
    "final_x": "3680266.51432",
    "final_y": "523033.936699",
    "longitude": "-90.0722601309253",
    "latitude": "29.932199234201327",
    "geocoded_column": {
      "latitude": "29.932199234201327",
      "longitude": "-90.0722601309253"
    }
  },
  {
    "service_request": "2023-1003056",
    "request_type": "Roads/Drainage",
    "request_reason": "Street Flooding / Drainage",
    "date_created": "2023-05-25T20:42:05.000",
    "date_modified": "2023-05-25T20:42:05.000",
    "request_status": "Pending",
    "responsible_agency": "Department of Public Works",
    "final_address": "622 N Hennessey St",
    "address_councildis": "A",
    "status": "Pending",
    "rowid": "1003056",
    "final_x": "3671522.67227",
    "final_y": "540512.811659",
    "longitude": "-90.09926937742682",
    "latitude": "29.98052205945413",
    "geocoded_column": {
      "latitude": "29.98052205945413",
      "longitude": "-90.09926937742682"
    }
  },
  {
    "service_request": "2023-1003055",
    "request_type": "Trash/Recycling",
    "request_reason": "MIssed Recycling Pick-Up",
    "date_created": "2023-05-25T20:34:16.000",
    "date_modified": "2023-05-25T20:34:17.000",
    "request_status": "Pending",
    "responsible_agency": "Department of Sanitation",
    "final_address": "6030 Hurst St",
    "address_councildis": "A",
    "status": "Assigned to Contractor",
    "contractor": "Richards Disposal",
    "rowid": "1003055",
    "final_x": "3665256.5074",
    "final_y": "521786.983866",
    "longitude": "-90.11968715854152",
    "latitude": "29.92921620713637",
    "geocoded_column": {
      "latitude": "29.92921620713637",
      "longitude": "-90.11968715854152"
    }
  },
  {
    "service_request": "2023-1003054",
    "request_type": "Trash/Recycling",
    "request_reason": "Illegal Dumping",
    "date_created": "2023-05-25T20:18:17.000",
    "date_modified": "2023-05-25T20:18:17.000",
    "request_status": "Pending",
    "responsible_agency": "Department of Sanitation",
    "final_address": "CUCULLU ST & OCTAVIA ST",
    "address_councildis": "A",
    "status": "Pending",
    "rowid": "1003054",
    "final_x": "3667946.8",
    "final_y": "525698.18",
    "longitude": "-90.11106268650447",
    "latitude": "29.939892118646434",
    "geocoded_column": {
      "latitude": "29.939892118646434",
      "longitude": "-90.11106268650447"
    }
  },
  {
    "service_request": "2023-1003053",
    "request_type": "Trash/Recycling",
    "request_reason": "Request a Large Item Pick Up",
    "date_created": "2023-05-25T20:17:04.000",
    "date_modified": "2023-05-25T20:17:04.000",
    "request_status": "Pending",
    "responsible_agency": "Department of Sanitation",
    "final_address": "7416 Ebbtide Dr",
    "address_councildis": "E",
    "status": "Assigned to Contractor",
    "contractor": "Waste Pro",
    "rowid": "1003053",
    "final_x": "3702373.52714",
    "final_y": "560825.026654",
    "longitude": "-90.00108383511044",
    "latitude": "30.035423295570673",
    "geocoded_column": {
      "latitude": "30.035423295570673",
      "longitude": "-90.00108383511044"
    }
  },
  {
    "service_request": "2023-1003052",
    "request_type": "Trash/Recycling",
    "request_reason": "Illegal Dumping",
    "date_created": "2023-05-25T20:16:54.000",
    "date_modified": "2023-05-25T20:16:54.000",
    "request_status": "Pending",
    "responsible_agency": "Department of Sanitation",
    "final_address": "CUCULLU ST & OCTAVIA ST",
    "address_councildis": "A",
    "status": "Pending",
    "rowid": "1003052",
    "final_x": "3667946.8",
    "final_y": "525698.18",
    "longitude": "-90.11106268650447",
    "latitude": "29.939892118646434",
    "geocoded_column": {
      "latitude": "29.939892118646434",
      "longitude": "-90.11106268650447"
    }
  },
  {
    "service_request": "2023-1003051",
    "request_type": "Trash/Recycling",
    "request_reason": "Request a Large Item Pick Up",
    "date_created": "2023-05-25T20:10:36.000",
    "date_modified": "2023-05-25T20:10:37.000",
    "request_status": "Pending",
    "responsible_agency": "Department of Sanitation",
    "final_address": "1041 Constance St",
    "address_councildis": "B",
    "status": "Assigned to Contractor",
    "contractor": "Empire Services",
    "rowid": "1003051",
    "final_x": "3681103.45115",
    "final_y": "526430.821374",
    "longitude": "-90.06949972511822",
    "latitude": "29.941514186265994",
    "geocoded_column": {
      "latitude": "29.941514186265994",
      "longitude": "-90.06949972511822"
    }
  },
  {
    "service_request": "2023-1003050",
    "request_type": "Trash/Recycling",
    "request_reason": "Request a Large Item Pick Up",
    "date_created": "2023-05-25T20:00:58.000",
    "date_modified": "2023-05-25T20:00:59.000",
    "request_status": "Pending",
    "responsible_agency": "Department of Sanitation",
    "final_address": "7900 Haney Dr",
    "address_councildis": "E",
    "status": "Assigned to Contractor",
    "contractor": "Waste Pro",
    "rowid": "1003050",
    "final_x": "3712076.65554",
    "final_y": "567985.755621",
    "longitude": "-89.97015139625657",
    "latitude": "30.05479863896031",
    "geocoded_column": {
      "latitude": "30.05479863896031",
      "longitude": "-89.97015139625657"
    }
  },
  {
    "service_request": "2023-1003049",
    "request_type": "Trash/Recycling",
    "request_reason": "Request a Large Item Pick Up",
    "date_created": "2023-05-25T19:46:53.000",
    "date_modified": "2023-05-25T19:46:54.000",
    "request_status": "Pending",
    "responsible_agency": "Department of Sanitation",
    "final_address": "723 Soraparu St",
    "address_councildis": "B",
    "status": "Assigned to Contractor",
    "contractor": "Richards Disposal",
    "rowid": "1003049",
    "final_x": "3679039.62658",
    "final_y": "520640.8686",
    "longitude": "-90.07621618013694",
    "latitude": "29.925656150829848",
    "geocoded_column": {
      "latitude": "29.925656150829848",
      "longitude": "-90.07621618013694"
    }
  },
  {
    "service_request": "2023-1003048",
    "request_type": "Trash/Recycling",
    "request_reason": "Request a Large Item Pick Up",
    "date_created": "2023-05-25T19:40:47.000",
    "date_modified": "2023-05-25T19:40:48.000",
    "request_status": "Pending",
    "responsible_agency": "Department of Sanitation",
    "final_address": "1524 St Mary St",
    "address_councildis": "B",
    "status": "Assigned to Contractor",
    "contractor": "Richards Disposal",
    "rowid": "1003048",
    "final_x": "3678520.29608",
    "final_y": "524047.648188",
    "longitude": "-90.07773770634712",
    "latitude": "29.935039336339152",
    "geocoded_column": {
      "latitude": "29.935039336339152",
      "longitude": "-90.07773770634712"
    }
  },
  {
    "service_request": "2023-1003047",
    "request_type": "Traffic Signals/Signs/Striping/Streetlights",
    "request_reason": "Street Light Outage/Malfunction",
    "date_created": "2023-05-25T19:37:01.000",
    "date_modified": "2023-05-25T19:37:01.000",
    "request_status": "Pending",
    "responsible_agency": "Department of Public Works",
    "final_address": "2400 BLK N Johnson St",
    "address_councildis": "D",
    "status": "Assigned to Contractor",
    "contractor": "Legacy Professional Services",
    "rowid": "1003047",
    "final_x": "3686761.69862",
    "final_y": "539779.616423",
    "longitude": "-90.05116397175553",
    "latitude": "29.97804594801461",
    "geocoded_column": {
      "latitude": "29.97804594801461",
      "longitude": "-90.05116397175553"
    }
  },
  {
    "service_request": "2023-1003046",
    "request_type": "Abandoned Vehicles",
    "request_reason": "Abandoned/Junk Vehicles",
    "date_created": "2023-05-25T19:35:20.000",
    "date_modified": "2023-05-25T19:35:20.000",
    "request_status": "Pending",
    "responsible_agency": "Department of Public Works",
    "final_address": "2318 George Nick Connor Dr",
    "address_councildis": "D",
    "status": "Pending",
    "rowid": "1003046",
    "final_x": "3681143.60527",
    "final_y": "540611.421707",
    "longitude": "-90.06887889569808",
    "latitude": "29.980504784272053",
    "geocoded_column": {
      "latitude": "29.980504784272053",
      "longitude": "-90.06887889569808"
    }
  },
  {
    "service_request": "2023-1003045",
    "request_type": "Trash/Recycling",
    "request_reason": "Illegal Dumping",
    "date_created": "2023-05-25T19:11:10.000",
    "date_modified": "2023-05-25T19:11:10.000",
    "request_status": "Pending",
    "responsible_agency": "Department of Sanitation",
    "final_address": "9901 Chef Menteur Hwy",
    "address_councildis": "E",
    "status": "Pending",
    "rowid": "1003045",
    "final_x": "3712157.88626",
    "final_y": "554756.899864",
    "longitude": "-89.97039200370233",
    "latitude": "30.0184219152567",
    "geocoded_column": {
      "latitude": "30.0184219152567",
      "longitude": "-89.97039200370233"
    }
  },
  {
    "service_request": "2023-1003044",
    "request_type": "Roads/Drainage",
    "request_reason": "Pothole",
    "date_created": "2023-05-25T19:10:27.000",
    "date_modified": "2023-05-25T19:10:27.000",
    "request_status": "Pending",
    "responsible_agency": "Department of Public Works",
    "final_address": "BURDETTE ST & JEANNETTE ST",
    "address_councildis": "A",
    "status": "Pending",
    "rowid": "1003044",
    "final_x": "3663509.7",
    "final_y": "528398.28",
    "longitude": "-90.12498142845564",
    "latitude": "29.947445927797947",
    "geocoded_column": {
      "latitude": "29.947445927797947",
      "longitude": "-90.12498142845564"
    }
  },
  {
    "service_request": "2023-1003043",
    "request_type": "Property Maintenance",
    "request_reason": "Property Maintenance",
    "date_created": "2023-05-25T19:01:06.000",
    "date_modified": "2023-05-25T19:01:06.000",
    "request_status": "Pending",
    "responsible_agency": "Department of Code Enforcement",
    "final_address": "1715 Touro St",
    "address_councildis": "D",
    "status": "Pending",
    "rowid": "1003043",
    "final_x": "3684079.16213",
    "final_y": "538598.958345",
    "longitude": "-90.05967780679697",
    "latitude": "29.974881814463423",
    "geocoded_column": {
      "latitude": "29.974881814463423",
      "longitude": "-90.05967780679697"
    }
  },
  {
    "service_request": "2023-1003042",
    "request_type": "Trash/Recycling",
    "request_reason": "Request a Large Item Pick Up",
    "date_created": "2023-05-25T18:58:45.000",
    "date_modified": "2023-05-25T18:58:45.000",
    "request_status": "Pending",
    "responsible_agency": "Department of Sanitation",
    "final_address": "2633 Palmer Ave",
    "address_councildis": "A",
    "status": "Assigned to Contractor",
    "contractor": "Richards Disposal",
    "rowid": "1003042",
    "final_x": "3666743.02676",
    "final_y": "526445.463998",
    "longitude": "-90.11483809994598",
    "latitude": "29.941982162159213",
    "geocoded_column": {
      "latitude": "29.941982162159213",
      "longitude": "-90.11483809994598"
    }
  },
  {
    "service_request": "2023-1003041",
    "request_type": "Trash/Recycling",
    "request_reason": "Order Recycling Cart",
    "date_created": "2023-05-25T18:50:52.000",
    "date_modified": "2023-05-25T18:50:52.000",
    "request_status": "Pending",
    "responsible_agency": "Department of Sanitation",
    "final_address": "3953 Annunciation St",
    "address_councildis": "B",
    "status": "Pending",
    "rowid": "1003041",
    "final_x": "3672870.47361",
    "final_y": "517962.690934",
    "longitude": "-90.09578166666944",
    "latitude": "29.91847668197629",
    "geocoded_column": {
      "latitude": "29.91847668197629",
      "longitude": "-90.09578166666944"
    }
  },
  {
    "service_request": "2023-1003040",
    "request_type": "Property Maintenance",
    "request_reason": "Property Maintenance",
    "date_created": "2023-05-25T18:47:33.000",
    "date_modified": "2023-05-25T18:47:33.000",
    "request_status": "Pending",
    "responsible_agency": "Department of Code Enforcement",
    "final_address": "3032 Constance St",
    "address_councildis": "B",
    "status": "Pending",
    "rowid": "1003040",
    "final_x": "3676365.55957",
    "final_y": "519889.98348",
    "longitude": "-90.08468323401462",
    "latitude": "29.923671857473618",
    "geocoded_column": {
      "latitude": "29.923671857473618",
      "longitude": "-90.08468323401462"
    }
  },
  {
    "service_request": "2023-1003039",
    "request_type": "Property Maintenance",
    "request_reason": "Property Maintenance",
    "date_created": "2023-05-25T18:45:54.000",
    "date_modified": "2023-05-25T18:45:54.000",
    "request_status": "Pending",
    "responsible_agency": "Department of Code Enforcement",
    "final_address": "7723 Lacombe St",
    "address_councildis": "E",
    "status": "Pending",
    "rowid": "1003039",
    "final_x": "3709434.99013",
    "final_y": "565740.762915",
    "longitude": "-89.97858494994664",
    "latitude": "30.048711964595284",
    "geocoded_column": {
      "latitude": "30.048711964595284",
      "longitude": "-89.97858494994664"
    }
  },
  {
    "service_request": "2023-1003038",
    "request_type": "Trash/Recycling",
    "request_reason": "Missed Trash Pick-Up",
    "date_created": "2023-05-25T18:37:18.000",
    "date_modified": "2023-05-25T18:37:18.000",
    "request_status": "Pending",
    "responsible_agency": "Department of Sanitation",
    "final_address": "1005 Josephine St",
    "address_councildis": "B",
    "status": "Assigned to Contractor",
    "contractor": "Richards Disposal",
    "rowid": "1003038",
    "final_x": "3679402.01423",
    "final_y": "522070.515066",
    "longitude": "-90.07502267325984",
    "latitude": "29.929576274017826",
    "geocoded_column": {
      "latitude": "29.929576274017826",
      "longitude": "-90.07502267325984"
    }
  },
  {
    "service_request": "2023-1003037",
    "request_type": "Trash/Recycling",
    "request_reason": "Request a Large Item Pick Up",
    "date_created": "2023-05-25T18:34:50.000",
    "date_modified": "2023-05-25T18:34:50.000",
    "request_status": "Pending",
    "responsible_agency": "Department of Sanitation",
    "final_address": "5611 Painters St",
    "address_councildis": "D",
    "status": "Assigned to Contractor",
    "contractor": "IV Waste",
    "rowid": "1003037",
    "final_x": "3686223.08335",
    "final_y": "553710.706647",
    "longitude": "-90.05237322795638",
    "latitude": "30.016367994379024",
    "geocoded_column": {
      "latitude": "30.016367994379024",
      "longitude": "-90.05237322795638"
    }
  },
  {
    "service_request": "2023-1003036",
    "request_type": "Trash/Recycling",
    "request_reason": "Request a Large Item Pick Up",
    "date_created": "2023-05-25T18:34:30.000",
    "date_modified": "2023-05-25T18:34:31.000",
    "request_status": "Pending",
    "responsible_agency": "Department of Sanitation",
    "final_address": "230 S Cortez St",
    "address_councildis": "A",
    "status": "Assigned to Contractor",
    "contractor": "Richards Disposal",
    "rowid": "1003036",
    "final_x": "3671691.25332",
    "final_y": "537035.239048",
    "longitude": "-90.09885525783078",
    "latitude": "29.970954919959855",
    "geocoded_column": {
      "latitude": "29.970954919959855",
      "longitude": "-90.09885525783078"
    }
  },
  {
    "service_request": "2023-1003035",
    "request_type": "Traffic Signals/Signs/Striping/Streetlights",
    "request_reason": "Street Light Outage/Malfunction",
    "date_created": "2023-05-25T18:25:00.000",
    "date_modified": "2023-05-25T18:25:01.000",
    "request_status": "Pending",
    "responsible_agency": "Department of Public Works",
    "final_address": "3900 BLK Dublin St",
    "address_councildis": "A",
    "status": "Assigned to Contractor",
    "contractor": "Legacy Professional Services",
    "rowid": "1003035",
    "final_x": "3668288.50787",
    "final_y": "535905.034605",
    "longitude": "-90.10963972092485",
    "latitude": "29.967947597728962",
    "geocoded_column": {
      "latitude": "29.967947597728962",
      "longitude": "-90.10963972092485"
    }
  },
  {
    "service_request": "2023-1003034",
    "request_type": "Trash/Recycling",
    "request_reason": "Start Trash Service",
    "date_created": "2023-05-25T18:18:19.000",
    "date_modified": "2023-05-25T18:18:19.000",
    "request_status": "Pending",
    "responsible_agency": "Department of Sanitation",
    "final_address": "7716 Coolidge Ct",
    "address_councildis": "B",
    "status": "Assigned to Contractor",
    "contractor": "Richards Disposal",
    "rowid": "1003034",
    "final_x": "3668297.76116",
    "final_y": "533419.565188",
    "longitude": "-90.10969432001428",
    "latitude": "29.961113109568704",
    "geocoded_column": {
      "latitude": "29.961113109568704",
      "longitude": "-90.10969432001428"
    }
  },
  {
    "service_request": "2023-1003033",
    "request_type": "Trash/Recycling",
    "request_reason": "Illegal Dumping",
    "date_created": "2023-05-25T17:56:04.000",
    "date_modified": "2023-05-25T17:56:05.000",
    "request_status": "Pending",
    "responsible_agency": "Department of Sanitation",
    "final_address": "900 BLK Howard Ave",
    "address_councildis": "B",
    "status": "Pending",
    "rowid": "1003033",
    "final_x": "3679267.12601",
    "final_y": "527766.477719",
    "longitude": "-90.07525106622205",
    "latitude": "29.945242361523075",
    "geocoded_column": {
      "latitude": "29.945242361523075",
      "longitude": "-90.07525106622205"
    }
  },
  {
    "service_request": "2023-1003032",
    "request_type": "Abandoned Vehicles",
    "request_reason": "Abandoned/Junk Vehicles",
    "date_created": "2023-05-25T17:54:14.000",
    "date_modified": "2023-05-25T17:54:14.000",
    "request_status": "Pending",
    "responsible_agency": "Department of Public Works",
    "final_address": "4400 Francis Dr",
    "address_councildis": "D",
    "status": "Pending",
    "rowid": "1003032",
    "final_x": "3698374.11997",
    "final_y": "552469.461462",
    "longitude": "-90.01402659418913",
    "latitude": "30.012575933607966",
    "geocoded_column": {
      "latitude": "30.012575933607966",
      "longitude": "-90.01402659418913"
    }
  },
  {
    "service_request": "2023-1003030",
    "request_type": "Trash/Recycling",
    "request_reason": "Request a Large Item Pick Up",
    "date_created": "2023-05-25T17:52:22.000",
    "date_modified": "2023-05-25T17:52:23.000",
    "request_status": "Pending",
    "responsible_agency": "Department of Sanitation",
    "final_address": "4727 S Liberty St",
    "address_councildis": "B",
    "status": "Assigned to Contractor",
    "contractor": "Richards Disposal",
    "rowid": "1003030",
    "final_x": "3669287.45946",
    "final_y": "523246.023803",
    "longitude": "-90.10691287851088",
    "latitude": "29.9331100877117",
    "geocoded_column": {
      "latitude": "29.9331100877117",
      "longitude": "-90.10691287851088"
    }
  },
  {
    "service_request": "2023-1003029",
    "request_type": "Trash/Recycling",
    "request_reason": "Missed Trash Pick-Up",
    "date_created": "2023-05-25T17:51:05.000",
    "date_modified": "2023-05-25T17:51:06.000",
    "request_status": "Pending",
    "responsible_agency": "Department of Sanitation",
    "final_address": "4606 Virgilian St",
    "address_councildis": "D",
    "status": "Assigned to Contractor",
    "contractor": "Waste Pro",
    "rowid": "1003029",
    "final_x": "3697469.68938",
    "final_y": "553003.738583",
    "longitude": "-90.01686468473487",
    "latitude": "30.014073596959737",
    "geocoded_column": {
      "latitude": "30.014073596959737",
      "longitude": "-90.01686468473487"
    }
  },
  {
    "service_request": "2023-1003028",
    "request_type": "Trash/Recycling",
    "request_reason": "Request a Large Item Pick Up",
    "date_created": "2023-05-25T17:48:33.000",
    "date_modified": "2023-05-25T17:48:33.000",
    "request_status": "Pending",
    "responsible_agency": "Department of Sanitation",
    "final_address": "4430 Burgundy St",
    "address_councildis": "C",
    "status": "Assigned to Contractor",
    "contractor": "IV Waste",
    "rowid": "1003028",
    "final_x": "3693057.12681",
    "final_y": "534086.308037",
    "longitude": "-90.03148516446547",
    "latitude": "29.962196169161007",
    "geocoded_column": {
      "latitude": "29.962196169161007",
      "longitude": "-90.03148516446547"
    }
  },
  {
    "service_request": "2023-1003027",
    "request_type": "Traffic Signals/Signs/Striping/Streetlights",
    "request_reason": "Traffic Sign Missing/Damaged",
    "date_created": "2023-05-25T17:46:09.000",
    "date_modified": "2023-05-25T17:46:09.000",
    "request_status": "Pending",
    "responsible_agency": "Department of Public Works",
    "final_address": "1500 BLK Marigny St",
    "address_councildis": "C",
    "status": "Pending",
    "rowid": "1003027",
    "final_x": "3685285.54442",
    "final_y": "537994.568812",
    "longitude": "-90.05588903334282",
    "latitude": "29.973183027837635",
    "geocoded_column": {
      "latitude": "29.973183027837635",
      "longitude": "-90.05588903334282"
    }
  },
  {
    "service_request": "2023-1003026",
    "request_type": "Health Related Request",
    "request_reason": "Noise Ordinance Complaint",
    "date_created": "2023-05-25T17:41:18.000",
    "date_modified": "2023-05-25T17:41:18.000",
    "request_status": "Pending",
    "responsible_agency": "Health Department",
    "final_address": "315 Decatur St, New Orleans, Louisiana, 70130",
    "address_councildis": "C",
    "status": "Pending",
    "rowid": "1003026",
    "final_x": "3682332.13967",
    "final_y": "530970.484162",
    "longitude": "-90.06546192627788",
    "latitude": "29.953959408807965",
    "geocoded_column": {
      "latitude": "29.953959408807965",
      "longitude": "-90.06546192627788"
    }
  },
  {
    "service_request": "2023-1003025",
    "request_type": "Trash/Recycling",
    "request_reason": "Request a Large Item Pick Up",
    "date_created": "2023-05-25T17:35:44.000",
    "date_modified": "2023-05-25T17:35:45.000",
    "request_status": "Pending",
    "responsible_agency": "Department of Sanitation",
    "final_address": "1030 Webster St",
    "address_councildis": "A",
    "status": "Assigned to Contractor",
    "contractor": "Richards Disposal",
    "rowid": "1003025",
    "final_x": "3664387.85229",
    "final_y": "520307.24812",
    "longitude": "-90.12247871146926",
    "latitude": "29.925172669361984",
    "geocoded_column": {
      "latitude": "29.925172669361984",
      "longitude": "-90.12247871146926"
    }
  },
  {
    "service_request": "2023-1003024",
    "request_type": "Trash/Recycling",
    "request_reason": "Request a Large Item Pick Up",
    "date_created": "2023-05-25T17:33:51.000",
    "date_modified": "2023-05-25T17:33:52.000",
    "request_status": "Pending",
    "responsible_agency": "Department of Sanitation",
    "final_address": "120 S Genois St",
    "address_councildis": "B",
    "status": "Assigned to Contractor",
    "contractor": "Richards Disposal",
    "rowid": "1003024",
    "final_x": "3672490.02433",
    "final_y": "536973.160008",
    "longitude": "-90.0963347472645",
    "latitude": "29.970760536897714",
    "geocoded_column": {
      "latitude": "29.970760536897714",
      "longitude": "-90.0963347472645"
    }
  },
  {
    "service_request": "2023-1003023",
    "request_type": "Trash/Recycling",
    "request_reason": "Replace Trash Cart",
    "date_created": "2023-05-25T17:32:27.000",
    "date_modified": "2023-05-25T17:32:27.000",
    "request_status": "Pending",
    "responsible_agency": "Department of Sanitation",
    "final_address": "4116 N Tonti St",
    "address_councildis": "D",
    "status": "Assigned to Contractor",
    "contractor": "IV Waste",
    "rowid": "1003023",
    "final_x": "3693349.32278",
    "final_y": "539645.843338",
    "longitude": "-90.0303628203479",
    "latitude": "29.977473787568467",
    "geocoded_column": {
      "latitude": "29.977473787568467",
      "longitude": "-90.0303628203479"
    }
  },
  {
    "service_request": "2023-1003022",
    "request_type": "Trash/Recycling",
    "request_reason": "Missed Trash Pick-Up",
    "date_created": "2023-05-25T17:24:56.000",
    "date_modified": "2023-05-25T17:24:56.000",
    "request_status": "Pending",
    "responsible_agency": "Department of Sanitation",
    "final_address": "2228 Delachaise St",
    "address_councildis": "B",
    "status": "Assigned to Contractor",
    "contractor": "Richards Disposal",
    "rowid": "1003022",
    "final_x": "3672856.44219",
    "final_y": "523548.383739",
    "longitude": "-90.09563551161291",
    "latitude": "29.93383596055463",
    "geocoded_column": {
      "latitude": "29.93383596055463",
      "longitude": "-90.09563551161291"
    }
  },
  {
    "service_request": "2023-1003021",
    "request_type": "Abandoned Vehicles",
    "request_reason": "Abandoned/Junk Vehicles",
    "date_created": "2023-05-25T17:23:38.000",
    "date_modified": "2023-05-25T17:28:00.000",
    "request_status": "Pending",
    "responsible_agency": "Department of Public Works",
    "final_address": "7713 Keats St",
    "address_councildis": "E",
    "status": "Pending",
    "rowid": "1003021",
    "final_x": "3696238.26295",
    "final_y": "559356.756573",
    "longitude": "-90.02052537765432",
    "latitude": "30.031580830485094",
    "geocoded_column": {
      "latitude": "30.031580830485094",
      "longitude": "-90.02052537765432"
    }
  },
  {
    "service_request": "2023-1003020",
    "request_type": "Property Maintenance",
    "request_reason": "Property Maintenance",
    "date_created": "2023-05-25T17:23:24.000",
    "date_modified": "2023-05-25T17:23:24.000",
    "request_status": "Pending",
    "responsible_agency": "Department of Code Enforcement",
    "final_address": "325 Jane Aly",
    "address_councildis": "B",
    "status": "Pending",
    "rowid": "1003020",
    "final_x": "3674474.95348",
    "final_y": "534533.857541",
    "longitude": "-90.09014966864929",
    "latitude": "29.96399420912722",
    "geocoded_column": {
      "latitude": "29.96399420912722",
      "longitude": "-90.09014966864929"
    }
  },
  {
    "service_request": "2023-1003019",
    "request_type": "Trash/Recycling",
    "request_reason": "Order Trash Cart",
    "date_created": "2023-05-25T17:18:37.000",
    "date_modified": "2023-05-25T17:18:38.000",
    "request_status": "Pending",
    "responsible_agency": "Department of Sanitation",
    "final_address": "5302 Dauphine St",
    "address_councildis": "E",
    "status": "Assigned to Contractor",
    "contractor": "Waste Pro",
    "rowid": "1003019",
    "final_x": "3696529.01296",
    "final_y": "532879.245508",
    "longitude": "-90.02056519090353",
    "latitude": "29.958768254947763",
    "geocoded_column": {
      "latitude": "29.958768254947763",
      "longitude": "-90.02056519090353"
    }
  },
  {
    "service_request": "2023-1003018",
    "request_type": "Trash/Recycling",
    "request_reason": "Request a Large Item Pick Up",
    "date_created": "2023-05-25T17:18:27.000",
    "date_modified": "2023-05-25T17:18:28.000",
    "request_status": "Pending",
    "responsible_agency": "Department of Sanitation",
    "final_address": "4933 Pauger St",
    "address_councildis": "D",
    "status": "Assigned to Contractor",
    "contractor": "IV Waste",
    "rowid": "1003018",
    "final_x": "3682737.64936",
    "final_y": "550918.616277",
    "longitude": "-90.06348344438298",
    "latitude": "30.008797437974955",
    "geocoded_column": {
      "latitude": "30.008797437974955",
      "longitude": "-90.06348344438298"
    }
  },
  {
    "service_request": "2023-1003017",
    "request_type": "Trash/Recycling",
    "request_reason": "Request a Large Item Pick Up",
    "date_created": "2023-05-25T17:18:23.000",
    "date_modified": "2023-05-25T17:18:24.000",
    "request_status": "Pending",
    "responsible_agency": "Department of Sanitation",
    "final_address": "4933 Pauger St",
    "address_councildis": "D",
    "status": "Assigned to Contractor",
    "contractor": "IV Waste",
    "rowid": "1003017",
    "final_x": "3682737.64936",
    "final_y": "550918.616277",
    "longitude": "-90.06348344438298",
    "latitude": "30.008797437974955",
    "geocoded_column": {
      "latitude": "30.008797437974955",
      "longitude": "-90.06348344438298"
    }
  },
  {
    "service_request": "2023-1003016",
    "request_type": "Trash/Recycling",
    "request_reason": "Request a Large Item Pick Up",
    "date_created": "2023-05-25T17:18:19.000",
    "date_modified": "2023-05-25T17:18:19.000",
    "request_status": "Pending",
    "responsible_agency": "Department of Sanitation",
    "final_address": "4933 Pauger St",
    "address_councildis": "D",
    "status": "Assigned to Contractor",
    "contractor": "IV Waste",
    "rowid": "1003016",
    "final_x": "3682737.64936",
    "final_y": "550918.616277",
    "longitude": "-90.06348344438298",
    "latitude": "30.008797437974955",
    "geocoded_column": {
      "latitude": "30.008797437974955",
      "longitude": "-90.06348344438298"
    }
  },
  {
    "service_request": "2023-1003015",
    "request_type": "Trash/Recycling",
    "request_reason": "Request a Large Item Pick Up",
    "date_created": "2023-05-25T17:16:57.000",
    "date_modified": "2023-05-25T17:16:57.000",
    "request_status": "Pending",
    "responsible_agency": "Department of Sanitation",
    "final_address": "5621 Laurel St",
    "address_councildis": "A",
    "status": "Assigned to Contractor",
    "contractor": "Richards Disposal",
    "rowid": "1003015",
    "final_x": "3665718.13581",
    "final_y": "517947.415862",
    "longitude": "-90.11835840121674",
    "latitude": "29.918645150053717",
    "geocoded_column": {
      "latitude": "29.918645150053717",
      "longitude": "-90.11835840121674"
    }
  },
  {
    "service_request": "2023-1003014",
    "request_type": "Property Maintenance",
    "request_reason": "Property Maintenance",
    "date_created": "2023-05-25T17:15:12.000",
    "date_modified": "2023-05-25T17:15:12.000",
    "request_status": "Pending",
    "responsible_agency": "Department of Code Enforcement",
    "final_address": "325 Jane Aly",
    "address_councildis": "B",
    "status": "Pending",
    "rowid": "1003014",
    "final_x": "3674474.95348",
    "final_y": "534533.857541",
    "longitude": "-90.09014966864929",
    "latitude": "29.96399420912722",
    "geocoded_column": {
      "latitude": "29.96399420912722",
      "longitude": "-90.09014966864929"
    }
  },
  {
    "service_request": "2023-1003013",
    "request_type": "Trash/Recycling",
    "request_reason": "Order Trash Cart",
    "date_created": "2023-05-25T17:08:44.000",
    "date_modified": "2023-05-25T17:08:44.000",
    "request_status": "Pending",
    "responsible_agency": "Department of Sanitation",
    "final_address": "6019 Dauphine St",
    "address_councildis": "E",
    "status": "Assigned to Contractor",
    "contractor": "Waste Pro",
    "rowid": "1003013",
    "final_x": "3698897.74263",
    "final_y": "532323.077059",
    "longitude": "-90.01310563112561",
    "latitude": "29.957164156071485",
    "geocoded_column": {
      "latitude": "29.957164156071485",
      "longitude": "-90.01310563112561"
    }
  },
  {
    "service_request": "2023-1003012",
    "request_type": "Traffic Signals/Signs/Striping/Streetlights",
    "request_reason": "Traffic Sign Missing/Damaged",
    "date_created": "2023-05-25T17:06:47.000",
    "date_modified": "2023-05-25T17:06:47.000",
    "request_status": "Pending",
    "responsible_agency": "Department of Public Works",
    "final_address": "800 BLK Perdido St",
    "address_councildis": "B",
    "status": "Pending",
    "rowid": "1003012",
    "final_x": "3680070.2097",
    "final_y": "529868.909866",
    "longitude": "-90.07264244443282",
    "latitude": "29.950999075814032",
    "geocoded_column": {
      "latitude": "29.950999075814032",
      "longitude": "-90.07264244443282"
    }
  },
  {
    "service_request": "2023-1003011",
    "request_type": "Trash/Recycling",
    "request_reason": "MIssed Recycling Pick-Up",
    "date_created": "2023-05-25T16:59:32.000",
    "date_modified": "2023-05-25T16:59:33.000",
    "request_status": "Pending",
    "responsible_agency": "Department of Sanitation",
    "final_address": "811 Leontine St",
    "address_councildis": "B",
    "status": "Assigned to Contractor",
    "contractor": "Richards Disposal",
    "rowid": "1003011",
    "final_x": "3667171.83841",
    "final_y": "518418.213558",
    "longitude": "-90.11375399286145",
    "latitude": "29.919897231969262",
    "geocoded_column": {
      "latitude": "29.919897231969262",
      "longitude": "-90.11375399286145"
    }
  },
  {
    "service_request": "2023-1003010",
    "request_type": "Abandoned Vehicles",
    "request_reason": "Abandoned/Junk Vehicles",
    "date_created": "2023-05-25T16:52:00.000",
    "date_modified": "2023-05-25T16:55:00.000",
    "request_status": "Pending",
    "responsible_agency": "Department of Public Works",
    "final_address": "837 Jourdan Ave",
    "address_councildis": "E",
    "status": "Pending",
    "rowid": "1003010",
    "final_x": "3694845.23798",
    "final_y": "533671.800965",
    "longitude": "-90.02585353738505",
    "latitude": "29.961000438750563",
    "geocoded_column": {
      "latitude": "29.961000438750563",
      "longitude": "-90.02585353738505"
    }
  },
  {
    "service_request": "2023-1003009",
    "request_type": "Trash/Recycling",
    "request_reason": "Request a Large Item Pick Up",
    "date_created": "2023-05-25T16:46:57.000",
    "date_modified": "2023-05-25T16:46:58.000",
    "request_status": "Pending",
    "responsible_agency": "Department of Sanitation",
    "final_address": "6555 Memphis St",
    "address_councildis": "A",
    "status": "Assigned to Contractor",
    "contractor": "IV Waste",
    "rowid": "1003009",
    "final_x": "3669624.07943",
    "final_y": "551028.283669",
    "longitude": "-90.10490990952725",
    "latitude": "30.009492065982442",
    "geocoded_column": {
      "latitude": "30.009492065982442",
      "longitude": "-90.10490990952725"
    }
  },
  {
    "service_request": "2023-1003008",
    "request_type": "Trash/Recycling",
    "request_reason": "Request a Large Item Pick Up",
    "date_created": "2023-05-25T16:44:19.000",
    "date_modified": "2023-05-25T16:44:19.000",
    "request_status": "Pending",
    "responsible_agency": "Department of Sanitation",
    "final_address": "219 N Rocheblave St",
    "address_councildis": "B",
    "status": "Assigned to Contractor",
    "contractor": "Richards Disposal",
    "rowid": "1003008",
    "final_x": "3676471.45704",
    "final_y": "535013.923846",
    "longitude": "-90.08382835564636",
    "latitude": "29.96525451719873",
    "geocoded_column": {
      "latitude": "29.96525451719873",
      "longitude": "-90.08382835564636"
    }
  },
  {
    "service_request": "2023-1003007",
    "request_type": "Traffic Signals/Signs/Striping/Streetlights",
    "request_reason": "Street Light Outage/Malfunction",
    "date_created": "2023-05-25T16:38:44.000",
    "date_modified": "2023-05-25T16:38:45.000",
    "request_status": "Pending",
    "responsible_agency": "Department of Public Works",
    "final_address": "6555 Memphis St",
    "address_councildis": "A",
    "status": "Assigned to Contractor",
    "contractor": "Legacy Professional Services",
    "rowid": "1003007",
    "final_x": "3669624.07943",
    "final_y": "551028.283669",
    "longitude": "-90.10490990952725",
    "latitude": "30.009492065982442",
    "geocoded_column": {
      "latitude": "30.009492065982442",
      "longitude": "-90.10490990952725"
    }
  },
  {
    "service_request": "2023-1003006",
    "request_type": "Trash/Recycling",
    "request_reason": "Illegal Dumping",
    "date_created": "2023-05-25T16:36:56.000",
    "date_modified": "2023-05-25T16:36:57.000",
    "request_status": "Pending",
    "responsible_agency": "Department of Sanitation",
    "final_address": "S CLAIBORNE EXIT & SUPERDOME EXIT",
    "address_councildis": "B",
    "status": "Pending",
    "rowid": "1003006",
    "final_x": "3676275.2",
    "final_y": "529552.98",
    "longitude": "-90.08463606011645",
    "latitude": "29.950244637539292",
    "geocoded_column": {
      "latitude": "29.950244637539292",
      "longitude": "-90.08463606011645"
    }
  },
  {
    "service_request": "2023-1003005",
    "request_type": "Roads/Drainage",
    "request_reason": "Street Subsidence (Sinking)",
    "date_created": "2023-05-25T16:36:43.000",
    "date_modified": "2023-05-25T16:36:43.000",
    "request_status": "Pending",
    "responsible_agency": "Department of Public Works",
    "final_address": "4039 DHemecourt St",
    "address_councildis": "A",
    "status": "Pending",
    "rowid": "1003005",
    "final_x": "3669975.62894",
    "final_y": "536739.590087",
    "longitude": "-90.10428345114431",
    "latitude": "29.970192695962144",
    "geocoded_column": {
      "latitude": "29.970192695962144",
      "longitude": "-90.10428345114431"
    }
  },
  {
    "service_request": "2023-1003003",
    "request_type": "Trash/Recycling",
    "request_reason": "Request a Large Item Pick Up",
    "date_created": "2023-05-25T16:34:57.000",
    "date_modified": "2023-05-25T16:40:22.000",
    "request_status": "Pending",
    "responsible_agency": "Department of Sanitation",
    "final_address": "915 Lowerline St",
    "address_councildis": "A",
    "status": "Assigned to Contractor",
    "contractor": "Richards Disposal",
    "rowid": "1003003",
    "final_x": "3663194.65741",
    "final_y": "526033.772862",
    "longitude": "-90.12605480368654",
    "latitude": "29.940953420906855",
    "geocoded_column": {
      "latitude": "29.940953420906855",
      "longitude": "-90.12605480368654"
    }
  },
  {
    "service_request": "2023-1003002",
    "request_type": "Abandoned Vehicles",
    "request_reason": "Abandoned/Junk Vehicles",
    "date_created": "2023-05-25T16:32:12.000",
    "date_modified": "2023-05-25T16:32:12.000",
    "request_status": "Pending",
    "responsible_agency": "Department of Public Works",
    "final_address": "2081 Hope St",
    "address_councildis": "D",
    "status": "Pending",
    "rowid": "1003002",
    "final_x": "3683203.70293",
    "final_y": "542130.569101",
    "longitude": "-90.06231900370038",
    "latitude": "29.984619235984905",
    "geocoded_column": {
      "latitude": "29.984619235984905",
      "longitude": "-90.06231900370038"
    }
  },
  {
    "service_request": "2023-1003001",
    "request_type": "Trash/Recycling",
    "request_reason": "Missed Trash Pick-Up",
    "date_created": "2023-05-25T16:29:10.000",
    "date_modified": "2023-05-25T16:29:10.000",
    "request_status": "Pending",
    "responsible_agency": "Department of Sanitation",
    "final_address": "7201 General Haig St",
    "address_councildis": "D",
    "status": "Assigned to Contractor",
    "contractor": "IV Waste",
    "rowid": "1003001",
    "final_x": "3671311.55681",
    "final_y": "554609.405528",
    "longitude": "-90.0994567334929",
    "latitude": "30.019289029285687",
    "geocoded_column": {
      "latitude": "30.019289029285687",
      "longitude": "-90.0994567334929"
    }
  },
  {
    "service_request": "2023-1002999",
    "request_type": "Roads/Drainage",
    "request_reason": "Catch Basin - Broken/Damage",
    "date_created": "2023-05-25T16:25:41.000",
    "date_modified": "2023-05-25T16:25:41.000",
    "request_status": "Pending",
    "responsible_agency": "Department of Public Works",
    "final_address": "700 BLK Soniat St",
    "address_councildis": "B",
    "status": "Pending",
    "rowid": "1002999",
    "final_x": "3668323.46286",
    "final_y": "518038.844616",
    "longitude": "-90.11013164576559",
    "latitude": "29.918820332834642",
    "geocoded_column": {
      "latitude": "29.918820332834642",
      "longitude": "-90.11013164576559"
    }
  },
  {
    "service_request": "2023-1002998",
    "request_type": "Mayor's Request",
    "request_reason": "Requests to the Mayor",
    "date_created": "2023-05-25T16:25:31.000",
    "date_modified": "2023-05-25T16:25:31.000",
    "request_status": "Pending",
    "responsible_agency": "Executive Office of the Mayor",
    "final_address": "3012 Delachaise St",
    "address_councildis": "B",
    "status": "Pending",
    "rowid": "1002998",
    "final_x": "3671786.21729",
    "final_y": "526248.82483",
    "longitude": "-90.09892232913019",
    "latitude": "29.941293041127032",
    "geocoded_column": {
      "latitude": "29.941293041127032",
      "longitude": "-90.09892232913019"
    }
  },
  {
    "service_request": "2023-1002997",
    "request_type": "Trash/Recycling",
    "request_reason": "Repair Trash Cart",
    "date_created": "2023-05-25T16:18:23.000",
    "date_modified": "2023-05-25T16:18:23.000",
    "request_status": "Pending",
    "responsible_agency": "Department of Sanitation",
    "final_address": "2727 Milan St",
    "address_councildis": "B",
    "status": "Assigned to Contractor",
    "contractor": "Richards Disposal",
    "rowid": "1002997",
    "final_x": "3671231.74817",
    "final_y": "525040.022333",
    "longitude": "-90.10071395255096",
    "latitude": "29.937985639587758",
    "geocoded_column": {
      "latitude": "29.937985639587758",
      "longitude": "-90.10071395255096"
    }
  },
  {
    "service_request": "2023-1002996",
    "request_type": "Roads/Drainage",
    "request_reason": "Damaged Sidewalk",
    "date_created": "2023-05-25T16:14:29.000",
    "date_modified": "2023-05-25T16:14:29.000",
    "request_status": "Pending",
    "responsible_agency": "Department of Public Works",
    "final_address": "ELYSIAN FIELDS AVE & N MIRO ST & ELYSIAN FIELDS EXIT",
    "address_councildis": "D",
    "status": "Pending",
    "rowid": "1002996",
    "final_x": "3684601.2",
    "final_y": "540350.58",
    "longitude": "-90.05796750758705",
    "latitude": "29.979682194803676",
    "geocoded_column": {
      "latitude": "29.979682194803676",
      "longitude": "-90.05796750758705"
    }
  },
  {
    "service_request": "2023-1002995",
    "request_type": "Trash/Recycling",
    "request_reason": "Repair Recycling Cart",
    "date_created": "2023-05-25T16:13:55.000",
    "date_modified": "2023-05-25T16:13:55.000",
    "request_status": "Pending",
    "responsible_agency": "Department of Sanitation",
    "final_address": "9824 E Rockton Cir",
    "address_councildis": "E",
    "status": "Pending",
    "rowid": "1002995",
    "final_x": "3708408.50603",
    "final_y": "563081.234464",
    "longitude": "-89.98192835419465",
    "latitude": "30.041432655691604",
    "geocoded_column": {
      "latitude": "30.041432655691604",
      "longitude": "-89.98192835419465"
    }
  },
  {
    "service_request": "2023-1002994",
    "request_type": "Trash/Recycling",
    "request_reason": "Dead Animal Pick Up",
    "date_created": "2023-05-25T16:13:10.000",
    "date_modified": "2023-05-25T16:13:11.000",
    "request_status": "Pending",
    "responsible_agency": "Department of Sanitation",
    "final_address": "3300 BLK Montegut St",
    "address_councildis": "D",
    "status": "Assigned to Contractor",
    "contractor": "IV Waste",
    "rowid": "1002994",
    "final_x": "3690661.86733",
    "final_y": "545005.791338",
    "longitude": "-90.03865940280022",
    "latitude": "29.99229547838697",
    "geocoded_column": {
      "latitude": "29.99229547838697",
      "longitude": "-90.03865940280022"
    }
  },
  {
    "service_request": "2023-1002993",
    "request_type": "Property Maintenance",
    "request_reason": "Property Maintenance",
    "date_created": "2023-05-25T16:11:47.000",
    "date_modified": "2023-05-25T16:11:47.000",
    "request_status": "Pending",
    "responsible_agency": "Department of Code Enforcement",
    "final_address": "508 Warrington Dr",
    "address_councildis": "D",
    "status": "Pending",
    "rowid": "1002993",
    "final_x": "3681223.65596",
    "final_y": "548429.604434",
    "longitude": "-90.06835345447101",
    "latitude": "30.00199959690408",
    "geocoded_column": {
      "latitude": "30.00199959690408",
      "longitude": "-90.06835345447101"
    }
  },
  {
    "service_request": "2023-1002992",
    "request_type": "Trash/Recycling",
    "request_reason": "Request a Large Item Pick Up",
    "date_created": "2023-05-25T16:07:56.000",
    "date_modified": "2023-05-25T16:07:57.000",
    "request_status": "Pending",
    "responsible_agency": "Department of Sanitation",
    "final_address": "1936 Robert St",
    "address_councildis": "B",
    "status": "Assigned to Contractor",
    "contractor": "Richards Disposal",
    "rowid": "1002992",
    "final_x": "3668708.51617",
    "final_y": "522810.551803",
    "longitude": "-90.10875526094252",
    "latitude": "29.931929704898003",
    "geocoded_column": {
      "latitude": "29.931929704898003",
      "longitude": "-90.10875526094252"
    }
  },
  {
    "service_request": "2023-1002991",
    "request_type": "Abandoned Vehicles",
    "request_reason": "Abandoned/Junk Vehicles",
    "date_created": "2023-05-25T16:07:32.000",
    "date_modified": "2023-05-25T16:07:32.000",
    "request_status": "Pending",
    "responsible_agency": "Department of Public Works",
    "final_address": "516 Josephine St",
    "address_councildis": "B",
    "status": "Pending",
    "rowid": "1002991",
    "final_x": "3680410.20655",
    "final_y": "520632.44876",
    "longitude": "-90.07188996996925",
    "latitude": "29.925591581529062",
    "geocoded_column": {
      "latitude": "29.925591581529062",
      "longitude": "-90.07188996996925"
    }
  },
  {
    "service_request": "2023-1002990",
    "request_type": "Trash/Recycling",
    "request_reason": "Missed Trash Pick-Up",
    "date_created": "2023-05-25T16:06:07.000",
    "date_modified": "2023-05-25T16:16:07.000",
    "case_close_date": "2023-05-25T11:16:07.000",
    "request_status": "Closed",
    "responsible_agency": "Department of Sanitation",
    "final_address": "7201 General Haig St",
    "address_councildis": "D",
    "status": "Assigned to Contractor",
    "contractor": "IV Waste",
    "contractor_action": "Trash Cart Not Curbside",
    "rowid": "1002990",
    "final_x": "3671311.55681",
    "final_y": "554609.405528",
    "longitude": "-90.0994567334929",
    "latitude": "30.019289029285687",
    "geocoded_column": {
      "latitude": "30.019289029285687",
      "longitude": "-90.0994567334929"
    }
  },
  {
    "service_request": "2023-1002989",
    "request_type": "Property Maintenance",
    "request_reason": "Property Maintenance",
    "date_created": "2023-05-25T16:04:55.000",
    "date_modified": "2023-05-25T16:04:55.000",
    "request_status": "Pending",
    "responsible_agency": "Department of Code Enforcement",
    "final_address": "517 Warrington Dr",
    "address_councildis": "D",
    "status": "Pending",
    "rowid": "1002989",
    "final_x": "3681277.24021",
    "final_y": "548735.258771",
    "longitude": "-90.06817351446739",
    "latitude": "30.002838410286635",
    "geocoded_column": {
      "latitude": "30.002838410286635",
      "longitude": "-90.06817351446739"
    }
  },
  {
    "service_request": "2023-1002988",
    "request_type": "Traffic Signals/Signs/Striping/Streetlights",
    "request_reason": "Street Light Outage/Malfunction",
    "date_created": "2023-05-25T16:04:40.000",
    "date_modified": "2023-05-25T16:04:40.000",
    "request_status": "Pending",
    "responsible_agency": "Department of Public Works",
    "final_address": "82 Tern St",
    "address_councildis": "D",
    "status": "Assigned to Contractor",
    "contractor": "Legacy Professional Services",
    "rowid": "1002988",
    "final_x": "3674768.70005",
    "final_y": "556996.591898",
    "longitude": "-90.08845137621972",
    "latitude": "30.02575011439832",
    "geocoded_column": {
      "latitude": "30.02575011439832",
      "longitude": "-90.08845137621972"
    }
  },
  {
    "service_request": "2023-1002987",
    "request_type": "Trash/Recycling",
    "request_reason": "Request a Large Item Pick Up",
    "date_created": "2023-05-25T16:03:33.000",
    "date_modified": "2023-05-25T16:04:33.000",
    "request_status": "Pending",
    "responsible_agency": "Department of Sanitation",
    "final_address": "621 Webster St",
    "address_councildis": "A",
    "status": "Assigned to Contractor",
    "contractor": "Richards Disposal",
    "rowid": "1002987",
    "final_x": "3663977.83341",
    "final_y": "518922.748599",
    "longitude": "-90.12381914894016",
    "latitude": "29.921377636327936",
    "geocoded_column": {
      "latitude": "29.921377636327936",
      "longitude": "-90.12381914894016"
    }
  },
  {
    "service_request": "2023-1002986",
    "request_type": "Trash/Recycling",
    "request_reason": "Missed Trash Pick-Up",
    "date_created": "2023-05-25T16:01:32.000",
    "date_modified": "2023-05-25T16:01:33.000",
    "request_status": "Pending",
    "responsible_agency": "Department of Sanitation",
    "final_address": "2228 Delachaise St",
    "address_councildis": "B",
    "status": "Assigned to Contractor",
    "contractor": "Richards Disposal",
    "rowid": "1002986",
    "final_x": "3672856.44219",
    "final_y": "523548.383739",
    "longitude": "-90.09563551161291",
    "latitude": "29.93383596055463",
    "geocoded_column": {
      "latitude": "29.93383596055463",
      "longitude": "-90.09563551161291"
    }
  },
  {
    "service_request": "2023-1002985",
    "request_type": "Property Maintenance",
    "request_reason": "Property Maintenance",
    "date_created": "2023-05-25T15:59:20.000",
    "date_modified": "2023-05-25T15:59:20.000",
    "request_status": "Pending",
    "responsible_agency": "Department of Code Enforcement",
    "final_address": "1800 BLK Mirabeau Ave",
    "address_councildis": "D",
    "status": "Pending",
    "rowid": "1002985",
    "final_x": "3681372.93413",
    "final_y": "550535.518467",
    "longitude": "-90.06780839120043",
    "latitude": "30.00778557237076",
    "geocoded_column": {
      "latitude": "30.00778557237076",
      "longitude": "-90.06780839120043"
    }
  },
  {
    "service_request": "2023-1002984",
    "request_type": "Roads/Drainage",
    "request_reason": "Street Subsidence (Sinking)",
    "date_created": "2023-05-25T15:58:56.000",
    "date_modified": "2023-05-25T15:58:56.000",
    "request_status": "Pending",
    "responsible_agency": "Department of Public Works",
    "final_address": "2000 Beck St",
    "address_councildis": "C",
    "status": "Pending",
    "rowid": "1002984",
    "final_x": "3700305.45808",
    "final_y": "523836.965883",
    "longitude": "-90.00897024111896",
    "latitude": "29.933785658975943",
    "geocoded_column": {
      "latitude": "29.933785658975943",
      "longitude": "-90.00897024111896"
    }
  },
  {
    "service_request": "2023-1002983",
    "request_type": "Trash/Recycling",
    "request_reason": "Missed Trash Pick-Up",
    "date_created": "2023-05-25T15:58:00.000",
    "date_modified": "2023-05-25T15:58:01.000",
    "request_status": "Pending",
    "responsible_agency": "Department of Sanitation",
    "final_address": "2228 Delachaise St",
    "address_councildis": "B",
    "status": "Assigned to Contractor",
    "contractor": "Richards Disposal",
    "rowid": "1002983",
    "final_x": "3672856.44219",
    "final_y": "523548.383739",
    "longitude": "-90.09563551161291",
    "latitude": "29.93383596055463",
    "geocoded_column": {
      "latitude": "29.93383596055463",
      "longitude": "-90.09563551161291"
    }
  },
  {
    "service_request": "2023-1002982",
    "request_type": "Roads/Drainage",
    "request_reason": "Damaged Sidewalk",
    "date_created": "2023-05-25T15:53:48.000",
    "date_modified": "2023-05-25T15:53:49.000",
    "request_status": "Pending",
    "responsible_agency": "Department of Public Works",
    "final_address": "FIESTA ST & HOLIDAY DR",
    "address_councildis": "C",
    "status": "Pending",
    "rowid": "1002982",
    "final_x": "3698828.8",
    "final_y": "522341.58",
    "longitude": "-90.01368632248281",
    "latitude": "29.929720710311376",
    "geocoded_column": {
      "latitude": "29.929720710311376",
      "longitude": "-90.01368632248281"
    }
  },
  {
    "service_request": "2023-1002980",
    "request_type": "Trash/Recycling",
    "request_reason": "Request a Large Item Pick Up",
    "date_created": "2023-05-25T15:53:46.000",
    "date_modified": "2023-05-25T15:53:46.000",
    "request_status": "Pending",
    "responsible_agency": "Department of Sanitation",
    "final_address": "4403 Eastview Dr",
    "address_councildis": "E",
    "status": "Assigned to Contractor",
    "contractor": "Waste Pro",
    "rowid": "1002980",
    "final_x": "3705366.04759",
    "final_y": "553305.954839",
    "longitude": "-89.99190521033711",
    "latitude": "30.014652759519564",
    "geocoded_column": {
      "latitude": "30.014652759519564",
      "longitude": "-89.99190521033711"
    }
  },
  {
    "service_request": "2023-1002981",
    "request_type": "Abandoned Vehicles",
    "request_reason": "Abandoned/Junk Vehicles",
    "date_created": "2023-05-25T15:53:46.000",
    "date_modified": "2023-05-25T15:53:46.000",
    "request_status": "Pending",
    "responsible_agency": "Department of Public Works",
    "final_address": "4801 Warrington Dr",
    "address_councildis": "D",
    "status": "Pending",
    "rowid": "1002981",
    "final_x": "3681199.63989",
    "final_y": "550142.494292",
    "longitude": "-90.0683695862054",
    "latitude": "30.00671015883481",
    "geocoded_column": {
      "latitude": "30.00671015883481",
      "longitude": "-90.0683695862054"
    }
  },
  {
    "service_request": "2023-1002979",
    "request_type": "Trash/Recycling",
    "request_reason": "Order Trash Cart",
    "date_created": "2023-05-25T15:49:30.000",
    "date_modified": "2023-05-25T15:49:31.000",
    "request_status": "Pending",
    "responsible_agency": "Department of Sanitation",
    "final_address": "4718 Rosemont Pl",
    "address_councildis": "E",
    "status": "Assigned to Contractor",
    "contractor": "Waste Pro",
    "rowid": "1002979",
    "final_x": "3702677.3274",
    "final_y": "554748.174872",
    "longitude": "-90.00034718470943",
    "latitude": "30.01870458841486",
    "geocoded_column": {
      "latitude": "30.01870458841486",
      "longitude": "-90.00034718470943"
    }
  },
  {
    "service_request": "2023-1002978",
    "request_type": "Trash/Recycling",
    "request_reason": "Order Trash Cart",
    "date_created": "2023-05-25T15:49:11.000",
    "date_modified": "2023-05-25T15:49:12.000",
    "request_status": "Pending",
    "responsible_agency": "Department of Sanitation",
    "final_address": "4716 Rosemont Pl",
    "address_councildis": "E",
    "status": "Assigned to Contractor",
    "contractor": "Waste Pro",
    "rowid": "1002978",
    "final_x": "3702677.32702",
    "final_y": "554734.892888",
    "longitude": "-90.0003476741137",
    "latitude": "30.018668068060553",
    "geocoded_column": {
      "latitude": "30.018668068060553",
      "longitude": "-90.0003476741137"
    }
  },
  {
    "service_request": "2023-1002977",
    "request_type": "Trash/Recycling",
    "request_reason": "Request a Large Item Pick Up",
    "date_created": "2023-05-25T15:49:06.000",
    "date_modified": "2023-05-25T15:49:07.000",
    "request_status": "Pending",
    "responsible_agency": "Department of Sanitation",
    "final_address": "1021 Wilson Dr",
    "address_councildis": "A",
    "status": "Assigned to Contractor",
    "contractor": "Richards Disposal",
    "rowid": "1002977",
    "final_x": "3674392.06894",
    "final_y": "540649.353867",
    "longitude": "-90.09020189136714",
    "latitude": "29.980812218406793",
    "geocoded_column": {
      "latitude": "29.980812218406793",
      "longitude": "-90.09020189136714"
    }
  },
  {
    "service_request": "2023-1002976",
    "request_type": "Trash/Recycling",
    "request_reason": "Request a Large Item Pick Up",
    "date_created": "2023-05-25T15:45:51.000",
    "date_modified": "2023-05-25T15:45:51.000",
    "request_status": "Pending",
    "responsible_agency": "Department of Sanitation",
    "final_address": "3656 Louisiana Avenue Prkwy",
    "address_councildis": "B",
    "status": "Assigned to Contractor",
    "contractor": "Richards Disposal",
    "rowid": "1002976",
    "final_x": "3671377.52987",
    "final_y": "528352.514112",
    "longitude": "-90.10014115543083",
    "latitude": "29.947089599777538",
    "geocoded_column": {
      "latitude": "29.947089599777538",
      "longitude": "-90.10014115543083"
    }
  },
  {
    "service_request": "2023-1002975",
    "request_type": "Trash/Recycling",
    "request_reason": "Repair Trash Cart",
    "date_created": "2023-05-25T15:45:48.000",
    "date_modified": "2023-05-25T15:45:49.000",
    "request_status": "Pending",
    "responsible_agency": "Department of Sanitation",
    "final_address": "5761 Eastover Dr",
    "address_councildis": "E",
    "status": "Assigned to Contractor",
    "contractor": "Waste Pro",
    "rowid": "1002975",
    "final_x": "3719203.27327",
    "final_y": "563515.731616",
    "longitude": "-89.94779681823009",
    "latitude": "30.04227286341415",
    "geocoded_column": {
      "latitude": "30.04227286341415",
      "longitude": "-89.94779681823009"
    }
  },
  {
    "service_request": "2023-1002974",
    "request_type": "Traffic Signals/Signs/Striping/Streetlights",
    "request_reason": "Street Light Outage/Malfunction",
    "date_created": "2023-05-25T15:41:41.000",
    "date_modified": "2023-05-25T15:41:42.000",
    "request_status": "Pending",
    "responsible_agency": "Department of Public Works",
    "final_address": "4517 Chantilly Dr",
    "address_councildis": "E",
    "status": "Assigned to Contractor",
    "contractor": "Legacy Professional Services",
    "rowid": "1002974",
    "final_x": "3701074.56689",
    "final_y": "553001.133591",
    "longitude": "-90.00547526706778",
    "latitude": "30.01395206049206",
    "geocoded_column": {
      "latitude": "30.01395206049206",
      "longitude": "-90.00547526706778"
    }
  },
  {
    "service_request": "2023-1002973",
    "request_type": "Trash/Recycling",
    "request_reason": "Missed Trash Pick-Up",
    "date_created": "2023-05-25T15:38:53.000",
    "date_modified": "2023-05-25T15:38:54.000",
    "request_status": "Pending",
    "responsible_agency": "Department of Sanitation",
    "final_address": "1100 BLK Adams St",
    "address_councildis": "A",
    "status": "Assigned to Contractor",
    "contractor": "Richards Disposal",
    "rowid": "1002973",
    "final_x": "3662937.24135",
    "final_y": "527247.551264",
    "longitude": "-90.12682716627727",
    "latitude": "29.944298379359417",
    "geocoded_column": {
      "latitude": "29.944298379359417",
      "longitude": "-90.12682716627727"
    }
  },
  {
    "service_request": "2023-1002972",
    "request_type": "Trash/Recycling",
    "request_reason": "Order Recycling Cart",
    "date_created": "2023-05-25T15:38:01.000",
    "date_modified": "2023-05-25T15:38:01.000",
    "request_status": "Pending",
    "responsible_agency": "Department of Sanitation",
    "final_address": "7309 Mayo Rd",
    "address_councildis": "E",
    "status": "Pending",
    "rowid": "1002972",
    "final_x": "3701214.55025",
    "final_y": "559900.015005",
    "longitude": "-90.00478026822975",
    "latitude": "30.032916874032527",
    "geocoded_column": {
      "latitude": "30.032916874032527",
      "longitude": "-90.00478026822975"
    }
  },
  {
    "service_request": "2023-1002971",
    "request_type": "Abandoned Vehicles",
    "request_reason": "Abandoned/Junk Vehicles",
    "date_created": "2023-05-25T15:36:26.000",
    "date_modified": "2023-05-25T15:38:37.000",
    "request_status": "Pending",
    "responsible_agency": "Department of Public Works",
    "final_address": "6217 Bienvenue St",
    "address_councildis": "E",
    "status": "Pending",
    "rowid": "1002971",
    "final_x": "3699034.2257",
    "final_y": "530792.574082",
    "longitude": "-90.01273036167628",
    "latitude": "29.952951489871495",
    "geocoded_column": {
      "latitude": "29.952951489871495",
      "longitude": "-90.01273036167628"
    }
  },
  {
    "service_request": "2023-1002970",
    "request_type": "Trash/Recycling",
    "request_reason": "Request a Large Item Pick Up",
    "date_created": "2023-05-25T15:35:42.000",
    "date_modified": "2023-05-25T15:35:43.000",
    "request_status": "Pending",
    "responsible_agency": "Department of Sanitation",
    "final_address": "4752 Tulip St",
    "address_councildis": "E",
    "status": "Assigned to Contractor",
    "contractor": "Waste Pro",
    "rowid": "1002970",
    "final_x": "3702008.23217",
    "final_y": "554320.181976",
    "longitude": "-90.00247697706413",
    "latitude": "30.017549157089434",
    "geocoded_column": {
      "latitude": "30.017549157089434",
      "longitude": "-90.00247697706413"
    }
  },
  {
    "service_request": "2023-1002969",
    "request_type": "Roads/Drainage",
    "request_reason": "Street Subsidence (Sinking)",
    "date_created": "2023-05-25T15:33:26.000",
    "date_modified": "2023-05-25T15:33:26.000",
    "request_status": "Pending",
    "responsible_agency": "Department of Public Works",
    "final_address": "6029 Benjamin St",
    "address_councildis": "A",
    "status": "Pending",
    "rowid": "1002969",
    "final_x": "3665348.29159",
    "final_y": "522278.860474",
    "longitude": "-90.119380961599",
    "latitude": "29.930566038791415",
    "geocoded_column": {
      "latitude": "29.930566038791415",
      "longitude": "-90.119380961599"
    }
  },
  {
    "service_request": "2023-1002968",
    "request_type": "Property Maintenance",
    "request_reason": "Property Maintenance",
    "date_created": "2023-05-25T15:32:49.000",
    "date_modified": "2023-05-25T15:32:50.000",
    "request_status": "Pending",
    "responsible_agency": "Department of Code Enforcement",
    "final_address": "2704 Mandeville St",
    "address_councildis": "D",
    "status": "Pending",
    "rowid": "1002968",
    "final_x": "3685228.5885",
    "final_y": "542708.750989",
    "longitude": "-90.05590293002524",
    "latitude": "29.98614711653425",
    "geocoded_column": {
      "latitude": "29.98614711653425",
      "longitude": "-90.05590293002524"
    }
  },
  {
    "service_request": "2023-1002967",
    "request_type": "Trash/Recycling",
    "request_reason": "Missed Trash Pick-Up",
    "date_created": "2023-05-25T15:29:27.000",
    "date_modified": "2023-05-25T15:29:28.000",
    "request_status": "Pending",
    "responsible_agency": "Department of Sanitation",
    "final_address": "2012 Simon Bolivar Ave",
    "address_councildis": "B",
    "status": "Assigned to Contractor",
    "contractor": "Richards Disposal",
    "rowid": "1002967",
    "final_x": "3676747.56609",
    "final_y": "525790.059197",
    "longitude": "-90.08327419525467",
    "latitude": "29.939883688670534",
    "geocoded_column": {
      "latitude": "29.939883688670534",
      "longitude": "-90.08327419525467"
    }
  },
  {
    "service_request": "2023-1002966",
    "request_type": "Trash/Recycling",
    "request_reason": "MIssed Recycling Pick-Up",
    "date_created": "2023-05-25T15:24:59.000",
    "date_modified": "2023-05-25T15:25:00.000",
    "request_status": "Pending",
    "responsible_agency": "Department of Sanitation",
    "final_address": "5223 S Derbigny St",
    "address_councildis": "B",
    "status": "Assigned to Contractor",
    "contractor": "Richards Disposal",
    "rowid": "1002966",
    "final_x": "3668665.11527",
    "final_y": "526314.708158",
    "longitude": "-90.10877405106785",
    "latitude": "29.94156628366126",
    "geocoded_column": {
      "latitude": "29.94156628366126",
      "longitude": "-90.10877405106785"
    }
  },
  {
    "service_request": "2023-1002965",
    "request_type": "Trash/Recycling",
    "request_reason": "Request a Large Item Pick Up",
    "date_created": "2023-05-25T15:22:37.000",
    "date_modified": "2023-05-25T15:22:38.000",
    "request_status": "Pending",
    "responsible_agency": "Department of Sanitation",
    "final_address": "8630 Marks St",
    "address_councildis": "A",
    "status": "Assigned to Contractor",
    "contractor": "Richards Disposal",
    "rowid": "1002965",
    "final_x": "3667364.9257",
    "final_y": "537324.838408",
    "longitude": "-90.11250866290149",
    "latitude": "29.97187867380798",
    "geocoded_column": {
      "latitude": "29.97187867380798",
      "longitude": "-90.11250866290149"
    }
  },
  {
    "service_request": "2023-1002964",
    "request_type": "Trash/Recycling",
    "request_reason": "Repair Trash Cart",
    "date_created": "2023-05-25T15:20:00.000",
    "date_modified": "2023-05-25T15:20:02.000",
    "request_status": "Pending",
    "responsible_agency": "Department of Sanitation",
    "final_address": "1719 Toledano St",
    "address_councildis": "B",
    "status": "Assigned to Contractor",
    "contractor": "Richards Disposal",
    "rowid": "1002964",
    "final_x": "3674403.64788",
    "final_y": "522246.697082",
    "longitude": "-90.09079560780958",
    "latitude": "29.930210700280217",
    "geocoded_column": {
      "latitude": "29.930210700280217",
      "longitude": "-90.09079560780958"
    }
  },
  {
    "service_request": "2023-1002963",
    "request_type": "Property Maintenance",
    "request_reason": "Property Maintenance",
    "date_created": "2023-05-25T15:19:45.000",
    "date_modified": "2023-05-25T15:19:45.000",
    "request_status": "Pending",
    "responsible_agency": "Department of Code Enforcement",
    "final_address": "2110 Cypress Acres Dr",
    "address_councildis": "C",
    "status": "Pending",
    "rowid": "1002963",
    "final_x": "3696281.63395",
    "final_y": "522977.003195",
    "longitude": "-90.0217042749447",
    "latitude": "29.93154832314434",
    "geocoded_column": {
      "latitude": "29.93154832314434",
      "longitude": "-90.0217042749447"
    }
  },
  {
    "service_request": "2023-1002962",
    "request_type": "Trash/Recycling",
    "request_reason": "Request a Large Item Pick Up",
    "date_created": "2023-05-25T15:13:13.000",
    "date_modified": "2023-05-25T15:13:14.000",
    "request_status": "Pending",
    "responsible_agency": "Department of Sanitation",
    "final_address": "4614 Danneel St",
    "address_councildis": "B",
    "status": "Assigned to Contractor",
    "contractor": "Richards Disposal",
    "rowid": "1002962",
    "final_x": "3669849.86023",
    "final_y": "522150.223354",
    "longitude": "-90.10517449164134",
    "latitude": "29.930080424074074",
    "geocoded_column": {
      "latitude": "29.930080424074074",
      "longitude": "-90.10517449164134"
    }
  },
  {
    "service_request": "2023-1002961",
    "request_type": "Trash/Recycling",
    "request_reason": "Request a Large Item Pick Up",
    "date_created": "2023-05-25T15:07:27.000",
    "date_modified": "2023-05-25T15:07:27.000",
    "request_status": "Pending",
    "responsible_agency": "Department of Sanitation",
    "final_address": "820 State St",
    "address_councildis": "A",
    "status": "Assigned to Contractor",
    "contractor": "Richards Disposal",
    "rowid": "1002961",
    "final_x": "3664712.71674",
    "final_y": "519441.147703",
    "longitude": "-90.12148212879904",
    "latitude": "29.922781721328786",
    "geocoded_column": {
      "latitude": "29.922781721328786",
      "longitude": "-90.12148212879904"
    }
  },
  {
    "service_request": "2023-1002960",
    "request_type": "Property Maintenance",
    "request_reason": "Property Maintenance",
    "date_created": "2023-05-25T15:03:24.000",
    "date_modified": "2023-05-25T15:03:24.000",
    "request_status": "Pending",
    "responsible_agency": "Department of Code Enforcement",
    "final_address": "0 BLK Saint Claude Ct",
    "address_councildis": "E",
    "status": "Pending",
    "rowid": "1002960",
    "final_x": "3697482.96917",
    "final_y": "533663.47544",
    "longitude": "-90.01752442169504",
    "latitude": "29.9608945230418",
    "geocoded_column": {
      "latitude": "29.9608945230418",
      "longitude": "-90.01752442169504"
    }
  },
  {
    "service_request": "2023-1002959",
    "request_type": "Trash/Recycling",
    "request_reason": "Request a Large Item Pick Up",
    "date_created": "2023-05-25T15:01:55.000",
    "date_modified": "2023-05-25T15:01:56.000",
    "request_status": "Pending",
    "responsible_agency": "Department of Sanitation",
    "final_address": "2236 Jefferson Ave",
    "address_councildis": "A",
    "status": "Assigned to Contractor",
    "contractor": "Richards Disposal",
    "rowid": "1002959",
    "final_x": "3667813.19559",
    "final_y": "523963.293884",
    "longitude": "-90.11154290008324",
    "latitude": "29.935125656901313",
    "geocoded_column": {
      "latitude": "29.935125656901313",
      "longitude": "-90.11154290008324"
    }
  },
  {
    "service_request": "2023-1002958",
    "request_type": "Property Maintenance",
    "request_reason": "Property Maintenance",
    "date_created": "2023-05-25T15:01:24.000",
    "date_modified": "2023-05-25T15:01:24.000",
    "request_status": "Pending",
    "responsible_agency": "Department of Code Enforcement",
    "final_address": "LAW ST & EGANIA ST",
    "address_councildis": "E",
    "status": "Pending",
    "rowid": "1002958",
    "final_x": "3698380.2",
    "final_y": "539683.58",
    "longitude": "-90.0144723449726",
    "latitude": "29.97741928961419",
    "geocoded_column": {
      "latitude": "29.97741928961419",
      "longitude": "-90.0144723449726"
    }
  },
  {
    "service_request": "2023-1002957",
    "request_type": "Trash/Recycling",
    "request_reason": "Start Trash Service",
    "date_created": "2023-05-25T14:56:15.000",
    "date_modified": "2023-05-25T14:56:16.000",
    "request_status": "Pending",
    "responsible_agency": "Department of Sanitation",
    "final_address": "1610 Pine St",
    "address_councildis": "A",
    "status": "Assigned to Contractor",
    "contractor": "Richards Disposal",
    "rowid": "1002957",
    "final_x": "3664758.04199",
    "final_y": "527974.696639",
    "longitude": "-90.12105406463475",
    "latitude": "29.94624495304063",
    "geocoded_column": {
      "latitude": "29.94624495304063",
      "longitude": "-90.12105406463475"
    }
  },
  {
    "service_request": "2023-1002956",
    "request_type": "Trash/Recycling",
    "request_reason": "Missed Trash Pick-Up",
    "date_created": "2023-05-25T14:54:33.000",
    "date_modified": "2023-05-25T14:54:33.000",
    "request_status": "Pending",
    "responsible_agency": "Department of Sanitation",
    "final_address": "2349 Magazine St",
    "address_councildis": "B",
    "status": "Assigned to Contractor",
    "contractor": "Richards Disposal",
    "rowid": "1002956",
    "final_x": "3678204.50888",
    "final_y": "521638.406009",
    "longitude": "-90.07881791789399",
    "latitude": "29.92842422034972",
    "geocoded_column": {
      "latitude": "29.92842422034972",
      "longitude": "-90.07881791789399"
    }
  },
  {
    "service_request": "2023-1002955",
    "request_type": "Trash/Recycling",
    "request_reason": "Request a Large Item Pick Up",
    "date_created": "2023-05-25T14:54:28.000",
    "date_modified": "2023-05-25T14:54:29.000",
    "request_status": "Pending",
    "responsible_agency": "Department of Sanitation",
    "final_address": "6030 Perrier St",
    "address_councildis": "A",
    "status": "Assigned to Contractor",
    "contractor": "Richards Disposal",
    "rowid": "1002955",
    "final_x": "3664864.0137",
    "final_y": "520542.62348",
    "longitude": "-90.12096775408406",
    "latitude": "29.92580603324055",
    "geocoded_column": {
      "latitude": "29.92580603324055",
      "longitude": "-90.12096775408406"
    }
  },
  {
    "service_request": "2023-1002954",
    "request_type": "Trash/Recycling",
    "request_reason": "Illegal Dumping",
    "date_created": "2023-05-25T14:48:31.000",
    "date_modified": "2023-05-25T14:48:31.000",
    "request_status": "Pending",
    "responsible_agency": "Department of Sanitation",
    "final_address": "WAGNER ST & PATTERSON ST",
    "address_councildis": "C",
    "status": "Pending",
    "rowid": "1002954",
    "final_x": "3690648.4",
    "final_y": "530944.08",
    "longitude": "-90.03920360868892",
    "latitude": "29.953631164255867",
    "geocoded_column": {
      "latitude": "29.953631164255867",
      "longitude": "-90.03920360868892"
    }
  },
  {
    "service_request": "2023-1002953",
    "request_type": "Trash/Recycling",
    "request_reason": "Replace Trash Cart",
    "date_created": "2023-05-25T14:45:59.000",
    "date_modified": "2023-05-25T14:45:59.000",
    "request_status": "Pending",
    "responsible_agency": "Department of Sanitation",
    "final_address": "2335 Canal St",
    "address_councildis": "B",
    "status": "Assigned to Contractor",
    "contractor": "Richards Disposal",
    "rowid": "1002953",
    "final_x": "3676562.00929",
    "final_y": "534372.790405",
    "longitude": "-90.08356447911187",
    "latitude": "29.96348890175138",
    "geocoded_column": {
      "latitude": "29.96348890175138",
      "longitude": "-90.08356447911187"
    }
  },
  {
    "service_request": "2023-1002952",
    "request_type": "Trash/Recycling",
    "request_reason": "Repair Trash Cart",
    "date_created": "2023-05-25T14:45:29.000",
    "date_modified": "2023-05-25T14:45:30.000",
    "request_status": "Pending",
    "responsible_agency": "Department of Sanitation",
    "final_address": "7621 Shaw Ave",
    "address_councildis": "E",
    "status": "Assigned to Contractor",
    "contractor": "Waste Pro",
    "rowid": "1002952",
    "final_x": "3707213.38718",
    "final_y": "564300.144225",
    "longitude": "-89.98566002124048",
    "latitude": "30.04482287459723",
    "geocoded_column": {
      "latitude": "30.04482287459723",
      "longitude": "-89.98566002124048"
    }
  },
  {
    "service_request": "2023-1002951",
    "request_type": "Trash/Recycling",
    "request_reason": "Order Recycling Cart",
    "date_created": "2023-05-25T14:44:43.000",
    "date_modified": "2023-05-25T14:44:43.000",
    "request_status": "Pending",
    "responsible_agency": "Department of Sanitation",
    "final_address": "3735 Piedmont Dr",
    "address_councildis": "D",
    "status": "Pending",
    "rowid": "1002951",
    "final_x": "3685756.80802",
    "final_y": "546684.592337",
    "longitude": "-90.05409429250982",
    "latitude": "29.99706305792081",
    "geocoded_column": {
      "latitude": "29.99706305792081",
      "longitude": "-90.05409429250982"
    }
  },
  {
    "service_request": "2023-1002950",
    "request_type": "Trash/Recycling",
    "request_reason": "Repair Trash Cart",
    "date_created": "2023-05-25T14:44:27.000",
    "date_modified": "2023-05-25T14:44:27.000",
    "request_status": "Pending",
    "responsible_agency": "Department of Sanitation",
    "final_address": "3735 Piedmont Dr",
    "address_councildis": "D",
    "status": "Assigned to Contractor",
    "contractor": "IV Waste",
    "rowid": "1002950",
    "final_x": "3685756.80802",
    "final_y": "546684.592337",
    "longitude": "-90.05409429250982",
    "latitude": "29.99706305792081",
    "geocoded_column": {
      "latitude": "29.99706305792081",
      "longitude": "-90.05409429250982"
    }
  },
  {
    "service_request": "2023-1002949",
    "request_type": "Property Maintenance",
    "request_reason": "Property Maintenance",
    "date_created": "2023-05-25T14:40:56.000",
    "date_modified": "2023-05-25T14:40:56.000",
    "request_status": "Pending",
    "responsible_agency": "Department of Code Enforcement",
    "final_address": "ST ANDREW ST & MAGNOLIA ST",
    "address_councildis": "B",
    "status": "Pending",
    "rowid": "1002949",
    "final_x": "3675633.4",
    "final_y": "527186.18",
    "longitude": "-90.08674383088689",
    "latitude": "29.943755936794375",
    "geocoded_column": {
      "latitude": "29.943755936794375",
      "longitude": "-90.08674383088689"
    }
  },
  {
    "service_request": "2023-1002948",
    "request_type": "Parks & Parkways",
    "request_reason": "Request Tree Service (Right of Way/Public Property)",
    "date_created": "2023-05-25T14:34:30.000",
    "date_modified": "2023-05-25T14:34:30.000",
    "request_status": "Pending",
    "responsible_agency": "Department of Parks & Parkway",
    "final_address": "2200 BLK Prentiss Ave",
    "address_councildis": "D",
    "status": "Pending",
    "rowid": "1002948",
    "final_x": "3683839.34784",
    "final_y": "553801.54015",
    "longitude": "-90.05990160022556",
    "latitude": "30.016690810993474",
    "geocoded_column": {
      "latitude": "30.016690810993474",
      "longitude": "-90.05990160022556"
    }
  },
  {
    "service_request": "2023-1002947",
    "request_type": "Trash/Recycling",
    "request_reason": "Replace Trash Cart",
    "date_created": "2023-05-25T14:33:55.000",
    "date_modified": "2023-05-25T15:53:30.000",
    "case_close_date": "2023-05-25T10:53:30.000",
    "request_status": "Closed",
    "responsible_agency": "Department of Sanitation",
    "final_address": "7621 Shaw Ave",
    "address_councildis": "E",
    "status": "Duplicate Request",
    "contractor": "Waste Pro",
    "contractor_action": "duplicate",
    "rowid": "1002947",
    "final_x": "3707213.38718",
    "final_y": "564300.144225",
    "longitude": "-89.98566002124048",
    "latitude": "30.04482287459723",
    "geocoded_column": {
      "latitude": "30.04482287459723",
      "longitude": "-89.98566002124048"
    }
  },
  {
    "service_request": "2023-1002946",
    "request_type": "Traffic Signals/Signs/Striping/Streetlights",
    "request_reason": "Traffic Signal Malfunctioning/Damaged",
    "date_created": "2023-05-25T14:33:01.000",
    "date_modified": "2023-05-25T14:33:01.000",
    "request_status": "Pending",
    "responsible_agency": "Department of Public Works",
    "final_address": "2502 Napoleon Ave",
    "address_councildis": "B",
    "status": "Pending",
    "rowid": "1002946",
    "final_x": "3670433.4635",
    "final_y": "524073.618044",
    "longitude": "-90.10326696541658",
    "latitude": "29.935351928277665",
    "geocoded_column": {
      "latitude": "29.935351928277665",
      "longitude": "-90.10326696541658"
    }
  },
  {
    "service_request": "2023-1002945",
    "request_type": "Trash/Recycling",
    "request_reason": "Repair Trash Cart",
    "date_created": "2023-05-25T14:31:59.000",
    "date_modified": "2023-05-25T14:32:00.000",
    "request_status": "Pending",
    "responsible_agency": "Department of Sanitation",
    "final_address": "2404 S Galvez St",
    "address_councildis": "B",
    "status": "Assigned to Contractor",
    "contractor": "Richards Disposal",
    "rowid": "1002945",
    "final_x": "3673229.52859",
    "final_y": "528721.233088",
    "longitude": "-90.09428110355285",
    "latitude": "29.94804851971",
    "geocoded_column": {
      "latitude": "29.94804851971",
      "longitude": "-90.09428110355285"
    }
  },
  {
    "service_request": "2023-1002944",
    "request_type": "Trash/Recycling",
    "request_reason": "MIssed Recycling Pick-Up",
    "date_created": "2023-05-25T14:30:28.000",
    "date_modified": "2023-05-25T14:30:29.000",
    "request_status": "Pending",
    "responsible_agency": "Department of Sanitation",
    "final_address": "1423 Louisiana Ave",
    "address_councildis": "B",
    "status": "Assigned to Contractor",
    "contractor": "Richards Disposal",
    "rowid": "1002944",
    "final_x": "3674614.88027",
    "final_y": "520783.384313",
    "longitude": "-90.09017889768381",
    "latitude": "29.92618076309797",
    "geocoded_column": {
      "latitude": "29.92618076309797",
      "longitude": "-90.09017889768381"
    }
  },
  {
    "service_request": "2023-1002943",
    "request_type": "Parks & Parkways",
    "request_reason": "Request Tree Service (Right of Way/Public Property)",
    "date_created": "2023-05-25T14:28:39.000",
    "date_modified": "2023-05-25T14:51:51.000",
    "case_close_date": "2023-05-25T09:51:51.000",
    "request_status": "Closed",
    "responsible_agency": "Department of Parks & Parkway",
    "final_address": "1119 Eighth St",
    "address_councildis": "B",
    "status": "Referred to Property Owner",
    "rowid": "1002943",
    "final_x": "3676048.69461",
    "final_y": "520373.015224",
    "longitude": "-90.08566685891275",
    "latitude": "29.92500952943907",
    "geocoded_column": {
      "latitude": "29.92500952943907",
      "longitude": "-90.08566685891275"
    }
  },
  {
    "service_request": "2023-1002942",
    "request_type": "Abandoned Vehicles",
    "request_reason": "Abandoned/Junk Vehicles",
    "date_created": "2023-05-25T14:28:20.000",
    "date_modified": "2023-05-25T14:28:20.000",
    "request_status": "Pending",
    "responsible_agency": "Department of Public Works",
    "final_address": "11126 Curran Rd",
    "address_councildis": "E",
    "status": "Pending",
    "rowid": "1002942",
    "final_x": "3710837.44094",
    "final_y": "566253.858083",
    "longitude": "-89.97413318271148",
    "latitude": "30.05007710173681",
    "geocoded_column": {
      "latitude": "30.05007710173681",
      "longitude": "-89.97413318271148"
    }
  },
  {
    "service_request": "2023-1002941",
    "request_type": "Traffic Signals/Signs/Striping/Streetlights",
    "request_reason": "Street Light Outage/Malfunction",
    "date_created": "2023-05-25T14:26:33.000",
    "date_modified": "2023-05-25T14:26:34.000",
    "request_status": "Pending",
    "responsible_agency": "Department of Public Works",
    "final_address": "7111 Lake Barrington Dr",
    "address_councildis": "E",
    "status": "Assigned to Contractor",
    "contractor": "Legacy Professional Services",
    "rowid": "1002941",
    "final_x": "3712496.21234",
    "final_y": "564136.033825",
    "longitude": "-89.96897016804078",
    "latitude": "30.044199735284042",
    "geocoded_column": {
      "latitude": "30.044199735284042",
      "longitude": "-89.96897016804078"
    }
  },
  {
    "service_request": "2023-1002940",
    "request_type": "Trash/Recycling",
    "request_reason": "MIssed Recycling Pick-Up",
    "date_created": "2023-05-25T14:25:24.000",
    "date_modified": "2023-05-25T14:25:25.000",
    "request_status": "Pending",
    "responsible_agency": "Department of Sanitation",
    "final_address": "7001 E Tamaron Blvd",
    "address_councildis": "E",
    "status": "Assigned to Contractor",
    "contractor": "Waste Pro",
    "rowid": "1002940",
    "final_x": "3719028.29778",
    "final_y": "568215.846437",
    "longitude": "-89.94817023577328",
    "latitude": "30.05520206189348",
    "geocoded_column": {
      "latitude": "30.05520206189348",
      "longitude": "-89.94817023577328"
    }
  },
  {
    "service_request": "2023-1002939",
    "request_type": "Trash/Recycling",
    "request_reason": "Missed Trash Pick-Up",
    "date_created": "2023-05-25T14:25:00.000",
    "date_modified": "2023-05-25T14:25:01.000",
    "request_status": "Pending",
    "responsible_agency": "Department of Sanitation",
    "final_address": "1042 Annunciation St",
    "address_councildis": "B",
    "status": "Assigned to Contractor",
    "contractor": "Empire Services",
    "rowid": "1002939",
    "final_x": "3681651.72968",
    "final_y": "526190.140222",
    "longitude": "-90.06777709544406",
    "latitude": "29.940835753777097",
    "geocoded_column": {
      "latitude": "29.940835753777097",
      "longitude": "-90.06777709544406"
    }
  },
  {
    "service_request": "2023-1002938",
    "request_type": "Trash/Recycling",
    "request_reason": "Order Recycling Cart",
    "date_created": "2023-05-25T14:23:57.000",
    "date_modified": "2023-05-25T14:23:57.000",
    "request_status": "Pending",
    "responsible_agency": "Department of Sanitation",
    "final_address": "1714 Constantinople St",
    "address_councildis": "B",
    "status": "Pending",
    "rowid": "1002938",
    "final_x": "3672200.36283",
    "final_y": "521538.309369",
    "longitude": "-90.0977751545932",
    "latitude": "29.928328373796127",
    "geocoded_column": {
      "latitude": "29.928328373796127",
      "longitude": "-90.0977751545932"
    }
  },
  {
    "service_request": "2023-1002937",
    "request_type": "Roads/Drainage",
    "request_reason": "Damaged Sidewalk",
    "date_created": "2023-05-25T14:23:44.000",
    "date_modified": "2023-05-25T14:23:44.000",
    "request_status": "Pending",
    "responsible_agency": "Department of Public Works",
    "final_address": "7111 Lake Barrington Dr",
    "address_councildis": "E",
    "status": "Pending",
    "rowid": "1002937",
    "final_x": "3712496.21234",
    "final_y": "564136.033825",
    "longitude": "-89.96897016804078",
    "latitude": "30.044199735284042",
    "geocoded_column": {
      "latitude": "30.044199735284042",
      "longitude": "-89.96897016804078"
    }
  },
  {
    "service_request": "2023-1002936",
    "request_type": "Abandoned Vehicles",
    "request_reason": "Abandoned/Junk Vehicles",
    "date_created": "2023-05-25T14:23:08.000",
    "date_modified": "2023-05-25T14:24:14.000",
    "request_status": "Pending",
    "responsible_agency": "Department of Public Works",
    "final_address": "2514 Willow St",
    "address_councildis": "B",
    "status": "Pending",
    "rowid": "1002936",
    "final_x": "3674092.15368",
    "final_y": "526755.155518",
    "longitude": "-90.09162471399719",
    "latitude": "29.942616776373942",
    "geocoded_column": {
      "latitude": "29.942616776373942",
      "longitude": "-90.09162471399719"
    }
  },
  {
    "service_request": "2023-1002935",
    "request_type": "Trash/Recycling",
    "request_reason": "Request a Large Item Pick Up",
    "date_created": "2023-05-25T14:19:45.000",
    "date_modified": "2023-05-25T14:19:46.000",
    "request_status": "Pending",
    "responsible_agency": "Department of Sanitation",
    "final_address": "2413 Marengo St",
    "address_councildis": "B",
    "status": "Assigned to Contractor",
    "contractor": "Richards Disposal",
    "rowid": "1002935",
    "final_x": "3671709.66324",
    "final_y": "523925.422716",
    "longitude": "-90.09924302925505",
    "latitude": "29.93490670662304",
    "geocoded_column": {
      "latitude": "29.93490670662304",
      "longitude": "-90.09924302925505"
    }
  },
  {
    "service_request": "2023-1002934",
    "request_type": "Trash/Recycling",
    "request_reason": "Repair Trash Cart",
    "date_created": "2023-05-25T14:19:05.000",
    "date_modified": "2023-05-25T14:19:06.000",
    "request_status": "Pending",
    "responsible_agency": "Department of Sanitation",
    "final_address": "1737 Calhoun St",
    "address_councildis": "A",
    "status": "Assigned to Contractor",
    "contractor": "Richards Disposal",
    "rowid": "1002934",
    "final_x": "3665278.5193",
    "final_y": "523693.675835",
    "longitude": "-90.11955391138589",
    "latitude": "29.93445836461897",
    "geocoded_column": {
      "latitude": "29.93445836461897",
      "longitude": "-90.11955391138589"
    }
  },
  {
    "service_request": "2023-1002933",
    "request_type": "Trash/Recycling",
    "request_reason": "Order Recycling Cart",
    "date_created": "2023-05-25T14:18:13.000",
    "date_modified": "2023-05-25T14:18:13.000",
    "request_status": "Pending",
    "responsible_agency": "Department of Sanitation",
    "final_address": "1420 Terpsichore St",
    "address_councildis": "B",
    "status": "Pending",
    "rowid": "1002933",
    "final_x": "3679617.6733",
    "final_y": "524815.81926",
    "longitude": "-90.07424664693501",
    "latitude": "29.937118442984104",
    "geocoded_column": {
      "latitude": "29.937118442984104",
      "longitude": "-90.07424664693501"
    }
  },
  {
    "service_request": "2023-1002932",
    "request_type": "Trash/Recycling",
    "request_reason": "Request a Large Item Pick Up",
    "date_created": "2023-05-25T14:17:57.000",
    "date_modified": "2023-05-25T14:17:57.000",
    "request_status": "Pending",
    "responsible_agency": "Department of Sanitation",
    "final_address": "2238 Jefferson Ave",
    "address_councildis": "A",
    "status": "Assigned to Contractor",
    "contractor": "Richards Disposal",
    "rowid": "1002932",
    "final_x": "3667813.19559",
    "final_y": "523963.293884",
    "longitude": "-90.11154290008324",
    "latitude": "29.935125656901313",
    "geocoded_column": {
      "latitude": "29.935125656901313",
      "longitude": "-90.11154290008324"
    }
  },
  {
    "service_request": "2023-1002931",
    "request_type": "Safety & Permits",
    "request_reason": "Licenses & Permits",
    "date_created": "2023-05-25T14:14:25.000",
    "date_modified": "2023-05-25T14:14:25.000",
    "request_status": "Pending",
    "responsible_agency": "Safety and Permits",
    "final_address": "7412 Wayfarer St",
    "address_councildis": "E",
    "status": "Pending",
    "rowid": "1002931",
    "final_x": "3725799.49164",
    "final_y": "569870.913254",
    "longitude": "-89.92670396116178",
    "latitude": "30.05952599155108",
    "geocoded_column": {
      "latitude": "30.05952599155108",
      "longitude": "-89.92670396116178"
    }
  },
  {
    "service_request": "2023-1002930",
    "request_type": "Safety & Permits",
    "request_reason": "Construction permit",
    "date_created": "2023-05-25T14:13:00.000",
    "date_modified": "2023-05-25T14:13:01.000",
    "request_status": "Pending",
    "responsible_agency": "Department of Code Enforcement",
    "final_address": "7412 Wayfarer St",
    "address_councildis": "E",
    "status": "Pending",
    "rowid": "1002930",
    "final_x": "3725799.49164",
    "final_y": "569870.913254",
    "longitude": "-89.92670396116178",
    "latitude": "30.05952599155108",
    "geocoded_column": {
      "latitude": "30.05952599155108",
      "longitude": "-89.92670396116178"
    }
  },
  {
    "service_request": "2023-1002929",
    "request_type": "Abandoned Vehicles",
    "request_reason": "Abandoned/Junk Vehicles",
    "date_created": "2023-05-25T14:08:43.000",
    "date_modified": "2023-05-25T14:11:53.000",
    "request_status": "Pending",
    "responsible_agency": "Department of Public Works",
    "final_address": "1500 BLK Tita St",
    "address_councildis": "C",
    "status": "Pending",
    "rowid": "1002929",
    "final_x": "3695630.75962",
    "final_y": "525697.665584",
    "longitude": "-90.02366082999276",
    "latitude": "29.939049680321435",
    "geocoded_column": {
      "latitude": "29.939049680321435",
      "longitude": "-90.02366082999276"
    }
  },