[
  {
    "service_request": "2022-853111",
    "request_type": "Trash/Recycling",
    "request_reason": "Return Trash Cart",
    "date_created": "2022-01-11T00:53:20.000",
    "date_modified": "2022-01-11T00:53:21.000",
    "request_status": "Pending",
    "responsible_agency": "Department of Sanitation",
    "final_address": "2909 Baronne St",
    "address_councildis": "B",
    "status": "Assigned to Contractor",
    "contractor": "Richards Disposal",
    "rowid": "853111",
    "final_x": "3674986.64789",
    "final_y": "522836.456443",
    "longitude": "-90.08893494854145",
    "latitude": "29.931814950830415",
    "geocoded_column": {
      "latitude": "29.931814950830415",
      "longitude": "-90.08893494854145"
    }
  },
  {
    "service_request": "2022-853110",
    "request_type": "Roads/Drainage",
    "request_reason": "Pothole",
    "date_created": "2022-01-11T00:26:20.000",
    "date_modified": "2022-01-11T00:26:20.000",
    "request_status": "Pending",
    "responsible_agency": "Department of Public Works",
    "final_address": "1820 S Carrollton Ave",
    "address_councildis": "A",
    "status": "Pending",
    "rowid": "853110",
    "final_x": "3663475.70631",
    "final_y": "530065.458113",
    "longitude": "-90.12503325145126",
    "latitude": "29.95203111619384",
    "geocoded_column": {
      "latitude": "29.95203111619384",
      "longitude": "-90.12503325145126"
    }
  },
  {
    "service_request": "2022-853109",
    "request_type": "Trash/Recycling",
    "request_reason": "Order Recycling Cart",
    "date_created": "2022-01-10T22:21:03.000",
    "date_modified": "2022-01-10T22:21:03.000",
    "request_status": "Pending",
    "responsible_agency": "Department of Sanitation",
    "final_address": "1233 St Bernard Ave",
    "address_councildis": "C",
    "status": "Pending",
    "rowid": "853109",
    "final_x": "3683008.80783",
    "final_y": "536407.313031",
    "longitude": "-90.06313498291263",
    "latitude": "29.968888220370644",
    "geocoded_column": {
      "latitude": "29.968888220370644",
      "longitude": "-90.06313498291263"
    }
  },
  {
    "service_request": "2022-853108",
    "request_type": "Trash/Recycling",
    "request_reason": "Start Trash Service",
    "date_created": "2022-01-10T22:19:56.000",
    "date_modified": "2022-01-10T22:19:57.000",
    "request_status": "Pending",
    "responsible_agency": "Department of Sanitation",
    "final_address": "1233 St Bernard Ave",
    "address_councildis": "C",
    "status": "Assigned to Contractor",
    "contractor": "Metro Disposal",
    "rowid": "853108",
    "final_x": "3683008.80783",
    "final_y": "536407.313031",
    "longitude": "-90.06313498291263",
    "latitude": "29.968888220370644",
    "geocoded_column": {
      "latitude": "29.968888220370644",
      "longitude": "-90.06313498291263"
    }
  },
  {
    "service_request": "2022-853107",
    "request_type": "Trash/Recycling",
    "request_reason": "Order Trash Cart",
    "date_created": "2022-01-10T22:19:12.000",
    "date_modified": "2022-01-10T22:19:12.000",
    "request_status": "Pending",
    "responsible_agency": "Department of Sanitation",
    "final_address": "1233 St Bernard Ave",
    "address_councildis": "C",
    "status": "Assigned to Contractor",
    "contractor": "Metro Disposal",
    "rowid": "853107",
    "final_x": "3683008.80783",
    "final_y": "536407.313031",
    "longitude": "-90.06313498291263",
    "latitude": "29.968888220370644",
    "geocoded_column": {
      "latitude": "29.968888220370644",
      "longitude": "-90.06313498291263"
    }
  },
  {
    "service_request": "2022-853106",
    "request_type": "Trash/Recycling",
    "request_reason": "Order Trash Cart",
    "date_created": "2022-01-10T22:18:08.000",
    "date_modified": "2022-01-10T22:18:09.000",
    "request_status": "Pending",
    "responsible_agency": "Department of Sanitation",
    "final_address": "1239 St Bernard Ave",
    "address_councildis": "C",
    "status": "Assigned to Contractor",
    "contractor": "Metro Disposal",
    "rowid": "853106",
    "final_x": "3683000.63855",
    "final_y": "536434.335623",
    "longitude": "-90.06315983599944",
    "latitude": "29.96896277216402",
    "geocoded_column": {
      "latitude": "29.96896277216402",
      "longitude": "-90.06315983599944"
    }
  },
  {
    "service_request": "2022-853105",
    "request_type": "Trash/Recycling",
    "request_reason": "Start Trash Service",
    "date_created": "2022-01-10T22:17:15.000",
    "date_modified": "2022-01-10T22:17:15.000",
    "request_status": "Pending",
    "responsible_agency": "Department of Sanitation",
    "final_address": "1239 St Bernard Ave",
    "address_councildis": "C",
    "status": "Assigned to Contractor",
    "contractor": "Metro Disposal",
    "rowid": "853105",
    "final_x": "3683000.63855",
    "final_y": "536434.335623",
    "longitude": "-90.06315983599944",
    "latitude": "29.96896277216402",
    "geocoded_column": {
      "latitude": "29.96896277216402",
      "longitude": "-90.06315983599944"
    }
  },
  {
    "service_request": "2022-853104",
    "request_type": "Trash/Recycling",
    "request_reason": "Order Trash Cart",
    "date_created": "2022-01-10T22:16:18.000",
    "date_modified": "2022-01-10T22:16:19.000",
    "request_status": "Pending",
    "responsible_agency": "Department of Sanitation",
    "final_address": "1239 St Bernard Ave",
    "address_councildis": "C",
    "status": "Assigned to Contractor",
    "contractor": "Metro Disposal",
    "rowid": "853104",
    "final_x": "3683000.63855",
    "final_y": "536434.335623",
    "longitude": "-90.06315983599944",
    "latitude": "29.96896277216402",
    "geocoded_column": {
      "latitude": "29.96896277216402",
      "longitude": "-90.06315983599944"
    }
  },
  {
    "service_request": "2022-853103",
    "request_type": "Trash/Recycling",
    "request_reason": "Missed Trash Pick-Up",
    "date_created": "2022-01-10T22:09:40.000",
    "date_modified": "2022-01-10T22:09:41.000",
    "request_status": "Pending",
    "responsible_agency": "Department of Sanitation",
    "final_address": "1245 St Bernard Ave",
    "address_councildis": "C",
    "status": "Assigned to Contractor",
    "contractor": "Metro Disposal",
    "rowid": "853103",
    "final_x": "3682976.07797",
    "final_y": "536460.879623",
    "longitude": "-90.06323647066438",
    "latitude": "29.969036507578892",
    "geocoded_column": {
      "latitude": "29.969036507578892",
      "longitude": "-90.06323647066438"
    }
  },
  {
    "service_request": "2022-853102",
    "request_type": "Trash/Recycling",
    "request_reason": "Start Trash Service",
    "date_created": "2022-01-10T22:08:30.000",
    "date_modified": "2022-01-10T22:08:31.000",
    "request_status": "Pending",
    "responsible_agency": "Department of Sanitation",
    "final_address": "1245 St Bernard Ave",
    "address_councildis": "C",
    "status": "Assigned to Contractor",
    "contractor": "Metro Disposal",
    "rowid": "853102",
    "final_x": "3682976.07797",
    "final_y": "536460.879623",
    "longitude": "-90.06323647066438",
    "latitude": "29.969036507578892",
    "geocoded_column": {
      "latitude": "29.969036507578892",
      "longitude": "-90.06323647066438"
    }
  },
  {
    "service_request": "2022-853101",
    "request_type": "Trash/Recycling",
    "request_reason": "Replace Trash Cart",
    "date_created": "2022-01-10T22:06:37.000",
    "date_modified": "2022-01-10T22:06:37.000",
    "request_status": "Pending",
    "responsible_agency": "Department of Sanitation",
    "final_address": "1245 St Bernard Ave",
    "address_councildis": "C",
    "status": "Assigned to Contractor",
    "contractor": "Metro Disposal",
    "rowid": "853101",
    "final_x": "3682976.07797",
    "final_y": "536460.879623",
    "longitude": "-90.06323647066438",
    "latitude": "29.969036507578892",
    "geocoded_column": {
      "latitude": "29.969036507578892",
      "longitude": "-90.06323647066438"
    }
  },
  {
    "service_request": "2022-853100",
    "request_type": "Trash/Recycling",
    "request_reason": "Replace Trash Cart",
    "date_created": "2022-01-10T21:56:40.000",
    "date_modified": "2022-01-10T21:56:40.000",
    "request_status": "Pending",
    "responsible_agency": "Department of Sanitation",
    "final_address": "5333 Coliseum St",
    "address_councildis": "B",
    "status": "Assigned to Contractor",
    "contractor": "Richards Disposal",
    "rowid": "853100",
    "final_x": "3667383.56705",
    "final_y": "519801.768312",
    "longitude": "-90.1130391562591",
    "latitude": "29.923695373444726",
    "geocoded_column": {
      "latitude": "29.923695373444726",
      "longitude": "-90.1130391562591"
    }
  },
  {
    "service_request": "2022-853099",
    "request_type": "Trash/Recycling",
    "request_reason": "Missed Trash Pick-Up",
    "date_created": "2022-01-10T21:26:13.000",
    "date_modified": "2022-01-10T21:26:14.000",
    "request_status": "Pending",
    "responsible_agency": "Department of Sanitation",
    "final_address": "3729 Baudin St",
    "address_councildis": "B",
    "status": "Assigned to Contractor",
    "contractor": "Richards Disposal",
    "rowid": "853099",
    "final_x": "3671200.85748",
    "final_y": "536300.205959",
    "longitude": "-90.1004289720538",
    "latitude": "29.968948344270064",
    "geocoded_column": {
      "latitude": "29.968948344270064",
      "longitude": "-90.1004289720538"
    }
  },
  {
    "service_request": "2022-853098",
    "request_type": "Roads/Drainage",
    "request_reason": "Alley Way",
    "date_created": "2022-01-10T21:11:33.000",
    "date_modified": "2022-01-10T21:11:33.000",
    "request_status": "Pending",
    "responsible_agency": "Department of Public Works",
    "final_address": "5852 Catina St",
    "address_councildis": "A",
    "status": "Pending",
    "rowid": "853098",
    "final_x": "3666688.75335",
    "final_y": "546875.106705",
    "longitude": "-90.1143232571773",
    "latitude": "29.99815846953292",
    "geocoded_column": {
      "latitude": "29.99815846953292",
      "longitude": "-90.1143232571773"
    }
  },
  {
    "service_request": "2022-853097",
    "request_type": "Trash/Recycling",
    "request_reason": "MIssed Recycling Pick-Up",
    "date_created": "2022-01-10T21:11:02.000",
    "date_modified": "2022-01-10T21:11:03.000",
    "request_status": "Pending",
    "responsible_agency": "Department of Sanitation",
    "final_address": "4844 Camp St",
    "address_councildis": "B",
    "status": "Assigned to Contractor",
    "contractor": "Richards Disposal",
    "rowid": "853097",
    "final_x": "3669143.45127",
    "final_y": "518872.279607",
    "longitude": "-90.1075152176464",
    "latitude": "29.921087921073568",
    "geocoded_column": {
      "latitude": "29.921087921073568",
      "longitude": "-90.1075152176464"
    }
  },
  {
    "service_request": "2022-853096",
    "request_type": "Trash/Recycling",
    "request_reason": "MIssed Recycling Pick-Up",
    "date_created": "2022-01-10T21:06:15.000",
    "date_modified": "2022-01-10T21:06:15.000",
    "request_status": "Closed",
    "responsible_agency": "Department of Sanitation",
    "final_address": "4844 Camp St",
    "address_councildis": "B",
    "status": "Resolved",
    "rowid": "853096",
    "final_x": "3669143.45127",
    "final_y": "518872.279607",
    "longitude": "-90.1075152176464",
    "latitude": "29.921087921073568",
    "geocoded_column": {
      "latitude": "29.921087921073568",
      "longitude": "-90.1075152176464"
    }
  },
  {
    "service_request": "2022-853095",
    "request_type": "Trash/Recycling",
    "request_reason": "MIssed Recycling Pick-Up",
    "date_created": "2022-01-10T21:06:08.000",
    "date_modified": "2022-01-10T21:06:08.000",
    "request_status": "Closed",
    "responsible_agency": "Department of Sanitation",
    "final_address": "4844 Camp St",
    "address_councildis": "B",
    "status": "Resolved",
    "rowid": "853095",
    "final_x": "3669143.45127",
    "final_y": "518872.279607",
    "longitude": "-90.1075152176464",
    "latitude": "29.921087921073568",
    "geocoded_column": {
      "latitude": "29.921087921073568",
      "longitude": "-90.1075152176464"
    }
  },
  {
    "service_request": "2022-853094",
    "request_type": "Roads/Drainage",
    "request_reason": "Debris in Roadway",
    "date_created": "2022-01-10T20:52:44.000",
    "date_modified": "2022-01-10T20:52:44.000",
    "request_status": "Pending",
    "responsible_agency": "Department of Public Works",
    "final_address": "2926 St Charles Ave",
    "address_councildis": "B",
    "status": "Pending",
    "rowid": "853094",
    "final_x": "3675332.76021",
    "final_y": "522046.64665",
    "longitude": "-90.08786940971216",
    "latitude": "29.929632890289625",
    "geocoded_column": {
      "latitude": "29.929632890289625",
      "longitude": "-90.08786940971216"
    }
  },
  {
    "service_request": "2022-853093",
    "request_type": "Trash/Recycling",
    "request_reason": "Order Recycling Cart",
    "date_created": "2022-01-10T20:41:35.000",
    "date_modified": "2022-01-10T20:41:35.000",
    "request_status": "Pending",
    "responsible_agency": "Department of Sanitation",
    "final_address": "6125 Patton St",
    "address_councildis": "A",
    "status": "Pending",
    "rowid": "853093",
    "final_x": "3663704.36954",
    "final_y": "518927.199991",
    "longitude": "-90.12468221000961",
    "latitude": "29.92139781066274",
    "geocoded_column": {
      "latitude": "29.92139781066274",
      "longitude": "-90.12468221000961"
    }
  },
  {
    "service_request": "2022-853092",
    "request_type": "Traffic Signals/Signs/Striping/Streetlights",
    "request_reason": "Street Light Outage/Malfunction",
    "date_created": "2022-01-10T20:39:44.000",
    "date_modified": "2022-01-10T20:39:45.000",
    "request_status": "Pending",
    "responsible_agency": "Department of Public Works",
    "final_address": "5959 Tullis Dr",
    "address_councildis": "C",
    "status": "Pending",
    "contractor": "Royal Engineering",
    "rowid": "853092",
    "final_x": "3706365.91857",
    "final_y": "513594.89637",
    "longitude": "-89.99021681746046",
    "latitude": "29.905429528381276",
    "geocoded_column": {
      "latitude": "29.905429528381276",
      "longitude": "-89.99021681746046"
    }
  },
  {
    "service_request": "2022-853091",
    "request_type": "Trash/Recycling",
    "request_reason": "Replace Trash Cart",
    "date_created": "2022-01-10T19:46:23.000",
    "date_modified": "2022-01-10T19:46:23.000",
    "request_status": "Pending",
    "responsible_agency": "Department of Sanitation",
    "final_address": "4737 Baccich St",
    "address_councildis": "D",
    "status": "Assigned to Contractor",
    "contractor": "Metro Disposal",
    "rowid": "853091",
    "final_x": "3687774.95081",
    "final_y": "550673.11874",
    "longitude": "-90.04757770503342",
    "latitude": "30.007967949961653",
    "geocoded_column": {
      "latitude": "30.007967949961653",
      "longitude": "-90.04757770503342"
    }
  },
  {
    "service_request": "2022-853090",
    "request_type": "Traffic Signals/Signs/Striping/Streetlights",
    "request_reason": "Street Light Outage/Malfunction",
    "date_created": "2022-01-10T19:42:12.000",
    "date_modified": "2022-01-10T19:42:12.000",
    "request_status": "Pending",
    "responsible_agency": "Department of Public Works",
    "final_address": "1020 Arabella St",
    "address_councildis": "A",
    "status": "Pending",
    "contractor": "Royal Engineering",
    "rowid": "853090",
    "final_x": "3665967.98631",
    "final_y": "519758.070008",
    "longitude": "-90.11750910782675",
    "latitude": "29.9236165940433",
    "geocoded_column": {
      "latitude": "29.9236165940433",
      "longitude": "-90.11750910782675"
    }
  },
  {
    "service_request": "2022-853089",
    "request_type": "Traffic Signals/Signs/Striping/Streetlights",
    "request_reason": "Street Light Outage/Malfunction",
    "date_created": "2022-01-10T19:04:50.000",
    "date_modified": "2022-01-10T19:04:51.000",
    "request_status": "Pending",
    "responsible_agency": "Department of Public Works",
    "final_address": "909 Dublin St",
    "address_councildis": "A",
    "status": "Pending",
    "contractor": "Royal Engineering",
    "rowid": "853089",
    "final_x": "3661083.58925",
    "final_y": "527875.939007",
    "longitude": "-90.13265891731832",
    "latitude": "29.946079783201423",
    "geocoded_column": {
      "latitude": "29.946079783201423",
      "longitude": "-90.13265891731832"
    }
  },
  {
    "service_request": "2022-853088",
    "request_type": "Trash/Recycling",
    "request_reason": "Illegal Dumping",
    "date_created": "2022-01-10T18:58:51.000",
    "date_modified": "2022-01-10T18:58:51.000",
    "request_status": "Pending",
    "responsible_agency": "Department of Sanitation",
    "final_address": "2100 St Thomas St Apt",
    "address_councildis": "B",
    "status": "Pending",
    "rowid": "853088",
    "final_x": "3680221.36891",
    "final_y": "520791.588729",
    "longitude": "-90.07248054463341",
    "latitude": "29.926034879330242",
    "geocoded_column": {
      "latitude": "29.926034879330242",
      "longitude": "-90.07248054463341"
    }
  },
  {
    "service_request": "2022-853087",
    "request_type": "Trash/Recycling",
    "request_reason": "MIssed Recycling Pick-Up",
    "date_created": "2022-01-10T18:29:02.000",
    "date_modified": "2022-01-10T18:29:02.000",
    "request_status": "Pending",
    "responsible_agency": "Department of Sanitation",
    "final_address": "1125 N Prieur St",
    "address_councildis": "D",
    "status": "Assigned to Contractor",
    "contractor": "Richards Disposal",
    "rowid": "853087",
    "final_x": "3679933.48059",
    "final_y": "536646.496839",
    "longitude": "-90.07283875074015",
    "latitude": "29.96963927373775",
    "geocoded_column": {
      "latitude": "29.96963927373775",
      "longitude": "-90.07283875074015"
    }
  },
  {
    "service_request": "2022-853086",
    "request_type": "Traffic Signals/Signs/Striping/Streetlights",
    "request_reason": "Street Light Outage/Malfunction",
    "date_created": "2022-01-10T18:21:15.000",
    "date_modified": "2022-01-10T18:21:16.000",
    "request_status": "Pending",
    "responsible_agency": "Department of Public Works",
    "final_address": "6417 Maumus Ave",
    "address_councildis": "C",
    "status": "Pending",
    "contractor": "Royal Engineering",
    "rowid": "853086",
    "final_x": "3707707.06596",
    "final_y": "516645.029301",
    "longitude": "-89.98587091610644",
    "latitude": "29.913773047333184",
    "geocoded_column": {
      "latitude": "29.913773047333184",
      "longitude": "-89.98587091610644"
    }
  },
  {
    "service_request": "2022-853085",
    "request_type": "Traffic Signals/Signs/Striping/Streetlights",
    "request_reason": "Street Light Outage/Malfunction",
    "date_created": "2022-01-10T18:10:52.000",
    "date_modified": "2022-01-10T18:10:53.000",
    "request_status": "Pending",
    "responsible_agency": "Department of Public Works",
    "final_address": "100 Aurora Dr",
    "address_councildis": "C",
    "status": "Pending",
    "contractor": "Royal Engineering",
    "rowid": "853085",
    "final_x": "3706942.45419",
    "final_y": "521299.505721",
    "longitude": "-89.98811178210633",
    "latitude": "29.92659593916675",
    "geocoded_column": {
      "latitude": "29.92659593916675",
      "longitude": "-89.98811178210633"
    }
  },
  {
    "service_request": "2022-853084",
    "request_type": "Trash/Recycling",
    "request_reason": "Replace Trash Cart",
    "date_created": "2022-01-10T18:09:18.000",
    "date_modified": "2022-01-10T18:09:19.000",
    "request_status": "Pending",
    "responsible_agency": "Department of Sanitation",
    "final_address": "918 Gordon St",
    "address_councildis": "E",
    "status": "Assigned to Contractor",
    "contractor": "Metro Disposal",
    "rowid": "853084",
    "final_x": "3698877.90666",
    "final_y": "532856.323972",
    "longitude": "-90.01314886637023",
    "latitude": "29.95863102426781",
    "geocoded_column": {
      "latitude": "29.95863102426781",
      "longitude": "-90.01314886637023"
    }
  },
  {
    "service_request": "2022-853083",
    "request_type": "Safety & Permits",
    "request_reason": "Licenses & Permits",
    "date_created": "2022-01-10T17:45:42.000",
    "date_modified": "2022-01-10T17:45:42.000",
    "request_status": "Pending",
    "responsible_agency": "Safety and Permits",
    "final_address": "1940 Hermosa St",
    "address_councildis": "C",
    "status": "Pending",
    "rowid": "853083",
    "final_x": "3687966.38582",
    "final_y": "524118.417148",
    "longitude": "-90.04791404253241",
    "latitude": "29.934945931989343",
    "geocoded_column": {
      "latitude": "29.934945931989343",
      "longitude": "-90.04791404253241"
    }
  },
  {
    "service_request": "2022-853082",
    "request_type": "Trash/Recycling",
    "request_reason": "Replace Recycling Cart",
    "date_created": "2022-01-10T17:29:28.000",
    "date_modified": "2022-01-10T17:29:28.000",
    "request_status": "Pending",
    "responsible_agency": "Department of Sanitation",
    "final_address": "3649 Silver Maple Ct",
    "address_councildis": "C",
    "status": "Pending",
    "rowid": "853082",
    "final_x": "3703029.49777",
    "final_y": "512813.348593",
    "longitude": "-90.000775357549",
    "latitude": "29.903387650893727",
    "geocoded_column": {
      "latitude": "29.903387650893727",
      "longitude": "-90.000775357549"
    }
  },
  {
    "service_request": "2022-853081",
    "request_type": "Trash/Recycling",
    "request_reason": "Request a Large Item Pick Up",
    "date_created": "2022-01-10T17:28:20.000",
    "date_modified": "2022-01-10T17:28:21.000",
    "request_status": "Pending",
    "responsible_agency": "Department of Sanitation",
    "final_address": "4877 Tchoupitoulas St",
    "address_councildis": "B",
    "status": "Assigned to Contractor",
    "contractor": "Richards Disposal",
    "rowid": "853081",
    "final_x": "3669069.32462",
    "final_y": "517272.988021",
    "longitude": "-90.10780319636599",
    "latitude": "29.91669255390601",
    "geocoded_column": {
      "latitude": "29.91669255390601",
      "longitude": "-90.10780319636599"
    }
  },
  {
    "service_request": "2022-853080",
    "request_type": "Trash/Recycling",
    "request_reason": "Illegal Dumping",
    "date_created": "2022-01-10T17:25:33.000",
    "date_modified": "2022-01-10T17:26:46.000",
    "request_status": "Pending",
    "responsible_agency": "Department of Sanitation",
    "final_address": "2038 Florida Ave",
    "address_councildis": "D",
    "status": "Pending",
    "rowid": "853080",
    "final_x": "3683264.05666",
    "final_y": "542810.633997",
    "longitude": "-90.06210454213085",
    "latitude": "29.98648733380931",
    "geocoded_column": {
      "latitude": "29.98648733380931",
      "longitude": "-90.06210454213085"
    }
  },
  {
    "service_request": "2022-853078",
    "request_type": "Traffic Signals/Signs/Striping/Streetlights",
    "request_reason": "Street Light Outage/Malfunction",
    "date_created": "2022-01-10T17:11:32.000",
    "date_modified": "2022-01-10T17:11:33.000",
    "request_status": "Pending",
    "responsible_agency": "Department of Public Works",
    "final_address": "2300 Killdeer St",
    "address_councildis": "D",
    "status": "Pending",
    "contractor": "Royal Engineering",
    "rowid": "853078",
    "final_x": "3684141.44828",
    "final_y": "557459.199643",
    "longitude": "-90.05881854766656",
    "latitude": "30.026738791569063",
    "geocoded_column": {
      "latitude": "30.026738791569063",
      "longitude": "-90.05881854766656"
    }
  },
  {
    "service_request": "2022-853077",
    "request_type": "Trash/Recycling",
    "request_reason": "Replace Trash Cart",
    "date_created": "2022-01-10T17:09:11.000",
    "date_modified": "2022-01-10T17:09:12.000",
    "request_status": "Pending",
    "responsible_agency": "Department of Sanitation",
    "final_address": "1250 Moss St",
    "address_councildis": "A",
    "status": "Assigned to Contractor",
    "contractor": "Richards Disposal",
    "rowid": "853077",
    "final_x": "3675336.39361",
    "final_y": "540132.113291",
    "longitude": "-90.0872370601257",
    "latitude": "29.97936178041681",
    "geocoded_column": {
      "latitude": "29.97936178041681",
      "longitude": "-90.0872370601257"
    }
  },
  {
    "service_request": "2022-853076",
    "request_type": "Trash/Recycling",
    "request_reason": "Request a Large Item Pick Up",
    "date_created": "2022-01-10T17:02:45.000",
    "date_modified": "2022-01-10T17:02:46.000",
    "request_status": "Pending",
    "responsible_agency": "Department of Sanitation",
    "final_address": "729 Burgundy St",
    "address_councildis": "C",
    "status": "Assigned to Contractor",
    "contractor": "Empire Services",
    "rowid": "853076",
    "final_x": "3681824.31426",
    "final_y": "533341.578948",
    "longitude": "-90.06698268645985",
    "latitude": "29.960494554058187",
    "geocoded_column": {
      "latitude": "29.960494554058187",
      "longitude": "-90.06698268645985"
    }
  },
  {
    "service_request": "2022-853074",
    "request_type": "Trash/Recycling",
    "request_reason": "Order Recycling Cart",
    "date_created": "2022-01-10T16:56:53.000",
    "date_modified": "2022-01-10T16:56:53.000",
    "request_status": "Pending",
    "responsible_agency": "Department of Sanitation",
    "final_address": "2300 BLK Dante St",
    "address_councildis": "A",
    "status": "Pending",
    "rowid": "853074",
    "final_x": "3664149.03584",
    "final_y": "531851.573224",
    "longitude": "-90.12284760459076",
    "latitude": "29.956922812464004",
    "geocoded_column": {
      "latitude": "29.956922812464004",
      "longitude": "-90.12284760459076"
    }
  },
  {
    "service_request": "2022-853073",
    "request_type": "Property Maintenance",
    "request_reason": "Property Maintenance",
    "date_created": "2022-01-10T16:52:42.000",
    "date_modified": "2022-01-10T16:52:43.000",
    "request_status": "Pending",
    "responsible_agency": "Department of Code Enforcement",
    "final_address": "14900 Curran Rd",
    "address_councildis": "E",
    "status": "Pending",
    "rowid": "853073",
    "final_x": "3720594.05746",
    "final_y": "574060.945066",
    "longitude": "-89.94299707878325",
    "latitude": "30.07122149314436",
    "geocoded_column": {
      "latitude": "30.07122149314436",
      "longitude": "-89.94299707878325"
    }
  },
  {
    "service_request": "2022-853072",
    "request_type": "Traffic Signals/Signs/Striping/Streetlights",
    "request_reason": "Street Light Outage/Malfunction",
    "date_created": "2022-01-10T16:52:01.000",
    "date_modified": "2022-01-10T16:52:02.000",
    "request_status": "Pending",
    "responsible_agency": "Department of Public Works",
    "final_address": "5725 Fleur-De-Lis Dr",
    "address_councildis": "A",
    "status": "Pending",
    "contractor": "Royal Engineering",
    "rowid": "853072",
    "final_x": "3665157.133",
    "final_y": "546209.14792",
    "longitude": "-90.11918394311623",
    "latitude": "29.996372025464115",
    "geocoded_column": {
      "latitude": "29.996372025464115",
      "longitude": "-90.11918394311623"
    }
  },
  {
    "service_request": "2022-853071",
    "request_type": "Trash/Recycling",
    "request_reason": "Order Recycling Cart",
    "date_created": "2022-01-10T16:51:44.000",
    "date_modified": "2022-01-10T16:51:44.000",
    "request_status": "Pending",
    "responsible_agency": "Department of Sanitation",
    "final_address": "1612 Lisbon St",
    "address_councildis": "D",
    "status": "Pending",
    "rowid": "853071",
    "final_x": "3679117.97775",
    "final_y": "556126.199962",
    "longitude": "-90.0747384575916",
    "latitude": "30.023226211512913",
    "geocoded_column": {
      "latitude": "30.023226211512913",
      "longitude": "-90.0747384575916"
    }
  },
  {
    "service_request": "2022-853070",
    "request_type": "Trash/Recycling",
    "request_reason": "Repair Recycling Cart",
    "date_created": "2022-01-10T16:37:30.000",
    "date_modified": "2022-01-10T16:37:31.000",
    "request_status": "Pending",
    "responsible_agency": "Department of Sanitation",
    "final_address": "7933 Sycamore St",
    "address_councildis": "A",
    "status": "Pending",
    "rowid": "853070",
    "final_x": "3664725.34541",
    "final_y": "530657.88845",
    "longitude": "-90.1210676705796",
    "latitude": "29.953623814386084",
    "geocoded_column": {
      "latitude": "29.953623814386084",
      "longitude": "-90.1210676705796"
    }
  },
  {
    "service_request": "2022-853069",
    "request_type": "Roads/Drainage",
    "request_reason": "Catch Basin - Broken/Damage",
    "date_created": "2022-01-10T16:36:46.000",
    "date_modified": "2022-01-10T16:36:46.000",
    "request_status": "Pending",
    "responsible_agency": "Department of Public Works",
    "final_address": "1527 Seventh St",
    "address_councildis": "B",
    "status": "Pending",
    "rowid": "853069",
    "final_x": "3675432.87976",
    "final_y": "521851.70361",
    "longitude": "-90.08756004049569",
    "latitude": "29.92909386746045",
    "geocoded_column": {
      "latitude": "29.92909386746045",
      "longitude": "-90.08756004049569"
    }
  },
  {
    "service_request": "2022-853068",
    "request_type": "Trash/Recycling",
    "request_reason": "Replace Trash Cart",
    "date_created": "2022-01-10T16:35:26.000",
    "date_modified": "2022-01-10T16:35:27.000",
    "request_status": "Pending",
    "responsible_agency": "Department of Sanitation",
    "final_address": "3401 St Claude Ave",
    "address_councildis": "C",
    "status": "Assigned to Contractor",
    "contractor": "Metro Disposal",
    "rowid": "853068",
    "final_x": "3690261.42416",
    "final_y": "535844.421703",
    "longitude": "-90.04025089669965",
    "latitude": "29.967117408642405",
    "geocoded_column": {
      "latitude": "29.967117408642405",
      "longitude": "-90.04025089669965"
    }
  },
  {
    "service_request": "2022-853067",
    "request_type": "Trash/Recycling",
    "request_reason": "Order Recycling Cart",
    "date_created": "2022-01-10T16:28:40.000",
    "date_modified": "2022-01-10T16:28:40.000",
    "request_status": "Pending",
    "responsible_agency": "Department of Sanitation",
    "final_address": "6232 Delord St",
    "address_councildis": "A",
    "status": "Pending",
    "rowid": "853067",
    "final_x": "3666373.76826",
    "final_y": "526284.533822",
    "longitude": "-90.11600932979306",
    "latitude": "29.9415504479423",
    "geocoded_column": {
      "latitude": "29.9415504479423",
      "longitude": "-90.11600932979306"
    }
  },
  {
    "service_request": "2022-853066",
    "request_type": "Trash/Recycling",
    "request_reason": "Repair Trash Cart",
    "date_created": "2022-01-10T16:23:30.000",
    "date_modified": "2022-01-10T16:23:30.000",
    "request_status": "Pending",
    "responsible_agency": "Department of Sanitation",
    "final_address": "3818 Piedmont Dr",
    "address_councildis": "D",
    "status": "Assigned to Contractor",
    "contractor": "Metro Disposal",
    "rowid": "853066",
    "final_x": "3685484.63254",
    "final_y": "546825.472145",
    "longitude": "-90.05494911602868",
    "latitude": "29.997458779111884",
    "geocoded_column": {
      "latitude": "29.997458779111884",
      "longitude": "-90.05494911602868"
    }
  },
  {
    "service_request": "2022-853065",
    "request_type": "Traffic Signals/Signs/Striping/Streetlights",
    "request_reason": "Street Light Outage/Malfunction",
    "date_created": "2022-01-10T16:11:07.000",
    "date_modified": "2022-01-10T16:11:08.000",
    "request_status": "Pending",
    "responsible_agency": "Department of Public Works",
    "final_address": "5318 Wingate Dr",
    "address_councildis": "D",
    "status": "Pending",
    "contractor": "Royal Engineering",
    "rowid": "853065",
    "final_x": "3681333.84111",
    "final_y": "552586.410454",
    "longitude": "-90.06786033894312",
    "latitude": "30.01342597139773",
    "geocoded_column": {
      "latitude": "30.01342597139773",
      "longitude": "-90.06786033894312"
    }
  },
  {
    "service_request": "2022-853064",
    "request_type": "Abandoned Vehicles",
    "request_reason": "Abandoned/Junk Vehicles",
    "date_created": "2022-01-10T16:09:25.000",
    "date_modified": "2022-01-10T16:09:25.000",
    "request_status": "Pending",
    "responsible_agency": "Department of Public Works",
    "final_address": "5315 Wingate Dr A",
    "address_councildis": "D",
    "status": "Pending",
    "rowid": "853064",
    "final_x": "3681484.69026",
    "final_y": "552533.560214",
    "longitude": "-90.06738558012987",
    "latitude": "30.013276070678952",
    "geocoded_column": {
      "latitude": "30.013276070678952",
      "longitude": "-90.06738558012987"
    }
  },
  {
    "service_request": "2022-853063",
    "request_type": "Trash/Recycling",
    "request_reason": "Change Size of Trash Cart",
    "date_created": "2022-01-10T15:57:24.000",
    "date_modified": "2022-01-10T15:57:25.000",
    "request_status": "Pending",
    "responsible_agency": "Department of Sanitation",
    "final_address": "4840 Camelia St",
    "address_councildis": "E",
    "status": "Assigned to Contractor",
    "contractor": "Metro Disposal",
    "rowid": "853063",
    "final_x": "3701413.9978",
    "final_y": "554750.286936",
    "longitude": "-90.00433874792937",
    "latitude": "30.01875074561822",
    "geocoded_column": {
      "latitude": "30.01875074561822",
      "longitude": "-90.00433874792937"
    }
  },
  {
    "service_request": "2022-853062",
    "request_type": "Trash/Recycling",
    "request_reason": "Repair Recycling Cart",
    "date_created": "2022-01-10T15:53:50.000",
    "date_modified": "2022-01-10T15:54:58.000",
    "request_status": "Pending",
    "responsible_agency": "Department of Sanitation",
    "final_address": "3737 Herald St",
    "address_councildis": "C",
    "status": "Pending",
    "rowid": "853062",
    "final_x": "3702106.30698",
    "final_y": "517268.170293",
    "longitude": "-90.00352575345472",
    "latitude": "29.91566638475728",
    "geocoded_column": {
      "latitude": "29.91566638475728",
      "longitude": "-90.00352575345472"
    }
  },
  {
    "service_request": "2022-853061",
    "request_type": "Property Maintenance",
    "request_reason": "Property Maintenance",
    "date_created": "2022-01-10T15:53:31.000",
    "date_modified": "2022-01-10T15:53:31.000",
    "request_status": "Pending",
    "responsible_agency": "Department of Code Enforcement",
    "final_address": "3968 Annunciation St",
    "address_councildis": "B",
    "status": "Pending",
    "rowid": "853061",
    "final_x": "3672801.34561",
    "final_y": "517880.551222",
    "longitude": "-90.09600266721156",
    "latitude": "29.918252876661434",
    "geocoded_column": {
      "latitude": "29.918252876661434",
      "longitude": "-90.09600266721156"
    }
  },
  {
    "service_request": "2022-853060",
    "request_type": "Trash/Recycling",
    "request_reason": "Replace Trash Cart",
    "date_created": "2022-01-10T15:47:13.000",
    "date_modified": "2022-01-10T15:47:15.000",
    "request_status": "Pending",
    "responsible_agency": "Department of Sanitation",
    "final_address": "2930 Dickens Dr",
    "address_councildis": "C",
    "status": "Assigned to Contractor",
    "contractor": "Richards Disposal",
    "rowid": "853060",
    "final_x": "3708413.29323",
    "final_y": "519027.761207",
    "longitude": "-89.98355326521056",
    "latitude": "29.920301875600614",
    "geocoded_column": {
      "latitude": "29.920301875600614",
      "longitude": "-89.98355326521056"
    }
  },
  {
    "service_request": "2022-853059",
    "request_type": "Traffic Signals/Signs/Striping/Streetlights",
    "request_reason": "Street Light Outage/Malfunction",
    "date_created": "2022-01-10T15:37:22.000",
    "date_modified": "2022-01-10T15:37:23.000",
    "request_status": "Pending",
    "responsible_agency": "Department of Public Works",
    "final_address": "1904 Ap Tureaud Ave",
    "address_councildis": "D",
    "status": "Pending",
    "contractor": "Royal Engineering",
    "rowid": "853059",
    "final_x": "3681662.27304",
    "final_y": "539183.89217",
    "longitude": "-90.06729053768983",
    "latitude": "29.976563827137497",
    "geocoded_column": {
      "latitude": "29.976563827137497",
      "longitude": "-90.06729053768983"
    }
  },
  {
    "service_request": "2022-853058",
    "request_type": "Abandoned Vehicles",
    "request_reason": "Abandoned/Junk Vehicles",
    "date_created": "2022-01-10T15:29:50.000",
    "date_modified": "2022-01-10T15:29:51.000",
    "request_status": "Pending",
    "responsible_agency": "Department of Public Works",
    "final_address": "919 Andry St",
    "address_councildis": "E",
    "status": "Pending",
    "rowid": "853058",
    "final_x": "3697036.00912",
    "final_y": "533345.511428",
    "longitude": "-90.01894734675604",
    "latitude": "29.960034339960167",
    "geocoded_column": {
      "latitude": "29.960034339960167",
      "longitude": "-90.01894734675604"
    }
  },
  {
    "service_request": "2022-853057",
    "request_type": "Trash/Recycling",
    "request_reason": "Missed Trash Pick-Up",
    "date_created": "2022-01-10T15:29:42.000",
    "date_modified": "2022-01-10T15:29:42.000",
    "request_status": "Pending",
    "responsible_agency": "Department of Sanitation",
    "final_address": "6042 Bellaire Dr",
    "address_councildis": "A",
    "status": "Assigned to Contractor",
    "contractor": "Metro Disposal",
    "rowid": "853057",
    "final_x": "3664199.97984",
    "final_y": "547979.161042",
    "longitude": "-90.1221484378144",
    "latitude": "30.001266808268607",
    "geocoded_column": {
      "latitude": "30.001266808268607",
      "longitude": "-90.1221484378144"
    }
  },
  {
    "service_request": "2022-853056",
    "request_type": "Traffic Signals/Signs/Striping/Streetlights",
    "request_reason": "Street Light Outage/Malfunction",
    "date_created": "2022-01-10T15:29:29.000",
    "date_modified": "2022-01-10T15:29:29.000",
    "request_status": "Pending",
    "responsible_agency": "Department of Public Works",
    "final_address": "1854 N Gayoso St",
    "address_councildis": "D",
    "status": "Pending",
    "contractor": "Royal Engineering",
    "rowid": "853056",
    "final_x": "3679479.40872",
    "final_y": "542401.766349",
    "longitude": "-90.07407300186358",
    "latitude": "29.985478000100734",
    "geocoded_column": {
      "latitude": "29.985478000100734",
      "longitude": "-90.07407300186358"
    }
  },
  {
    "service_request": "2022-853055",
    "request_type": "Traffic Signals/Signs/Striping/Streetlights",
    "request_reason": "Request for Traffic Calming due to Speeding",
    "date_created": "2022-01-10T15:29:27.000",
    "date_modified": "2022-01-10T15:29:27.000",
    "request_status": "Pending",
    "responsible_agency": "Department of Public Works",
    "final_address": "3711 General Meyer Ave",
    "address_councildis": "C",
    "status": "Pending",
    "rowid": "853055",
    "final_x": "3697557.57917",
    "final_y": "525337.709629",
    "longitude": "-90.01759071400133",
    "latitude": "29.93799922920737",
    "geocoded_column": {
      "latitude": "29.93799922920737",
      "longitude": "-90.01759071400133"
    }
  },
  {
    "service_request": "2022-853054",
    "request_type": "Trash/Recycling",
    "request_reason": "Order Trash Cart",
    "date_created": "2022-01-10T15:28:44.000",
    "date_modified": "2022-01-10T15:28:45.000",
    "request_status": "Pending",
    "responsible_agency": "Department of Sanitation",
    "final_address": "1120 Valence St",
    "address_councildis": "B",
    "status": "Assigned to Contractor",
    "contractor": "Richards Disposal",
    "rowid": "853054",
    "final_x": "3669802.52583",
    "final_y": "519588.998264",
    "longitude": "-90.10541056470538",
    "latitude": "29.923039266316867",
    "geocoded_column": {
      "latitude": "29.923039266316867",
      "longitude": "-90.10541056470538"
    }
  },
  {
    "service_request": "2022-853053",
    "request_type": "Trash/Recycling",
    "request_reason": "Order Recycling Cart",
    "date_created": "2022-01-10T15:28:24.000",
    "date_modified": "2022-01-10T15:28:24.000",
    "request_status": "Pending",
    "responsible_agency": "Department of Sanitation",
    "final_address": "4616 Baccich St",
    "address_councildis": "D",
    "status": "Pending",
    "rowid": "853053",
    "final_x": "3687728.61743",
    "final_y": "549877.806356",
    "longitude": "-90.04775227630874",
    "latitude": "30.00578256079095",
    "geocoded_column": {
      "latitude": "30.00578256079095",
      "longitude": "-90.04775227630874"
    }
  },
  {
    "service_request": "2022-853052",
    "request_type": "Abandoned Vehicles",
    "request_reason": "Abandoned/Junk Vehicles",
    "date_created": "2022-01-10T15:23:12.000",
    "date_modified": "2022-01-10T15:23:12.000",
    "request_status": "Pending",
    "responsible_agency": "Department of Public Works",
    "final_address": "2932 Maurepas St",
    "address_councildis": "A",
    "status": "Pending",
    "rowid": "853052",
    "final_x": "3677453.55637",
    "final_y": "540684.767115",
    "longitude": "-90.08053113544504",
    "latitude": "29.980817909522184",
    "geocoded_column": {
      "latitude": "29.980817909522184",
      "longitude": "-90.08053113544504"
    }
  },
  {
    "service_request": "2022-853051",
    "request_type": "Abandoned Vehicles",
    "request_reason": "Abandoned/Junk Vehicles",
    "date_created": "2022-01-10T15:11:49.000",
    "date_modified": "2022-01-10T15:11:50.000",
    "request_status": "Pending",
    "responsible_agency": "Department of Public Works",
    "final_address": "8002 Plum St",
    "address_councildis": "A",
    "status": "Pending",
    "rowid": "853051",
    "final_x": "3662439.11226",
    "final_y": "528363.258048",
    "longitude": "-90.12836286598905",
    "latitude": "29.947380628837305",
    "geocoded_column": {
      "latitude": "29.947380628837305",
      "longitude": "-90.12836286598905"
    }
  },
  {
    "service_request": "2022-853050",
    "request_type": "Health Related Questions",
    "request_reason": "Noise Ordinance Complaint",
    "date_created": "2022-01-10T15:02:20.000",
    "date_modified": "2022-01-10T15:02:20.000",
    "request_status": "Pending",
    "responsible_agency": "Health Department",
    "final_address": "2626 Jena St",
    "address_councildis": "B",
    "status": "Pending",
    "rowid": "853050",
    "final_x": "3670003.3819",
    "final_y": "524567.483516",
    "longitude": "-90.10460801873725",
    "latitude": "29.936722587246738",
    "geocoded_column": {
      "latitude": "29.936722587246738",
      "longitude": "-90.10460801873725"
    }
  },
  {
    "service_request": "2022-853049",
    "request_type": "Property Maintenance",
    "request_reason": "Property Maintenance",
    "date_created": "2022-01-10T14:59:54.000",
    "date_modified": "2022-01-10T14:59:54.000",
    "request_status": "Pending",
    "responsible_agency": "Department of Code Enforcement",
    "final_address": "4810 Camp St",
    "address_councildis": "B",
    "status": "Pending",
    "rowid": "853049",
    "final_x": "3669456.72244",
    "final_y": "518942.273783",
    "longitude": "-90.106523992633",
    "latitude": "29.92127116399979",
    "geocoded_column": {
      "latitude": "29.92127116399979",
      "longitude": "-90.106523992633"
    }
  },
  {
    "service_request": "2022-853048",
    "request_type": "Trash/Recycling",
    "request_reason": "Request a Large Item Pick Up",
    "date_created": "2022-01-10T14:59:37.000",
    "date_modified": "2022-01-10T14:59:38.000",
    "request_status": "Pending",
    "responsible_agency": "Department of Sanitation",
    "final_address": "923 Lizardi St",
    "address_councildis": "E",
    "status": "Assigned to Contractor",
    "contractor": "Metro Disposal",
    "rowid": "853048",
    "final_x": "3696401.67146",
    "final_y": "533528.120965",
    "longitude": "-90.0209438325565",
    "latitude": "29.96055644408578",
    "geocoded_column": {
      "latitude": "29.96055644408578",
      "longitude": "-90.0209438325565"
    }
  },
  {
    "service_request": "2022-853047",
    "request_type": "Trash/Recycling",
    "request_reason": "Request a Large Item Pick Up",
    "date_created": "2022-01-10T14:54:21.000",
    "date_modified": "2022-01-10T14:54:22.000",
    "request_status": "Pending",
    "responsible_agency": "Department of Sanitation",
    "final_address": "1160 City Park Ave",
    "address_councildis": "A",
    "status": "Assigned to Contractor",
    "contractor": "Richards Disposal",
    "rowid": "853047",
    "final_x": "3673563.269",
    "final_y": "541408.29262",
    "longitude": "-90.09279365990783",
    "latitude": "29.982923737813014",
    "geocoded_column": {
      "latitude": "29.982923737813014",
      "longitude": "-90.09279365990783"
    }
  },
  {
    "service_request": "2022-853046",
    "request_type": "Trash/Recycling",
    "request_reason": "Order Trash Cart",
    "date_created": "2022-01-10T14:52:16.000",
    "date_modified": "2022-01-10T14:52:17.000",
    "request_status": "Pending",
    "responsible_agency": "Department of Sanitation",
    "final_address": "6011 Eastover Dr",
    "address_councildis": "E",
    "status": "Assigned to Contractor",
    "contractor": "Metro Disposal",
    "rowid": "853046",
    "final_x": "3718779.89036",
    "final_y": "565395.131938",
    "longitude": "-89.94906310024794",
    "latitude": "30.047454514715216",
    "geocoded_column": {
      "latitude": "30.047454514715216",
      "longitude": "-89.94906310024794"
    }
  },
  {
    "service_request": "2022-853045",
    "request_type": "Trash/Recycling",
    "request_reason": "Request a Large Item Pick Up",
    "date_created": "2022-01-10T14:47:24.000",
    "date_modified": "2022-01-10T14:47:25.000",
    "request_status": "Pending",
    "responsible_agency": "Department of Sanitation",
    "final_address": "3912 Louisiana Avenue Prkwy",
    "address_councildis": "B",
    "status": "Assigned to Contractor",
    "contractor": "Richards Disposal",
    "rowid": "853045",
    "final_x": "3671104.12692",
    "final_y": "529160.953664",
    "longitude": "-90.10097694010916",
    "latitude": "29.949320631541116",
    "geocoded_column": {
      "latitude": "29.949320631541116",
      "longitude": "-90.10097694010916"
    }
  },
  {
    "service_request": "2022-853044",
    "request_type": "Trash/Recycling",
    "request_reason": "Replace Trash Cart",
    "date_created": "2022-01-10T14:47:02.000",
    "date_modified": "2022-01-10T14:47:03.000",
    "request_status": "Pending",
    "responsible_agency": "Department of Sanitation",
    "final_address": "2928 Prytania St",
    "address_councildis": "B",
    "status": "Assigned to Contractor",
    "contractor": "Richards Disposal",
    "rowid": "853044",
    "final_x": "3675600.60168",
    "final_y": "521629.588345",
    "longitude": "-90.08703820102889",
    "latitude": "29.928478107419043",
    "geocoded_column": {
      "latitude": "29.928478107419043",
      "longitude": "-90.08703820102889"
    }
  },
  {
    "service_request": "2022-853043",
    "request_type": "Traffic Signals/Signs/Striping/Streetlights",
    "request_reason": "Request for Traffic Calming due to Speeding",
    "date_created": "2022-01-10T14:40:42.000",
    "date_modified": "2022-01-10T14:40:42.000",
    "request_status": "Pending",
    "responsible_agency": "Department of Public Works",
    "final_address": "6236 Pontchartrain Blvd",
    "address_councildis": "A",
    "status": "Pending",
    "rowid": "853043",
    "final_x": "3666140.49153",
    "final_y": "549362.488147",
    "longitude": "-90.11597173689881",
    "latitude": "30.005013936827794",
    "geocoded_column": {
      "latitude": "30.005013936827794",
      "longitude": "-90.11597173689881"
    }
  },
  {
    "service_request": "2022-853042",
    "request_type": "Trash/Recycling",
    "request_reason": "Illegal Dumping",
    "date_created": "2022-01-10T14:37:23.000",
    "date_modified": "2022-01-10T14:37:24.000",
    "request_status": "Pending",
    "responsible_agency": "Department of Sanitation",
    "final_address": "N RAMPART ST & PIETY ST",
    "address_councildis": "C",
    "status": "Pending",
    "rowid": "853042",
    "final_x": "3689727.1",
    "final_y": "535358.28",
    "longitude": "-90.0419555933888",
    "latitude": "29.965797258455783",
    "geocoded_column": {
      "latitude": "29.965797258455783",
      "longitude": "-90.0419555933888"
    }
  },
  {
    "service_request": "2022-853041",
    "request_type": "Traffic Signals/Signs/Striping/Streetlights",
    "request_reason": "Street Light Outage/Malfunction",
    "date_created": "2022-01-10T14:36:00.000",
    "date_modified": "2022-01-10T14:36:33.000",
    "request_status": "Pending",
    "responsible_agency": "Department of Public Works",
    "final_address": "ARTS ST & N PRIEUR ST",
    "address_councildis": "D",
    "status": "Pending",
    "contractor": "Royal Engineering",
    "rowid": "853041",
    "final_x": "3686972.8",
    "final_y": "539428.18",
    "longitude": "-90.05050966707192",
    "latitude": "29.977073124829896",
    "geocoded_column": {
      "latitude": "29.977073124829896",
      "longitude": "-90.05050966707192"
    }
  },
  {
    "service_request": "2022-853040",
    "request_type": "Trash/Recycling",
    "request_reason": "Repair Recycling Cart",
    "date_created": "2022-01-10T14:34:12.000",
    "date_modified": "2022-01-10T14:34:12.000",
    "request_status": "Pending",
    "responsible_agency": "Department of Sanitation",
    "final_address": "4412 Copernicus St",
    "address_councildis": "C",
    "status": "Pending",
    "rowid": "853040",
    "final_x": "3700030.60695",
    "final_y": "523031.826363",
    "longitude": "-90.00986728568134",
    "latitude": "29.93158053629407",
    "geocoded_column": {
      "latitude": "29.93158053629407",
      "longitude": "-90.00986728568134"
    }
  },
  {
    "service_request": "2022-853039",
    "request_type": "Traffic Signals/Signs/Striping/Streetlights",
    "request_reason": "Traffic Sign Missing/Damaged",
    "date_created": "2022-01-10T14:33:12.000",
    "date_modified": "2022-01-10T14:33:12.000",
    "request_status": "Pending",
    "responsible_agency": "Department of Public Works",
    "final_address": "1640 Poland Ave",
    "address_councildis": "D",
    "status": "Pending",
    "rowid": "853039",
    "final_x": "3693523.33366",
    "final_y": "537223.57908",
    "longitude": "-90.02990026297283",
    "latitude": "29.970807982645884",
    "geocoded_column": {
      "latitude": "29.970807982645884",
      "longitude": "-90.02990026297283"
    }
  },
  {
    "service_request": "2022-853038",
    "request_type": "Traffic Signals/Signs/Striping/Streetlights",
    "request_reason": "Traffic Signal Malfunctioning/Damaged",
    "date_created": "2022-01-10T14:32:22.000",
    "date_modified": "2022-01-10T14:32:22.000",
    "request_status": "Pending",
    "responsible_agency": "Department of Public Works",
    "final_address": "ST BERNARD AVE & I 610 E",
    "address_councildis": "D",
    "status": "Pending",
    "rowid": "853038",
    "final_x": "3678420.3",
    "final_y": "545069.28",
    "longitude": "-90.07732593505737",
    "latitude": "29.992844691153376",
    "geocoded_column": {
      "latitude": "29.992844691153376",
      "longitude": "-90.07732593505737"
    }
  },
  {
    "service_request": "2022-853037",
    "request_type": "Roads/Drainage",
    "request_reason": "Catch Basin - Clogged",
    "date_created": "2022-01-10T14:29:09.000",
    "date_modified": "2022-01-10T14:29:09.000",
    "request_status": "Pending",
    "responsible_agency": "Department of Public Works",
    "final_address": "7721 Downman Rd",
    "address_councildis": "D",
    "status": "Pending",
    "rowid": "853037",
    "final_x": "3694620.02275",
    "final_y": "558852.036828",
    "longitude": "-90.02565727393257",
    "latitude": "30.030243923770996",
    "geocoded_column": {
      "latitude": "30.030243923770996",
      "longitude": "-90.02565727393257"
    }
  },
  {
    "service_request": "2022-853036",
    "request_type": "Property Maintenance",
    "request_reason": "Property Maintenance",
    "date_created": "2022-01-10T14:26:50.000",
    "date_modified": "2022-01-10T14:26:50.000",
    "request_status": "Pending",
    "responsible_agency": "Department of Code Enforcement",
    "final_address": "7600 Weaver Ave",
    "address_councildis": "E",
    "status": "Pending",
    "rowid": "853036",
    "final_x": "3707419.96254",
    "final_y": "564272.677729",
    "longitude": "-89.98500817349469",
    "latitude": "30.044740670541398",
    "geocoded_column": {
      "latitude": "30.044740670541398",
      "longitude": "-89.98500817349469"
    }
  },
  {
    "service_request": "2022-853035",
    "request_type": "Trash/Recycling",
    "request_reason": "Request a Large Item Pick Up",
    "date_created": "2022-01-10T14:25:46.000",
    "date_modified": "2022-01-10T14:25:47.000",
    "request_status": "Pending",
    "responsible_agency": "Department of Sanitation",
    "final_address": "1436 Toledano St",
    "address_councildis": "B",
    "status": "Assigned to Contractor",
    "contractor": "Richards Disposal",
    "rowid": "853035",
    "final_x": "3674808.71105",
    "final_y": "521014.225401",
    "longitude": "-90.08955911900198",
    "latitude": "29.926809717799667",
    "geocoded_column": {
      "latitude": "29.926809717799667",
      "longitude": "-90.08955911900198"
    }
  },
  {
    "service_request": "2022-853034",
    "request_type": "Roads/Drainage",
    "request_reason": "Catch Basin - Clogged",
    "date_created": "2022-01-10T14:22:35.000",
    "date_modified": "2022-01-10T14:22:35.000",
    "request_status": "Pending",
    "responsible_agency": "Department of Public Works",
    "final_address": "1930 Poland Ave",
    "address_councildis": "D",
    "status": "Pending",
    "rowid": "853034",
    "final_x": "3693488.26864",
    "final_y": "538379.073225",
    "longitude": "-90.02996949360347",
    "latitude": "29.973986277071237",
    "geocoded_column": {
      "latitude": "29.973986277071237",
      "longitude": "-90.02996949360347"
    }
  },
  {
    "service_request": "2022-853033",
    "request_type": "Traffic Signals/Signs/Striping/Streetlights",
    "request_reason": "Traffic Sign Missing/Damaged",
    "date_created": "2022-01-10T14:19:07.000",
    "date_modified": "2022-01-10T14:19:07.000",
    "request_status": "Pending",
    "responsible_agency": "Department of Public Works",
    "final_address": "BENJAMIN ST & CALHOUN ST",
    "address_councildis": "A",
    "status": "Pending",
    "rowid": "853033",
    "final_x": "3664649.7",
    "final_y": "522548.28",
    "longitude": "-90.1215773264407",
    "latitude": "29.931327189670636",
    "geocoded_column": {
      "latitude": "29.931327189670636",
      "longitude": "-90.1215773264407"
    }
  },
  {
    "service_request": "2022-853032",
    "request_type": "Trash/Recycling",
    "request_reason": "Request a Large Item Pick Up",
    "date_created": "2022-01-10T14:18:52.000",
    "date_modified": "2022-01-10T14:18:53.000",
    "request_status": "Pending",
    "responsible_agency": "Department of Sanitation",
    "final_address": "2534 Bienville St, New Orleans, Louisiana, 70119",
    "status": "Assigned to Contractor",
    "rowid": "853032",
    "longitude": "0.0",
    "latitude": "0.0",
    "geocoded_column": {
      "latitude": "0.0",
      "longitude": "0.0"
    }
  },
  {
    "service_request": "2022-853031",
    "request_type": "Traffic Signals/Signs/Striping/Streetlights",
    "request_reason": "Traffic Signal Malfunctioning/Damaged",
    "date_created": "2022-01-10T14:16:49.000",
    "date_modified": "2022-01-10T14:16:49.000",
    "request_status": "Pending",
    "responsible_agency": "Department of Public Works",
    "final_address": "1920 Gentilly Blvd",
    "address_councildis": "D",
    "status": "Pending",
    "rowid": "853031",
    "final_x": "3679147.05787",
    "final_y": "543169.413581",
    "longitude": "-90.07509613635517",
    "latitude": "29.987598800622656",
    "geocoded_column": {
      "latitude": "29.987598800622656",
      "longitude": "-90.07509613635517"
    }
  },
  {
    "service_request": "2022-853030",
    "request_type": "Abandoned Vehicles",
    "request_reason": "Abandoned/Junk Vehicles",
    "date_created": "2022-01-10T14:15:29.000",
    "date_modified": "2022-01-10T14:15:29.000",
    "request_status": "Pending",
    "responsible_agency": "Department of Public Works",
    "final_address": "1012 St Ann St",
    "address_councildis": "C",
    "status": "Pending",
    "rowid": "853030",
    "final_x": "3681809.58453",
    "final_y": "533468.779332",
    "longitude": "-90.0670247609064",
    "latitude": "29.960844759302034",
    "geocoded_column": {
      "latitude": "29.960844759302034",
      "longitude": "-90.0670247609064"
    }
  },
  {
    "service_request": "2022-853028",
    "request_type": "Trash/Recycling",
    "request_reason": "Request a Large Item Pick Up",
    "date_created": "2022-01-10T14:12:23.000",
    "date_modified": "2022-01-10T14:12:24.000",
    "request_status": "Pending",
    "responsible_agency": "Department of Sanitation",
    "final_address": "9 Marywood Ct",
    "address_councildis": "E",
    "status": "Assigned to Contractor",
    "contractor": "Metro Disposal",
    "rowid": "853028",
    "final_x": "3712768.65726",
    "final_y": "566478.124195",
    "longitude": "-89.96802093085478",
    "latitude": "30.05063061237584",
    "geocoded_column": {
      "latitude": "30.05063061237584",
      "longitude": "-89.96802093085478"
    }
  },
  {
    "service_request": "2022-853027",
    "request_type": "Abandoned Vehicles",
    "request_reason": "Abandoned/Junk Vehicles",
    "date_created": "2022-01-10T14:06:32.000",
    "date_modified": "2022-01-10T14:06:32.000",
    "request_status": "Pending",
    "responsible_agency": "Department of Public Works",
    "final_address": "141 18Th St",
    "address_councildis": "A",
    "status": "Pending",
    "rowid": "853027",
    "final_x": "3665803.0064",
    "final_y": "548748.183827",
    "longitude": "-90.1170585268346",
    "latitude": "30.003334666951115",
    "geocoded_column": {
      "latitude": "30.003334666951115",
      "longitude": "-90.1170585268346"
    }
  },
  {
    "service_request": "2022-853025",
    "request_type": "Safety & Permits",
    "request_reason": "Licenses & Permits",
    "date_created": "2022-01-10T14:06:04.000",
    "date_modified": "2022-01-10T14:06:04.000",
    "request_status": "Pending",
    "responsible_agency": "Safety and Permits",
    "final_address": "2300 Loyola Ave",
    "address_councildis": "B",
    "status": "Pending",
    "rowid": "853025",
    "final_x": "3675926.26049",
    "final_y": "525059.423613",
    "longitude": "-90.08589229209984",
    "latitude": "29.937899292281635",
    "geocoded_column": {
      "latitude": "29.937899292281635",
      "longitude": "-90.08589229209984"
    }
  },
  {
    "service_request": "2022-853026",
    "request_type": "Trash/Recycling",
    "request_reason": "Replace Trash Cart",
    "date_created": "2022-01-10T14:06:04.000",
    "date_modified": "2022-01-10T14:06:05.000",
    "request_status": "Pending",
    "responsible_agency": "Department of Sanitation",
    "final_address": "7700 Dominican St",
    "address_councildis": "A",
    "status": "Assigned to Contractor",
    "contractor": "Richards Disposal",
    "rowid": "853026",
    "final_x": "3661109.00749",
    "final_y": "525304.287357",
    "longitude": "-90.13266374406757",
    "latitude": "29.939007825443007",
    "geocoded_column": {
      "latitude": "29.939007825443007",
      "longitude": "-90.13266374406757"
    }
  },
  {
    "service_request": "2022-853024",
    "request_type": "Trash/Recycling",
    "request_reason": "Order Recycling Cart",
    "date_created": "2022-01-10T14:05:12.000",
    "date_modified": "2022-01-10T14:05:12.000",
    "request_status": "Pending",
    "responsible_agency": "Department of Sanitation",
    "final_address": "620 Second St",
    "address_councildis": "B",
    "status": "Pending",
    "rowid": "853024",
    "final_x": "3678700.74139",
    "final_y": "519922.6126",
    "longitude": "-90.07731079120795",
    "latitude": "29.92369139932126",
    "geocoded_column": {
      "latitude": "29.92369139932126",
      "longitude": "-90.07731079120795"
    }
  },
  {
    "service_request": "2022-853023",
    "request_type": "Traffic Signals/Signs/Striping/Streetlights",
    "request_reason": "Traffic Signal Malfunctioning/Damaged",
    "date_created": "2022-01-10T14:00:19.000",
    "date_modified": "2022-01-10T14:00:19.000",
    "request_status": "Pending",
    "responsible_agency": "Department of Public Works",
    "final_address": "1470 N Broad St",
    "address_councildis": "D",
    "status": "Pending",
    "rowid": "853023",
    "final_x": "3678663.45813",
    "final_y": "539456.465802",
    "longitude": "-90.07675227564643",
    "latitude": "29.977404076811954",
    "geocoded_column": {
      "latitude": "29.977404076811954",
      "longitude": "-90.07675227564643"
    }
  },
  {
    "service_request": "2022-853022",
    "request_type": "Trash/Recycling",
    "request_reason": "Request a Large Item Pick Up",
    "date_created": "2022-01-10T13:55:41.000",
    "date_modified": "2022-01-10T13:55:42.000",
    "request_status": "Pending",
    "responsible_agency": "Department of Sanitation",
    "final_address": "7520 Dalewood Rd",
    "address_councildis": "E",
    "status": "Assigned to Contractor",
    "contractor": "Metro Disposal",
    "rowid": "853022",
    "final_x": "3699962.50384",
    "final_y": "560122.227869",
    "longitude": "-90.00872870627522",
    "latitude": "30.033567730063005",
    "geocoded_column": {
      "latitude": "30.033567730063005",
      "longitude": "-90.00872870627522"
    }
  },
  {
    "service_request": "2022-853021",
    "request_type": "Abandoned Vehicles",
    "request_reason": "Abandoned/Junk Vehicles",
    "date_created": "2022-01-10T13:54:50.000",
    "date_modified": "2022-01-10T13:54:50.000",
    "request_status": "Pending",
    "responsible_agency": "Department of Public Works",
    "final_address": "6600 Curran Rd",
    "address_councildis": "E",
    "status": "Pending",
    "rowid": "853021",
    "final_x": "3697440.2033",
    "final_y": "559661.567709",
    "longitude": "-90.01671614077306",
    "latitude": "30.03238102451956",
    "geocoded_column": {
      "latitude": "30.03238102451956",
      "longitude": "-90.01671614077306"
    }
  },
  {
    "service_request": "2022-853020",
    "request_type": "Traffic Signals/Signs/Striping/Streetlights",
    "request_reason": "Traffic Signal Malfunctioning/Damaged",
    "date_created": "2022-01-10T13:54:39.000",
    "date_modified": "2022-01-10T13:54:39.000",
    "request_status": "Pending",
    "responsible_agency": "Department of Public Works",
    "final_address": "2200 Esplanade Ave",
    "address_councildis": "D",
    "status": "Pending",
    "rowid": "853020",
    "final_x": "3679498.05947",
    "final_y": "537843.426505",
    "longitude": "-90.0741723101898",
    "latitude": "29.972943582483644",
    "geocoded_column": {
      "latitude": "29.972943582483644",
      "longitude": "-90.0741723101898"
    }
  },
  {
    "service_request": "2022-853019",
    "request_type": "Trash/Recycling",
    "request_reason": "Replace Trash Cart",
    "date_created": "2022-01-10T13:52:05.000",
    "date_modified": "2022-01-10T13:52:06.000",
    "request_status": "Pending",
    "responsible_agency": "Department of Sanitation",
    "final_address": "7102 Freret St",
    "address_councildis": "A",
    "status": "Assigned to Contractor",
    "contractor": "Richards Disposal",
    "rowid": "853019",
    "final_x": "3663946.01581",
    "final_y": "525720.501245",
    "longitude": "-90.12369306061936",
    "latitude": "29.94007023488417",
    "geocoded_column": {
      "latitude": "29.94007023488417",
      "longitude": "-90.12369306061936"
    }
  },
  {
    "service_request": "2022-853018",
    "request_type": "Trash/Recycling",
    "request_reason": "MIssed Recycling Pick-Up",
    "date_created": "2022-01-10T13:49:08.000",
    "date_modified": "2022-01-10T13:49:08.000",
    "request_status": "Closed",
    "responsible_agency": "Department of Sanitation",
    "final_address": "3818 Jena St",
    "address_councildis": "B",
    "status": "Resolved",
    "rowid": "853018",
    "final_x": "3669630.29454",
    "final_y": "528598.760896",
    "longitude": "-90.10564951624902",
    "latitude": "29.94781828813069",
    "geocoded_column": {
      "latitude": "29.94781828813069",
      "longitude": "-90.10564951624902"
    }
  },
  {
    "service_request": "2022-853017",
    "request_type": "Trash/Recycling",
    "request_reason": "MIssed Recycling Pick-Up",
    "date_created": "2022-01-10T13:48:35.000",
    "date_modified": "2022-01-10T13:48:35.000",
    "request_status": "Closed",
    "responsible_agency": "Department of Sanitation",
    "final_address": "3818 Jena St",
    "address_councildis": "B",
    "status": "Resolved",
    "rowid": "853017",
    "final_x": "3669630.29454",
    "final_y": "528598.760896",
    "longitude": "-90.10564951624902",
    "latitude": "29.94781828813069",
    "geocoded_column": {
      "latitude": "29.94781828813069",
      "longitude": "-90.10564951624902"
    }
  },
  {
    "service_request": "2022-853016",
    "request_type": "Trash/Recycling",
    "request_reason": "MIssed Recycling Pick-Up",
    "date_created": "2022-01-10T13:48:30.000",
    "date_modified": "2022-01-10T13:48:30.000",
    "request_status": "Closed",
    "responsible_agency": "Department of Sanitation",
    "final_address": "3818 Jena St",
    "address_councildis": "B",
    "status": "Resolved",
    "rowid": "853016",
    "final_x": "3669630.29454",
    "final_y": "528598.760896",
    "longitude": "-90.10564951624902",
    "latitude": "29.94781828813069",
    "geocoded_column": {
      "latitude": "29.94781828813069",
      "longitude": "-90.10564951624902"
    }
  },
  {
    "service_request": "2022-853015",
    "request_type": "Traffic Signals/Signs/Striping/Streetlights",
    "request_reason": "Street Light Knocked Down/Leaning",
    "date_created": "2022-01-10T13:47:34.000",
    "date_modified": "2022-01-10T13:47:34.000",
    "request_status": "Pending",
    "responsible_agency": "Department of Public Works",
    "final_address": "632 Tchoupitoulas St",
    "address_councildis": "B",
    "status": "Pending",
    "contractor": "Royal Engineering",
    "rowid": "853015",
    "final_x": "3681815.26069",
    "final_y": "528367.977216",
    "longitude": "-90.06718482223691",
    "latitude": "29.946819108719094",
    "geocoded_column": {
      "latitude": "29.946819108719094",
      "longitude": "-90.06718482223691"
    }
  },
  {
    "service_request": "2022-853014",
    "request_type": "Trash/Recycling",
    "request_reason": "Request a Large Item Pick Up",
    "date_created": "2022-01-10T13:45:04.000",
    "date_modified": "2022-01-10T13:45:05.000",
    "request_status": "Pending",
    "responsible_agency": "Department of Sanitation",
    "final_address": "7231 W Renaissance Ct",
    "address_councildis": "E",
    "status": "Assigned to Contractor",
    "contractor": "Metro Disposal",
    "rowid": "853014",
    "final_x": "3716483.83192",
    "final_y": "567954.770853",
    "longitude": "-89.95622260057101",
    "latitude": "30.054568541526262",
    "geocoded_column": {
      "latitude": "30.054568541526262",
      "longitude": "-89.95622260057101"
    }
  },
  {
    "service_request": "2022-853013",
    "request_type": "Roads/Drainage",
    "request_reason": "Road Shoulder Repair",
    "date_created": "2022-01-10T13:41:00.000",
    "date_modified": "2022-01-10T13:41:00.000",
    "request_status": "Pending",
    "responsible_agency": "Department of Public Works",
    "final_address": "2303 Prentiss Ave",
    "address_councildis": "D",
    "status": "Pending",
    "rowid": "853013",
    "final_x": "3684417.23298",
    "final_y": "553965.034008",
    "longitude": "-90.05806998113111",
    "latitude": "30.017122687406996",
    "geocoded_column": {
      "latitude": "30.017122687406996",
      "longitude": "-90.05806998113111"
    }
  },
  {
    "service_request": "2022-853012",
    "request_type": "Traffic Signals/Signs/Striping/Streetlights",
    "request_reason": "Street Light Outage/Malfunction",
    "date_created": "2022-01-10T13:40:57.000",
    "date_modified": "2022-01-10T13:40:58.000",
    "request_status": "Pending",
    "responsible_agency": "Department of Public Works",
    "final_address": "1224 Gordon St",
    "address_councildis": "E",
    "status": "Pending",
    "contractor": "Royal Engineering",
    "rowid": "853012",
    "final_x": "3699319.17988",
    "final_y": "533967.792709",
    "longitude": "-90.01171496806106",
    "latitude": "29.96167318045179",
    "geocoded_column": {
      "latitude": "29.96167318045179",
      "longitude": "-90.01171496806106"
    }
  },
  {
    "service_request": "2022-853011",
    "request_type": "Property Maintenance",
    "request_reason": "Property Maintenance",
    "date_created": "2022-01-10T13:34:25.000",
    "date_modified": "2022-01-10T13:34:25.000",
    "request_status": "Pending",
    "responsible_agency": "Department of Code Enforcement",
    "final_address": "2610 Peniston St",
    "address_councildis": "B",
    "status": "Pending",
    "rowid": "853011",
    "final_x": "3671976.29057",
    "final_y": "524672.462524",
    "longitude": "-90.09837586979138",
    "latitude": "29.936952925434245",
    "geocoded_column": {
      "latitude": "29.936952925434245",
      "longitude": "-90.09837586979138"
    }
  },
  {
    "service_request": "2022-853010",
    "request_type": "Trash/Recycling",
    "request_reason": "Start Trash Service",
    "date_created": "2022-01-10T13:33:45.000",
    "date_modified": "2022-01-10T13:33:46.000",
    "request_status": "Pending",
    "responsible_agency": "Department of Sanitation",
    "final_address": "4708 Wilson Ave",
    "address_councildis": "E",
    "status": "Assigned to Contractor",
    "contractor": "Metro Disposal",
    "rowid": "853010",
    "final_x": "3702941.24663",
    "final_y": "554688.466584",
    "longitude": "-89.99951549687506",
    "latitude": "30.01853196884531",
    "geocoded_column": {
      "latitude": "30.01853196884531",
      "longitude": "-89.99951549687506"
    }
  },
  {
    "service_request": "2022-853009",
    "request_type": "Trash/Recycling",
    "request_reason": "Start Trash Service",
    "date_created": "2022-01-10T13:33:31.000",
    "date_modified": "2022-01-10T13:33:32.000",
    "request_status": "Pending",
    "responsible_agency": "Department of Sanitation",
    "final_address": "4710 Wilson Ave",
    "address_councildis": "E",
    "status": "Assigned to Contractor",
    "contractor": "Metro Disposal",
    "rowid": "853009",
    "final_x": "3702940.05284",
    "final_y": "554702.788248",
    "longitude": "-89.99951874204325",
    "latitude": "30.018571386140625",
    "geocoded_column": {
      "latitude": "30.018571386140625",
      "longitude": "-89.99951874204325"
    }
  },
  {
    "service_request": "2022-853008",
    "request_type": "Trash/Recycling",
    "request_reason": "Order Trash Cart",
    "date_created": "2022-01-10T13:33:15.000",
    "date_modified": "2022-01-10T13:33:16.000",
    "request_status": "Pending",
    "responsible_agency": "Department of Sanitation",
    "final_address": "4710 Wilson Ave",
    "address_councildis": "E",
    "status": "Assigned to Contractor",
    "contractor": "Metro Disposal",
    "rowid": "853008",
    "final_x": "3702940.05284",
    "final_y": "554702.788248",
    "longitude": "-89.99951874204325",
    "latitude": "30.018571386140625",
    "geocoded_column": {
      "latitude": "30.018571386140625",
      "longitude": "-89.99951874204325"
    }
  },
  {
    "service_request": "2022-853007",
    "request_type": "Trash/Recycling",
    "request_reason": "Order Trash Cart",
    "date_created": "2022-01-10T13:33:01.000",
    "date_modified": "2022-01-10T13:33:02.000",
    "request_status": "Pending",
    "responsible_agency": "Department of Sanitation",
    "final_address": "4708 Wilson Ave",
    "address_councildis": "E",
    "status": "Assigned to Contractor",
    "contractor": "Metro Disposal",
    "rowid": "853007",
    "final_x": "3702941.24663",
    "final_y": "554688.466584",
    "longitude": "-89.99951549687506",
    "latitude": "30.01853196884531",
    "geocoded_column": {
      "latitude": "30.01853196884531",
      "longitude": "-89.99951549687506"
    }
  },
  {
    "service_request": "2022-853006",
    "request_type": "Property Maintenance",
    "request_reason": "Property Maintenance",
    "date_created": "2022-01-10T13:32:06.000",
    "date_modified": "2022-01-10T13:32:06.000",
    "request_status": "Pending",
    "responsible_agency": "Department of Code Enforcement",
    "final_address": "2503 General Taylor St",
    "address_councildis": "B",
    "status": "Pending",
    "rowid": "853006",
    "final_x": "3671927.74612",
    "final_y": "524219.042236",
    "longitude": "-90.09854455348362",
    "latitude": "29.935707605079337",
    "geocoded_column": {
      "latitude": "29.935707605079337",
      "longitude": "-90.09854455348362"
    }
  },
  {
    "service_request": "2022-853005",
    "request_type": "Trash/Recycling",
    "request_reason": "Repair Trash Cart",
    "date_created": "2022-01-10T13:31:44.000",
    "date_modified": "2022-01-10T13:31:45.000",
    "request_status": "Pending",
    "responsible_agency": "Department of Sanitation",
    "final_address": "2146 Easter Ln",
    "address_councildis": "C",
    "status": "Assigned to Contractor",
    "contractor": "Richards Disposal",
    "rowid": "853005",
    "final_x": "3699479.58647",
    "final_y": "523307.548411",
    "longitude": "-90.01159674176499",
    "latitude": "29.932356165044947",
    "geocoded_column": {
      "latitude": "29.932356165044947",
      "longitude": "-90.01159674176499"
    }
  },
  {
    "service_request": "2022-853004",
    "request_type": "Roads/Drainage",
    "request_reason": "Pothole",
    "date_created": "2022-01-10T13:30:45.000",
    "date_modified": "2022-01-10T13:30:45.000",
    "request_status": "Pending",
    "responsible_agency": "Department of Public Works",
    "final_address": "8001 Townsend Pl",
    "address_councildis": "D",
    "status": "Pending",
    "rowid": "853004",
    "final_x": "3693810.3151",
    "final_y": "559367.431197",
    "longitude": "-90.0281973934505",
    "latitude": "30.031686445572724",
    "geocoded_column": {
      "latitude": "30.031686445572724",
      "longitude": "-90.0281973934505"
    }
  },
  {
    "service_request": "2022-853003",
    "request_type": "Abandoned Vehicles",
    "request_reason": "Abandoned/Junk Vehicles",
    "date_created": "2022-01-10T13:29:36.000",
    "date_modified": "2022-01-10T13:29:36.000",
    "request_status": "Pending",
    "responsible_agency": "Department of Public Works",
    "final_address": "N GALVEZ ST & COLUMBUS ST",
    "address_councildis": "D",
    "status": "Pending",
    "rowid": "853003",
    "final_x": "3680327.7",
    "final_y": "538270.08",
    "longitude": "-90.07153730882497",
    "latitude": "29.974091637926815",
    "geocoded_column": {
      "latitude": "29.974091637926815",
      "longitude": "-90.07153730882497"
    }
  },
  {
    "service_request": "2022-853002",
    "request_type": "Trash/Recycling",
    "request_reason": "Start Trash Service",
    "date_created": "2022-01-10T13:29:12.000",
    "date_modified": "2022-01-10T13:29:13.000",
    "request_status": "Pending",
    "responsible_agency": "Department of Sanitation",
    "final_address": "3608 Havana St",
    "address_councildis": "D",
    "status": "Assigned to Contractor",
    "contractor": "Metro Disposal",
    "rowid": "853002",
    "final_x": "3680776.54184",
    "final_y": "545679.799504",
    "longitude": "-90.06986172476225",
    "latitude": "29.994452175994443",
    "geocoded_column": {
      "latitude": "29.994452175994443",
      "longitude": "-90.06986172476225"
    }
  },
  {
    "service_request": "2022-853001",
    "request_type": "Trash/Recycling",
    "request_reason": "Replace Trash Cart",
    "date_created": "2022-01-10T13:26:43.000",
    "date_modified": "2022-01-10T13:26:44.000",
    "request_status": "Pending",
    "responsible_agency": "Department of Sanitation",
    "final_address": "4422 Allen St",
    "address_councildis": "D",
    "status": "Assigned to Contractor",
    "contractor": "Metro Disposal",
    "rowid": "853001",
    "final_x": "3681717.33538",
    "final_y": "548847.498323",
    "longitude": "-90.06677927454207",
    "latitude": "30.00313366032492",
    "geocoded_column": {
      "latitude": "30.00313366032492",
      "longitude": "-90.06677927454207"
    }
  },
  {
    "service_request": "2022-853000",
    "request_type": "Trash/Recycling",
    "request_reason": "Repair Trash Cart",
    "date_created": "2022-01-10T13:25:00.000",
    "date_modified": "2022-01-10T13:25:03.000",
    "request_status": "Pending",
    "responsible_agency": "Department of Sanitation",
    "final_address": "3703 Monroe St",
    "address_councildis": "A",
    "status": "Assigned to Contractor",
    "contractor": "Richards Disposal",
    "rowid": "853000",
    "final_x": "3666451.12359",
    "final_y": "536391.392775",
    "longitude": "-90.11542593948668",
    "latitude": "29.969338747886475",
    "geocoded_column": {
      "latitude": "29.969338747886475",
      "longitude": "-90.11542593948668"
    }
  },
  {
    "service_request": "2022-852999",
    "request_type": "Roads/Drainage",
    "request_reason": "Pothole",
    "date_created": "2022-01-10T13:23:54.000",
    "date_modified": "2022-01-10T13:23:54.000",
    "request_status": "Pending",
    "responsible_agency": "Department of Public Works",
    "final_address": "2537 General Taylor St",
    "address_councildis": "B",
    "status": "Pending",
    "rowid": "852999",
    "final_x": "3671878.54465",
    "final_y": "524475.092796",
    "longitude": "-90.09869117352308",
    "latitude": "29.936413119007284",
    "geocoded_column": {
      "latitude": "29.936413119007284",
      "longitude": "-90.09869117352308"
    }
  },
  {
    "service_request": "2022-852998",
    "request_type": "Abandoned Vehicles",
    "request_reason": "Vehicle Blocking Your Driveway",
    "date_created": "2022-01-10T13:23:51.000",
    "date_modified": "2022-01-10T13:23:51.000",
    "request_status": "Pending",
    "responsible_agency": "Department of Public Works",
    "final_address": "824 Austerlitz Street New Orleans, LA 70115",
    "address_councildis": "B",
    "status": "Pending",
    "rowid": "852998",
    "final_x": "3672845.1483",
    "final_y": "518812.042295",
    "longitude": "-90.09583265125138",
    "latitude": "29.92081287958647",
    "geocoded_column": {
      "latitude": "29.92081287958647",
      "longitude": "-90.09583265125138"
    }
  },
  {
    "service_request": "2022-852997",
    "request_type": "Roads/Drainage",
    "request_reason": "Debris in Roadway",
    "date_created": "2022-01-10T13:21:30.000",
    "date_modified": "2022-01-10T13:21:30.000",
    "request_status": "Pending",
    "responsible_agency": "Department of Public Works",
    "final_address": "1331 Second St",
    "address_councildis": "B",
    "status": "Pending",
    "rowid": "852997",
    "final_x": "3677313.17986",
    "final_y": "522195.900346",
    "longitude": "-90.08161242719189",
    "latitude": "29.92998395115108",
    "geocoded_column": {
      "latitude": "29.92998395115108",
      "longitude": "-90.08161242719189"
    }
  },
  {
    "service_request": "2022-852996",
    "request_type": "Trash/Recycling",
    "request_reason": "Replace Trash Cart",
    "date_created": "2022-01-10T13:20:58.000",
    "date_modified": "2022-01-10T13:21:00.000",
    "request_status": "Pending",
    "responsible_agency": "Department of Sanitation",
    "final_address": "2709 Third St",
    "address_councildis": "B",
    "status": "Assigned to Contractor",
    "contractor": "Richards Disposal",
    "rowid": "852996",
    "final_x": "3674236.53416",
    "final_y": "526265.644926",
    "longitude": "-90.09118562455713",
    "latitude": "29.941266479848366",
    "geocoded_column": {
      "latitude": "29.941266479848366",
      "longitude": "-90.09118562455713"
    }
  },
  {
    "service_request": "2022-852995",
    "request_type": "Trash/Recycling",
    "request_reason": "Replace Recycling Cart",
    "date_created": "2022-01-10T13:20:37.000",
    "date_modified": "2022-01-10T13:20:37.000",
    "request_status": "Pending",
    "responsible_agency": "Department of Sanitation",
    "final_address": "4924 S Tonti St, New Orleans, Louisiana, 70125",
    "address_councildis": "B",
    "status": "Pending",
    "rowid": "852995",
    "final_x": "3669127.77345",
    "final_y": "527995.023423",
    "longitude": "-90.10725657684269",
    "latitude": "29.94617300174058",
    "geocoded_column": {
      "latitude": "29.94617300174058",
      "longitude": "-90.10725657684269"
    }
  },
  {
    "service_request": "2022-852994",
    "request_type": "Parks & Parkways",
    "request_reason": "Request Tree Service (Right of Way/Public Property)",
    "date_created": "2022-01-10T13:13:51.000",
    "date_modified": "2022-01-10T13:55:10.000",
    "case_close_date": "2022-01-10T07:55:10.000",
    "request_status": "Closed",
    "responsible_agency": "Department of Parks & Parkway",
    "final_address": "1817 S Carrollton Ave",
    "address_councildis": "A",
    "status": "Duplicate Case",
    "rowid": "852994",
    "final_x": "3663611.65747",
    "final_y": "529925.938241",
    "longitude": "-90.12460862671952",
    "latitude": "29.95164353894241",
    "geocoded_column": {
      "latitude": "29.95164353894241",
      "longitude": "-90.12460862671952"
    }
  },
  {
    "service_request": "2022-852993",
    "request_type": "Trash/Recycling",
    "request_reason": "Repair Recycling Cart",
    "date_created": "2022-01-10T13:10:30.000",
    "date_modified": "2022-01-10T13:10:31.000",
    "request_status": "Pending",
    "responsible_agency": "Department of Sanitation",
    "final_address": "1302 N Gayoso St",
    "address_councildis": "A",
    "status": "Pending",
    "rowid": "852993",
    "final_x": "3676826.99598",
    "final_y": "539729.997066",
    "longitude": "-90.08254300899915",
    "latitude": "29.978211442524255",
    "geocoded_column": {
      "latitude": "29.978211442524255",
      "longitude": "-90.08254300899915"
    }
  },
  {
    "service_request": "2022-852992",
    "request_type": "Property Maintenance",
    "request_reason": "Property Maintenance",
    "date_created": "2022-01-10T13:04:43.000",
    "date_modified": "2022-01-10T13:04:43.000",
    "request_status": "Pending",
    "responsible_agency": "Department of Code Enforcement",
    "final_address": "2021 Canal St",
    "address_councildis": "B",
    "status": "Pending",
    "rowid": "852992",
    "final_x": "3677498.87547",
    "final_y": "533687.326277",
    "longitude": "-90.0806296195765",
    "latitude": "29.9615759770036",
    "geocoded_column": {
      "latitude": "29.9615759770036",
      "longitude": "-90.0806296195765"
    }
  },
  {
    "service_request": "2022-852991",
    "request_type": "Traffic Signals/Signs/Striping/Streetlights",
    "request_reason": "Street Light Outage/Malfunction",
    "date_created": "2022-01-10T13:03:17.000",
    "date_modified": "2022-01-10T13:03:17.000",
    "request_status": "Pending",
    "responsible_agency": "Department of Public Works",
    "final_address": "4550 Camelot Dr",
    "address_councildis": "E",
    "status": "Pending",
    "contractor": "Royal Engineering",
    "rowid": "852991",
    "final_x": "3708410.69886",
    "final_y": "554466.51452",
    "longitude": "-89.98224244777111",
    "latitude": "30.0177454913182",
    "geocoded_column": {
      "latitude": "30.0177454913182",
      "longitude": "-89.98224244777111"
    }
  },
  {
    "service_request": "2022-852990",
    "request_type": "Trash/Recycling",
    "request_reason": "Request a Large Item Pick Up",
    "date_created": "2022-01-10T13:01:16.000",
    "date_modified": "2022-01-10T13:01:17.000",
    "request_status": "Pending",
    "responsible_agency": "Department of Sanitation",
    "final_address": "422 Eliza St",
    "address_councildis": "C",
    "status": "Assigned to Contractor",
    "contractor": "Richards Disposal",
    "rowid": "852990",
    "final_x": "3686782.59785",
    "final_y": "529813.092737",
    "longitude": "-90.05145011534873",
    "latitude": "29.950640823034355",
    "geocoded_column": {
      "latitude": "29.950640823034355",
      "longitude": "-90.05145011534873"
    }
  },
  {
    "service_request": "2022-852989",
    "request_type": "Trash/Recycling",
    "request_reason": "Order Trash Cart",
    "date_created": "2022-01-10T12:57:11.000",
    "date_modified": "2022-01-10T12:57:12.000",
    "request_status": "Pending",
    "responsible_agency": "Department of Sanitation",
    "final_address": "10200 Flossmoor Dr",
    "address_councildis": "E",
    "status": "Assigned to Contractor",
    "contractor": "Metro Disposal",
    "rowid": "852989",
    "final_x": "3709766.98225",
    "final_y": "563567.030304",
    "longitude": "-89.97761695474753",
    "latitude": "30.042724275938266",
    "geocoded_column": {
      "latitude": "30.042724275938266",
      "longitude": "-89.97761695474753"
    }
  },
  {
    "service_request": "2022-852988",
    "request_type": "Property Maintenance",
    "request_reason": "Property Maintenance",
    "date_created": "2022-01-10T12:56:40.000",
    "date_modified": "2022-01-10T12:56:40.000",
    "request_status": "Pending",
    "responsible_agency": "Department of Code Enforcement",
    "final_address": "1936 Iberville St",
    "address_councildis": "B",
    "status": "Pending",
    "rowid": "852988",
    "final_x": "3677824.23771",
    "final_y": "533719.381573",
    "longitude": "-90.07960107219128",
    "latitude": "29.961654333497183",
    "geocoded_column": {
      "latitude": "29.961654333497183",
      "longitude": "-90.07960107219128"
    }
  },
  {
    "service_request": "2022-852987",
    "request_type": "Property Maintenance",
    "request_reason": "Property Maintenance",
    "date_created": "2022-01-10T12:55:11.000",
    "date_modified": "2022-01-10T12:55:11.000",
    "request_status": "Pending",
    "responsible_agency": "Department of Code Enforcement",
    "final_address": "1929 Iberville St",
    "address_councildis": "B",
    "status": "Pending",
    "rowid": "852987",
    "final_x": "3677902.3787",
    "final_y": "533762.693061",
    "longitude": "-90.079352818974",
    "latitude": "29.961771074273166",
    "geocoded_column": {
      "latitude": "29.961771074273166",
      "longitude": "-90.079352818974"
    }
  },
  {
    "service_request": "2022-852986",
    "request_type": "Property Maintenance",
    "request_reason": "Property Maintenance",
    "date_created": "2022-01-10T12:53:52.000",
    "date_modified": "2022-01-10T12:53:52.000",
    "request_status": "Pending",
    "responsible_agency": "Department of Code Enforcement",
    "final_address": "1933 Iberville St",
    "address_councildis": "B",
    "status": "Pending",
    "rowid": "852986",
    "final_x": "3677867.09358",
    "final_y": "533790.997445",
    "longitude": "-90.07946326565377",
    "latitude": "29.961849963488053",
    "geocoded_column": {
      "latitude": "29.961849963488053",
      "longitude": "-90.07946326565377"
    }
  },
  {
    "service_request": "2022-852985",
    "request_type": "Abandoned Vehicles",
    "request_reason": "Abandoned/Junk Vehicles",
    "date_created": "2022-01-10T12:51:14.000",
    "date_modified": "2022-01-10T12:51:14.000",
    "request_status": "Pending",
    "responsible_agency": "Department of Public Works",
    "final_address": "2014 Benefit St",
    "address_councildis": "D",
    "status": "Pending",
    "rowid": "852985",
    "final_x": "3683035.62127",
    "final_y": "544235.268622",
    "longitude": "-90.0627761854739",
    "latitude": "29.990411542018084",
    "geocoded_column": {
      "latitude": "29.990411542018084",
      "longitude": "-90.0627761854739"
    }
  },
  {
    "service_request": "2022-852984",
    "request_type": "Abandoned Vehicles",
    "request_reason": "Abandoned/Junk Vehicles",
    "date_created": "2022-01-10T12:44:36.000",
    "date_modified": "2022-01-10T12:44:36.000",
    "request_status": "Pending",
    "responsible_agency": "Department of Public Works",
    "final_address": "CALHOUN ST & TCHOUPITOULAS ST",
    "address_councildis": "A",
    "status": "Pending",
    "rowid": "852984",
    "final_x": "3662753.2",
    "final_y": "518100.98",
    "longitude": "-90.12771209051597",
    "latitude": "29.919153515997472",
    "geocoded_column": {
      "latitude": "29.919153515997472",
      "longitude": "-90.12771209051597"
    }
  },
  {
    "service_request": "2022-852983",
    "request_type": "Abandoned Vehicles",
    "request_reason": "Abandoned/Junk Vehicles",
    "date_created": "2022-01-10T12:43:03.000",
    "date_modified": "2022-01-10T12:43:03.000",
    "request_status": "Pending",
    "responsible_agency": "Department of Public Works",
    "final_address": "500 Poydras St",
    "address_councildis": "B",
    "status": "Pending",
    "rowid": "852983",
    "final_x": "3681397.5229",
    "final_y": "529090.628608",
    "longitude": "-90.06847858556495",
    "latitude": "29.94881884297746",
    "geocoded_column": {
      "latitude": "29.94881884297746",
      "longitude": "-90.06847858556495"
    }
  },
  {
    "service_request": "2022-852982",
    "request_type": "Trash/Recycling",
    "request_reason": "Order Recycling Cart",
    "date_created": "2022-01-10T12:42:07.000",
    "date_modified": "2022-01-10T12:42:07.000",
    "request_status": "Pending",
    "responsible_agency": "Department of Sanitation",
    "final_address": "221 S Rocheblave St",
    "address_councildis": "B",
    "status": "Pending",
    "rowid": "852982",
    "final_x": "3675708.77857",
    "final_y": "534084.967365",
    "longitude": "-90.08626878521706",
    "latitude": "29.962723046736315",
    "geocoded_column": {
      "latitude": "29.962723046736315",
      "longitude": "-90.08626878521706"
    }
  },
  {
    "service_request": "2022-852981",
    "request_type": "Trash/Recycling",
    "request_reason": "Order Recycling Cart",
    "date_created": "2022-01-10T12:41:09.000",
    "date_modified": "2022-01-10T12:41:09.000",
    "request_status": "Pending",
    "responsible_agency": "Department of Sanitation",
    "final_address": "219 S Rocheblave St",
    "address_councildis": "B",
    "status": "Pending",
    "rowid": "852981",
    "final_x": "3675714.11733",
    "final_y": "534092.687621",
    "longitude": "-90.08625166076047",
    "latitude": "29.962744115070972",
    "geocoded_column": {
      "latitude": "29.962744115070972",
      "longitude": "-90.08625166076047"
    }
  },
  {
    "service_request": "2022-852980",
    "request_type": "Traffic Signals/Signs/Striping/Streetlights",
    "request_reason": "Disabled Parking Sign ",
    "date_created": "2022-01-10T12:41:03.000",
    "date_modified": "2022-01-10T12:41:03.000",
    "request_status": "Pending",
    "responsible_agency": "Department of Public Works",
    "final_address": "3107 State Street Dr",
    "address_councildis": "A",
    "status": "Pending",
    "rowid": "852980",
    "final_x": "3667399.30657",
    "final_y": "527373.899775",
    "longitude": "-90.11273485275139",
    "latitude": "29.944515854718638",
    "geocoded_column": {
      "latitude": "29.944515854718638",
      "longitude": "-90.11273485275139"
    }
  },
  {
    "service_request": "2022-852979",
    "request_type": "Trash/Recycling",
    "request_reason": "Replace Trash Cart",
    "date_created": "2022-01-10T12:40:12.000",
    "date_modified": "2022-01-10T12:40:46.000",
    "request_status": "Pending",
    "responsible_agency": "Department of Sanitation",
    "final_address": "1121 N Derbigny St",
    "address_councildis": "D",
    "status": "Assigned to Contractor",
    "contractor": "Richards Disposal",
    "rowid": "852979",
    "final_x": "3680479.29595",
    "final_y": "536213.480519",
    "longitude": "-90.07113008251038",
    "latitude": "29.968432106532898",
    "geocoded_column": {
      "latitude": "29.968432106532898",
      "longitude": "-90.07113008251038"
    }
  },
  {
    "service_request": "2022-852978",
    "request_type": "Trash/Recycling",
    "request_reason": "Illegal Dumping",
    "date_created": "2022-01-10T12:38:52.000",
    "date_modified": "2022-01-10T12:38:52.000",
    "request_status": "Pending",
    "responsible_agency": "Department of Code Enforcement",
    "final_address": "3600 Bennett St",
    "address_councildis": "C",
    "status": "Pending",
    "rowid": "852978",
    "final_x": "3710395.38033",
    "final_y": "517294.026549",
    "longitude": "-89.97736157711479",
    "latitude": "29.915470362814723",
    "geocoded_column": {
      "latitude": "29.915470362814723",
      "longitude": "-89.97736157711479"
    }
  },
  {
    "service_request": "2022-852977",
    "request_type": "Traffic Signals/Signs/Striping/Streetlights",
    "request_reason": "Request for Stop Sign",
    "date_created": "2022-01-10T12:37:53.000",
    "date_modified": "2022-01-10T12:37:53.000",
    "request_status": "Pending",
    "responsible_agency": "Department of Public Works",
    "final_address": "N ROMAN ST & LESSEPS ST",
    "address_councildis": "D",
    "status": "Pending",
    "rowid": "852977",
    "final_x": "3693353.1",
    "final_y": "537707.88",
    "longitude": "-90.03042048829381",
    "latitude": "29.972144961576635",
    "geocoded_column": {
      "latitude": "29.972144961576635",
      "longitude": "-90.03042048829381"
    }
  },
  {
    "service_request": "2022-852976",
    "request_type": "Abandoned Vehicles",
    "request_reason": "Abandoned/Junk Vehicles",
    "date_created": "2022-01-10T12:37:25.000",
    "date_modified": "2022-01-10T12:41:42.000",
    "request_status": "Pending",
    "responsible_agency": "Department of Public Works",
    "final_address": "8015 Plum St",
    "address_councildis": "A",
    "status": "Pending",
    "rowid": "852976",
    "final_x": "3662458.64474",
    "final_y": "528448.2464",
    "longitude": "-90.1282983721216",
    "latitude": "29.947613754758624",
    "geocoded_column": {
      "latitude": "29.947613754758624",
      "longitude": "-90.1282983721216"
    }
  },
  {
    "service_request": "2022-852975",
    "request_type": "Abandoned Vehicles",
    "request_reason": "Abandoned/Junk Vehicles",
    "date_created": "2022-01-10T12:36:34.000",
    "date_modified": "2022-01-10T12:36:34.000",
    "request_status": "Pending",
    "responsible_agency": "Department of Public Works",
    "final_address": "138 Middle Park Pl",
    "address_councildis": "A",
    "status": "Pending",
    "rowid": "852975",
    "final_x": "3670157.93703",
    "final_y": "544182.81915",
    "longitude": "-90.10345539631139",
    "latitude": "29.990653670409596",
    "geocoded_column": {
      "latitude": "29.990653670409596",
      "longitude": "-90.10345539631139"
    }
  },
  {
    "service_request": "2022-852974",
    "request_type": "Traffic Signals/Signs/Striping/Streetlights",
    "request_reason": "Request for Stop Sign",
    "date_created": "2022-01-10T12:35:47.000",
    "date_modified": "2022-01-10T12:35:47.000",
    "request_status": "Pending",
    "responsible_agency": "Department of Public Works",
    "final_address": "N MIRO ST & MUSIC ST",
    "address_councildis": "D",
    "status": "Pending",
    "rowid": "852974",
    "final_x": "3686528.2",
    "final_y": "540503.68",
    "longitude": "-90.05187586621602",
    "latitude": "29.980044049777426",
    "geocoded_column": {
      "latitude": "29.980044049777426",
      "longitude": "-90.05187586621602"
    }
  },
  {
    "service_request": "2022-852973",
    "request_type": "Safety & Permits",
    "request_reason": "Licenses & Permits",
    "date_created": "2022-01-10T12:33:13.000",
    "date_modified": "2022-01-10T12:33:13.000",
    "request_status": "Pending",
    "responsible_agency": "Safety and Permits",
    "final_address": "5725 Providence Pl",
    "address_councildis": "D",
    "status": "Pending",
    "rowid": "852973",
    "final_x": "3688346.30006",
    "final_y": "554423.697176",
    "longitude": "-90.04563948473002",
    "latitude": "30.018263018429856",
    "geocoded_column": {
      "latitude": "30.018263018429856",
      "longitude": "-90.04563948473002"
    }
  },
  {
    "service_request": "2022-852972",
    "request_type": "Trash/Recycling",
    "request_reason": "Request a Large Item Pick Up",
    "date_created": "2022-01-10T12:33:01.000",
    "date_modified": "2022-01-10T12:33:01.000",
    "request_status": "Pending",
    "responsible_agency": "Department of Sanitation",
    "final_address": "3426 Upperline St",
    "address_councildis": "B",
    "status": "Assigned to Contractor",
    "contractor": "Richards Disposal",
    "rowid": "852972",
    "final_x": "3669233.40942",
    "final_y": "527613.173567",
    "longitude": "-90.10693595058689",
    "latitude": "29.945119930373345",
    "geocoded_column": {
      "latitude": "29.945119930373345",
      "longitude": "-90.10693595058689"
    }
  },
  {
    "service_request": "2022-852971",
    "request_type": "Traffic Signals/Signs/Striping/Streetlights",
    "request_reason": "Street Light Outage/Malfunction",
    "date_created": "2022-01-10T12:32:32.000",
    "date_modified": "2022-01-10T12:32:33.000",
    "request_status": "Pending",
    "responsible_agency": "Department of Public Works",
    "final_address": "7203 Benjamin St",
    "address_councildis": "A",
    "status": "Pending",
    "contractor": "Royal Engineering",
    "rowid": "852971",
    "final_x": "3662341.54688",
    "final_y": "524016.815996",
    "longitude": "-90.12881518053503",
    "latitude": "29.935432116720772",
    "geocoded_column": {
      "latitude": "29.935432116720772",
      "longitude": "-90.12881518053503"
    }
  },
  {
    "service_request": "2022-852970",
    "request_type": "Property Maintenance",
    "request_reason": "Property Maintenance",
    "date_created": "2022-01-10T12:32:22.000",
    "date_modified": "2022-01-10T12:32:22.000",
    "request_status": "Pending",
    "responsible_agency": "Department of Code Enforcement",
    "final_address": "7919 Means Ave",
    "address_councildis": "E",
    "status": "Pending",
    "rowid": "852970",
    "final_x": "3707621.78769",
    "final_y": "565639.86813",
    "longitude": "-89.98431944650785",
    "latitude": "30.048493365502853",
    "geocoded_column": {
      "latitude": "30.048493365502853",
      "longitude": "-89.98431944650785"
    }
  },