[
  {
    "service_request": "2021-827677",
    "request_type": "Trash/Recycling",
    "request_reason": "Missed Trash Pick-Up",
    "date_created": "2021-09-30T00:41:42.000",
    "date_modified": "2021-09-30T00:41:43.000",
    "request_status": "Pending",
    "responsible_agency": "Department of Sanitation",
    "final_address": "246 26Th St",
    "address_councildis": "A",
    "status": "Assigned to Contractor",
    "contractor": "Metro Disposal",
    "rowid": "827677",
    "final_x": "3665385.99354",
    "final_y": "549872.542484",
    "longitude": "-90.1183382762026",
    "latitude": "30.006438429064335",
    "geocoded_column": {
      "latitude": "30.006438429064335",
      "longitude": "-90.1183382762026"
    }
  },
  {
    "service_request": "2021-827676",
    "request_type": "COVID-19",
    "request_reason": "COVID-19 Business Non-Compliance",
    "date_created": "2021-09-29T22:43:31.000",
    "date_modified": "2021-09-29T22:43:33.000",
    "request_status": "Pending",
    "responsible_agency": "Safety and Permits",
    "final_address": "2601 Royal St",
    "address_councildis": "C",
    "status": "Pending",
    "rowid": "827676",
    "final_x": "3686778.46486",
    "final_y": "534992.593542",
    "longitude": "-90.05128018210614",
    "latitude": "29.964882793535896",
    "geocoded_column": {
      "latitude": "29.964882793535896",
      "longitude": "-90.05128018210614"
    }
  },
  {
    "service_request": "2021-827675",
    "request_type": "Trash/Recycling",
    "request_reason": "Missed Trash Pick-Up",
    "date_created": "2021-09-29T21:38:28.000",
    "date_modified": "2021-09-29T21:38:28.000",
    "request_status": "Pending",
    "responsible_agency": "Department of Sanitation",
    "final_address": "1038 Burdette St",
    "address_councildis": "A",
    "status": "Assigned to Contractor",
    "contractor": "Richards Disposal",
    "rowid": "827675",
    "final_x": "3662499.1113",
    "final_y": "527355.789567",
    "longitude": "-90.1282068806243",
    "latitude": "29.944608677815346",
    "geocoded_column": {
      "latitude": "29.944608677815346",
      "longitude": "-90.1282068806243"
    }
  },
  {
    "service_request": "2021-827674",
    "request_type": "Trash/Recycling",
    "request_reason": "Missed Trash Pick-Up",
    "date_created": "2021-09-29T21:23:07.000",
    "date_modified": "2021-09-29T21:23:07.000",
    "request_status": "Pending",
    "responsible_agency": "Department of Sanitation",
    "final_address": "6421 St Bernard Ave",
    "address_councildis": "D",
    "status": "Assigned to Contractor",
    "contractor": "Metro Disposal",
    "rowid": "827674",
    "final_x": "3677037.3524",
    "final_y": "556668.555738",
    "longitude": "-90.08129406389371",
    "latitude": "30.024780167792514",
    "geocoded_column": {
      "latitude": "30.024780167792514",
      "longitude": "-90.08129406389371"
    }
  },
  {
    "service_request": "2021-827673",
    "request_type": "Traffic Signals/Signs/Striping/Streetlights",
    "request_reason": "Street Light Outage/Malfunction",
    "date_created": "2021-09-29T21:21:54.000",
    "date_modified": "2021-09-29T21:21:54.000",
    "request_status": "Pending",
    "responsible_agency": "Department of Public Works",
    "final_address": "HERSCHEL ST & LANG ST",
    "address_councildis": "C",
    "status": "Pending",
    "contractor": "Royal Engineering",
    "rowid": "827673",
    "final_x": "3702059.5",
    "final_y": "520823.18",
    "longitude": "-90.00354326994145",
    "latitude": "29.925442932686313",
    "geocoded_column": {
      "latitude": "29.925442932686313",
      "longitude": "-90.00354326994145"
    }
  },
  {
    "service_request": "2021-827672",
    "request_type": "Trash/Recycling",
    "request_reason": "Missed Trash Pick-Up",
    "date_created": "2021-09-29T21:08:12.000",
    "date_modified": "2021-09-29T21:08:13.000",
    "request_status": "Pending",
    "responsible_agency": "Department of Sanitation",
    "final_address": "1445 Second St",
    "address_councildis": "B",
    "status": "Assigned to Contractor",
    "contractor": "Richards Disposal",
    "rowid": "827672",
    "final_x": "3677078.84923",
    "final_y": "522527.321914",
    "longitude": "-90.08234074775646",
    "latitude": "29.93090228903297",
    "geocoded_column": {
      "latitude": "29.93090228903297",
      "longitude": "-90.08234074775646"
    }
  },
  {
    "service_request": "2021-827671",
    "request_type": "Trash/Recycling",
    "request_reason": "Replace Trash Cart",
    "date_created": "2021-09-29T20:59:01.000",
    "date_modified": "2021-09-29T20:59:01.000",
    "request_status": "Closed",
    "responsible_agency": "Department of Sanitation",
    "final_address": "6354 Louisville St",
    "address_councildis": "A",
    "status": "Resolved",
    "rowid": "827671",
    "final_x": "3667882.75418",
    "final_y": "549885.947092",
    "longitude": "-90.11044989998695",
    "latitude": "30.00640225535326",
    "geocoded_column": {
      "latitude": "30.00640225535326",
      "longitude": "-90.11044989998695"
    }
  },
  {
    "service_request": "2021-827670",
    "request_type": "Trash/Recycling",
    "request_reason": "Replace Trash Cart",
    "date_created": "2021-09-29T20:58:51.000",
    "date_modified": "2021-09-29T20:58:51.000",
    "request_status": "Closed",
    "responsible_agency": "Department of Sanitation",
    "final_address": "6354 Louisville St",
    "address_councildis": "A",
    "status": "Resolved",
    "rowid": "827670",
    "final_x": "3667882.75418",
    "final_y": "549885.947092",
    "longitude": "-90.11044989998695",
    "latitude": "30.00640225535326",
    "geocoded_column": {
      "latitude": "30.00640225535326",
      "longitude": "-90.11044989998695"
    }
  },
  {
    "service_request": "2021-827669",
    "request_type": "Trash/Recycling",
    "request_reason": "Replace Trash Cart",
    "date_created": "2021-09-29T20:58:43.000",
    "date_modified": "2021-09-29T20:58:43.000",
    "request_status": "Closed",
    "responsible_agency": "Department of Sanitation",
    "final_address": "6354 Louisville St",
    "address_councildis": "A",
    "status": "Resolved",
    "rowid": "827669",
    "final_x": "3667882.75418",
    "final_y": "549885.947092",
    "longitude": "-90.11044989998695",
    "latitude": "30.00640225535326",
    "geocoded_column": {
      "latitude": "30.00640225535326",
      "longitude": "-90.11044989998695"
    }
  },
  {
    "service_request": "2021-827668",
    "request_type": "Trash/Recycling",
    "request_reason": "Missed Trash Pick-Up",
    "date_created": "2021-09-29T20:56:21.000",
    "date_modified": "2021-09-29T20:56:21.000",
    "request_status": "Pending",
    "responsible_agency": "Department of Sanitation",
    "final_address": "7512 Garnet St",
    "address_councildis": "D",
    "status": "Assigned to Contractor",
    "contractor": "Metro Disposal",
    "rowid": "827668",
    "final_x": "3667326.43969",
    "final_y": "556530.460122",
    "longitude": "-90.11198369319493",
    "latitude": "30.02468864100917",
    "geocoded_column": {
      "latitude": "30.02468864100917",
      "longitude": "-90.11198369319493"
    }
  },
  {
    "service_request": "2021-827667",
    "request_type": "Trash/Recycling",
    "request_reason": "Request a Large Item Pick Up",
    "date_created": "2021-09-29T20:55:10.000",
    "date_modified": "2021-09-29T20:55:11.000",
    "request_status": "Pending",
    "responsible_agency": "Department of Sanitation",
    "final_address": "7512 Garnet St",
    "address_councildis": "D",
    "status": "Assigned to Contractor",
    "contractor": "Metro Disposal",
    "rowid": "827667",
    "final_x": "3667326.43969",
    "final_y": "556530.460122",
    "longitude": "-90.11198369319493",
    "latitude": "30.02468864100917",
    "geocoded_column": {
      "latitude": "30.02468864100917",
      "longitude": "-90.11198369319493"
    }
  },
  {
    "service_request": "2021-827666",
    "request_type": "Trash/Recycling",
    "request_reason": "Missed Trash Pick-Up",
    "date_created": "2021-09-29T20:46:41.000",
    "date_modified": "2021-09-29T20:46:41.000",
    "request_status": "Pending",
    "responsible_agency": "Department of Sanitation",
    "final_address": "2126 Onzaga St",
    "address_councildis": "D",
    "status": "Assigned to Contractor",
    "contractor": "Metro Disposal",
    "rowid": "827666",
    "final_x": "3680783.34107",
    "final_y": "539248.793994",
    "longitude": "-90.07006421319068",
    "latitude": "29.97676895821754",
    "geocoded_column": {
      "latitude": "29.97676895821754",
      "longitude": "-90.07006421319068"
    }
  },
  {
    "service_request": "2021-827665",
    "request_type": "Trash/Recycling",
    "request_reason": "Missed Trash Pick-Up",
    "date_created": "2021-09-29T20:43:59.000",
    "date_modified": "2021-09-29T20:44:00.000",
    "request_status": "Pending",
    "responsible_agency": "Department of Sanitation",
    "final_address": "1715 S Dupre St",
    "address_councildis": "B",
    "status": "Assigned to Contractor",
    "contractor": "Richards Disposal",
    "rowid": "827665",
    "final_x": "3670652.28199",
    "final_y": "530031.409345",
    "longitude": "-90.10237409321797",
    "latitude": "29.951727453530943",
    "geocoded_column": {
      "latitude": "29.951727453530943",
      "longitude": "-90.10237409321797"
    }
  },
  {
    "service_request": "2021-827664",
    "request_type": "Traffic Signals/Signs/Striping/Streetlights",
    "request_reason": "Street Light Outage/Malfunction",
    "date_created": "2021-09-29T20:39:37.000",
    "date_modified": "2021-09-29T20:39:38.000",
    "request_status": "Pending",
    "responsible_agency": "Department of Public Works",
    "final_address": "2655 Myrtle St",
    "address_councildis": "D",
    "status": "Pending",
    "contractor": "Royal Engineering",
    "rowid": "827664",
    "final_x": "3687597.69884",
    "final_y": "546139.667408",
    "longitude": "-90.04829831993592",
    "latitude": "29.995508071510248",
    "geocoded_column": {
      "latitude": "29.995508071510248",
      "longitude": "-90.04829831993592"
    }
  },
  {
    "service_request": "2021-827663",
    "request_type": "Roads/Drainage",
    "request_reason": "Street Flooding / Drainage",
    "date_created": "2021-09-29T20:37:04.000",
    "date_modified": "2021-09-29T20:37:04.000",
    "request_status": "Pending",
    "responsible_agency": "Department of Public Works",
    "final_address": "2238 Caffin Ave",
    "address_councildis": "E",
    "status": "Pending",
    "rowid": "827663",
    "final_x": "3699123.33354",
    "final_y": "538224.449353",
    "longitude": "-90.0121784307566",
    "latitude": "29.97338366853472",
    "geocoded_column": {
      "latitude": "29.97338366853472",
      "longitude": "-90.0121784307566"
    }
  },
  {
    "service_request": "2021-827660",
    "request_type": "Trash/Recycling",
    "request_reason": "Missed Trash Pick-Up",
    "date_created": "2021-09-29T19:51:05.000",
    "date_modified": "2021-09-29T19:51:06.000",
    "request_status": "Pending",
    "responsible_agency": "Department of Sanitation",
    "final_address": "307 Audubon Blvd",
    "address_councildis": "A",
    "status": "Assigned to Contractor",
    "contractor": "Richards Disposal",
    "rowid": "827660",
    "final_x": "3667194.45665",
    "final_y": "529827.094913",
    "longitude": "-90.11329915632001",
    "latitude": "29.951267344036953",
    "geocoded_column": {
      "latitude": "29.951267344036953",
      "longitude": "-90.11329915632001"
    }
  },
  {
    "service_request": "2021-827659",
    "request_type": "Trash/Recycling",
    "request_reason": "Missed Trash Pick-Up",
    "date_created": "2021-09-29T19:47:02.000",
    "date_modified": "2021-09-29T19:47:03.000",
    "request_status": "Pending",
    "responsible_agency": "Department of Sanitation",
    "final_address": "329 Lowerline St",
    "address_councildis": "A",
    "status": "Assigned to Contractor",
    "contractor": "Richards Disposal",
    "rowid": "827659",
    "final_x": "3661536.41658",
    "final_y": "523552.803195",
    "longitude": "-90.13137236076453",
    "latitude": "29.93417947531416",
    "geocoded_column": {
      "latitude": "29.93417947531416",
      "longitude": "-90.13137236076453"
    }
  },
  {
    "service_request": "2021-827658",
    "request_type": "Trash/Recycling",
    "request_reason": "Missed Trash Pick-Up",
    "date_created": "2021-09-29T19:35:35.000",
    "date_modified": "2021-09-29T19:35:36.000",
    "request_status": "Pending",
    "responsible_agency": "Department of Sanitation",
    "final_address": "1460 Athis St",
    "address_councildis": "D",
    "status": "Assigned to Contractor",
    "contractor": "Metro Disposal",
    "rowid": "827658",
    "final_x": "3677977.50094",
    "final_y": "553660.911127",
    "longitude": "-90.07842743227152",
    "latitude": "30.016481956494907",
    "geocoded_column": {
      "latitude": "30.016481956494907",
      "longitude": "-90.07842743227152"
    }
  },
  {
    "service_request": "2021-827657",
    "request_type": "Trash/Recycling",
    "request_reason": "Missed Trash Pick-Up",
    "date_created": "2021-09-29T19:26:37.000",
    "date_modified": "2021-09-29T19:26:38.000",
    "request_status": "Pending",
    "responsible_agency": "Department of Sanitation",
    "final_address": "81 Neron Pl",
    "address_councildis": "A",
    "status": "Assigned to Contractor",
    "contractor": "Richards Disposal",
    "rowid": "827657",
    "final_x": "3666098.25524",
    "final_y": "529983.516417",
    "longitude": "-90.1167551885446",
    "latitude": "29.95172950042253",
    "geocoded_column": {
      "latitude": "29.95172950042253",
      "longitude": "-90.1167551885446"
    }
  },
  {
    "service_request": "2021-827656",
    "request_type": "Trash/Recycling",
    "request_reason": "MIssed Recycling Pick-Up",
    "date_created": "2021-09-29T19:24:26.000",
    "date_modified": "2021-09-29T19:24:27.000",
    "request_status": "Pending",
    "responsible_agency": "Department of Sanitation",
    "final_address": "5415 Bellaire Dr",
    "address_councildis": "A",
    "status": "Assigned to Contractor",
    "contractor": "Metro Disposal",
    "rowid": "827656",
    "final_x": "3664126.15284",
    "final_y": "543744.446094",
    "longitude": "-90.12252302885103",
    "latitude": "29.989624931040318",
    "geocoded_column": {
      "latitude": "29.989624931040318",
      "longitude": "-90.12252302885103"
    }
  },
  {
    "service_request": "2021-827655",
    "request_type": "Traffic Signals/Signs/Striping/Streetlights",
    "request_reason": "Street Light Outage/Malfunction",
    "date_created": "2021-09-29T19:17:46.000",
    "date_modified": "2021-09-29T19:17:47.000",
    "request_status": "Pending",
    "responsible_agency": "Department of Public Works",
    "final_address": "8218 Fig St",
    "address_councildis": "A",
    "status": "Pending",
    "contractor": "Royal Engineering",
    "rowid": "827655",
    "final_x": "3665894.45517",
    "final_y": "533461.248132",
    "longitude": "-90.11728215523051",
    "latitude": "29.961298074760986",
    "geocoded_column": {
      "latitude": "29.961298074760986",
      "longitude": "-90.11728215523051"
    }
  },
  {
    "service_request": "2021-827654",
    "request_type": "Abandoned Vehicles",
    "request_reason": "Abandoned/Junk Vehicles",
    "date_created": "2021-09-29T19:03:37.000",
    "date_modified": "2021-09-29T19:03:37.000",
    "request_status": "Pending",
    "responsible_agency": "Department of Public Works",
    "final_address": "701 Webster St",
    "address_councildis": "A",
    "status": "Pending",
    "rowid": "827654",
    "final_x": "3664063.88436",
    "final_y": "519130.836535",
    "longitude": "-90.12354058763736",
    "latitude": "29.921947315269147",
    "geocoded_column": {
      "latitude": "29.921947315269147",
      "longitude": "-90.12354058763736"
    }
  },
  {
    "service_request": "2021-827653",
    "request_type": "Trash/Recycling",
    "request_reason": "Replace Trash Cart",
    "date_created": "2021-09-29T18:59:38.000",
    "date_modified": "2021-09-29T18:59:39.000",
    "request_status": "Pending",
    "responsible_agency": "Department of Sanitation",
    "final_address": "704 Webster St",
    "address_councildis": "A",
    "status": "Assigned to Contractor",
    "contractor": "Richards Disposal",
    "rowid": "827653",
    "final_x": "3663991.25652",
    "final_y": "519187.504887",
    "longitude": "-90.12376795590299",
    "latitude": "29.922105243826028",
    "geocoded_column": {
      "latitude": "29.922105243826028",
      "longitude": "-90.12376795590299"
    }
  },
  {
    "service_request": "2021-827652",
    "request_type": "Abandoned Vehicles",
    "request_reason": "Abandoned/Junk Vehicles",
    "date_created": "2021-09-29T18:58:54.000",
    "date_modified": "2021-09-29T18:58:54.000",
    "request_status": "Pending",
    "responsible_agency": "Department of Public Works",
    "final_address": "2122 St Roch Ave",
    "address_councildis": "D",
    "status": "Pending",
    "rowid": "827652",
    "final_x": "3686091.50575",
    "final_y": "540304.544331",
    "longitude": "-90.05326215211021",
    "latitude": "29.979509918392555",
    "geocoded_column": {
      "latitude": "29.979509918392555",
      "longitude": "-90.05326215211021"
    }
  },
  {
    "service_request": "2021-827650",
    "request_type": "Trash/Recycling",
    "request_reason": "Request a Large Item Pick Up",
    "date_created": "2021-09-29T18:43:38.000",
    "date_modified": "2021-09-29T18:43:39.000",
    "request_status": "Pending",
    "responsible_agency": "Department of Sanitation",
    "final_address": "7818 Darleen Ct",
    "address_councildis": "E",
    "status": "Assigned to Contractor",
    "contractor": "Metro Disposal",
    "rowid": "827650",
    "final_x": "3716993.22188",
    "final_y": "571850.686632",
    "longitude": "-89.95446436765376",
    "latitude": "30.065263850992107",
    "geocoded_column": {
      "latitude": "30.065263850992107",
      "longitude": "-89.95446436765376"
    }
  },
  {
    "service_request": "2021-827649",
    "request_type": "Abandoned Vehicles",
    "request_reason": "Vehicle Blocking Your Driveway",
    "date_created": "2021-09-29T18:40:54.000",
    "date_modified": "2021-09-29T18:40:54.000",
    "request_status": "Pending",
    "responsible_agency": "Department of Public Works",
    "final_address": "704 Webster St",
    "address_councildis": "A",
    "status": "Pending",
    "rowid": "827649",
    "final_x": "3663991.25652",
    "final_y": "519187.504887",
    "longitude": "-90.12376795590299",
    "latitude": "29.922105243826028",
    "geocoded_column": {
      "latitude": "29.922105243826028",
      "longitude": "-90.12376795590299"
    }
  },
  {
    "service_request": "2021-827648",
    "request_type": "Trash/Recycling",
    "request_reason": "Order Trash Cart",
    "date_created": "2021-09-29T18:35:39.000",
    "date_modified": "2021-09-29T18:35:39.000",
    "request_status": "Pending",
    "responsible_agency": "Department of Sanitation",
    "final_address": "7818 Darleen Ct",
    "address_councildis": "E",
    "status": "Assigned to Contractor",
    "contractor": "Metro Disposal",
    "rowid": "827648",
    "final_x": "3716993.22188",
    "final_y": "571850.686632",
    "longitude": "-89.95446436765376",
    "latitude": "30.065263850992107",
    "geocoded_column": {
      "latitude": "30.065263850992107",
      "longitude": "-89.95446436765376"
    }
  },
  {
    "service_request": "2021-827647",
    "request_type": "Roads/Drainage",
    "request_reason": "Catch Basin - Clogged",
    "date_created": "2021-09-29T18:31:10.000",
    "date_modified": "2021-09-29T18:31:11.000",
    "request_status": "Pending",
    "responsible_agency": "Department of Public Works",
    "final_address": "CONTI ST & N BERNADOTTE ST",
    "address_councildis": "A",
    "status": "Pending",
    "contractor": "Metro Disposal",
    "rowid": "827647",
    "final_x": "3669527.5",
    "final_y": "541005.98",
    "longitude": "-90.10555432126489",
    "latitude": "29.981937038487427",
    "geocoded_column": {
      "latitude": "29.981937038487427",
      "longitude": "-90.10555432126489"
    }
  },
  {
    "service_request": "2021-827646",
    "request_type": "Trash/Recycling",
    "request_reason": "Missed Trash Pick-Up",
    "date_created": "2021-09-29T18:25:49.000",
    "date_modified": "2021-09-29T18:25:50.000",
    "request_status": "Pending",
    "responsible_agency": "Department of Sanitation",
    "final_address": "246 30Th St",
    "address_councildis": "A",
    "status": "Assigned to Contractor",
    "contractor": "Metro Disposal",
    "rowid": "827646",
    "final_x": "3665459.40679",
    "final_y": "550458.669076",
    "longitude": "-90.11808670537471",
    "latitude": "30.008047933244082",
    "geocoded_column": {
      "latitude": "30.008047933244082",
      "longitude": "-90.11808670537471"
    }
  },
  {
    "service_request": "2021-827645",
    "request_type": "Roads/Drainage",
    "request_reason": "Street Subsidence (Sinking)",
    "date_created": "2021-09-29T18:17:39.000",
    "date_modified": "2021-09-29T18:17:39.000",
    "request_status": "Pending",
    "responsible_agency": "Department of Public Works",
    "final_address": "4939 Pauline Dr",
    "address_councildis": "D",
    "status": "Pending",
    "rowid": "827645",
    "final_x": "3692692.33878",
    "final_y": "552597.084246",
    "longitude": "-90.0319732269093",
    "latitude": "30.0131055043199",
    "geocoded_column": {
      "latitude": "30.0131055043199",
      "longitude": "-90.0319732269093"
    }
  },
  {
    "service_request": "2021-827644",
    "request_type": "Trash/Recycling",
    "request_reason": "MIssed Recycling Pick-Up",
    "date_created": "2021-09-29T18:15:04.000",
    "date_modified": "2021-09-29T18:15:05.000",
    "request_status": "Pending",
    "responsible_agency": "Department of Sanitation",
    "final_address": "2608 Magazine St",
    "address_councildis": "B",
    "status": "Assigned to Contractor",
    "contractor": "Richards Disposal",
    "rowid": "827644",
    "final_x": "3677509.55906",
    "final_y": "521067.282617",
    "longitude": "-90.0810314294309",
    "latitude": "29.926874719772883",
    "geocoded_column": {
      "latitude": "29.926874719772883",
      "longitude": "-90.0810314294309"
    }
  },
  {
    "service_request": "2021-827643",
    "request_type": "Roads/Drainage",
    "request_reason": "Street Flooding / Drainage",
    "date_created": "2021-09-29T18:11:56.000",
    "date_modified": "2021-09-29T18:11:57.000",
    "request_status": "Pending",
    "responsible_agency": "Department of Public Works",
    "final_address": "1509 Richland Rd",
    "address_councildis": "C",
    "status": "Pending",
    "rowid": "827643",
    "final_x": "3697867.46416",
    "final_y": "525656.525821",
    "longitude": "-90.01660081953771",
    "latitude": "29.938866075348155",
    "geocoded_column": {
      "latitude": "29.938866075348155",
      "longitude": "-90.01660081953771"
    }
  },
  {
    "service_request": "2021-827642",
    "request_type": "Roads/Drainage",
    "request_reason": "Ditch Issue",
    "date_created": "2021-09-29T18:08:59.000",
    "date_modified": "2021-09-29T18:09:00.000",
    "request_status": "Pending",
    "responsible_agency": "Department of Public Works",
    "final_address": "1509 Richland Rd",
    "address_councildis": "C",
    "status": "Pending",
    "rowid": "827642",
    "final_x": "3697867.46416",
    "final_y": "525656.525821",
    "longitude": "-90.01660081953771",
    "latitude": "29.938866075348155",
    "geocoded_column": {
      "latitude": "29.938866075348155",
      "longitude": "-90.01660081953771"
    }
  },
  {
    "service_request": "2021-827641",
    "request_type": "Traffic Signals/Signs/Striping/Streetlights",
    "request_reason": "Traffic Sign Missing/Damaged",
    "date_created": "2021-09-29T18:06:53.000",
    "date_modified": "2021-09-29T18:06:53.000",
    "request_status": "Pending",
    "responsible_agency": "Department of Public Works",
    "final_address": "532 S Cortez St",
    "address_councildis": "B",
    "status": "Pending",
    "rowid": "827641",
    "final_x": "3670979.95233",
    "final_y": "536050.910791",
    "longitude": "-90.1011350729958",
    "latitude": "29.968269400014158",
    "geocoded_column": {
      "latitude": "29.968269400014158",
      "longitude": "-90.1011350729958"
    }
  },
  {
    "service_request": "2021-827639",
    "request_type": "Abandoned Vehicles",
    "request_reason": "Abandoned/Junk Vehicles",
    "date_created": "2021-09-29T17:42:14.000",
    "date_modified": "2021-09-29T17:42:14.000",
    "request_status": "Pending",
    "responsible_agency": "Department of Public Works",
    "final_address": "3815 Constance St",
    "address_councildis": "B",
    "status": "Pending",
    "rowid": "827639",
    "final_x": "3673302.72462",
    "final_y": "518687.436791",
    "longitude": "-90.09439254222185",
    "latitude": "29.920456657980793",
    "geocoded_column": {
      "latitude": "29.920456657980793",
      "longitude": "-90.09439254222185"
    }
  },
  {
    "service_request": "2021-827638",
    "request_type": "Trash/Recycling",
    "request_reason": "Request a Large Item Pick Up",
    "date_created": "2021-09-29T17:39:33.000",
    "date_modified": "2021-09-29T17:39:34.000",
    "request_status": "Pending",
    "responsible_agency": "Department of Sanitation",
    "final_address": "3766 Preston Pl",
    "address_councildis": "C",
    "status": "Assigned to Contractor",
    "contractor": "Richards Disposal",
    "rowid": "827638",
    "final_x": "3708294.67755",
    "final_y": "517092.210165",
    "longitude": "-89.98399962158388",
    "latitude": "29.914983625950814",
    "geocoded_column": {
      "latitude": "29.914983625950814",
      "longitude": "-89.98399962158388"
    }
  },
  {
    "service_request": "2021-827637",
    "request_type": "Trash/Recycling",
    "request_reason": "Missed Trash Pick-Up",
    "date_created": "2021-09-29T17:36:00.000",
    "date_modified": "2021-09-29T17:36:01.000",
    "request_status": "Pending",
    "responsible_agency": "Department of Sanitation",
    "final_address": "1443 Pressburg St",
    "address_councildis": "D",
    "status": "Assigned to Contractor",
    "contractor": "Metro Disposal",
    "rowid": "827637",
    "final_x": "3677832.91061",
    "final_y": "554070.638936",
    "longitude": "-90.07887010298343",
    "latitude": "30.017612913314764",
    "geocoded_column": {
      "latitude": "30.017612913314764",
      "longitude": "-90.07887010298343"
    }
  },
  {
    "service_request": "2021-827636",
    "request_type": "Mosquito, Termite & Rodent Control",
    "request_reason": "Non-Rodent Complaint (Mice, Possums, Snakes)",
    "date_created": "2021-09-29T17:33:52.000",
    "date_modified": "2021-09-29T17:33:52.000",
    "request_status": "Pending",
    "responsible_agency": "Mosquito, Termite & Rodent Control Board",
    "final_address": "7317 Canal Blvd",
    "address_councildis": "D",
    "status": "Pending",
    "rowid": "827636",
    "final_x": "3669401.40929",
    "final_y": "555706.839321",
    "longitude": "-90.10545500948639",
    "latitude": "30.02236300076703",
    "geocoded_column": {
      "latitude": "30.02236300076703",
      "longitude": "-90.10545500948639"
    }
  },
  {
    "service_request": "2021-827635",
    "request_type": "Trash/Recycling",
    "request_reason": "Repair Trash Cart",
    "date_created": "2021-09-29T17:33:43.000",
    "date_modified": "2021-09-29T17:33:44.000",
    "request_status": "Pending",
    "responsible_agency": "Department of Sanitation",
    "final_address": "1515 N Rocheblave St",
    "address_councildis": "D",
    "status": "Assigned to Contractor",
    "contractor": "Metro Disposal",
    "rowid": "827635",
    "final_x": "3679564.91746",
    "final_y": "539067.04801",
    "longitude": "-90.07391868515039",
    "latitude": "29.976306099190207",
    "geocoded_column": {
      "latitude": "29.976306099190207",
      "longitude": "-90.07391868515039"
    }
  },
  {
    "service_request": "2021-827634",
    "request_type": "Trash/Recycling",
    "request_reason": "Missed Trash Pick-Up",
    "date_created": "2021-09-29T17:32:50.000",
    "date_modified": "2021-09-29T17:32:51.000",
    "request_status": "Pending",
    "responsible_agency": "Department of Sanitation",
    "final_address": "1234 Kerlerec St",
    "address_councildis": "C",
    "status": "Assigned to Contractor",
    "contractor": "Metro Disposal",
    "rowid": "827634",
    "final_x": "3682570.18671",
    "final_y": "535998.182087",
    "longitude": "-90.06453448204348",
    "latitude": "29.96777661362958",
    "geocoded_column": {
      "latitude": "29.96777661362958",
      "longitude": "-90.06453448204348"
    }
  },
  {
    "service_request": "2021-827633",
    "request_type": "Traffic Signals/Signs/Striping/Streetlights",
    "request_reason": "Traffic Sign Missing/Damaged",
    "date_created": "2021-09-29T17:31:24.000",
    "date_modified": "2021-09-29T17:31:24.000",
    "request_status": "Pending",
    "responsible_agency": "Department of Public Works",
    "final_address": "400 N Peters St",
    "address_councildis": "C",
    "status": "Pending",
    "rowid": "827633",
    "final_x": "3682633.26684",
    "final_y": "531078.313282",
    "longitude": "-90.06450732049223",
    "latitude": "29.954246737053857",
    "geocoded_column": {
      "latitude": "29.954246737053857",
      "longitude": "-90.06450732049223"
    }
  },
  {
    "service_request": "2021-827631",
    "request_type": "Trash/Recycling",
    "request_reason": "Replace Trash Cart",
    "date_created": "2021-09-29T17:23:32.000",
    "date_modified": "2021-09-29T17:23:33.000",
    "request_status": "Pending",
    "responsible_agency": "Department of Sanitation",
    "final_address": "6854 General Haig St",
    "address_councildis": "A",
    "status": "Assigned to Contractor",
    "contractor": "Metro Disposal",
    "rowid": "827631",
    "final_x": "3670957.52987",
    "final_y": "552940.598935",
    "longitude": "-90.1006320666859",
    "latitude": "30.01471088208776",
    "geocoded_column": {
      "latitude": "30.01471088208776",
      "longitude": "-90.1006320666859"
    }
  },
  {
    "service_request": "2021-827628",
    "request_type": "Trash/Recycling",
    "request_reason": "Replace Trash Cart",
    "date_created": "2021-09-29T17:17:56.000",
    "date_modified": "2021-09-29T17:17:56.000",
    "request_status": "Pending",
    "responsible_agency": "Department of Sanitation",
    "final_address": "4422 Allen St",
    "address_councildis": "D",
    "status": "Assigned to Contractor",
    "contractor": "Metro Disposal",
    "rowid": "827628",
    "final_x": "3681717.33538",
    "final_y": "548847.498323",
    "longitude": "-90.06677927454207",
    "latitude": "30.00313366032492",
    "geocoded_column": {
      "latitude": "30.00313366032492",
      "longitude": "-90.06677927454207"
    }
  },
  {
    "service_request": "2021-827627",
    "request_type": "Trash/Recycling",
    "request_reason": "Request a Large Item Pick Up",
    "date_created": "2021-09-29T17:17:27.000",
    "date_modified": "2021-09-29T17:17:28.000",
    "request_status": "Pending",
    "responsible_agency": "Department of Sanitation",
    "final_address": "1360 Prentiss Ave",
    "address_councildis": "D",
    "status": "Assigned to Contractor",
    "contractor": "Metro Disposal",
    "rowid": "827627",
    "final_x": "3677482.85557",
    "final_y": "553202.710871",
    "longitude": "-90.08000613534664",
    "latitude": "30.01523695720229",
    "geocoded_column": {
      "latitude": "30.01523695720229",
      "longitude": "-90.08000613534664"
    }
  },
  {
    "service_request": "2021-827626",
    "request_type": "Trash/Recycling",
    "request_reason": "Missed Trash Pick-Up",
    "date_created": "2021-09-29T17:16:37.000",
    "date_modified": "2021-09-29T17:16:38.000",
    "request_status": "Pending",
    "responsible_agency": "Department of Sanitation",
    "final_address": "1360 Prentiss Ave",
    "address_councildis": "D",
    "status": "Assigned to Contractor",
    "contractor": "Metro Disposal",
    "rowid": "827626",
    "final_x": "3677482.85557",
    "final_y": "553202.710871",
    "longitude": "-90.08000613534664",
    "latitude": "30.01523695720229",
    "geocoded_column": {
      "latitude": "30.01523695720229",
      "longitude": "-90.08000613534664"
    }
  },
  {
    "service_request": "2021-827625",
    "request_type": "Traffic Signals/Signs/Striping/Streetlights",
    "request_reason": "Road Surface Marking Maintenance-Traffic Control",
    "date_created": "2021-09-29T17:11:25.000",
    "date_modified": "2021-09-29T17:11:25.000",
    "request_status": "Pending",
    "responsible_agency": "Department of Public Works",
    "final_address": "S BROAD ST & TULANE AVE",
    "address_councildis": "B",
    "status": "Pending",
    "rowid": "827625",
    "final_x": "3674313.3",
    "final_y": "533773.18",
    "longitude": "-90.09068620733277",
    "latitude": "29.961907423023113",
    "geocoded_column": {
      "latitude": "29.961907423023113",
      "longitude": "-90.09068620733277"
    }
  },
  {
    "service_request": "2021-827624",
    "request_type": "Roads/Drainage",
    "request_reason": "Damaged Sidewalk",
    "date_created": "2021-09-29T17:08:59.000",
    "date_modified": "2021-09-29T17:08:59.000",
    "request_status": "Pending",
    "responsible_agency": "Department of Public Works",
    "final_address": "2704 Verbena St",
    "address_councildis": "D",
    "status": "Pending",
    "rowid": "827624",
    "final_x": "3687801.22646",
    "final_y": "547778.308178",
    "longitude": "-90.04759731408473",
    "latitude": "30.000007463826517",
    "geocoded_column": {
      "latitude": "30.000007463826517",
      "longitude": "-90.04759731408473"
    }
  },
  {
    "service_request": "2021-827623",
    "request_type": "Traffic Signals/Signs/Striping/Streetlights",
    "request_reason": "Traffic Signal Malfunctioning/Damaged",
    "date_created": "2021-09-29T17:08:03.000",
    "date_modified": "2021-09-29T17:08:04.000",
    "request_status": "Pending",
    "responsible_agency": "Department of Public Works",
    "final_address": "ESPLANADE AVE & N BROAD ST",
    "address_councildis": "D",
    "status": "Pending",
    "rowid": "827623",
    "final_x": "3678205.46",
    "final_y": "538920.34",
    "longitude": "-90.07821733427264",
    "latitude": "29.975943718140513",
    "geocoded_column": {
      "latitude": "29.975943718140513",
      "longitude": "-90.07821733427264"
    }
  },
  {
    "service_request": "2021-827622",
    "request_type": "Trash/Recycling",
    "request_reason": "Request a Large Item Pick Up",
    "date_created": "2021-09-29T17:06:28.000",
    "date_modified": "2021-09-29T17:06:28.000",
    "request_status": "Pending",
    "responsible_agency": "Department of Sanitation",
    "final_address": "907 S Genois St",
    "address_councildis": "B",
    "status": "Assigned to Contractor",
    "contractor": "Richards Disposal",
    "rowid": "827622",
    "final_x": "3670337.43348",
    "final_y": "534267.400197",
    "longitude": "-90.1032246476033",
    "latitude": "29.963384324301074",
    "geocoded_column": {
      "latitude": "29.963384324301074",
      "longitude": "-90.1032246476033"
    }
  },
  {
    "service_request": "2021-827621",
    "request_type": "Roads/Drainage",
    "request_reason": "Pothole",
    "date_created": "2021-09-29T17:05:02.000",
    "date_modified": "2021-09-29T17:05:05.000",
    "request_status": "Pending",
    "responsible_agency": "Department of Public Works",
    "final_address": "2339 Caffin Ave",
    "address_councildis": "E",
    "status": "Pending",
    "rowid": "827621",
    "final_x": "3699387.68176",
    "final_y": "538548.947977",
    "longitude": "-90.01133174596667",
    "latitude": "29.974267539018825",
    "geocoded_column": {
      "latitude": "29.974267539018825",
      "longitude": "-90.01133174596667"
    }
  },
  {
    "service_request": "2021-827620",
    "request_type": "Trash/Recycling",
    "request_reason": "Order Trash Cart",
    "date_created": "2021-09-29T17:03:30.000",
    "date_modified": "2021-09-29T17:03:31.000",
    "request_status": "Pending",
    "responsible_agency": "Department of Sanitation",
    "final_address": "1202 S Genois St",
    "address_councildis": "B",
    "status": "Assigned to Contractor",
    "contractor": "Richards Disposal",
    "rowid": "827620",
    "final_x": "3669470.1705",
    "final_y": "532757.196228",
    "longitude": "-90.10601445807112",
    "latitude": "29.959257335957545",
    "geocoded_column": {
      "latitude": "29.959257335957545",
      "longitude": "-90.10601445807112"
    }
  },
  {
    "service_request": "2021-827619",
    "request_type": "Trash/Recycling",
    "request_reason": "Missed Trash Pick-Up",
    "date_created": "2021-09-29T17:00:00.000",
    "date_modified": "2021-09-29T17:00:01.000",
    "request_status": "Pending",
    "responsible_agency": "Department of Sanitation",
    "final_address": "2801 Bruxelles St",
    "address_councildis": "D",
    "status": "Assigned to Contractor",
    "contractor": "Metro Disposal",
    "rowid": "827619",
    "final_x": "3680400.23407",
    "final_y": "542644.907597",
    "longitude": "-90.07115603466214",
    "latitude": "29.986118695555767",
    "geocoded_column": {
      "latitude": "29.986118695555767",
      "longitude": "-90.07115603466214"
    }
  },
  {
    "service_request": "2021-827618",
    "request_type": "COVID-19",
    "request_reason": "COVID-19 Business Non-Compliance",
    "date_created": "2021-09-29T16:58:37.000",
    "date_modified": "2021-09-29T16:58:38.000",
    "request_status": "Pending",
    "responsible_agency": "Safety and Permits",
    "final_address": "1216 S Genois St",
    "address_councildis": "B",
    "status": "Pending",
    "rowid": "827618",
    "final_x": "3669412.02938",
    "final_y": "532644.089412",
    "longitude": "-90.10620187928166",
    "latitude": "29.958948041832773",
    "geocoded_column": {
      "latitude": "29.958948041832773",
      "longitude": "-90.10620187928166"
    }
  },
  {
    "service_request": "2021-827617",
    "request_type": "Roads/Drainage",
    "request_reason": "Culvert Issue",
    "date_created": "2021-09-29T16:56:37.000",
    "date_modified": "2021-09-29T16:56:37.000",
    "request_status": "Pending",
    "responsible_agency": "Department of Public Works",
    "final_address": "1872 Farragut St",
    "address_councildis": "C",
    "status": "Pending",
    "rowid": "827617",
    "final_x": "3692288.47062",
    "final_y": "523997.539196",
    "longitude": "-90.03427364604114",
    "latitude": "29.934479531543136",
    "geocoded_column": {
      "latitude": "29.934479531543136",
      "longitude": "-90.03427364604114"
    }
  },
  {
    "service_request": "2021-827616",
    "request_type": "Roads/Drainage",
    "request_reason": "Street Flooding / Drainage",
    "date_created": "2021-09-29T16:51:23.000",
    "date_modified": "2021-09-29T16:51:23.000",
    "request_status": "Pending",
    "responsible_agency": "Department of Public Works",
    "final_address": "2808 Fourth St",
    "address_councildis": "B",
    "status": "Pending",
    "rowid": "827616",
    "final_x": "3673745.41838",
    "final_y": "526301.94899",
    "longitude": "-90.09273493182546",
    "latitude": "29.94138093407472",
    "geocoded_column": {
      "latitude": "29.94138093407472",
      "longitude": "-90.09273493182546"
    }
  },
  {
    "service_request": "2021-827615",
    "request_type": "Roads/Drainage",
    "request_reason": "Catch Basin - Clogged",
    "date_created": "2021-09-29T16:50:58.000",
    "date_modified": "2021-09-29T16:50:58.000",
    "request_status": "Pending",
    "responsible_agency": "Department of Public Works",
    "final_address": "2808 Fourth St",
    "address_councildis": "B",
    "status": "Pending",
    "rowid": "827615",
    "final_x": "3673745.41838",
    "final_y": "526301.94899",
    "longitude": "-90.09273493182546",
    "latitude": "29.94138093407472",
    "geocoded_column": {
      "latitude": "29.94138093407472",
      "longitude": "-90.09273493182546"
    }
  },
  {
    "service_request": "2021-827612",
    "request_type": "Trash/Recycling",
    "request_reason": "Replace Trash Cart",
    "date_created": "2021-09-29T16:41:30.000",
    "date_modified": "2021-09-29T16:41:31.000",
    "request_status": "Pending",
    "responsible_agency": "Department of Sanitation",
    "final_address": "2870 Kent Dr",
    "address_councildis": "C",
    "status": "Assigned to Contractor",
    "contractor": "Richards Disposal",
    "rowid": "827612",
    "final_x": "3708985.84907",
    "final_y": "519245.514231",
    "longitude": "-89.98173788663597",
    "latitude": "29.920882062363283",
    "geocoded_column": {
      "latitude": "29.920882062363283",
      "longitude": "-89.98173788663597"
    }
  },
  {
    "service_request": "2021-827611",
    "request_type": "Trash/Recycling",
    "request_reason": "Missed Trash Pick-Up",
    "date_created": "2021-09-29T16:40:57.000",
    "date_modified": "2021-09-29T16:40:57.000",
    "request_status": "Pending",
    "responsible_agency": "Department of Sanitation",
    "final_address": "4910 Dauphine St",
    "address_councildis": "E",
    "status": "Assigned to Contractor",
    "contractor": "Metro Disposal",
    "rowid": "827611",
    "final_x": "3695174.76982",
    "final_y": "533223.825348",
    "longitude": "-90.02482909663985",
    "latitude": "29.959758320453343",
    "geocoded_column": {
      "latitude": "29.959758320453343",
      "longitude": "-90.02482909663985"
    }
  },
  {
    "service_request": "2021-827610",
    "request_type": "Parks & Parkways",
    "request_reason": "Request Tree Service (Right of Way/Public Property)",
    "date_created": "2021-09-29T16:35:40.000",
    "date_modified": "2021-09-29T16:35:40.000",
    "request_status": "Pending",
    "responsible_agency": "Department of Parks & Parkway",
    "final_address": "LEAKE AVE & DUBLIN ST",
    "address_councildis": "A",
    "status": "Pending",
    "rowid": "827610",
    "final_x": "3660386.4",
    "final_y": "527211.58",
    "longitude": "-90.13488213369332",
    "latitude": "29.94427307657808",
    "geocoded_column": {
      "latitude": "29.94427307657808",
      "longitude": "-90.13488213369332"
    }
  },
  {
    "service_request": "2021-827607",
    "request_type": "Roads/Drainage",
    "request_reason": "Pothole",
    "date_created": "2021-09-29T16:31:51.000",
    "date_modified": "2021-09-29T16:31:51.000",
    "request_status": "Pending",
    "responsible_agency": "Department of Public Works",
    "final_address": "3231 Derby Pl",
    "address_councildis": "A",
    "status": "Pending",
    "rowid": "827607",
    "final_x": "3677736.466",
    "final_y": "542966.535501",
    "longitude": "-90.07955872467683",
    "latitude": "29.987083472151852",
    "geocoded_column": {
      "latitude": "29.987083472151852",
      "longitude": "-90.07955872467683"
    }
  },
  {
    "service_request": "2021-827604",
    "request_type": "Trash/Recycling",
    "request_reason": "Missed Trash Pick-Up",
    "date_created": "2021-09-29T16:23:06.000",
    "date_modified": "2021-09-29T16:23:06.000",
    "request_status": "Pending",
    "responsible_agency": "Department of Sanitation",
    "final_address": "1724 Marais St",
    "address_councildis": "C",
    "status": "Assigned to Contractor",
    "contractor": "Metro Disposal",
    "rowid": "827604",
    "final_x": "3683350.83759",
    "final_y": "536507.483847",
    "longitude": "-90.0620513227232",
    "latitude": "29.96915322570546",
    "geocoded_column": {
      "latitude": "29.96915322570546",
      "longitude": "-90.0620513227232"
    }
  },
  {
    "service_request": "2021-827603",
    "request_type": "Traffic Signals/Signs/Striping/Streetlights",
    "request_reason": "Street Light Outage/Malfunction",
    "date_created": "2021-09-29T16:21:55.000",
    "date_modified": "2021-09-29T16:21:55.000",
    "request_status": "Pending",
    "responsible_agency": "Department of Public Works",
    "final_address": "1301 St Bernard Ave",
    "address_councildis": "C",
    "status": "Pending",
    "contractor": "Royal Engineering",
    "rowid": "827603",
    "final_x": "3682919.3446",
    "final_y": "536532.769031",
    "longitude": "-90.06341312216362",
    "latitude": "29.969235907623844",
    "geocoded_column": {
      "latitude": "29.969235907623844",
      "longitude": "-90.06341312216362"
    }
  },
  {
    "service_request": "2021-827602",
    "request_type": "Trash/Recycling",
    "request_reason": "Missed Trash Pick-Up",
    "date_created": "2021-09-29T16:21:32.000",
    "date_modified": "2021-09-29T16:21:33.000",
    "request_status": "Pending",
    "responsible_agency": "Department of Sanitation",
    "final_address": "837 S Carrollton Ave",
    "address_councildis": "A",
    "status": "Assigned to Contractor",
    "contractor": "Richards Disposal",
    "rowid": "827602",
    "final_x": "3661350.0999",
    "final_y": "527464.066111",
    "longitude": "-90.13183108357508",
    "latitude": "29.944939582522338",
    "geocoded_column": {
      "latitude": "29.944939582522338",
      "longitude": "-90.13183108357508"
    }
  },
  {
    "service_request": "2021-827601",
    "request_type": "Trash/Recycling",
    "request_reason": "Replace Trash Cart",
    "date_created": "2021-09-29T16:18:14.000",
    "date_modified": "2021-09-29T16:18:14.000",
    "request_status": "Pending",
    "responsible_agency": "Department of Sanitation",
    "final_address": "4800 Longfellow Dr",
    "address_councildis": "E",
    "status": "Assigned to Contractor",
    "contractor": "Metro Disposal",
    "rowid": "827601",
    "final_x": "3709523.81099",
    "final_y": "556150.64585",
    "longitude": "-89.97866257050241",
    "latitude": "30.022340060039514",
    "geocoded_column": {
      "latitude": "30.022340060039514",
      "longitude": "-89.97866257050241"
    }
  },
  {
    "service_request": "2021-827600",
    "request_type": "Trash/Recycling",
    "request_reason": "Replace Trash Cart",
    "date_created": "2021-09-29T16:16:58.000",
    "date_modified": "2021-09-29T16:16:59.000",
    "request_status": "Pending",
    "responsible_agency": "Department of Sanitation",
    "final_address": "4790 Hickerson Dr",
    "address_councildis": "E",
    "status": "Assigned to Contractor",
    "contractor": "Metro Disposal",
    "rowid": "827600",
    "final_x": "3710194.69137",
    "final_y": "556100.148506",
    "longitude": "-89.97654466196646",
    "latitude": "30.022179386415427",
    "geocoded_column": {
      "latitude": "30.022179386415427",
      "longitude": "-89.97654466196646"
    }
  },
  {
    "service_request": "2021-827599",
    "request_type": "Trash/Recycling",
    "request_reason": "Missed Trash Pick-Up",
    "date_created": "2021-09-29T16:15:22.000",
    "date_modified": "2021-09-29T16:15:29.000",
    "request_status": "Pending",
    "responsible_agency": "Department of Sanitation",
    "final_address": "4790 Hickerson Dr",
    "address_councildis": "E",
    "status": "Assigned to Contractor",
    "contractor": "Metro Disposal",
    "rowid": "827599",
    "final_x": "3710194.69137",
    "final_y": "556100.148506",
    "longitude": "-89.97654466196646",
    "latitude": "30.022179386415427",
    "geocoded_column": {
      "latitude": "30.022179386415427",
      "longitude": "-89.97654466196646"
    }
  },
  {
    "service_request": "2021-827598",
    "request_type": "Trash/Recycling",
    "request_reason": "Replace Trash Cart",
    "date_created": "2021-09-29T16:14:43.000",
    "date_modified": "2021-09-29T16:14:44.000",
    "request_status": "Pending",
    "responsible_agency": "Department of Sanitation",
    "final_address": "3915 Baronne St",
    "address_councildis": "B",
    "status": "Assigned to Contractor",
    "contractor": "Richards Disposal",
    "rowid": "827598",
    "final_x": "3672334.76091",
    "final_y": "521790.844218",
    "longitude": "-90.09734228929463",
    "latitude": "29.92901877788667",
    "geocoded_column": {
      "latitude": "29.92901877788667",
      "longitude": "-90.09734228929463"
    }
  },
  {
    "service_request": "2021-827597",
    "request_type": "Trash/Recycling",
    "request_reason": "Replace Trash Cart",
    "date_created": "2021-09-29T16:13:31.000",
    "date_modified": "2021-09-29T16:13:31.000",
    "request_status": "Pending",
    "responsible_agency": "Department of Sanitation",
    "final_address": "2224 Lapeyrouse St",
    "address_councildis": "D",
    "status": "Assigned to Contractor",
    "contractor": "Metro Disposal",
    "rowid": "827597",
    "final_x": "3680288.93352",
    "final_y": "539182.956682",
    "longitude": "-90.07162799615512",
    "latitude": "29.976602906847997",
    "geocoded_column": {
      "latitude": "29.976602906847997",
      "longitude": "-90.07162799615512"
    }
  },
  {
    "service_request": "2021-827596",
    "request_type": "Trash/Recycling",
    "request_reason": "Missed Trash Pick-Up",
    "date_created": "2021-09-29T16:12:32.000",
    "date_modified": "2021-09-29T16:12:33.000",
    "request_status": "Pending",
    "responsible_agency": "Department of Sanitation",
    "final_address": "1680 N Miro St",
    "address_councildis": "D",
    "status": "Assigned to Contractor",
    "contractor": "Metro Disposal",
    "rowid": "827596",
    "final_x": "3680943.55983",
    "final_y": "539618.136714",
    "longitude": "-90.06954532670164",
    "latitude": "29.977779664558813",
    "geocoded_column": {
      "latitude": "29.977779664558813",
      "longitude": "-90.06954532670164"
    }
  },
  {
    "service_request": "2021-827595",
    "request_type": "Roads/Drainage",
    "request_reason": "Catch Basin - Clogged",
    "date_created": "2021-09-29T16:11:25.000",
    "date_modified": "2021-09-29T16:11:25.000",
    "request_status": "Pending",
    "responsible_agency": "Department of Public Works",
    "final_address": "CANAL BLVD & CITY PARK AVE",
    "address_councildis": "A",
    "status": "Pending",
    "rowid": "827595",
    "final_x": "3667987.5",
    "final_y": "541115.08",
    "longitude": "-90.11041471405822",
    "latitude": "29.98228230942653",
    "geocoded_column": {
      "latitude": "29.98228230942653",
      "longitude": "-90.11041471405822"
    }
  },
  {
    "service_request": "2021-827594",
    "request_type": "Trash/Recycling",
    "request_reason": "Missed Trash Pick-Up",
    "date_created": "2021-09-29T16:06:45.000",
    "date_modified": "2021-09-29T16:06:46.000",
    "request_status": "Pending",
    "responsible_agency": "Department of Sanitation",
    "final_address": "1008 Touro St, New Orleans, Louisiana, 70116",
    "address_councildis": "C",
    "status": "Assigned to Contractor",
    "contractor": "Metro Disposal",
    "rowid": "827594",
    "final_x": "3684227.30786",
    "final_y": "535969.755079",
    "longitude": "-90.059302252339",
    "latitude": "29.967647890472414",
    "geocoded_column": {
      "latitude": "29.967647890472414",
      "longitude": "-90.059302252339"
    }
  },
  {
    "service_request": "2021-827593",
    "request_type": "Trash/Recycling",
    "request_reason": "Missed Trash Pick-Up",
    "date_created": "2021-09-29T16:04:41.000",
    "date_modified": "2021-09-29T16:04:42.000",
    "request_status": "Pending",
    "responsible_agency": "Department of Sanitation",
    "final_address": "1423 Pine St, New Orleans, Louisiana, 70118",
    "address_councildis": "A",
    "status": "Assigned to Contractor",
    "contractor": "Richards Disposal",
    "rowid": "827593",
    "final_x": "3664494.86317",
    "final_y": "527364.868863",
    "longitude": "-90.12190537170652",
    "latitude": "29.944575776135945",
    "geocoded_column": {
      "latitude": "29.944575776135945",
      "longitude": "-90.12190537170652"
    }
  },
  {
    "service_request": "2021-827592",
    "request_type": "Trash/Recycling",
    "request_reason": "Order Recycling Cart",
    "date_created": "2021-09-29T15:57:25.000",
    "date_modified": "2021-09-29T15:57:25.000",
    "request_status": "Pending",
    "responsible_agency": "Department of Sanitation",
    "final_address": "1013 Governor Nicholls St",
    "address_councildis": "C",
    "status": "Pending",
    "rowid": "827592",
    "final_x": "3682724.61384",
    "final_y": "534664.848518",
    "longitude": "-90.06409343896952",
    "latitude": "29.964105702414948",
    "geocoded_column": {
      "latitude": "29.964105702414948",
      "longitude": "-90.06409343896952"
    }
  },
  {
    "service_request": "2021-827591",
    "request_type": "Trash/Recycling",
    "request_reason": "Missed Trash Pick-Up",
    "date_created": "2021-09-29T15:57:25.000",
    "date_modified": "2021-09-29T15:57:54.000",
    "request_status": "Pending",
    "responsible_agency": "Department of Sanitation",
    "final_address": "4741 St Anthony Ave",
    "address_councildis": "D",
    "status": "Assigned to Contractor",
    "contractor": "Metro Disposal",
    "rowid": "827591",
    "final_x": "3682479.86012",
    "final_y": "550147.297108",
    "longitude": "-90.06432487206015",
    "latitude": "30.006684441657036",
    "geocoded_column": {
      "latitude": "30.006684441657036",
      "longitude": "-90.06432487206015"
    }
  },
  {
    "service_request": "2021-827590",
    "request_type": "Abandoned Vehicles",
    "request_reason": "Abandoned/Junk Vehicles",
    "date_created": "2021-09-29T15:57:20.000",
    "date_modified": "2021-09-29T15:59:16.000",
    "request_status": "Pending",
    "responsible_agency": "Department of Public Works",
    "final_address": "3205 Orleans Ave",
    "address_councildis": "A",
    "status": "Pending",
    "rowid": "827590",
    "final_x": "3674963.54792",
    "final_y": "538457.233353",
    "longitude": "-90.08847212647075",
    "latitude": "29.9747675772965",
    "geocoded_column": {
      "latitude": "29.9747675772965",
      "longitude": "-90.08847212647075"
    }
  },
  {
    "service_request": "2021-827589",
    "request_type": "Traffic Signals/Signs/Striping/Streetlights",
    "request_reason": "Street Light Outage/Malfunction",
    "date_created": "2021-09-29T15:56:18.000",
    "date_modified": "2021-09-29T15:56:55.000",
    "request_status": "Pending",
    "responsible_agency": "Department of Public Works",
    "final_address": "5710 Pembrook Dr",
    "address_councildis": "C",
    "status": "Pending",
    "contractor": "Royal Engineering",
    "rowid": "827589",
    "final_x": "3704730.63486",
    "final_y": "520907.992825",
    "longitude": "-89.99510826752932",
    "latitude": "29.9255906298943",
    "geocoded_column": {
      "latitude": "29.9255906298943",
      "longitude": "-89.99510826752932"
    }
  },
  {
    "service_request": "2021-827588",
    "request_type": "Traffic Signals/Signs/Striping/Streetlights",
    "request_reason": "Street Light Outage/Malfunction",
    "date_created": "2021-09-29T15:55:56.000",
    "date_modified": "2021-09-29T15:55:57.000",
    "request_status": "Pending",
    "responsible_agency": "Department of Public Works",
    "final_address": "5710 Pembrook Dr",
    "address_councildis": "C",
    "status": "Pending",
    "contractor": "Royal Engineering",
    "rowid": "827588",
    "final_x": "3704730.63486",
    "final_y": "520907.992825",
    "longitude": "-89.99510826752932",
    "latitude": "29.9255906298943",
    "geocoded_column": {
      "latitude": "29.9255906298943",
      "longitude": "-89.99510826752932"
    }
  },
  {
    "service_request": "2021-827587",
    "request_type": "Roads/Drainage",
    "request_reason": "Catch Basin - Clogged",
    "date_created": "2021-09-29T15:55:18.000",
    "date_modified": "2021-09-29T15:55:18.000",
    "request_status": "Pending",
    "responsible_agency": "Department of Public Works",
    "final_address": "4741 St Anthony Ave",
    "address_councildis": "D",
    "status": "Pending",
    "rowid": "827587",
    "final_x": "3682479.86012",
    "final_y": "550147.297108",
    "longitude": "-90.06432487206015",
    "latitude": "30.006684441657036",
    "geocoded_column": {
      "latitude": "30.006684441657036",
      "longitude": "-90.06432487206015"
    }
  },
  {
    "service_request": "2021-827586",
    "request_type": "Traffic Signals/Signs/Striping/Streetlights",
    "request_reason": "Street Light Outage/Malfunction",
    "date_created": "2021-09-29T15:55:16.000",
    "date_modified": "2021-09-29T15:55:17.000",
    "request_status": "Pending",
    "responsible_agency": "Department of Public Works",
    "final_address": "5710 Pembrook Dr",
    "address_councildis": "C",
    "status": "Pending",
    "contractor": "Royal Engineering",
    "rowid": "827586",
    "final_x": "3704730.63486",
    "final_y": "520907.992825",
    "longitude": "-89.99510826752932",
    "latitude": "29.9255906298943",
    "geocoded_column": {
      "latitude": "29.9255906298943",
      "longitude": "-89.99510826752932"
    }
  },
  {
    "service_request": "2021-827585",
    "request_type": "Trash/Recycling",
    "request_reason": "Missed Trash Pick-Up",
    "date_created": "2021-09-29T15:54:26.000",
    "date_modified": "2021-09-29T15:54:28.000",
    "request_status": "Pending",
    "responsible_agency": "Department of Sanitation",
    "final_address": "5710 Pembrook Dr",
    "address_councildis": "C",
    "status": "Assigned to Contractor",
    "contractor": "Richards Disposal",
    "rowid": "827585",
    "final_x": "3704730.63486",
    "final_y": "520907.992825",
    "longitude": "-89.99510826752932",
    "latitude": "29.9255906298943",
    "geocoded_column": {
      "latitude": "29.9255906298943",
      "longitude": "-89.99510826752932"
    }
  },
  {
    "service_request": "2021-827584",
    "request_type": "Trash/Recycling",
    "request_reason": "Repair Trash Cart",
    "date_created": "2021-09-29T15:54:15.000",
    "date_modified": "2021-09-29T15:54:18.000",
    "request_status": "Pending",
    "responsible_agency": "Department of Sanitation",
    "final_address": "2719 Cupid St",
    "address_councildis": "C",
    "status": "Assigned to Contractor",
    "contractor": "Richards Disposal",
    "rowid": "827584",
    "final_x": "3700268.75485",
    "final_y": "520787.446009",
    "longitude": "-90.00919736254639",
    "latitude": "29.925401699346256",
    "geocoded_column": {
      "latitude": "29.925401699346256",
      "longitude": "-90.00919736254639"
    }
  },
  {
    "service_request": "2021-827582",
    "request_type": "Trash/Recycling",
    "request_reason": "Request a Large Item Pick Up",
    "date_created": "2021-09-29T15:47:44.000",
    "date_modified": "2021-09-29T15:47:44.000",
    "request_status": "Pending",
    "responsible_agency": "Department of Sanitation",
    "final_address": "1845 Crete St",
    "address_councildis": "A",
    "status": "Assigned to Contractor",
    "contractor": "Metro Disposal",
    "rowid": "827582",
    "final_x": "3678576.56002",
    "final_y": "542741.989645",
    "longitude": "-90.07691294692219",
    "latitude": "29.986440747117445",
    "geocoded_column": {
      "latitude": "29.986440747117445",
      "longitude": "-90.07691294692219"
    }
  },
  {
    "service_request": "2021-827581",
    "request_type": "Abandoned Vehicles",
    "request_reason": "Abandoned/Junk Vehicles",
    "date_created": "2021-09-29T15:45:30.000",
    "date_modified": "2021-09-29T15:49:49.000",
    "request_status": "Pending",
    "responsible_agency": "Department of Public Works",
    "final_address": "6659 Argonne Blvd",
    "address_councildis": "A",
    "status": "Pending",
    "rowid": "827581",
    "final_x": "3670629.93332",
    "final_y": "551673.831061",
    "longitude": "-90.10171013556065",
    "latitude": "30.01123740475629",
    "geocoded_column": {
      "latitude": "30.01123740475629",
      "longitude": "-90.10171013556065"
    }
  },
  {
    "service_request": "2021-827580",
    "request_type": "Trash/Recycling",
    "request_reason": "Replace Trash Cart",
    "date_created": "2021-09-29T15:45:24.000",
    "date_modified": "2021-09-29T15:45:25.000",
    "request_status": "Pending",
    "responsible_agency": "Department of Sanitation",
    "final_address": "4420 N Rampart St",
    "address_councildis": "C",
    "status": "Assigned to Contractor",
    "contractor": "Metro Disposal",
    "rowid": "827580",
    "final_x": "3693107.04957",
    "final_y": "534488.796549",
    "longitude": "-90.03131307409492",
    "latitude": "29.963301311304416",
    "geocoded_column": {
      "latitude": "29.963301311304416",
      "longitude": "-90.03131307409492"
    }
  },
  {
    "service_request": "2021-827579",
    "request_type": "Parks & Parkways",
    "request_reason": "Request Tree Service (Right of Way/Public Property)",
    "date_created": "2021-09-29T15:41:29.000",
    "date_modified": "2021-09-29T15:41:29.000",
    "request_status": "Pending",
    "responsible_agency": "Department of Parks & Parkway",
    "final_address": "1019 N Gayoso St",
    "address_councildis": "A",
    "status": "Pending",
    "rowid": "827579",
    "final_x": "3676433.15131",
    "final_y": "538845.892425",
    "longitude": "-90.08381736252267",
    "latitude": "29.975792273653813",
    "geocoded_column": {
      "latitude": "29.975792273653813",
      "longitude": "-90.08381736252267"
    }
  },
  {
    "service_request": "2021-827578",
    "request_type": "Traffic Signals/Signs/Striping/Streetlights",
    "request_reason": "Additional signage",
    "date_created": "2021-09-29T15:41:11.000",
    "date_modified": "2021-09-29T15:41:11.000",
    "request_status": "Pending",
    "responsible_agency": "Department of Public Works",
    "final_address": "7701 Grant St",
    "address_councildis": "E",
    "status": "Pending",
    "rowid": "827578",
    "final_x": "3703579.43518",
    "final_y": "554522.127128",
    "longitude": "-89.9975051960252",
    "latitude": "30.018054157163554",
    "geocoded_column": {
      "latitude": "30.018054157163554",
      "longitude": "-89.9975051960252"
    }
  },
  {
    "service_request": "2021-827577",
    "request_type": "Trash/Recycling",
    "request_reason": "Order Trash Cart",
    "date_created": "2021-09-29T15:32:07.000",
    "date_modified": "2021-09-29T15:32:12.000",
    "request_status": "Pending",
    "responsible_agency": "Department of Sanitation",
    "final_address": "3710 Huntlee Dr",
    "address_councildis": "C",
    "status": "Assigned to Contractor",
    "contractor": "Richards Disposal",
    "rowid": "827577",
    "final_x": "3701745.96977",
    "final_y": "517450.29919",
    "longitude": "-90.00465644075094",
    "latitude": "29.916178670882616",
    "geocoded_column": {
      "latitude": "29.916178670882616",
      "longitude": "-90.00465644075094"
    }
  },
  {
    "service_request": "2021-827576",
    "request_type": "Trash/Recycling",
    "request_reason": "Start Trash Service",
    "date_created": "2021-09-29T15:31:02.000",
    "date_modified": "2021-09-29T15:31:03.000",
    "request_status": "Pending",
    "responsible_agency": "Department of Sanitation",
    "final_address": "3710 Huntlee Dr",
    "address_councildis": "C",
    "status": "Assigned to Contractor",
    "contractor": "Richards Disposal",
    "rowid": "827576",
    "final_x": "3701745.96977",
    "final_y": "517450.29919",
    "longitude": "-90.00465644075094",
    "latitude": "29.916178670882616",
    "geocoded_column": {
      "latitude": "29.916178670882616",
      "longitude": "-90.00465644075094"
    }
  },
  {
    "service_request": "2021-827575",
    "request_type": "Traffic Signals/Signs/Striping/Streetlights",
    "request_reason": "Street Light Outage/Malfunction",
    "date_created": "2021-09-29T15:30:54.000",
    "date_modified": "2021-09-29T15:30:57.000",
    "request_status": "Pending",
    "responsible_agency": "Department of Public Works",
    "final_address": "4628 Palmyra St",
    "address_councildis": "A",
    "status": "Pending",
    "contractor": "Royal Engineering",
    "rowid": "827575",
    "final_x": "3668687.96826",
    "final_y": "539075.689418",
    "longitude": "-90.10827115417224",
    "latitude": "29.97665409987838",
    "geocoded_column": {
      "latitude": "29.97665409987838",
      "longitude": "-90.10827115417224"
    }
  },
  {
    "service_request": "2021-827571",
    "request_type": "Property Maintenance",
    "request_reason": "Property Maintenance",
    "date_created": "2021-09-29T15:22:19.000",
    "date_modified": "2021-09-29T15:22:19.000",
    "request_status": "Pending",
    "responsible_agency": "Department of Code Enforcement",
    "final_address": "6929 Virgilian St",
    "address_councildis": "D",
    "status": "Pending",
    "rowid": "827571",
    "final_x": "3696992.31946",
    "final_y": "556647.003546",
    "longitude": "-90.01824081280056",
    "latitude": "30.02410626890233",
    "geocoded_column": {
      "latitude": "30.02410626890233",
      "longitude": "-90.01824081280056"
    }
  },
  {
    "service_request": "2021-827570",
    "request_type": "Abandoned Vehicles",
    "request_reason": "Abandoned/Junk Vehicles",
    "date_created": "2021-09-29T15:20:51.000",
    "date_modified": "2021-09-29T15:20:51.000",
    "request_status": "Pending",
    "responsible_agency": "Department of Public Works",
    "final_address": "1102 General Pershing St",
    "address_councildis": "B",
    "status": "Pending",
    "rowid": "827570",
    "final_x": "3671324.0859",
    "final_y": "519601.272568",
    "longitude": "-90.1006071598157",
    "latitude": "29.923028094001545",
    "geocoded_column": {
      "latitude": "29.923028094001545",
      "longitude": "-90.1006071598157"
    }
  },
  {
    "service_request": "2021-827569",
    "request_type": "Trash/Recycling",
    "request_reason": "Missed Trash Pick-Up",
    "date_created": "2021-09-29T15:18:53.000",
    "date_modified": "2021-09-29T15:18:54.000",
    "request_status": "Pending",
    "responsible_agency": "Department of Sanitation",
    "final_address": "1306 Foy St",
    "address_councildis": "D",
    "status": "Assigned to Contractor",
    "contractor": "Metro Disposal",
    "rowid": "827569",
    "final_x": "3677425.85845",
    "final_y": "546411.778897",
    "longitude": "-90.0804208308291",
    "latitude": "29.996566026532264",
    "geocoded_column": {
      "latitude": "29.996566026532264",
      "longitude": "-90.0804208308291"
    }
  },
  {
    "service_request": "2021-827568",
    "request_type": "Trash/Recycling",
    "request_reason": "Replace Trash Cart",
    "date_created": "2021-09-29T15:18:01.000",
    "date_modified": "2021-09-29T15:18:02.000",
    "request_status": "Pending",
    "responsible_agency": "Department of Sanitation",
    "final_address": "2906 Press St",
    "address_councildis": "D",
    "status": "Assigned to Contractor",
    "contractor": "Metro Disposal",
    "rowid": "827568",
    "final_x": "3689902.09334",
    "final_y": "543521.890766",
    "longitude": "-90.04111223413834",
    "latitude": "29.988238868821853",
    "geocoded_column": {
      "latitude": "29.988238868821853",
      "longitude": "-90.04111223413834"
    }
  },
  {
    "service_request": "2021-827567",
    "request_type": "Trash/Recycling",
    "request_reason": "Missed Trash Pick-Up",
    "date_created": "2021-09-29T15:16:38.000",
    "date_modified": "2021-09-29T15:16:39.000",
    "request_status": "Pending",
    "responsible_agency": "Department of Sanitation",
    "final_address": "2040 Milan St",
    "address_councildis": "B",
    "status": "Assigned to Contractor",
    "contractor": "Richards Disposal",
    "rowid": "827567",
    "final_x": "3671382.66804",
    "final_y": "522675.74169",
    "longitude": "-90.10031780562223",
    "latitude": "29.931480166421476",
    "geocoded_column": {
      "latitude": "29.931480166421476",
      "longitude": "-90.10031780562223"
    }
  },
  {
    "service_request": "2021-827566",
    "request_type": "Trash/Recycling",
    "request_reason": "Missed Trash Pick-Up",
    "date_created": "2021-09-29T15:15:46.000",
    "date_modified": "2021-09-29T15:15:48.000",
    "request_status": "Pending",
    "responsible_agency": "Department of Sanitation",
    "final_address": "818 Navarre St",
    "address_councildis": "A",
    "status": "Assigned to Contractor",
    "contractor": "Metro Disposal",
    "rowid": "827566",
    "final_x": "3668840.7563",
    "final_y": "543746.914958",
    "longitude": "-90.10763078626118",
    "latitude": "29.989493891533062",
    "geocoded_column": {
      "latitude": "29.989493891533062",
      "longitude": "-90.10763078626118"
    }
  },
  {
    "service_request": "2021-827565",
    "request_type": "Trash/Recycling",
    "request_reason": "Missed Trash Pick-Up",
    "date_created": "2021-09-29T15:14:52.000",
    "date_modified": "2021-09-29T15:14:52.000",
    "request_status": "Pending",
    "responsible_agency": "Department of Sanitation",
    "final_address": "1894 Saltus St",
    "address_councildis": "A",
    "status": "Assigned to Contractor",
    "contractor": "Metro Disposal",
    "rowid": "827565",
    "final_x": "3678086.39285",
    "final_y": "543070.422221",
    "longitude": "-90.07844983778502",
    "latitude": "29.98735859165125",
    "geocoded_column": {
      "latitude": "29.98735859165125",
      "longitude": "-90.07844983778502"
    }
  },
  {
    "service_request": "2021-827564",
    "request_type": "Property Maintenance",
    "request_reason": "Property Maintenance",
    "date_created": "2021-09-29T15:13:37.000",
    "date_modified": "2021-09-29T15:13:37.000",
    "request_status": "Pending",
    "responsible_agency": "Department of Code Enforcement",
    "final_address": "4110 Pressburg St",
    "address_councildis": "D",
    "status": "Pending",
    "rowid": "827564",
    "final_x": "3688752.16252",
    "final_y": "554936.11292",
    "longitude": "-90.04433890128377",
    "latitude": "30.019659423964672",
    "geocoded_column": {
      "latitude": "30.019659423964672",
      "longitude": "-90.04433890128377"
    }
  },
  {
    "service_request": "2021-827563",
    "request_type": "Roads/Drainage",
    "request_reason": "Catch Basin - Clogged",
    "date_created": "2021-09-29T15:13:12.000",
    "date_modified": "2021-09-29T15:13:12.000",
    "request_status": "Pending",
    "responsible_agency": "Department of Public Works",
    "final_address": "440 Josephine St",
    "address_councildis": "B",
    "status": "Pending",
    "rowid": "827563",
    "final_x": "3680625.25615",
    "final_y": "520335.733048",
    "longitude": "-90.07122144132033",
    "latitude": "29.924769198894687",
    "geocoded_column": {
      "latitude": "29.924769198894687",
      "longitude": "-90.07122144132033"
    }
  },
  {
    "service_request": "2021-827562",
    "request_type": "Roads/Drainage",
    "request_reason": "Catch Basin - Clogged",
    "date_created": "2021-09-29T15:12:14.000",
    "date_modified": "2021-09-29T15:12:14.000",
    "request_status": "Pending",
    "responsible_agency": "Department of Public Works",
    "final_address": "440 Josephine St",
    "address_councildis": "B",
    "status": "Pending",
    "rowid": "827562",
    "final_x": "3680625.25615",
    "final_y": "520335.733048",
    "longitude": "-90.07122144132033",
    "latitude": "29.924769198894687",
    "geocoded_column": {
      "latitude": "29.924769198894687",
      "longitude": "-90.07122144132033"
    }
  },
  {
    "service_request": "2021-827561",
    "request_type": "Trash/Recycling",
    "request_reason": "Repair Trash Cart",
    "date_created": "2021-09-29T15:11:43.000",
    "date_modified": "2021-09-29T15:11:43.000",
    "request_status": "Pending",
    "responsible_agency": "Department of Sanitation",
    "final_address": "5710 Garfield St",
    "address_councildis": "A",
    "status": "Assigned to Contractor",
    "contractor": "Richards Disposal",
    "rowid": "827561",
    "final_x": "3666210.39777",
    "final_y": "521252.848057",
    "longitude": "-90.11669380107593",
    "latitude": "29.927719687236237",
    "geocoded_column": {
      "latitude": "29.927719687236237",
      "longitude": "-90.11669380107593"
    }
  },
  {
    "service_request": "2021-827560",
    "request_type": "Trash/Recycling",
    "request_reason": "Repair Trash Cart",
    "date_created": "2021-09-29T15:11:41.000",
    "date_modified": "2021-09-29T15:11:42.000",
    "request_status": "Pending",
    "responsible_agency": "Department of Sanitation",
    "final_address": "5710 Garfield St",
    "address_councildis": "A",
    "status": "Assigned to Contractor",
    "contractor": "Richards Disposal",
    "rowid": "827560",
    "final_x": "3666210.39777",
    "final_y": "521252.848057",
    "longitude": "-90.11669380107593",
    "latitude": "29.927719687236237",
    "geocoded_column": {
      "latitude": "29.927719687236237",
      "longitude": "-90.11669380107593"
    }
  },
  {
    "service_request": "2021-827559",
    "request_type": "Traffic Signals/Signs/Striping/Streetlights",
    "request_reason": "Street Light Outage/Malfunction",
    "date_created": "2021-09-29T15:10:23.000",
    "date_modified": "2021-09-29T15:10:24.000",
    "request_status": "Pending",
    "responsible_agency": "Department of Public Works",
    "final_address": "440 Josephine St",
    "address_councildis": "B",
    "status": "Pending",
    "contractor": "Royal Engineering",
    "rowid": "827559",
    "final_x": "3680625.25615",
    "final_y": "520335.733048",
    "longitude": "-90.07122144132033",
    "latitude": "29.924769198894687",
    "geocoded_column": {
      "latitude": "29.924769198894687",
      "longitude": "-90.07122144132033"
    }
  },
  {
    "service_request": "2021-827558",
    "request_type": "Traffic Signals/Signs/Striping/Streetlights",
    "request_reason": "Street Light Outage/Malfunction",
    "date_created": "2021-09-29T15:09:32.000",
    "date_modified": "2021-09-29T15:09:32.000",
    "request_status": "Pending",
    "responsible_agency": "Department of Public Works",
    "final_address": "440 Josephine St",
    "address_councildis": "B",
    "status": "Pending",
    "contractor": "Royal Engineering",
    "rowid": "827558",
    "final_x": "3680625.25615",
    "final_y": "520335.733048",
    "longitude": "-90.07122144132033",
    "latitude": "29.924769198894687",
    "geocoded_column": {
      "latitude": "29.924769198894687",
      "longitude": "-90.07122144132033"
    }
  },
  {
    "service_request": "2021-827557",
    "request_type": "Traffic Signals/Signs/Striping/Streetlights",
    "request_reason": "Street Light Outage/Malfunction",
    "date_created": "2021-09-29T15:08:19.000",
    "date_modified": "2021-09-29T15:08:20.000",
    "request_status": "Pending",
    "responsible_agency": "Department of Public Works",
    "final_address": "440 Josephine St",
    "address_councildis": "B",
    "status": "Pending",
    "contractor": "Royal Engineering",
    "rowid": "827557",
    "final_x": "3680625.25615",
    "final_y": "520335.733048",
    "longitude": "-90.07122144132033",
    "latitude": "29.924769198894687",
    "geocoded_column": {
      "latitude": "29.924769198894687",
      "longitude": "-90.07122144132033"
    }
  },
  {
    "service_request": "2021-827556",
    "request_type": "Traffic Signals/Signs/Striping/Streetlights",
    "request_reason": "Street Light Outage/Malfunction",
    "date_created": "2021-09-29T15:07:22.000",
    "date_modified": "2021-09-29T15:07:23.000",
    "request_status": "Pending",
    "responsible_agency": "Department of Public Works",
    "final_address": "440 Josephine St",
    "address_councildis": "B",
    "status": "Pending",
    "contractor": "Royal Engineering",
    "rowid": "827556",
    "final_x": "3680625.25615",
    "final_y": "520335.733048",
    "longitude": "-90.07122144132033",
    "latitude": "29.924769198894687",
    "geocoded_column": {
      "latitude": "29.924769198894687",
      "longitude": "-90.07122144132033"
    }
  },
  {
    "service_request": "2021-827554",
    "request_type": "Traffic Signals/Signs/Striping/Streetlights",
    "request_reason": "Street Light Outage/Malfunction",
    "date_created": "2021-09-29T15:06:35.000",
    "date_modified": "2021-09-29T15:06:38.000",
    "request_status": "Pending",
    "responsible_agency": "Department of Public Works",
    "final_address": "440 Josephine St",
    "address_councildis": "B",
    "status": "Pending",
    "contractor": "Royal Engineering",
    "rowid": "827554",
    "final_x": "3680625.25615",
    "final_y": "520335.733048",
    "longitude": "-90.07122144132033",
    "latitude": "29.924769198894687",
    "geocoded_column": {
      "latitude": "29.924769198894687",
      "longitude": "-90.07122144132033"
    }
  },
  {
    "service_request": "2021-827553",
    "request_type": "Traffic Signals/Signs/Striping/Streetlights",
    "request_reason": "Street Light Outage/Malfunction",
    "date_created": "2021-09-29T15:05:20.000",
    "date_modified": "2021-09-29T15:05:22.000",
    "request_status": "Pending",
    "responsible_agency": "Department of Public Works",
    "final_address": "440 Josephine St",
    "address_councildis": "B",
    "status": "Pending",
    "contractor": "Royal Engineering",
    "rowid": "827553",
    "final_x": "3680625.25615",
    "final_y": "520335.733048",
    "longitude": "-90.07122144132033",
    "latitude": "29.924769198894687",
    "geocoded_column": {
      "latitude": "29.924769198894687",
      "longitude": "-90.07122144132033"
    }
  },
  {
    "service_request": "2021-827552",
    "request_type": "Traffic Signals/Signs/Striping/Streetlights",
    "request_reason": "Street Light Outage/Malfunction",
    "date_created": "2021-09-29T15:04:17.000",
    "date_modified": "2021-09-29T15:04:33.000",
    "request_status": "Pending",
    "responsible_agency": "Department of Public Works",
    "final_address": "440 Josephine St",
    "address_councildis": "B",
    "status": "Pending",
    "contractor": "Royal Engineering",
    "rowid": "827552",
    "final_x": "3680625.25615",
    "final_y": "520335.733048",
    "longitude": "-90.07122144132033",
    "latitude": "29.924769198894687",
    "geocoded_column": {
      "latitude": "29.924769198894687",
      "longitude": "-90.07122144132033"
    }
  },
  {
    "service_request": "2021-827550",
    "request_type": "Trash/Recycling",
    "request_reason": "Missed Trash Pick-Up",
    "date_created": "2021-09-29T15:01:45.000",
    "date_modified": "2021-09-29T15:02:45.000",
    "request_status": "Pending",
    "responsible_agency": "Department of Sanitation",
    "final_address": "503 S Pierce St",
    "address_councildis": "A",
    "status": "Assigned to Contractor",
    "contractor": "Richards Disposal",
    "rowid": "827550",
    "final_x": "3670450.01857",
    "final_y": "536760.057928",
    "longitude": "-90.10278458077296",
    "latitude": "29.970234975781278",
    "geocoded_column": {
      "latitude": "29.970234975781278",
      "longitude": "-90.10278458077296"
    }
  },
  {
    "service_request": "2021-827549",
    "request_type": "Trash/Recycling",
    "request_reason": "Missed Trash Pick-Up",
    "date_created": "2021-09-29T15:01:23.000",
    "date_modified": "2021-09-29T15:02:19.000",
    "request_status": "Pending",
    "responsible_agency": "Department of Sanitation",
    "final_address": "5513 S Saratoga St",
    "address_councildis": "A",
    "status": "Assigned to Contractor",
    "contractor": "Richards Disposal",
    "rowid": "827549",
    "final_x": "3667164.30913",
    "final_y": "522752.502778",
    "longitude": "-90.11363212769817",
    "latitude": "29.931815376642223",
    "geocoded_column": {
      "latitude": "29.931815376642223",
      "longitude": "-90.11363212769817"
    }
  },
  {
    "service_request": "2021-827548",
    "request_type": "Abandoned Vehicles",
    "request_reason": "Abandoned/Junk Vehicles",
    "date_created": "2021-09-29T14:56:05.000",
    "date_modified": "2021-09-29T14:56:05.000",
    "request_status": "Pending",
    "responsible_agency": "Department of Public Works",
    "final_address": "6929 Virgilian St",
    "address_councildis": "D",
    "status": "Pending",
    "rowid": "827548",
    "final_x": "3696992.31946",
    "final_y": "556647.003546",
    "longitude": "-90.01824081280056",
    "latitude": "30.02410626890233",
    "geocoded_column": {
      "latitude": "30.02410626890233",
      "longitude": "-90.01824081280056"
    }
  },
  {
    "service_request": "2021-827547",
    "request_type": "Traffic Signals/Signs/Striping/Streetlights",
    "request_reason": "Traffic Signal Malfunctioning/Damaged",
    "date_created": "2021-09-29T14:54:03.000",
    "date_modified": "2021-09-29T14:54:03.000",
    "request_status": "Pending",
    "responsible_agency": "Department of Public Works",
    "final_address": "S Carrollton Ave & S Claiborne Ave, New Orleans, Louisiana, 70118",
    "address_councildis": "A",
    "status": "Pending",
    "rowid": "827547",
    "final_x": "3664907.5",
    "final_y": "531545.98",
    "longitude": "-90.120462817646",
    "latitude": "29.956060477053942",
    "geocoded_column": {
      "latitude": "29.956060477053942",
      "longitude": "-90.120462817646"
    }
  },
  {
    "service_request": "2021-827546",
    "request_type": "Trash/Recycling",
    "request_reason": "Missed Trash Pick-Up",
    "date_created": "2021-09-29T14:53:35.000",
    "date_modified": "2021-09-29T14:53:36.000",
    "case_close_date": "2021-09-13T19:00:00.000",
    "request_status": "Pending",
    "responsible_agency": "Department of Sanitation",
    "final_address": "1700 Leon C Simon Dr",
    "address_councildis": "D",
    "status": "Assigned to Contractor",
    "contractor": "Metro Disposal",
    "rowid": "827546",
    "final_x": "3679618.4324",
    "final_y": "555564.329369",
    "longitude": "-90.07317665411207",
    "latitude": "30.021666148226114",
    "geocoded_column": {
      "latitude": "30.021666148226114",
      "longitude": "-90.07317665411207"
    }
  },
  {
    "service_request": "2021-827545",
    "request_type": "Trash/Recycling",
    "request_reason": "Request a Large Item Pick Up",
    "date_created": "2021-09-29T14:50:07.000",
    "date_modified": "2021-09-29T14:50:07.000",
    "request_status": "Pending",
    "responsible_agency": "Department of Sanitation",
    "final_address": "928 Picheloup Pl",
    "address_councildis": "A",
    "status": "Assigned to Contractor",
    "contractor": "Richards Disposal",
    "rowid": "827545",
    "final_x": "3673662.37518",
    "final_y": "540470.250699",
    "longitude": "-90.09251271578353",
    "latitude": "29.980341493507478",
    "geocoded_column": {
      "latitude": "29.980341493507478",
      "longitude": "-90.09251271578353"
    }
  },
  {
    "service_request": "2021-827544",
    "request_type": "Trash/Recycling",
    "request_reason": "Request a Large Item Pick Up",
    "date_created": "2021-09-29T14:49:52.000",
    "date_modified": "2021-09-29T14:49:53.000",
    "case_close_date": "2021-01-26T18:00:00.000",
    "request_status": "Pending",
    "responsible_agency": "Department of Sanitation",
    "final_address": "5801 Oxford Pl",
    "address_councildis": "C",
    "status": "Assigned to Contractor",
    "contractor": "Richards Disposal",
    "rowid": "827544",
    "final_x": "3704868.81623",
    "final_y": "519842.379832",
    "longitude": "-89.9947113721973",
    "latitude": "29.92265612636965",
    "geocoded_column": {
      "latitude": "29.92265612636965",
      "longitude": "-89.9947113721973"
    }
  },
  {
    "service_request": "2021-827543",
    "request_type": "Trash/Recycling",
    "request_reason": "Missed Trash Pick-Up",
    "date_created": "2021-09-29T14:40:52.000",
    "date_modified": "2021-09-29T14:54:29.000",
    "case_close_date": "2021-09-29T09:54:29.000",
    "request_status": "Closed",
    "responsible_agency": "Department of Sanitation",
    "final_address": "3016 Burgundy St",
    "address_councildis": "C",
    "status": "Resolved",
    "contractor": "Metro Disposal",
    "rowid": "827543",
    "final_x": "3688382.08579",
    "final_y": "535289.019846",
    "longitude": "-90.04620554735584",
    "latitude": "29.965648429289274",
    "geocoded_column": {
      "latitude": "29.965648429289274",
      "longitude": "-90.04620554735584"
    }
  },
  {
    "service_request": "2021-827541",
    "request_type": "Abandoned Vehicles",
    "request_reason": "Abandoned/Junk Vehicles",
    "date_created": "2021-09-29T14:30:57.000",
    "date_modified": "2021-09-29T14:30:57.000",
    "request_status": "Pending",
    "responsible_agency": "Department of Public Works",
    "final_address": "615 Cadiz St",
    "address_councildis": "B",
    "status": "Pending",
    "rowid": "827541",
    "final_x": "3670439.95847",
    "final_y": "517820.551414",
    "longitude": "-90.10345834815342",
    "latitude": "29.918157799946776",
    "geocoded_column": {
      "latitude": "29.918157799946776",
      "longitude": "-90.10345834815342"
    }
  },
  {
    "service_request": "2021-827540",
    "request_type": "Trash/Recycling",
    "request_reason": "Missed Trash Pick-Up",
    "date_created": "2021-09-29T14:29:58.000",
    "date_modified": "2021-09-29T14:30:01.000",
    "request_status": "Pending",
    "responsible_agency": "Department of Sanitation",
    "final_address": "5519 Charlotte Dr",
    "address_councildis": "D",
    "status": "Assigned to Contractor",
    "contractor": "Metro Disposal",
    "rowid": "827540",
    "final_x": "3680130.96949",
    "final_y": "552772.898774",
    "longitude": "-90.07165429172042",
    "latitude": "30.013975219792353",
    "geocoded_column": {
      "latitude": "30.013975219792353",
      "longitude": "-90.07165429172042"
    }
  },
  {
    "service_request": "2021-827539",
    "request_type": "Traffic Signals/Signs/Striping/Streetlights",
    "request_reason": "Traffic Sign Missing/Damaged",
    "date_created": "2021-09-29T14:29:30.000",
    "date_modified": "2021-09-29T14:29:30.000",
    "request_status": "Pending",
    "responsible_agency": "Department of Public Works",
    "final_address": "1661 N Villere St",
    "address_councildis": "C",
    "status": "Pending",
    "rowid": "827539",
    "final_x": "3683017.21576",
    "final_y": "537310.830344",
    "longitude": "-90.06307679832283",
    "latitude": "29.97137232403416",
    "geocoded_column": {
      "latitude": "29.97137232403416",
      "longitude": "-90.06307679832283"
    }
  },
  {
    "service_request": "2021-827538",
    "request_type": "Property Maintenance",
    "request_reason": "Property Maintenance",
    "date_created": "2021-09-29T14:27:45.000",
    "date_modified": "2021-09-29T14:27:45.000",
    "request_status": "Pending",
    "responsible_agency": "Department of Code Enforcement",
    "final_address": "3411 Piedmont Dr",
    "address_councildis": "D",
    "status": "Pending",
    "rowid": "827538",
    "final_x": "3686470.68086",
    "final_y": "545390.395472",
    "longitude": "-90.05188492634295",
    "latitude": "29.993482547905497",
    "geocoded_column": {
      "latitude": "29.993482547905497",
      "longitude": "-90.05188492634295"
    }
  },
  {
    "service_request": "2021-827537",
    "request_type": "Roads/Drainage",
    "request_reason": "Catch Basin - Clogged",
    "date_created": "2021-09-29T14:22:21.000",
    "date_modified": "2021-09-29T14:22:21.000",
    "request_status": "Pending",
    "responsible_agency": "Department of Public Works",
    "final_address": "2473 Bedford Dr",
    "address_councildis": "C",
    "status": "Pending",
    "rowid": "827537",
    "final_x": "3705133.23249",
    "final_y": "521834.548538",
    "longitude": "-89.99380320779233",
    "latitude": "29.9281254000455",
    "geocoded_column": {
      "latitude": "29.9281254000455",
      "longitude": "-89.99380320779233"
    }
  },
  {
    "service_request": "2021-827536",
    "request_type": "Trash/Recycling",
    "request_reason": "Missed Trash Pick-Up",
    "date_created": "2021-09-29T14:19:35.000",
    "date_modified": "2021-09-29T14:19:36.000",
    "request_status": "Pending",
    "responsible_agency": "Department of Sanitation",
    "final_address": "4509 Freret St",
    "address_councildis": "B",
    "status": "Assigned to Contractor",
    "contractor": "Richards Disposal",
    "rowid": "827536",
    "final_x": "3670056.06228",
    "final_y": "524030.855484",
    "longitude": "-90.10445987317618",
    "latitude": "29.93524547970545",
    "geocoded_column": {
      "latitude": "29.93524547970545",
      "longitude": "-90.10445987317618"
    }
  },
  {
    "service_request": "2021-827535",
    "request_type": "Trash/Recycling",
    "request_reason": "Order Recycling Cart",
    "date_created": "2021-09-29T14:17:09.000",
    "date_modified": "2021-09-29T14:17:09.000",
    "request_status": "Pending",
    "responsible_agency": "Department of Sanitation",
    "final_address": "3626 Dumaine St",
    "address_councildis": "A",
    "status": "Pending",
    "rowid": "827535",
    "final_x": "3674219.11099",
    "final_y": "539706.149322",
    "longitude": "-90.090780474685",
    "latitude": "29.97822388736047",
    "geocoded_column": {
      "latitude": "29.97822388736047",
      "longitude": "-90.090780474685"
    }
  },
  {
    "service_request": "2021-827532",
    "request_type": "Roads/Drainage",
    "request_reason": "Damaged Sidewalk",
    "date_created": "2021-09-29T14:14:29.000",
    "date_modified": "2021-09-29T14:14:29.000",
    "request_status": "Pending",
    "responsible_agency": "Department of Public Works",
    "final_address": "135 Middle Park Pl",
    "address_councildis": "A",
    "status": "Pending",
    "rowid": "827532",
    "final_x": "3670299.10145",
    "final_y": "544189.637966",
    "longitude": "-90.10300926035418",
    "latitude": "29.990668252847865",
    "geocoded_column": {
      "latitude": "29.990668252847865",
      "longitude": "-90.10300926035418"
    }
  },
  {
    "service_request": "2021-827531",
    "request_type": "Roads/Drainage",
    "request_reason": "Pothole",
    "date_created": "2021-09-29T14:12:41.000",
    "date_modified": "2021-09-29T14:12:41.000",
    "request_status": "Pending",
    "responsible_agency": "Department of Public Works",
    "final_address": "3611 Bruxelles St",
    "address_councildis": "D",
    "status": "Pending",
    "rowid": "827531",
    "final_x": "3680128.1764",
    "final_y": "545632.771088",
    "longitude": "-90.07191146369821",
    "latitude": "29.994342506487033",
    "geocoded_column": {
      "latitude": "29.994342506487033",
      "longitude": "-90.07191146369821"
    }
  },
  {
    "service_request": "2021-827530",
    "request_type": "Roads/Drainage",
    "request_reason": "Street Flooding / Drainage",
    "date_created": "2021-09-29T14:08:46.000",
    "date_modified": "2021-09-29T14:08:46.000",
    "request_status": "Pending",
    "responsible_agency": "Department of Public Works",
    "final_address": "61 Versailles Blvd",
    "address_councildis": "B",
    "status": "Pending",
    "rowid": "827530",
    "final_x": "3667728.63988",
    "final_y": "530239.374657",
    "longitude": "-90.11159858373334",
    "latitude": "29.952385328638137",
    "geocoded_column": {
      "latitude": "29.952385328638137",
      "longitude": "-90.11159858373334"
    }
  },
  {
    "service_request": "2021-827529",
    "request_type": "Trash/Recycling",
    "request_reason": "Missed Trash Pick-Up",
    "date_created": "2021-09-29T14:08:40.000",
    "date_modified": "2021-09-29T14:10:13.000",
    "request_status": "Pending",
    "responsible_agency": "Department of Sanitation",
    "final_address": "3426 Clara St",
    "address_councildis": "B",
    "status": "Assigned to Contractor",
    "contractor": "Richards Disposal",
    "rowid": "827529",
    "final_x": "3672258.53876",
    "final_y": "525372.398909",
    "longitude": "-90.09746096172564",
    "latitude": "29.938869155617787",
    "geocoded_column": {
      "latitude": "29.938869155617787",
      "longitude": "-90.09746096172564"
    }
  },
  {
    "service_request": "2021-827528",
    "request_type": "Property Maintenance",
    "request_reason": "Property Maintenance",
    "date_created": "2021-09-29T14:02:39.000",
    "date_modified": "2021-09-29T14:02:39.000",
    "request_status": "Pending",
    "responsible_agency": "Department of Code Enforcement",
    "final_address": "10141 Curran Rd",
    "address_councildis": "E",
    "status": "Pending",
    "rowid": "827528",
    "final_x": "3708497.38302",
    "final_y": "565102.84253",
    "longitude": "-89.9815721016863",
    "latitude": "30.046988387168156",
    "geocoded_column": {
      "latitude": "30.046988387168156",
      "longitude": "-89.9815721016863"
    }
  },
  {
    "service_request": "2021-827527",
    "request_type": "Roads/Drainage",
    "request_reason": "Street Flooding / Drainage",
    "date_created": "2021-09-29T13:59:40.000",
    "date_modified": "2021-09-29T13:59:40.000",
    "request_status": "Pending",
    "responsible_agency": "Department of Public Works",
    "final_address": "135 Middle Park Pl",
    "address_councildis": "A",
    "status": "Pending",
    "rowid": "827527",
    "final_x": "3670299.10145",
    "final_y": "544189.637966",
    "longitude": "-90.10300926035418",
    "latitude": "29.990668252847865",
    "geocoded_column": {
      "latitude": "29.990668252847865",
      "longitude": "-90.10300926035418"
    }
  },
  {
    "service_request": "2021-827525",
    "request_type": "Traffic Signals/Signs/Striping/Streetlights",
    "request_reason": "Street Light Outage/Malfunction",
    "date_created": "2021-09-29T13:52:32.000",
    "date_modified": "2021-09-29T13:52:34.000",
    "request_status": "Pending",
    "responsible_agency": "Department of Public Works",
    "final_address": "138 Middle Park Pl",
    "address_councildis": "A",
    "status": "Pending",
    "contractor": "Royal Engineering",
    "rowid": "827525",
    "final_x": "3670157.93703",
    "final_y": "544182.81915",
    "longitude": "-90.10345539631139",
    "latitude": "29.990653670409596",
    "geocoded_column": {
      "latitude": "29.990653670409596",
      "longitude": "-90.10345539631139"
    }
  },
  {
    "service_request": "2021-827524",
    "request_type": "Traffic Signals/Signs/Striping/Streetlights",
    "request_reason": "Street Light Outage/Malfunction",
    "date_created": "2021-09-29T13:52:19.000",
    "date_modified": "2021-09-29T13:52:20.000",
    "request_status": "Pending",
    "responsible_agency": "Department of Public Works",
    "final_address": "8100 Lake Forest Blvd",
    "address_councildis": "E",
    "status": "Pending",
    "contractor": "Royal Engineering",
    "rowid": "827524",
    "final_x": "3704521.55146",
    "final_y": "557215.093787",
    "longitude": "-89.9944290658789",
    "latitude": "30.025428542043656",
    "geocoded_column": {
      "latitude": "30.025428542043656",
      "longitude": "-89.9944290658789"
    }
  },
  {
    "service_request": "2021-827523",
    "request_type": "Trash/Recycling",
    "request_reason": "Repair Trash Cart",
    "date_created": "2021-09-29T13:50:12.000",
    "date_modified": "2021-09-29T14:56:25.000",
    "case_close_date": "2021-09-29T09:56:25.000",
    "request_status": "Closed",
    "responsible_agency": "Department of Sanitation",
    "final_address": "5430 Stillwater Dr",
    "address_councildis": "E",
    "status": "Resolved",
    "contractor": "Metro Disposal",
    "rowid": "827523",
    "final_x": "3716744.33093",
    "final_y": "560390.389662",
    "longitude": "-89.95568669215604",
    "latitude": "30.033760962719892",
    "geocoded_column": {
      "latitude": "30.033760962719892",
      "longitude": "-89.95568669215604"
    }
  },
  {
    "service_request": "2021-827522",
    "request_type": "Traffic Signals/Signs/Striping/Streetlights",
    "request_reason": "Street Light Outage/Malfunction",
    "date_created": "2021-09-29T13:50:07.000",
    "date_modified": "2021-09-29T13:50:11.000",
    "request_status": "Pending",
    "responsible_agency": "Department of Public Works",
    "final_address": "126 Central Park Pl",
    "address_councildis": "A",
    "status": "Pending",
    "contractor": "Royal Engineering",
    "rowid": "827522",
    "final_x": "3670324.03252",
    "final_y": "544062.935438",
    "longitude": "-90.10293480661828",
    "latitude": "29.990319128369126",
    "geocoded_column": {
      "latitude": "29.990319128369126",
      "longitude": "-90.10293480661828"
    }
  },
  {
    "service_request": "2021-827521",
    "request_type": "Trash/Recycling",
    "request_reason": "Missed Trash Pick-Up",
    "date_created": "2021-09-29T13:50:05.000",
    "date_modified": "2021-09-29T13:50:05.000",
    "request_status": "Pending",
    "responsible_agency": "Department of Sanitation",
    "final_address": "1125 Casa Calvo St",
    "address_councildis": "C",
    "status": "Assigned to Contractor",
    "contractor": "Richards Disposal",
    "rowid": "827521",
    "final_x": "3692062.15997",
    "final_y": "527100.299583",
    "longitude": "-90.03487710054839",
    "latitude": "29.943018115226707",
    "geocoded_column": {
      "latitude": "29.943018115226707",
      "longitude": "-90.03487710054839"
    }
  },
  {
    "service_request": "2021-827519",
    "request_type": "Trash/Recycling",
    "request_reason": "Missed Trash Pick-Up",
    "date_created": "2021-09-29T13:47:43.000",
    "date_modified": "2021-09-29T14:57:08.000",
    "case_close_date": "2021-09-29T09:57:08.000",
    "request_status": "Closed",
    "responsible_agency": "Department of Sanitation",
    "final_address": "338 36Th St",
    "address_councildis": "A",
    "status": "Resolved",
    "contractor": "Metro Disposal",
    "rowid": "827519",
    "final_x": "3665085.3552",
    "final_y": "551877.471382",
    "longitude": "-90.11922095778962",
    "latitude": "30.01196004896911",
    "geocoded_column": {
      "latitude": "30.01196004896911",
      "longitude": "-90.11922095778962"
    }
  },
  {
    "service_request": "2021-827518",
    "request_type": "Trash/Recycling",
    "request_reason": "Replace Trash Cart",
    "date_created": "2021-09-29T13:43:02.000",
    "date_modified": "2021-09-29T14:59:09.000",
    "case_close_date": "2021-09-29T09:59:09.000",
    "request_status": "Closed",
    "responsible_agency": "Department of Sanitation",
    "final_address": "5430 Stillwater Dr, New Orleans, Louisiana, 70128",
    "address_councildis": "E",
    "status": "Resolved",
    "contractor": "Metro Disposal",
    "rowid": "827518",
    "final_x": "3716744.33093",
    "final_y": "560390.389662",
    "longitude": "-89.95568669215604",
    "latitude": "30.033760962719892",
    "geocoded_column": {
      "latitude": "30.033760962719892",
      "longitude": "-89.95568669215604"
    }
  },
  {
    "service_request": "2021-827517",
    "request_type": "Trash/Recycling",
    "request_reason": "Missed Trash Pick-Up",
    "date_created": "2021-09-29T13:41:45.000",
    "date_modified": "2021-09-29T14:57:58.000",
    "request_status": "Pending",
    "responsible_agency": "Department of Sanitation",
    "final_address": "630 St Roch Ave",
    "address_councildis": "C",
    "status": "Assigned to Contractor",
    "contractor": "Metro Disposal",
    "rowid": "827517",
    "final_x": "3686584.46946",
    "final_y": "534885.570438",
    "longitude": "-90.05189658563532",
    "latitude": "29.96459448402137",
    "geocoded_column": {
      "latitude": "29.96459448402137",
      "longitude": "-90.05189658563532"
    }
  },