[
  {
    "service_request": "2024-1134741",
    "request_type": "Streetlights",
    "request_reason": "Streetlight Outage/Malfunction",
    "date_created": "2024-09-23T23:57:53.000",
    "date_modified": "2024-09-23T23:57:55.000",
    "request_status": "Pending",
    "responsible_agency": "Department of Public Works",
    "final_address": "600 Amethyst St",
    "address_councildis": "D",
    "status": "Pending",
    "contractor": "Legacy Professional Services",
    "rowid": "1134741",
    "final_x": "3669063.9403",
    "final_y": "556712.375386",
    "longitude": "-90.10648731405055",
    "latitude": "30.025137805238597",
    "geocoded_column": {
      "latitude": "30.025137805238597",
      "longitude": "-90.10648731405055"
    }
  },
  {
    "service_request": "2024-1134740",
    "request_type": "Streetlights",
    "request_reason": "Streetlight Outage/Malfunction",
    "date_created": "2024-09-23T23:50:37.000",
    "date_modified": "2024-09-23T23:50:39.000",
    "request_status": "Pending",
    "responsible_agency": "Department of Public Works",
    "final_address": "ZIRCON ST & RING ST",
    "address_councildis": "D",
    "status": "Pending",
    "contractor": "Legacy Professional Services",
    "rowid": "1134740",
    "final_x": "3668865.9",
    "final_y": "554987.58",
    "longitude": "-90.10717141398291",
    "latitude": "30.02040106142563",
    "geocoded_column": {
      "latitude": "30.02040106142563",
      "longitude": "-90.10717141398291"
    }
  },
  {
    "service_request": "2024-1134739",
    "request_type": "Roads and Streets",
    "request_reason": "Pothole",
    "date_created": "2024-09-23T23:50:33.000",
    "date_modified": "2024-09-23T23:50:33.000",
    "request_status": "Pending",
    "responsible_agency": "Department of Public Works",
    "final_address": "4657 Lonely Oak Dr",
    "address_councildis": "E",
    "status": "Pending",
    "rowid": "1134739",
    "final_x": "3702428.67018",
    "final_y": "553942.411288",
    "longitude": "-90.00116244582694",
    "latitude": "30.01649699825982",
    "geocoded_column": {
      "latitude": "30.01649699825982",
      "longitude": "-90.00116244582694"
    }
  },
  {
    "service_request": "2024-1134738",
    "request_type": "Roads and Streets",
    "request_reason": "Pothole",
    "date_created": "2024-09-23T23:47:49.000",
    "date_modified": "2024-09-23T23:47:49.000",
    "request_status": "Pending",
    "responsible_agency": "Department of Public Works",
    "final_address": "4401 Lonely Oak Dr",
    "address_councildis": "E",
    "status": "Pending",
    "rowid": "1134738",
    "final_x": "3702540.6241",
    "final_y": "552780.470934",
    "longitude": "-90.0008514141729",
    "latitude": "30.013298526099916",
    "geocoded_column": {
      "latitude": "30.013298526099916",
      "longitude": "-90.0008514141729"
    }
  },
  {
    "service_request": "2024-1134737",
    "request_type": "Roads and Streets",
    "request_reason": "Street Subsidence (Sinking)",
    "date_created": "2024-09-23T23:46:13.000",
    "date_modified": "2024-09-23T23:46:13.000",
    "request_status": "Pending",
    "responsible_agency": "Department of Public Works",
    "final_address": "489 Amethyst St",
    "address_councildis": "D",
    "status": "Pending",
    "rowid": "1134737",
    "final_x": "3668185.47341",
    "final_y": "556885.164122",
    "longitude": "-90.10925730975411",
    "latitude": "30.025638745599412",
    "geocoded_column": {
      "latitude": "30.025638745599412",
      "longitude": "-90.10925730975411"
    }
  },
  {
    "service_request": "2024-1134736",
    "request_type": "Roads and Streets",
    "request_reason": "Pothole",
    "date_created": "2024-09-23T23:42:40.000",
    "date_modified": "2024-09-23T23:42:40.000",
    "request_status": "Pending",
    "responsible_agency": "Department of Public Works",
    "final_address": "4975 Lonely Oak Dr",
    "address_councildis": "E",
    "status": "Pending",
    "rowid": "1134736",
    "final_x": "3702286.49399",
    "final_y": "555684.681369",
    "longitude": "-90.00154767713332",
    "latitude": "30.021292118066793",
    "geocoded_column": {
      "latitude": "30.021292118066793",
      "longitude": "-90.00154767713332"
    }
  },
  {
    "service_request": "2024-1134735",
    "request_type": "Roads and Streets",
    "request_reason": "Pothole",
    "date_created": "2024-09-23T23:39:46.000",
    "date_modified": "2024-09-23T23:39:46.000",
    "request_status": "Pending",
    "responsible_agency": "Department of Public Works",
    "final_address": "4714 Lonely Oak Dr",
    "address_councildis": "E",
    "status": "Pending",
    "rowid": "1134735",
    "final_x": "3702279.10353",
    "final_y": "554167.308312",
    "longitude": "-90.00162675052637",
    "latitude": "30.017120159601482",
    "geocoded_column": {
      "latitude": "30.017120159601482",
      "longitude": "-90.00162675052637"
    }
  },
  {
    "service_request": "2024-1134734",
    "request_type": "Streetlights",
    "request_reason": "Streetlight Outage/Malfunction",
    "date_created": "2024-09-23T23:35:28.000",
    "date_modified": "2024-09-23T23:35:29.000",
    "request_status": "Pending",
    "responsible_agency": "Department of Public Works",
    "final_address": "4422 Lonely Oak Dr",
    "address_councildis": "E",
    "status": "Pending",
    "contractor": "Legacy Professional Services",
    "rowid": "1134734",
    "final_x": "3702400.4714",
    "final_y": "552916.992535",
    "longitude": "-90.00128920492477",
    "latitude": "30.013678389181873",
    "geocoded_column": {
      "latitude": "30.013678389181873",
      "longitude": "-90.00128920492477"
    }
  },
  {
    "service_request": "2024-1134733",
    "request_type": "Streetlights",
    "request_reason": "Streetlight Outage/Malfunction",
    "date_created": "2024-09-23T23:32:34.000",
    "date_modified": "2024-09-23T23:32:36.000",
    "request_status": "Pending",
    "responsible_agency": "Department of Public Works",
    "final_address": "4936 Lonely Oak Dr",
    "address_councildis": "E",
    "status": "Pending",
    "contractor": "Legacy Professional Services",
    "rowid": "1134733",
    "final_x": "3702172.29399",
    "final_y": "555366.699737",
    "longitude": "-90.00192018944705",
    "latitude": "30.02042143973628",
    "geocoded_column": {
      "latitude": "30.02042143973628",
      "longitude": "-90.00192018944705"
    }
  },
  {
    "service_request": "2024-1134732",
    "request_type": "Streetlights",
    "request_reason": "Streetlight Outage/Malfunction",
    "date_created": "2024-09-23T22:58:19.000",
    "date_modified": "2024-09-23T22:58:20.000",
    "request_status": "Pending",
    "responsible_agency": "Department of Public Works",
    "final_address": "3520 Ursula Spencer Way",
    "address_councildis": "D",
    "status": "Pending",
    "contractor": "Legacy Professional Services",
    "rowid": "1134732",
    "final_x": "3693358.29501",
    "final_y": "545107.079951",
    "longitude": "-90.03013831257861",
    "latitude": "29.992489937132664",
    "geocoded_column": {
      "latitude": "29.992489937132664",
      "longitude": "-90.03013831257861"
    }
  },
  {
    "service_request": "2024-1134731",
    "request_type": "Trash/Recycling",
    "request_reason": "Request a Large Item Pick Up",
    "date_created": "2024-09-23T21:56:13.000",
    "date_modified": "2024-09-23T21:57:05.000",
    "request_status": "Pending",
    "responsible_agency": "Department of Sanitation",
    "final_address": "7310 Mayo Rd",
    "address_councildis": "E",
    "status": "Assigned to Contractor",
    "contractor": "Waste Pro",
    "rowid": "1134731",
    "final_x": "3700992.63626",
    "final_y": "559811.438237",
    "longitude": "-90.00548477570564",
    "latitude": "30.032680395195538",
    "geocoded_column": {
      "latitude": "30.032680395195538",
      "longitude": "-90.00548477570564"
    }
  },
  {
    "service_request": "2024-1134730",
    "request_type": "Trash/Recycling",
    "request_reason": "Illegal Dumping",
    "date_created": "2024-09-23T21:53:50.000",
    "date_modified": "2024-09-23T21:53:50.000",
    "request_status": "Pending",
    "responsible_agency": "Department of Sanitation",
    "final_address": "1122 Barracks St",
    "address_councildis": "C",
    "status": "Pending",
    "rowid": "1134730",
    "final_x": "3682518.3814",
    "final_y": "535207.670982",
    "longitude": "-90.06472572382619",
    "latitude": "29.965604557470886",
    "geocoded_column": {
      "latitude": "29.965604557470886",
      "longitude": "-90.06472572382619"
    }
  },
  {
    "service_request": "2024-1134729",
    "request_type": "Trash/Recycling",
    "request_reason": "Request a Large Item Pick Up",
    "date_created": "2024-09-23T21:36:16.000",
    "date_modified": "2024-09-23T21:37:48.000",
    "request_status": "Pending",
    "responsible_agency": "Department of Sanitation",
    "final_address": "627 Delaronde St",
    "address_councildis": "C",
    "status": "Assigned to Contractor",
    "contractor": "Richards Disposal",
    "rowid": "1134729",
    "final_x": "3687445.70556",
    "final_y": "531173.10925",
    "longitude": "-90.04930824612593",
    "latitude": "29.954359987366526",
    "geocoded_column": {
      "latitude": "29.954359987366526",
      "longitude": "-90.04930824612593"
    }
  },
  {
    "service_request": "2024-1134728",
    "request_type": "Trash/Recycling",
    "request_reason": "Repair Trash Cart",
    "date_created": "2024-09-23T21:29:04.000",
    "date_modified": "2024-09-23T21:30:08.000",
    "request_status": "Pending",
    "responsible_agency": "Department of Sanitation",
    "final_address": "4320 N Villere St",
    "address_councildis": "D",
    "status": "Assigned to Contractor",
    "contractor": "IV Waste",
    "rowid": "1134728",
    "final_x": "3693121.37321",
    "final_y": "536115.776711",
    "longitude": "-90.03120945617209",
    "latitude": "29.967774485144428",
    "geocoded_column": {
      "latitude": "29.967774485144428",
      "longitude": "-90.03120945617209"
    }
  },
  {
    "service_request": "2024-1134727",
    "request_type": "Trash/Recycling",
    "request_reason": "Order Recycling Cart",
    "date_created": "2024-09-23T21:27:06.000",
    "date_modified": "2024-09-23T21:27:06.000",
    "request_status": "Pending",
    "responsible_agency": "Department of Sanitation",
    "final_address": "4320 N Villere St",
    "address_councildis": "D",
    "status": "Pending",
    "rowid": "1134727",
    "final_x": "3693121.37321",
    "final_y": "536115.776711",
    "longitude": "-90.03120945617209",
    "latitude": "29.967774485144428",
    "geocoded_column": {
      "latitude": "29.967774485144428",
      "longitude": "-90.03120945617209"
    }
  },
  {
    "service_request": "2024-1134726",
    "request_type": "Trash/Recycling",
    "request_reason": "Storm Debris Collection",
    "date_created": "2024-09-23T21:25:45.000",
    "date_modified": "2024-09-23T21:25:45.000",
    "request_status": "Pending",
    "responsible_agency": "Department of Sanitation",
    "final_address": "2358 Beck St",
    "address_councildis": "C",
    "status": "Pending",
    "rowid": "1134726",
    "final_x": "3700418.30954",
    "final_y": "521903.70457",
    "longitude": "-90.00868453275493",
    "latitude": "29.928466272663393",
    "geocoded_column": {
      "latitude": "29.928466272663393",
      "longitude": "-90.00868453275493"
    }
  },
  {
    "service_request": "2024-1134725",
    "request_type": "Trash/Recycling",
    "request_reason": "Request a Large Item Pick Up",
    "date_created": "2024-09-23T21:05:36.000",
    "date_modified": "2024-09-23T21:05:59.000",
    "request_status": "Pending",
    "responsible_agency": "Department of Sanitation",
    "final_address": "615 Elmira Ave",
    "address_councildis": "C",
    "status": "Assigned to Contractor",
    "contractor": "Richards Disposal",
    "rowid": "1134725",
    "final_x": "3688135.12553",
    "final_y": "529324.086593",
    "longitude": "-90.04719687018054",
    "latitude": "29.949254548934345",
    "geocoded_column": {
      "latitude": "29.949254548934345",
      "longitude": "-90.04719687018054"
    }
  },
  {
    "service_request": "2024-1134724",
    "request_type": "Trash/Recycling",
    "request_reason": "Request a Large Item Pick Up",
    "date_created": "2024-09-23T20:54:26.000",
    "date_modified": "2024-09-23T20:54:27.000",
    "request_status": "Pending",
    "responsible_agency": "Department of Sanitation",
    "final_address": "1316 Aline St",
    "address_councildis": "B",
    "status": "Assigned to Contractor",
    "contractor": "IV Waste",
    "rowid": "1134724",
    "final_x": "3674080.72328",
    "final_y": "520221.806136",
    "longitude": "-90.09188428698192",
    "latitude": "29.924652527983014",
    "geocoded_column": {
      "latitude": "29.924652527983014",
      "longitude": "-90.09188428698192"
    }
  },
  {
    "service_request": "2024-1134723",
    "request_type": "Roads and Streets",
    "request_reason": "Street Subsidence (Sinking)",
    "date_created": "2024-09-23T20:52:14.000",
    "date_modified": "2024-09-23T20:52:14.000",
    "request_status": "Pending",
    "responsible_agency": "Department of Public Works",
    "final_address": "1233 Conery St",
    "address_councildis": "B",
    "status": "Pending",
    "rowid": "1134723",
    "final_x": "3676522.15867",
    "final_y": "521285.638905",
    "longitude": "-90.0841408782331",
    "latitude": "29.927504764652365",
    "geocoded_column": {
      "latitude": "29.927504764652365",
      "longitude": "-90.0841408782331"
    }
  },
  {
    "service_request": "2024-1134722",
    "request_type": "Trash/Recycling",
    "request_reason": "Order Recycling Cart",
    "date_created": "2024-09-23T20:52:12.000",
    "date_modified": "2024-09-23T20:52:12.000",
    "request_status": "Pending",
    "responsible_agency": "Department of Sanitation",
    "final_address": "7831 Parry St",
    "address_councildis": "E",
    "status": "Pending",
    "rowid": "1134722",
    "final_x": "3713937.07499",
    "final_y": "569146.03447",
    "longitude": "-89.96422725517127",
    "latitude": "30.057927941291148",
    "geocoded_column": {
      "latitude": "30.057927941291148",
      "longitude": "-89.96422725517127"
    }
  },
  {
    "service_request": "2024-1134721",
    "request_type": "Trash/Recycling",
    "request_reason": "Return Recycling Cart",
    "date_created": "2024-09-23T20:35:50.000",
    "date_modified": "2024-09-23T20:35:50.000",
    "request_status": "Pending",
    "responsible_agency": "Department of Sanitation",
    "final_address": "2204 Jefferson Ave",
    "address_councildis": "A",
    "status": "Pending",
    "rowid": "1134721",
    "final_x": "3667799.15393",
    "final_y": "523722.025659",
    "longitude": "-90.1115953510465",
    "latitude": "29.93446265818814",
    "geocoded_column": {
      "latitude": "29.93446265818814",
      "longitude": "-90.1115953510465"
    }
  },
  {
    "service_request": "2024-1134720",
    "request_type": "Trash/Recycling",
    "request_reason": "Order Second Trash Cart",
    "date_created": "2024-09-23T20:34:44.000",
    "date_modified": "2024-09-23T20:34:46.000",
    "request_status": "Pending",
    "responsible_agency": "Department of Sanitation",
    "final_address": "2204 Jefferson Ave",
    "address_councildis": "A",
    "status": "Assigned to Contractor",
    "contractor": "IV Waste",
    "rowid": "1134720",
    "final_x": "3667799.15393",
    "final_y": "523722.025659",
    "longitude": "-90.1115953510465",
    "latitude": "29.93446265818814",
    "geocoded_column": {
      "latitude": "29.93446265818814",
      "longitude": "-90.1115953510465"
    }
  },
  {
    "service_request": "2024-1134719",
    "request_type": "Trash/Recycling",
    "request_reason": "Replace Trash Cart",
    "date_created": "2024-09-23T20:32:57.000",
    "date_modified": "2024-09-23T20:32:58.000",
    "request_status": "Pending",
    "responsible_agency": "Department of Sanitation",
    "final_address": "2204 Jefferson Ave",
    "address_councildis": "A",
    "status": "Assigned to Contractor",
    "contractor": "IV Waste",
    "rowid": "1134719",
    "final_x": "3667799.15393",
    "final_y": "523722.025659",
    "longitude": "-90.1115953510465",
    "latitude": "29.93446265818814",
    "geocoded_column": {
      "latitude": "29.93446265818814",
      "longitude": "-90.1115953510465"
    }
  },
  {
    "service_request": "2024-1134718",
    "request_type": "Street and Traffic Signs",
    "request_reason": "Traffic or Parking Sign Damaged or Missing",
    "date_created": "2024-09-23T20:10:56.000",
    "date_modified": "2024-09-23T20:10:56.000",
    "request_status": "Pending",
    "responsible_agency": "Department of Public Works",
    "final_address": "JULIA ST & OKEEFE AVE",
    "address_councildis": "B",
    "status": "Pending",
    "rowid": "1134718",
    "final_x": "3679232.3",
    "final_y": "528318.58",
    "longitude": "-90.07534188516476",
    "latitude": "29.946761509976117",
    "geocoded_column": {
      "latitude": "29.946761509976117",
      "longitude": "-90.07534188516476"
    }
  },
  {
    "service_request": "2024-1134716",
    "request_type": "Trash/Recycling",
    "request_reason": "Request a Large Item Pick Up",
    "date_created": "2024-09-23T19:52:58.000",
    "date_modified": "2024-09-23T19:52:59.000",
    "request_status": "Pending",
    "responsible_agency": "Department of Sanitation",
    "final_address": "1908 St Philip St",
    "address_councildis": "D",
    "status": "Assigned to Contractor",
    "contractor": "IV Waste",
    "rowid": "1134716",
    "final_x": "3679792.0388",
    "final_y": "535955.343943",
    "longitude": "-90.07330943851031",
    "latitude": "29.96774311775187",
    "geocoded_column": {
      "latitude": "29.96774311775187",
      "longitude": "-90.07330943851031"
    }
  },
  {
    "service_request": "2024-1134715",
    "request_type": "Trash/Recycling",
    "request_reason": "Storm Debris Collection",
    "date_created": "2024-09-23T19:52:55.000",
    "date_modified": "2024-09-23T19:52:55.000",
    "request_status": "Pending",
    "responsible_agency": "Department of Sanitation",
    "final_address": "1432 Fern St",
    "address_councildis": "A",
    "status": "Pending",
    "rowid": "1134715",
    "final_x": "3663087.43117",
    "final_y": "528517.694208",
    "longitude": "-90.12631072849541",
    "latitude": "29.94778651621753",
    "geocoded_column": {
      "latitude": "29.94778651621753",
      "longitude": "-90.12631072849541"
    }
  },
  {
    "service_request": "2024-1134714",
    "request_type": "Streetlights",
    "request_reason": "Streetlight Outage/Malfunction",
    "date_created": "2024-09-23T19:45:50.000",
    "date_modified": "2024-09-23T19:45:51.000",
    "request_status": "Pending",
    "responsible_agency": "Department of Public Works",
    "final_address": "21 Petit Bayou Ln",
    "address_councildis": "E",
    "status": "Pending",
    "contractor": "Legacy Professional Services",
    "rowid": "1134714",
    "final_x": "3724916.94502",
    "final_y": "564160.515809",
    "longitude": "-89.92971470100946",
    "latitude": "30.043854546814966",
    "geocoded_column": {
      "latitude": "30.043854546814966",
      "longitude": "-89.92971470100946"
    }
  },
  {
    "service_request": "2024-1134713",
    "request_type": "Streetlights",
    "request_reason": "Streetlight Knocked Down/Leaning",
    "date_created": "2024-09-23T19:40:56.000",
    "date_modified": "2024-09-23T19:40:57.000",
    "request_status": "Pending",
    "responsible_agency": "Department of Public Works",
    "final_address": "700 BLK Governor Nicholls St",
    "address_councildis": "C",
    "status": "Pending",
    "contractor": "Legacy Professional Services",
    "rowid": "1134713",
    "final_x": "3683512.33537",
    "final_y": "534018.780503",
    "longitude": "-90.06162853000062",
    "latitude": "29.96230522169289",
    "geocoded_column": {
      "latitude": "29.96230522169289",
      "longitude": "-90.06162853000062"
    }
  },
  {
    "service_request": "2024-1134712",
    "request_type": "Trash/Recycling",
    "request_reason": "Request a Large Item Pick Up",
    "date_created": "2024-09-23T19:39:59.000",
    "date_modified": "2024-09-23T19:40:00.000",
    "request_status": "Pending",
    "responsible_agency": "Department of Sanitation",
    "final_address": "442 Leboeuf St",
    "address_councildis": "C",
    "status": "Assigned to Contractor",
    "contractor": "Richards Disposal",
    "rowid": "1134712",
    "final_x": "3689905.5766",
    "final_y": "529901.368641",
    "longitude": "-90.04158624286595",
    "latitude": "29.95078711522796",
    "geocoded_column": {
      "latitude": "29.95078711522796",
      "longitude": "-90.04158624286595"
    }
  },
  {
    "service_request": "2024-1134711",
    "request_type": "Trash/Recycling",
    "request_reason": "Order Second Trash Cart",
    "date_created": "2024-09-23T19:37:08.000",
    "date_modified": "2024-09-23T19:37:09.000",
    "request_status": "Pending",
    "responsible_agency": "Department of Sanitation",
    "final_address": "4934 Arthur Dr",
    "address_councildis": "E",
    "status": "Assigned to Contractor",
    "contractor": "Waste Pro",
    "rowid": "1134711",
    "final_x": "3707498.89912",
    "final_y": "556724.41481",
    "longitude": "-89.98503940895823",
    "latitude": "30.023983370575436",
    "geocoded_column": {
      "latitude": "30.023983370575436",
      "longitude": "-89.98503940895823"
    }
  },
  {
    "service_request": "2024-1134710",
    "request_type": "Trash/Recycling",
    "request_reason": "Request a Large Item Pick Up",
    "date_created": "2024-09-23T19:36:17.000",
    "date_modified": "2024-09-23T19:36:18.000",
    "request_status": "Pending",
    "responsible_agency": "Department of Sanitation",
    "final_address": "1732 Seventh St",
    "address_councildis": "B",
    "status": "Assigned to Contractor",
    "contractor": "IV Waste",
    "rowid": "1134710",
    "final_x": "3674835.52245",
    "final_y": "522642.241722",
    "longitude": "-90.08941869160259",
    "latitude": "29.931285435409297",
    "geocoded_column": {
      "latitude": "29.931285435409297",
      "longitude": "-90.08941869160259"
    }
  },
  {
    "service_request": "2024-1134709",
    "request_type": "Trash/Recycling",
    "request_reason": "Order Trash Cart",
    "date_created": "2024-09-23T19:34:52.000",
    "date_modified": "2024-09-23T19:35:23.000",
    "request_status": "Pending",
    "responsible_agency": "Department of Sanitation",
    "final_address": "2329 Jackson Ave",
    "address_councildis": "B",
    "status": "Assigned to Contractor",
    "contractor": "IV Waste",
    "rowid": "1134709",
    "final_x": "3675690.79016",
    "final_y": "526280.542398",
    "longitude": "-90.0865937458183",
    "latitude": "29.941264014747297",
    "geocoded_column": {
      "latitude": "29.941264014747297",
      "longitude": "-90.0865937458183"
    }
  },
  {
    "service_request": "2024-1134708",
    "request_type": "Trash/Recycling",
    "request_reason": "Storm Debris Collection",
    "date_created": "2024-09-23T19:34:40.000",
    "date_modified": "2024-09-23T19:34:40.000",
    "request_status": "Pending",
    "responsible_agency": "Department of Sanitation",
    "final_address": "7818 Lafourche St",
    "address_councildis": "E",
    "status": "Pending",
    "rowid": "1134708",
    "final_x": "3709740.39723",
    "final_y": "566220.262243",
    "longitude": "-89.97760176093833",
    "latitude": "30.050020462299212",
    "geocoded_column": {
      "latitude": "30.050020462299212",
      "longitude": "-89.97760176093833"
    }
  },
  {
    "service_request": "2024-1134707",
    "request_type": "Streetlights",
    "request_reason": "Streetlight Outage/Malfunction",
    "date_created": "2024-09-23T19:34:05.000",
    "date_modified": "2024-09-23T19:34:06.000",
    "request_status": "Pending",
    "responsible_agency": "Department of Public Works",
    "final_address": "4655 St Roch Ave",
    "address_councildis": "D",
    "status": "Pending",
    "contractor": "Legacy Professional Services",
    "rowid": "1134707",
    "final_x": "3685458.99529",
    "final_y": "550057.694228",
    "longitude": "-90.05491618453696",
    "latitude": "30.006347009109668",
    "geocoded_column": {
      "latitude": "30.006347009109668",
      "longitude": "-90.05491618453696"
    }
  },
  {
    "service_request": "2024-1134706",
    "request_type": "Trash/Recycling",
    "request_reason": "Request a Large Item Pick Up",
    "date_created": "2024-09-23T19:32:20.000",
    "date_modified": "2024-09-23T19:32:21.000",
    "request_status": "Pending",
    "responsible_agency": "Department of Sanitation",
    "final_address": "4711 Cardenas Dr",
    "address_councildis": "E",
    "status": "Assigned to Contractor",
    "contractor": "Waste Pro",
    "rowid": "1134706",
    "final_x": "3713775.31416",
    "final_y": "556144.764122",
    "longitude": "-89.96522922499813",
    "latitude": "30.022184996715154",
    "geocoded_column": {
      "latitude": "30.022184996715154",
      "longitude": "-89.96522922499813"
    }
  },
  {
    "service_request": "2024-1134705",
    "request_type": "Safety & Permits",
    "request_reason": "Licenses & Permits",
    "date_created": "2024-09-23T19:03:28.000",
    "date_modified": "2024-09-23T19:03:28.000",
    "request_status": "Pending",
    "responsible_agency": "Safety and Permits",
    "final_address": "5460 Canal Blvd",
    "address_councildis": "A",
    "status": "Pending",
    "rowid": "1134705",
    "final_x": "3668019.65908",
    "final_y": "543597.389582",
    "longitude": "-90.11022944942192",
    "latitude": "29.989106873147595",
    "geocoded_column": {
      "latitude": "29.989106873147595",
      "longitude": "-90.11022944942192"
    }
  },
  {
    "service_request": "2024-1134704",
    "request_type": "Safety & Permits",
    "request_reason": "Licenses & Permits",
    "date_created": "2024-09-23T19:02:48.000",
    "date_modified": "2024-09-23T19:02:48.000",
    "request_status": "Pending",
    "responsible_agency": "Safety and Permits",
    "final_address": "5361 Canal Blvd",
    "address_councildis": "A",
    "status": "Pending",
    "rowid": "1134704",
    "final_x": "3668221.19124",
    "final_y": "543144.061517",
    "longitude": "-90.10960815955602",
    "latitude": "29.987854459035148",
    "geocoded_column": {
      "latitude": "29.987854459035148",
      "longitude": "-90.10960815955602"
    }
  },
  {
    "service_request": "2024-1134703",
    "request_type": "Trash/Recycling",
    "request_reason": "Replace Trash Cart",
    "date_created": "2024-09-23T19:02:17.000",
    "date_modified": "2024-09-23T19:02:18.000",
    "request_status": "Pending",
    "responsible_agency": "Department of Sanitation",
    "final_address": "1718 Desire St",
    "address_councildis": "D",
    "status": "Assigned to Contractor",
    "contractor": "IV Waste",
    "rowid": "1134703",
    "final_x": "3690744.80745",
    "final_y": "538117.126473",
    "longitude": "-90.03864327837282",
    "latitude": "29.97335153711158",
    "geocoded_column": {
      "latitude": "29.97335153711158",
      "longitude": "-90.03864327837282"
    }
  },
  {
    "service_request": "2024-1134702",
    "request_type": "Trash/Recycling",
    "request_reason": "Replace Trash Cart",
    "date_created": "2024-09-23T19:01:26.000",
    "date_modified": "2024-09-23T19:01:27.000",
    "request_status": "Pending",
    "responsible_agency": "Department of Sanitation",
    "final_address": "1716 Desire St",
    "address_councildis": "D",
    "status": "Assigned to Contractor",
    "contractor": "IV Waste",
    "rowid": "1134702",
    "final_x": "3690739.36956",
    "final_y": "538103.611977",
    "longitude": "-90.03866093453681",
    "latitude": "29.973314545975676",
    "geocoded_column": {
      "latitude": "29.973314545975676",
      "longitude": "-90.03866093453681"
    }
  },
  {
    "service_request": "2024-1134701",
    "request_type": "Safety & Permits",
    "request_reason": "Zoning Enforcement",
    "date_created": "2024-09-23T19:01:05.000",
    "date_modified": "2024-09-23T19:01:05.000",
    "request_status": "Pending",
    "responsible_agency": "Safety and Permits",
    "final_address": "5460 Canal Blvd",
    "address_councildis": "A",
    "status": "Pending",
    "rowid": "1134701",
    "final_x": "3668019.65908",
    "final_y": "543597.389582",
    "longitude": "-90.11022944942192",
    "latitude": "29.989106873147595",
    "geocoded_column": {
      "latitude": "29.989106873147595",
      "longitude": "-90.11022944942192"
    }
  },
  {
    "service_request": "2024-1134700",
    "request_type": "Safety & Permits",
    "request_reason": "Zoning Enforcement",
    "date_created": "2024-09-23T18:47:52.000",
    "date_modified": "2024-09-23T18:47:52.000",
    "request_status": "Pending",
    "responsible_agency": "Safety and Permits",
    "final_address": "N RAMPART ST & GOVERNOR NICHOLLS ST",
    "address_councildis": "C",
    "status": "Pending",
    "rowid": "1134700",
    "final_x": "3682510.6",
    "final_y": "534798.68",
    "longitude": "-90.06476459629363",
    "latitude": "29.964480209693843",
    "geocoded_column": {
      "latitude": "29.964480209693843",
      "longitude": "-90.06476459629363"
    }
  },
  {
    "service_request": "2024-1134699",
    "request_type": "Abandoned Vehicles",
    "request_reason": "Abandoned/Junk Vehicles",
    "date_created": "2024-09-23T18:46:19.000",
    "date_modified": "2024-09-23T18:46:19.000",
    "request_status": "Pending",
    "responsible_agency": "Department of Public Works",
    "final_address": "2711 N Rampart St",
    "address_councildis": "C",
    "status": "Pending",
    "rowid": "1134699",
    "final_x": "3687414.5935",
    "final_y": "535959.880839",
    "longitude": "-90.04923710104113",
    "latitude": "29.96752291079059",
    "geocoded_column": {
      "latitude": "29.96752291079059",
      "longitude": "-90.04923710104113"
    }
  },
  {
    "service_request": "2024-1134698",
    "request_type": "Trash/Recycling",
    "request_reason": "Request a Large Item Pick Up",
    "date_created": "2024-09-23T18:46:12.000",
    "date_modified": "2024-09-23T18:46:13.000",
    "request_status": "Pending",
    "responsible_agency": "Department of Sanitation",
    "final_address": "9009 S Claiborne Ave",
    "address_councildis": "A",
    "status": "Assigned to Contractor",
    "contractor": "IV Waste",
    "rowid": "1134698",
    "final_x": "3662497.19207",
    "final_y": "533810.998917",
    "longitude": "-90.12799854762616",
    "latitude": "29.962358475291765",
    "geocoded_column": {
      "latitude": "29.962358475291765",
      "longitude": "-90.12799854762616"
    }
  },
  {
    "service_request": "2024-1134697",
    "request_type": "General Services",
    "request_reason": "General Service Request",
    "date_created": "2024-09-23T18:45:39.000",
    "date_modified": "2024-09-23T18:45:39.000",
    "request_status": "Pending",
    "responsible_agency": "Orleans Parish Communication District",
    "final_address": "N RAMPART ST & GOVERNOR NICHOLLS ST",
    "address_councildis": "C",
    "status": "Pending",
    "rowid": "1134697",
    "final_x": "3682510.6",
    "final_y": "534798.68",
    "longitude": "-90.06476459629363",
    "latitude": "29.964480209693843",
    "geocoded_column": {
      "latitude": "29.964480209693843",
      "longitude": "-90.06476459629363"
    }
  },
  {
    "service_request": "2024-1134696",
    "request_type": "Property Maintenance",
    "request_reason": "Property Maintenance",
    "date_created": "2024-09-23T18:43:38.000",
    "date_modified": "2024-09-23T18:43:38.000",
    "request_status": "Pending",
    "responsible_agency": "Department of Code Enforcement",
    "final_address": "N RAMPART ST & GOVERNOR NICHOLLS ST",
    "address_councildis": "C",
    "status": "Pending",
    "rowid": "1134696",
    "final_x": "3682510.6",
    "final_y": "534798.68",
    "longitude": "-90.06476459629363",
    "latitude": "29.964480209693843",
    "geocoded_column": {
      "latitude": "29.964480209693843",
      "longitude": "-90.06476459629363"
    }
  },
  {
    "service_request": "2024-1134695",
    "request_type": "Hurricane Francine Tree-Related Issues or Emergencies\t",
    "request_reason": "Hurricane Francine Tree-Related Issues or Emergencies",
    "date_created": "2024-09-23T18:36:36.000",
    "date_modified": "2024-09-23T18:36:36.000",
    "request_status": "Pending",
    "responsible_agency": "Department of Parks & Parkway",
    "final_address": "311 S Dupre St",
    "address_councildis": "B",
    "status": "Pending",
    "rowid": "1134695",
    "final_x": "3673984.27867",
    "final_y": "534931.063942",
    "longitude": "-90.09168558517617",
    "latitude": "29.96510102208203",
    "geocoded_column": {
      "latitude": "29.96510102208203",
      "longitude": "-90.09168558517617"
    }
  },
  {
    "service_request": "2024-1134694",
    "request_type": "Street and Traffic Signs",
    "request_reason": "Stop Sign Missing or Damaged",
    "date_created": "2024-09-23T18:29:23.000",
    "date_modified": "2024-09-23T18:29:23.000",
    "request_status": "Pending",
    "responsible_agency": "Department of Public Works",
    "final_address": "VALENCE ST & LA SALLE ST",
    "address_councildis": "B",
    "status": "Pending",
    "rowid": "1134694",
    "final_x": "3669463.0",
    "final_y": "523585.88",
    "longitude": "-90.10634721855052",
    "latitude": "29.9340394157731",
    "geocoded_column": {
      "latitude": "29.9340394157731",
      "longitude": "-90.10634721855052"
    }
  },
  {
    "service_request": "2024-1134693",
    "request_type": "Abandoned Vehicles",
    "request_reason": "Abandoned/Junk Vehicles",
    "date_created": "2024-09-23T18:29:07.000",
    "date_modified": "2024-09-23T18:29:07.000",
    "request_status": "Pending",
    "responsible_agency": "Department of Public Works",
    "final_address": "817 Louisiana Ave",
    "address_councildis": "B",
    "status": "Pending",
    "rowid": "1134693",
    "final_x": "3675537.50677",
    "final_y": "518798.464183",
    "longitude": "-90.08733456295849",
    "latitude": "29.920695316402607",
    "geocoded_column": {
      "latitude": "29.920695316402607",
      "longitude": "-90.08733456295849"
    }
  },
  {
    "service_request": "2024-1134692",
    "request_type": "Abandoned Vehicles",
    "request_reason": "Abandoned/Junk Vehicles",
    "date_created": "2024-09-23T18:27:40.000",
    "date_modified": "2024-09-23T18:27:40.000",
    "request_status": "Pending",
    "responsible_agency": "Department of Public Works",
    "final_address": "3007 Jefferson Ave",
    "address_councildis": "B",
    "status": "Pending",
    "rowid": "1134692",
    "final_x": "3668527.99156",
    "final_y": "526417.842366",
    "longitude": "-90.10920350068555",
    "latitude": "29.94185389816711",
    "geocoded_column": {
      "latitude": "29.94185389816711",
      "longitude": "-90.10920350068555"
    }
  },
  {
    "service_request": "2024-1134691",
    "request_type": "Abandoned Vehicles",
    "request_reason": "Abandoned/Junk Vehicles",
    "date_created": "2024-09-23T18:26:30.000",
    "date_modified": "2024-09-23T18:26:30.000",
    "request_status": "Pending",
    "responsible_agency": "Department of Public Works",
    "final_address": "3007 Jefferson Ave",
    "address_councildis": "B",
    "status": "Pending",
    "rowid": "1134691",
    "final_x": "3668527.99156",
    "final_y": "526417.842366",
    "longitude": "-90.10920350068555",
    "latitude": "29.94185389816711",
    "geocoded_column": {
      "latitude": "29.94185389816711",
      "longitude": "-90.10920350068555"
    }
  },
  {
    "service_request": "2024-1134690",
    "request_type": "Trash/Recycling",
    "request_reason": "Request a Large Item Pick Up",
    "date_created": "2024-09-23T18:22:19.000",
    "date_modified": "2024-09-23T18:22:20.000",
    "request_status": "Pending",
    "responsible_agency": "Department of Sanitation",
    "final_address": "12340 Carmel Pl",
    "address_councildis": "E",
    "status": "Assigned to Contractor",
    "contractor": "Waste Pro",
    "rowid": "1134690",
    "final_x": "3716000.09029",
    "final_y": "566578.109027",
    "longitude": "-89.9578038179974",
    "latitude": "30.05079926333272",
    "geocoded_column": {
      "latitude": "30.05079926333272",
      "longitude": "-89.9578038179974"
    }
  },
  {
    "service_request": "2024-1134689",
    "request_type": "Property Maintenance",
    "request_reason": "Property Maintenance",
    "date_created": "2024-09-23T18:12:06.000",
    "date_modified": "2024-09-23T18:12:06.000",
    "request_status": "Pending",
    "responsible_agency": "Department of Code Enforcement",
    "final_address": "4231 San Remo St",
    "address_councildis": "E",
    "status": "Pending",
    "rowid": "1134689",
    "final_x": "3760404.51715",
    "final_y": "572785.946793",
    "longitude": "-89.81720075906757",
    "latitude": "30.066327527801796",
    "geocoded_column": {
      "latitude": "30.066327527801796",
      "longitude": "-89.81720075906757"
    }
  },
  {
    "service_request": "2024-1134688",
    "request_type": "Abandoned Vehicles",
    "request_reason": "Abandoned/Junk Vehicles",
    "date_created": "2024-09-23T18:10:13.000",
    "date_modified": "2024-09-23T18:10:13.000",
    "request_status": "Pending",
    "responsible_agency": "Department of Public Works",
    "final_address": "7825 Hampson St",
    "address_councildis": "A",
    "status": "Pending",
    "rowid": "1134688",
    "final_x": "3661472.85638",
    "final_y": "526531.51507",
    "longitude": "-90.13147438477147",
    "latitude": "29.942371824020977",
    "geocoded_column": {
      "latitude": "29.942371824020977",
      "longitude": "-90.13147438477147"
    }
  },
  {
    "service_request": "2024-1134687",
    "request_type": "Property Maintenance",
    "request_reason": "Property Maintenance",
    "date_created": "2024-09-23T17:53:40.000",
    "date_modified": "2024-09-23T17:53:40.000",
    "request_status": "Pending",
    "responsible_agency": "Department of Code Enforcement",
    "final_address": "244 14Th St",
    "address_councildis": "A",
    "status": "Pending",
    "rowid": "1134687",
    "final_x": "3665337.08224",
    "final_y": "548072.28661",
    "longitude": "-90.1185530965858",
    "latitude": "30.001489773150414",
    "geocoded_column": {
      "latitude": "30.001489773150414",
      "longitude": "-90.1185530965858"
    }
  },
  {
    "service_request": "2024-1134686",
    "request_type": "Roads and Streets",
    "request_reason": "Sidewalk Damaged or Missing",
    "date_created": "2024-09-23T17:44:32.000",
    "date_modified": "2024-09-23T17:44:32.000",
    "request_status": "Pending",
    "responsible_agency": "Department of Public Works",
    "final_address": "2726 S Carrollton Ave",
    "address_councildis": "A",
    "status": "Pending",
    "rowid": "1134686",
    "final_x": "3665735.94087",
    "final_y": "532532.562372",
    "longitude": "-90.11781382706118",
    "latitude": "29.95874911816156",
    "geocoded_column": {
      "latitude": "29.95874911816156",
      "longitude": "-90.11781382706118"
    }
  },
  {
    "service_request": "2024-1134685",
    "request_type": "Trash/Recycling",
    "request_reason": "Replace Trash Cart",
    "date_created": "2024-09-23T17:43:34.000",
    "date_modified": "2024-09-23T17:43:35.000",
    "request_status": "Pending",
    "responsible_agency": "Department of Sanitation",
    "final_address": "1728 Hermosa St",
    "address_councildis": "C",
    "status": "Assigned to Contractor",
    "contractor": "Richards Disposal",
    "rowid": "1134685",
    "final_x": "3687685.68252",
    "final_y": "525005.028221",
    "longitude": "-90.04876883879345",
    "latitude": "29.937392469240656",
    "geocoded_column": {
      "latitude": "29.937392469240656",
      "longitude": "-90.04876883879345"
    }
  },
  {
    "service_request": "2024-1134684",
    "request_type": "Abandoned Vehicles",
    "request_reason": "Abandoned/Junk Vehicles",
    "date_created": "2024-09-23T17:39:08.000",
    "date_modified": "2024-09-23T17:39:08.000",
    "request_status": "Pending",
    "responsible_agency": "Department of Public Works",
    "final_address": "1477 N Prieur St",
    "address_councildis": "D",
    "status": "Pending",
    "rowid": "1134684",
    "final_x": "3680799.63189",
    "final_y": "537801.444552",
    "longitude": "-90.07006315823145",
    "latitude": "29.97278875423917",
    "geocoded_column": {
      "latitude": "29.97278875423917",
      "longitude": "-90.07006315823145"
    }
  },
  {
    "service_request": "2024-1134683",
    "request_type": "Trash/Recycling",
    "request_reason": "Storm Debris Collection",
    "date_created": "2024-09-23T17:35:42.000",
    "date_modified": "2024-09-23T17:35:42.000",
    "request_status": "Pending",
    "responsible_agency": "Department of Sanitation",
    "final_address": "6862 Farwood Rd",
    "address_councildis": "E",
    "status": "Pending",
    "rowid": "1134683",
    "final_x": "3700710.34071",
    "final_y": "557221.217051",
    "longitude": "-90.00647163161902",
    "latitude": "30.025567278928836",
    "geocoded_column": {
      "latitude": "30.025567278928836",
      "longitude": "-90.00647163161902"
    }
  },
  {
    "service_request": "2024-1134682",
    "request_type": "Trash/Recycling",
    "request_reason": "Request a Large Item Pick Up",
    "date_created": "2024-09-23T17:35:21.000",
    "date_modified": "2024-09-23T17:35:23.000",
    "request_status": "Pending",
    "responsible_agency": "Department of Sanitation",
    "final_address": "4019 Camp St",
    "address_councildis": "B",
    "status": "Assigned to Contractor",
    "contractor": "IV Waste",
    "rowid": "1134682",
    "final_x": "3672317.34177",
    "final_y": "519328.154231",
    "longitude": "-90.09748112756186",
    "latitude": "29.922247686165274",
    "geocoded_column": {
      "latitude": "29.922247686165274",
      "longitude": "-90.09748112756186"
    }
  },
  {
    "service_request": "2024-1134681",
    "request_type": "Trash/Recycling",
    "request_reason": "Replace Trash Cart",
    "date_created": "2024-09-23T17:31:26.000",
    "date_modified": "2024-09-23T17:31:27.000",
    "request_status": "Pending",
    "responsible_agency": "Department of Sanitation",
    "final_address": "1228 Cambronne St",
    "address_councildis": "A",
    "status": "Assigned to Contractor",
    "contractor": "IV Waste",
    "rowid": "1134681",
    "final_x": "3661302.00704",
    "final_y": "529306.519361",
    "longitude": "-90.1319219350396",
    "latitude": "29.95000712672728",
    "geocoded_column": {
      "latitude": "29.95000712672728",
      "longitude": "-90.1319219350396"
    }
  },
  {
    "service_request": "2024-1134680",
    "request_type": "Trash/Recycling",
    "request_reason": "Repair Trash Cart",
    "date_created": "2024-09-23T17:28:35.000",
    "date_modified": "2024-09-23T17:28:37.000",
    "request_status": "Pending",
    "responsible_agency": "Department of Sanitation",
    "final_address": "1500 St Philip St",
    "address_councildis": "C",
    "status": "Assigned to Contractor",
    "contractor": "IV Waste",
    "rowid": "1134680",
    "final_x": "3680910.50043",
    "final_y": "535045.73319",
    "longitude": "-90.06980898381173",
    "latitude": "29.965208134130584",
    "geocoded_column": {
      "latitude": "29.965208134130584",
      "longitude": "-90.06980898381173"
    }
  },
  {
    "service_request": "2024-1134679",
    "request_type": "Roads and Streets",
    "request_reason": "Street Subsidence (Sinking)",
    "date_created": "2024-09-23T17:28:12.000",
    "date_modified": "2024-09-23T17:28:12.000",
    "request_status": "Pending",
    "responsible_agency": "Department of Public Works",
    "final_address": "4650 Paris Ave",
    "address_councildis": "D",
    "status": "Pending",
    "rowid": "1134679",
    "final_x": "3679008.70632",
    "final_y": "549683.29698",
    "longitude": "-90.07530724570206",
    "latitude": "30.005513854192724",
    "geocoded_column": {
      "latitude": "30.005513854192724",
      "longitude": "-90.07530724570206"
    }
  },
  {
    "service_request": "2024-1134678",
    "request_type": "Traffic Signals",
    "request_reason": "Traffic Signal Malfunctioning or Damaged",
    "date_created": "2024-09-23T17:25:44.000",
    "date_modified": "2024-09-23T17:25:44.000",
    "request_status": "Pending",
    "responsible_agency": "Department of Public Works",
    "final_address": "ST LOUIS ST & N CARROLLTON AVE",
    "address_councildis": "A",
    "status": "Pending",
    "rowid": "1134678",
    "final_x": "3672104.9",
    "final_y": "539452.58",
    "longitude": "-90.09746656453224",
    "latitude": "29.977589528746453",
    "geocoded_column": {
      "latitude": "29.977589528746453",
      "longitude": "-90.09746656453224"
    }
  },
  {
    "service_request": "2024-1134677",
    "request_type": "Roads and Streets",
    "request_reason": "Street Subsidence (Sinking)",
    "date_created": "2024-09-23T17:19:34.000",
    "date_modified": "2024-09-23T17:19:34.000",
    "request_status": "Pending",
    "responsible_agency": "Department of Public Works",
    "final_address": "6026 Paris Ave",
    "address_councildis": "D",
    "status": "Pending",
    "rowid": "1134677",
    "final_x": "3678668.87189",
    "final_y": "554580.345112",
    "longitude": "-90.07621112501809",
    "latitude": "30.01898922915417",
    "geocoded_column": {
      "latitude": "30.01898922915417",
      "longitude": "-90.07621112501809"
    }
  },
  {
    "service_request": "2024-1134676",
    "request_type": "Property Maintenance",
    "request_reason": "Property Maintenance",
    "date_created": "2024-09-23T17:18:10.000",
    "date_modified": "2024-09-23T17:18:10.000",
    "request_status": "Pending",
    "responsible_agency": "Department of Code Enforcement",
    "final_address": "2728 Bruxelles St",
    "address_councildis": "D",
    "status": "Pending",
    "rowid": "1134676",
    "final_x": "3680290.31317",
    "final_y": "542462.391885",
    "longitude": "-90.0715095802014",
    "latitude": "29.985620170096446",
    "geocoded_column": {
      "latitude": "29.985620170096446",
      "longitude": "-90.0715095802014"
    }
  },
  {
    "service_request": "2024-1134675",
    "request_type": "Street and Traffic Signs",
    "request_reason": "Traffic or Parking Sign Damaged or Missing",
    "date_created": "2024-09-23T17:17:11.000",
    "date_modified": "2024-09-23T17:17:11.000",
    "request_status": "Pending",
    "responsible_agency": "Department of Public Works",
    "final_address": "0 BLK Canal St",
    "address_councildis": "C",
    "status": "Pending",
    "rowid": "1134675",
    "final_x": "3682776.12982",
    "final_y": "529518.218638",
    "longitude": "-90.06411078271097",
    "latitude": "29.949952654776755",
    "geocoded_column": {
      "latitude": "29.949952654776755",
      "longitude": "-90.06411078271097"
    }
  },
  {
    "service_request": "2024-1134674",
    "request_type": "Trash/Recycling",
    "request_reason": "Storm Debris Collection",
    "date_created": "2024-09-23T17:13:41.000",
    "date_modified": "2024-09-23T17:13:41.000",
    "request_status": "Pending",
    "responsible_agency": "Department of Sanitation",
    "final_address": "3123 State Street Dr",
    "address_councildis": "A",
    "status": "Pending",
    "rowid": "1134674",
    "final_x": "3667472.94548",
    "final_y": "527579.363583",
    "longitude": "-90.11249544066442",
    "latitude": "29.94507865658494",
    "geocoded_column": {
      "latitude": "29.94507865658494",
      "longitude": "-90.11249544066442"
    }
  },
  {
    "service_request": "2024-1134673",
    "request_type": "Trash/Recycling",
    "request_reason": "Order Recycling Cart",
    "date_created": "2024-09-23T17:12:33.000",
    "date_modified": "2024-09-23T17:12:33.000",
    "request_status": "Pending",
    "responsible_agency": "Department of Sanitation",
    "final_address": "4233 Fontainebleau Dr",
    "address_councildis": "B",
    "status": "Pending",
    "rowid": "1134673",
    "final_x": "3669584.77095",
    "final_y": "529374.268993",
    "longitude": "-90.1057670203857",
    "latitude": "29.94995202308054",
    "geocoded_column": {
      "latitude": "29.94995202308054",
      "longitude": "-90.1057670203857"
    }
  },
  {
    "service_request": "2024-1134672",
    "request_type": "Parks & Parkways",
    "request_reason": "Request Tree Service (Right of Way/Public Property)",
    "date_created": "2024-09-23T17:00:58.000",
    "date_modified": "2024-09-23T17:00:58.000",
    "request_status": "Pending",
    "responsible_agency": "Department of Parks & Parkway",
    "final_address": "7200 BLK Mayo Rd",
    "address_councildis": "E",
    "status": "Pending",
    "rowid": "1134672",
    "final_x": "3701136.47827",
    "final_y": "559691.268856",
    "longitude": "-90.00503462810526",
    "latitude": "30.032345391877772",
    "geocoded_column": {
      "latitude": "30.032345391877772",
      "longitude": "-90.00503462810526"
    }
  },
  {
    "service_request": "2024-1134671",
    "request_type": "Trash/Recycling",
    "request_reason": "Request a Large Item Pick Up",
    "date_created": "2024-09-23T16:59:05.000",
    "date_modified": "2024-09-23T16:59:06.000",
    "request_status": "Pending",
    "responsible_agency": "Department of Sanitation",
    "final_address": "13001 Sevres St",
    "address_councildis": "E",
    "status": "Assigned to Contractor",
    "contractor": "Waste Pro",
    "rowid": "1134671",
    "final_x": "3723874.14854",
    "final_y": "560182.019037",
    "longitude": "-89.93316399353245",
    "latitude": "30.032950398591936",
    "geocoded_column": {
      "latitude": "30.032950398591936",
      "longitude": "-89.93316399353245"
    }
  },
  {
    "service_request": "2024-1134670",
    "request_type": "Trash/Recycling",
    "request_reason": "Missed Trash Pick-Up",
    "date_created": "2024-09-23T16:56:28.000",
    "date_modified": "2024-09-23T16:56:29.000",
    "request_status": "Pending",
    "responsible_agency": "Department of Sanitation",
    "final_address": "13925 Dwyer Blvd",
    "address_councildis": "E",
    "status": "Assigned to Contractor",
    "contractor": "Waste Pro",
    "rowid": "1134670",
    "final_x": "3727849.54617",
    "final_y": "562788.592288",
    "longitude": "-89.92050000291036",
    "latitude": "30.039983226787694",
    "geocoded_column": {
      "latitude": "30.039983226787694",
      "longitude": "-89.92050000291036"
    }
  },
  {
    "service_request": "2024-1134669",
    "request_type": "Trash/Recycling",
    "request_reason": "Request a Large Item Pick Up",
    "date_created": "2024-09-23T16:52:33.000",
    "date_modified": "2024-09-23T16:52:34.000",
    "request_status": "Pending",
    "responsible_agency": "Department of Sanitation",
    "final_address": "4109 Eden St",
    "address_councildis": "B",
    "status": "Assigned to Contractor",
    "contractor": "IV Waste",
    "rowid": "1134669",
    "final_x": "3670717.38881",
    "final_y": "530197.241537",
    "longitude": "-90.10216289043983",
    "latitude": "29.95218151416097",
    "geocoded_column": {
      "latitude": "29.95218151416097",
      "longitude": "-90.10216289043983"
    }
  },
  {
    "service_request": "2024-1134668",
    "request_type": "Abandoned Vehicles",
    "request_reason": "Abandoned/Junk Vehicles",
    "date_created": "2024-09-23T16:46:17.000",
    "date_modified": "2024-09-23T16:46:18.000",
    "request_status": "Pending",
    "responsible_agency": "Department of Public Works",
    "final_address": "2837 Calhoun St",
    "address_councildis": "A",
    "status": "Pending",
    "rowid": "1134668",
    "final_x": "3666777.00097",
    "final_y": "527167.806399",
    "longitude": "-90.11470658116025",
    "latitude": "29.94396737752447",
    "geocoded_column": {
      "latitude": "29.94396737752447",
      "longitude": "-90.11470658116025"
    }
  },
  {
    "service_request": "2024-1134667",
    "request_type": "Trash/Recycling",
    "request_reason": "Missed Trash Pick-Up",
    "date_created": "2024-09-23T16:44:27.000",
    "date_modified": "2024-09-23T16:44:28.000",
    "request_status": "Pending",
    "responsible_agency": "Department of Sanitation",
    "final_address": "13943 Dwyer Blvd",
    "address_councildis": "E",
    "status": "Assigned to Contractor",
    "contractor": "Waste Pro",
    "rowid": "1134667",
    "final_x": "3728010.59366",
    "final_y": "562847.085472",
    "longitude": "-89.91998876990938",
    "latitude": "30.04013859774557",
    "geocoded_column": {
      "latitude": "30.04013859774557",
      "longitude": "-89.91998876990938"
    }
  },
  {
    "service_request": "2024-1134666",
    "request_type": "Roads and Streets",
    "request_reason": "Street Subsidence (Sinking)",
    "date_created": "2024-09-23T16:44:25.000",
    "date_modified": "2024-09-23T16:44:26.000",
    "request_status": "Pending",
    "responsible_agency": "Department of Public Works",
    "final_address": "LAHARPE ST & N ROBERTSON ST",
    "address_councildis": "C",
    "status": "Pending",
    "rowid": "1134666",
    "final_x": "3682257.8",
    "final_y": "537242.48",
    "longitude": "-90.06547752762174",
    "latitude": "29.97120751100123",
    "geocoded_column": {
      "latitude": "29.97120751100123",
      "longitude": "-90.06547752762174"
    }
  },
  {
    "service_request": "2024-1134665",
    "request_type": "Trash/Recycling",
    "request_reason": "Illegal Dumping",
    "date_created": "2024-09-23T16:44:16.000",
    "date_modified": "2024-09-23T16:44:17.000",
    "request_status": "Pending",
    "responsible_agency": "Department of Sanitation",
    "final_address": "7900 BLK Lamb Rd",
    "address_councildis": "E",
    "status": "Pending",
    "rowid": "1134665",
    "final_x": "3696581.71966",
    "final_y": "560468.263037",
    "longitude": "-90.01939976666517",
    "latitude": "30.034626221822098",
    "geocoded_column": {
      "latitude": "30.034626221822098",
      "longitude": "-90.01939976666517"
    }
  },
  {
    "service_request": "2024-1134664",
    "request_type": "Trash/Recycling",
    "request_reason": "Request a Large Item Pick Up",
    "date_created": "2024-09-23T16:42:16.000",
    "date_modified": "2024-09-23T16:42:17.000",
    "request_status": "Pending",
    "responsible_agency": "Department of Sanitation",
    "final_address": "640 Audubon St",
    "address_councildis": "A",
    "status": "Assigned to Contractor",
    "contractor": "IV Waste",
    "rowid": "1134664",
    "final_x": "3663400.34074",
    "final_y": "524878.789116",
    "longitude": "-90.12544386098335",
    "latitude": "29.93777162266561",
    "geocoded_column": {
      "latitude": "29.93777162266561",
      "longitude": "-90.12544386098335"
    }
  },
  {
    "service_request": "2024-1134663",
    "request_type": "Roads and Streets",
    "request_reason": "Debris in Driving Lanes",
    "date_created": "2024-09-23T16:40:20.000",
    "date_modified": "2024-09-23T16:40:20.000",
    "request_status": "Pending",
    "responsible_agency": "Department of Public Works",
    "final_address": "2519 St Ann St",
    "address_councildis": "D",
    "status": "Pending",
    "rowid": "1134663",
    "final_x": "3677628.07387",
    "final_y": "536746.431176",
    "longitude": "-90.080115978554",
    "latitude": "29.969983591392836",
    "geocoded_column": {
      "latitude": "29.969983591392836",
      "longitude": "-90.080115978554"
    }
  },
  {
    "service_request": "2024-1134662",
    "request_type": "Trash/Recycling",
    "request_reason": "Request a Large Item Pick Up",
    "date_created": "2024-09-23T16:40:15.000",
    "date_modified": "2024-09-23T16:40:16.000",
    "request_status": "Pending",
    "responsible_agency": "Department of Sanitation",
    "final_address": "8040 Lacombe St Apt D",
    "address_councildis": "E",
    "status": "Assigned to Contractor",
    "contractor": "Waste Pro",
    "rowid": "1134662",
    "final_x": "3708845.27672",
    "final_y": "566429.101219",
    "longitude": "-89.98042308911319",
    "latitude": "30.050623775722855",
    "geocoded_column": {
      "latitude": "30.050623775722855",
      "longitude": "-89.98042308911319"
    }
  },
  {
    "service_request": "2024-1134661",
    "request_type": "Trash/Recycling",
    "request_reason": "Repair Trash Cart",
    "date_created": "2024-09-23T16:36:02.000",
    "date_modified": "2024-09-23T16:36:03.000",
    "request_status": "Pending",
    "responsible_agency": "Department of Sanitation",
    "final_address": "5640 Brighton Pl",
    "address_councildis": "C",
    "status": "Assigned to Contractor",
    "contractor": "Richards Disposal",
    "rowid": "1134661",
    "final_x": "3704507.93559",
    "final_y": "520401.931256",
    "longitude": "-89.99582990226885",
    "latitude": "29.924206286189794",
    "geocoded_column": {
      "latitude": "29.924206286189794",
      "longitude": "-89.99582990226885"
    }
  },
  {
    "service_request": "2024-1134660",
    "request_type": "Trash/Recycling",
    "request_reason": "Request a Large Item Pick Up",
    "date_created": "2024-09-23T16:31:44.000",
    "date_modified": "2024-09-23T16:31:45.000",
    "request_status": "Pending",
    "responsible_agency": "Department of Sanitation",
    "final_address": "2021 Selma St",
    "address_councildis": "D",
    "status": "Assigned to Contractor",
    "contractor": "IV Waste",
    "rowid": "1134660",
    "final_x": "3682525.12226",
    "final_y": "551421.297621",
    "longitude": "-90.06413729532838",
    "latitude": "30.010186104229945",
    "geocoded_column": {
      "latitude": "30.010186104229945",
      "longitude": "-90.06413729532838"
    }
  },
  {
    "service_request": "2024-1134659",
    "request_type": "Trash/Recycling",
    "request_reason": "Storm Debris Collection",
    "date_created": "2024-09-23T16:30:54.000",
    "date_modified": "2024-09-23T16:30:55.000",
    "request_status": "Pending",
    "responsible_agency": "Department of Sanitation",
    "final_address": "4962 Meadowbank Dr",
    "address_councildis": "E",
    "status": "Pending",
    "rowid": "1134659",
    "final_x": "3718828.42162",
    "final_y": "558434.553308",
    "longitude": "-89.9491754633681",
    "latitude": "30.02831413917427",
    "geocoded_column": {
      "latitude": "30.02831413917427",
      "longitude": "-89.9491754633681"
    }
  },
  {
    "service_request": "2024-1134658",
    "request_type": "Roads and Streets",
    "request_reason": "Push-up/Pavement Expansion",
    "date_created": "2024-09-23T16:29:37.000",
    "date_modified": "2024-09-23T16:29:37.000",
    "request_status": "Pending",
    "responsible_agency": "Department of Public Works",
    "final_address": "54 Neron Pl",
    "address_councildis": "A",
    "status": "Pending",
    "rowid": "1134658",
    "final_x": "3665595.85876",
    "final_y": "530230.857217",
    "longitude": "-90.11833324104131",
    "latitude": "29.95242426478679",
    "geocoded_column": {
      "latitude": "29.95242426478679",
      "longitude": "-90.11833324104131"
    }
  },
  {
    "service_request": "2024-1134657",
    "request_type": "Utility Poles",
    "request_reason": "Utility Pole Leaning",
    "date_created": "2024-09-23T16:28:45.000",
    "date_modified": "2024-09-23T16:28:50.000",
    "request_status": "Pending",
    "responsible_agency": "Utility Company Collective",
    "final_address": "PAULINE ST & N ROBERTSON ST",
    "address_councildis": "D",
    "status": "Pending",
    "rowid": "1134657",
    "final_x": "3691583.2",
    "final_y": "536942.78",
    "longitude": "-90.03603746339306",
    "latitude": "29.970096425788924",
    "geocoded_column": {
      "latitude": "29.970096425788924",
      "longitude": "-90.03603746339306"
    }
  },
  {
    "service_request": "2024-1134656",
    "request_type": "Trash/Recycling",
    "request_reason": "Request a Large Item Pick Up",
    "date_created": "2024-09-23T16:25:40.000",
    "date_modified": "2024-09-23T16:25:41.000",
    "request_status": "Pending",
    "responsible_agency": "Department of Sanitation",
    "final_address": "5323 Dauphine St",
    "address_councildis": "E",
    "status": "Assigned to Contractor",
    "contractor": "Waste Pro",
    "rowid": "1134656",
    "final_x": "3696681.07178",
    "final_y": "532924.958212",
    "longitude": "-90.02008337637163",
    "latitude": "29.9588891576537",
    "geocoded_column": {
      "latitude": "29.9588891576537",
      "longitude": "-90.02008337637163"
    }
  },
  {
    "service_request": "2024-1134655",
    "request_type": "Trash/Recycling",
    "request_reason": "Request a Large Item Pick Up",
    "date_created": "2024-09-23T16:24:52.000",
    "date_modified": "2024-09-23T16:24:53.000",
    "request_status": "Pending",
    "responsible_agency": "Department of Sanitation",
    "final_address": "1420 Gallier St",
    "address_councildis": "C",
    "status": "Assigned to Contractor",
    "contractor": "IV Waste",
    "rowid": "1134655",
    "final_x": "3690745.98608",
    "final_y": "536924.556488",
    "longitude": "-90.03868211119902",
    "latitude": "29.970072354292874",
    "geocoded_column": {
      "latitude": "29.970072354292874",
      "longitude": "-90.03868211119902"
    }
  },
  {
    "service_request": "2024-1134654",
    "request_type": "Trash/Recycling",
    "request_reason": "Request a Large Item Pick Up",
    "date_created": "2024-09-23T16:24:22.000",
    "date_modified": "2024-09-23T16:24:23.000",
    "request_status": "Pending",
    "responsible_agency": "Department of Sanitation",
    "final_address": "11290 Waverly Dr",
    "address_councildis": "E",
    "status": "Assigned to Contractor",
    "contractor": "Waste Pro",
    "rowid": "1134654",
    "final_x": "3717815.47705",
    "final_y": "560353.830941",
    "longitude": "-89.95230317769294",
    "latitude": "30.033624986745632",
    "geocoded_column": {
      "latitude": "30.033624986745632",
      "longitude": "-89.95230317769294"
    }
  },
  {
    "service_request": "2024-1134653",
    "request_type": "Utility Poles",
    "request_reason": "Wires Sagging/Hanging Low",
    "date_created": "2024-09-23T16:23:09.000",
    "date_modified": "2024-09-23T16:23:15.000",
    "request_status": "Pending",
    "responsible_agency": "Utility Company Collective",
    "final_address": "2443 Fats Domino Ave",
    "address_councildis": "E",
    "status": "Pending",
    "rowid": "1134653",
    "final_x": "3699483.80752",
    "final_y": "538944.515146",
    "longitude": "-90.01101374320318",
    "latitude": "29.975352155701138",
    "geocoded_column": {
      "latitude": "29.975352155701138",
      "longitude": "-90.01101374320318"
    }
  },
  {
    "service_request": "2024-1134652",
    "request_type": "Trash/Recycling",
    "request_reason": "Illegal Dumping",
    "date_created": "2024-09-23T16:17:12.000",
    "date_modified": "2024-09-23T16:17:13.000",
    "request_status": "Pending",
    "responsible_agency": "Department of Sanitation",
    "final_address": "13000 Old Gentilly Rd",
    "address_councildis": "E",
    "status": "Pending",
    "rowid": "1134652",
    "final_x": "3724451.40595",
    "final_y": "553693.493847",
    "longitude": "-89.9315906679091",
    "latitude": "30.015090175750064",
    "geocoded_column": {
      "latitude": "30.015090175750064",
      "longitude": "-89.9315906679091"
    }
  },
  {
    "service_request": "2024-1134651",
    "request_type": "Streetlights",
    "request_reason": "Streetlight Outage/Malfunction",
    "date_created": "2024-09-23T16:16:52.000",
    "date_modified": "2024-09-23T16:16:54.000",
    "request_status": "Pending",
    "responsible_agency": "Department of Public Works",
    "final_address": "3400 BLK Gentilly Blvd",
    "address_councildis": "D",
    "status": "Pending",
    "contractor": "Legacy Professional Services",
    "rowid": "1134651",
    "final_x": "3685296.66087",
    "final_y": "548587.573544",
    "longitude": "-90.05548083420405",
    "latitude": "30.00230968847261",
    "geocoded_column": {
      "latitude": "30.00230968847261",
      "longitude": "-90.05548083420405"
    }
  },
  {
    "service_request": "2024-1134650",
    "request_type": "Trash/Recycling",
    "request_reason": "Request a Large Item Pick Up",
    "date_created": "2024-09-23T16:11:55.000",
    "date_modified": "2024-09-23T16:11:56.000",
    "request_status": "Pending",
    "responsible_agency": "Department of Sanitation",
    "final_address": "7231 W Renaissance Ct",
    "address_councildis": "E",
    "status": "Assigned to Contractor",
    "contractor": "Waste Pro",
    "rowid": "1134650",
    "final_x": "3716483.83192",
    "final_y": "567954.770853",
    "longitude": "-89.95622260057101",
    "latitude": "30.054568541526262",
    "geocoded_column": {
      "latitude": "30.054568541526262",
      "longitude": "-89.95622260057101"
    }
  },
  {
    "service_request": "2024-1134649",
    "request_type": "Abandoned Vehicles",
    "request_reason": "Abandoned/Junk Vehicles",
    "date_created": "2024-09-23T16:10:28.000",
    "date_modified": "2024-09-23T16:10:29.000",
    "request_status": "Pending",
    "responsible_agency": "Department of Public Works",
    "final_address": "1990 Hope St",
    "address_councildis": "D",
    "status": "Pending",
    "rowid": "1134649",
    "final_x": "3682231.41231",
    "final_y": "541981.805708",
    "longitude": "-90.06539524023763",
    "latitude": "29.98423980819682",
    "geocoded_column": {
      "latitude": "29.98423980819682",
      "longitude": "-90.06539524023763"
    }
  },
  {
    "service_request": "2024-1134648",
    "request_type": "Trash/Recycling",
    "request_reason": "Request a Large Item Pick Up",
    "date_created": "2024-09-23T16:10:03.000",
    "date_modified": "2024-09-23T16:10:04.000",
    "request_status": "Pending",
    "responsible_agency": "Department of Sanitation",
    "final_address": "7941 Devine Ave",
    "address_councildis": "E",
    "status": "Assigned to Contractor",
    "contractor": "Waste Pro",
    "rowid": "1134648",
    "final_x": "3705165.00081",
    "final_y": "564101.731873",
    "longitude": "-89.99214116981864",
    "latitude": "30.044343404004003",
    "geocoded_column": {
      "latitude": "30.044343404004003",
      "longitude": "-89.99214116981864"
    }
  },
  {
    "service_request": "2024-1134647",
    "request_type": "Abandoned Vehicles",
    "request_reason": "Vehicle Blocking Your Driveway",
    "date_created": "2024-09-23T16:09:16.000",
    "date_modified": "2024-09-23T16:09:16.000",
    "request_status": "Pending",
    "responsible_agency": "Department of Public Works",
    "final_address": "433 N Bernadotte St",
    "address_councildis": "A",
    "status": "Pending",
    "rowid": "1134647",
    "final_x": "3669616.25422",
    "final_y": "541212.019084",
    "longitude": "-90.10526701762241",
    "latitude": "29.98250096070414",
    "geocoded_column": {
      "latitude": "29.98250096070414",
      "longitude": "-90.10526701762241"
    }
  },
  {
    "service_request": "2024-1134646",
    "request_type": "Trash/Recycling",
    "request_reason": "Request a Large Item Pick Up",
    "date_created": "2024-09-23T16:08:52.000",
    "date_modified": "2024-09-23T16:08:53.000",
    "request_status": "Pending",
    "responsible_agency": "Department of Sanitation",
    "final_address": "2834 Law St",
    "address_councildis": "D",
    "status": "Assigned to Contractor",
    "contractor": "IV Waste",
    "rowid": "1134646",
    "final_x": "3688124.41814",
    "final_y": "542079.408972",
    "longitude": "-90.04677847798109",
    "latitude": "29.984327563088964",
    "geocoded_column": {
      "latitude": "29.984327563088964",
      "longitude": "-90.04677847798109"
    }
  },
  {
    "service_request": "2024-1134645",
    "request_type": "Trash/Recycling",
    "request_reason": "Return Trash Cart",
    "date_created": "2024-09-23T16:05:03.000",
    "date_modified": "2024-09-23T16:05:04.000",
    "request_status": "Pending",
    "responsible_agency": "Department of Sanitation",
    "final_address": "5517 Coliseum St",
    "address_councildis": "A",
    "status": "Assigned to Contractor",
    "contractor": "IV Waste",
    "rowid": "1134645",
    "final_x": "3666524.28903",
    "final_y": "519958.200568",
    "longitude": "-90.11574634553799",
    "latitude": "29.9241506475115",
    "geocoded_column": {
      "latitude": "29.9241506475115",
      "longitude": "-90.11574634553799"
    }
  },
  {
    "service_request": "2024-1134644",
    "request_type": "Trash/Recycling",
    "request_reason": "Request a Large Item Pick Up",
    "date_created": "2024-09-23T16:04:08.000",
    "date_modified": "2024-09-23T16:04:09.000",
    "request_status": "Pending",
    "responsible_agency": "Department of Sanitation",
    "final_address": "207 Broadway St",
    "address_councildis": "A",
    "status": "Assigned to Contractor",
    "contractor": "IV Waste",
    "rowid": "1134644",
    "final_x": "3661177.85562",
    "final_y": "521944.988026",
    "longitude": "-90.13255752318825",
    "latitude": "29.929768825305413",
    "geocoded_column": {
      "latitude": "29.929768825305413",
      "longitude": "-90.13255752318825"
    }
  },
  {
    "service_request": "2024-1134643",
    "request_type": "Trash/Recycling",
    "request_reason": "Repair Trash Cart",
    "date_created": "2024-09-23T16:03:24.000",
    "date_modified": "2024-09-23T16:03:26.000",
    "request_status": "Pending",
    "responsible_agency": "Department of Sanitation",
    "final_address": "1819 Bienville Ave",
    "address_councildis": "B",
    "status": "Assigned to Contractor",
    "contractor": "IV Waste",
    "rowid": "1134643",
    "final_x": "3678476.54862",
    "final_y": "533802.627077",
    "longitude": "-90.07753830064851",
    "latitude": "29.961863589078874",
    "geocoded_column": {
      "latitude": "29.961863589078874",
      "longitude": "-90.07753830064851"
    }
  },
  {
    "service_request": "2024-1134642",
    "request_type": "Trash/Recycling",
    "request_reason": "Missed Trash Pick-Up",
    "date_created": "2024-09-23T16:02:29.000",
    "date_modified": "2024-09-23T16:02:29.000",
    "request_status": "Closed",
    "responsible_agency": "Department of Sanitation",
    "final_address": "9 Curtis Dr",
    "address_councildis": "E",
    "status": "Invalid Request",
    "rowid": "1134642",
    "final_x": "3697705.42295",
    "final_y": "560584.523934",
    "longitude": "-90.01584449656109",
    "latitude": "30.03491041627826",
    "geocoded_column": {
      "latitude": "30.03491041627826",
      "longitude": "-90.01584449656109"
    }
  },
  {
    "service_request": "2024-1134641",
    "request_type": "Trash/Recycling",
    "request_reason": "Request a Large Item Pick Up",
    "date_created": "2024-09-23T16:00:32.000",
    "date_modified": "2024-09-23T16:00:33.000",
    "request_status": "Pending",
    "responsible_agency": "Department of Sanitation",
    "final_address": "1305 S White St",
    "address_councildis": "B",
    "status": "Assigned to Contractor",
    "contractor": "IV Waste",
    "rowid": "1134641",
    "final_x": "3671588.12372",
    "final_y": "530868.594626",
    "longitude": "-90.09939068005113",
    "latitude": "29.954001759635677",
    "geocoded_column": {
      "latitude": "29.954001759635677",
      "longitude": "-90.09939068005113"
    }
  },
  {
    "service_request": "2024-1134640",
    "request_type": "Trash/Recycling",
    "request_reason": "Request a Large Item Pick Up",
    "date_created": "2024-09-23T15:59:48.000",
    "date_modified": "2024-09-23T15:59:49.000",
    "request_status": "Pending",
    "responsible_agency": "Department of Sanitation",
    "final_address": "4911 Friar Tuck Dr",
    "address_councildis": "E",
    "status": "Assigned to Contractor",
    "contractor": "Waste Pro",
    "rowid": "1134640",
    "final_x": "3717715.79801",
    "final_y": "557760.492955",
    "longitude": "-89.95271691457673",
    "latitude": "30.02649765206411",
    "geocoded_column": {
      "latitude": "30.02649765206411",
      "longitude": "-89.95271691457673"
    }
  },
  {
    "service_request": "2024-1134639",
    "request_type": "Trash/Recycling",
    "request_reason": "Request a Large Item Pick Up",
    "date_created": "2024-09-23T15:59:37.000",
    "date_modified": "2024-09-23T16:09:52.000",
    "request_status": "Pending",
    "responsible_agency": "Department of Sanitation",
    "final_address": "803 Conrad street",
    "address_councildis": "A",
    "status": "Assigned to Contractor",
    "contractor": "IV Waste",
    "rowid": "1134639",
    "final_x": "3669911.24833",
    "final_y": "554281.328344",
    "longitude": "-90.10389236652077",
    "latitude": "30.018428321010834",
    "geocoded_column": {
      "latitude": "30.018428321010834",
      "longitude": "-90.10389236652077"
    }
  },
  {
    "service_request": "2024-1134638",
    "request_type": "Trash/Recycling",
    "request_reason": "Request a Large Item Pick Up",
    "date_created": "2024-09-23T15:58:01.000",
    "date_modified": "2024-09-23T15:58:02.000",
    "request_status": "Pending",
    "responsible_agency": "Department of Sanitation",
    "final_address": "1238 N Dorgenois St",
    "address_councildis": "D",
    "status": "Assigned to Contractor",
    "contractor": "IV Waste",
    "rowid": "1134638",
    "final_x": "3678484.55874",
    "final_y": "538310.101769",
    "longitude": "-90.07735698571305",
    "latitude": "29.974257363997644",
    "geocoded_column": {
      "latitude": "29.974257363997644",
      "longitude": "-90.07735698571305"
    }
  },
  {
    "service_request": "2024-1134637",
    "request_type": "Property Maintenance",
    "request_reason": "Property Maintenance",
    "date_created": "2024-09-23T15:57:17.000",
    "date_modified": "2024-09-23T15:57:18.000",
    "request_status": "Pending",
    "responsible_agency": "Department of Code Enforcement",
    "final_address": "2517 Hollygrove St",
    "address_councildis": "A",
    "status": "Pending",
    "rowid": "1134637",
    "final_x": "3662899.1552",
    "final_y": "534071.604933",
    "longitude": "-90.12672053332896",
    "latitude": "29.963063424070892",
    "geocoded_column": {
      "latitude": "29.963063424070892",
      "longitude": "-90.12672053332896"
    }
  },
  {
    "service_request": "2024-1134636",
    "request_type": "Streetlights",
    "request_reason": "Streetlight Outage/Malfunction",
    "date_created": "2024-09-23T15:56:44.000",
    "date_modified": "2024-09-23T15:56:46.000",
    "request_status": "Pending",
    "responsible_agency": "Department of Public Works",
    "final_address": "716 Tupelo St",
    "address_councildis": "E",
    "status": "Pending",
    "contractor": "Legacy Professional Services",
    "rowid": "1134636",
    "final_x": "3698935.77117",
    "final_y": "532050.508291",
    "longitude": "-90.01299546700356",
    "latitude": "29.956413483732263",
    "geocoded_column": {
      "latitude": "29.956413483732263",
      "longitude": "-90.01299546700356"
    }
  },
  {
    "service_request": "2024-1134635",
    "request_type": "Trash/Recycling",
    "request_reason": "Request a Large Item Pick Up",
    "date_created": "2024-09-23T15:53:08.000",
    "date_modified": "2024-09-23T15:53:09.000",
    "request_status": "Pending",
    "responsible_agency": "Department of Sanitation",
    "final_address": "627 Delacroix Rd",
    "address_councildis": "C",
    "status": "Assigned to Contractor",
    "contractor": "Richards Disposal",
    "rowid": "1134635",
    "final_x": "3723779.91398",
    "final_y": "514423.845299",
    "longitude": "-89.93522612136945",
    "latitude": "29.907136091834605",
    "geocoded_column": {
      "latitude": "29.907136091834605",
      "longitude": "-89.93522612136945"
    }
  },
  {
    "service_request": "2024-1134634",
    "request_type": "Parks & Parkways",
    "request_reason": "Request Tree Service (Right of Way/Public Property)",
    "date_created": "2024-09-23T15:51:37.000",
    "date_modified": "2024-09-23T15:51:39.000",
    "request_status": "Pending",
    "responsible_agency": "Department of Parks & Parkway",
    "final_address": "5620 Prytania St",
    "address_councildis": "A",
    "status": "Pending",
    "rowid": "1134634",
    "final_x": "3666274.63815",
    "final_y": "520535.31724",
    "longitude": "-90.11651506259058",
    "latitude": "29.925744828466836",
    "geocoded_column": {
      "latitude": "29.925744828466836",
      "longitude": "-90.11651506259058"
    }
  },
  {
    "service_request": "2024-1134633",
    "request_type": "Abandoned Vehicles",
    "request_reason": "Abandoned/Junk Vehicles",
    "date_created": "2024-09-23T15:51:37.000",
    "date_modified": "2024-09-23T15:51:37.000",
    "request_status": "Closed",
    "responsible_agency": "Department of Public Works",
    "final_address": "I 510 S & CHEF MENTEUR HWY",
    "address_councildis": "E",
    "status": "Inspected",
    "rowid": "1134633",
    "final_x": "3721914.3",
    "final_y": "557949.78",
    "longitude": "-89.93944302295638",
    "latitude": "30.02687835015305",
    "geocoded_column": {
      "latitude": "30.02687835015305",
      "longitude": "-89.93944302295638"
    }
  },
  {
    "service_request": "2024-1134632",
    "request_type": "Trash/Recycling",
    "request_reason": "Request a Large Item Pick Up",
    "date_created": "2024-09-23T15:50:50.000",
    "date_modified": "2024-09-23T15:50:52.000",
    "request_status": "Pending",
    "responsible_agency": "Department of Sanitation",
    "final_address": "3536 Monroe St",
    "address_councildis": "A",
    "status": "Assigned to Contractor",
    "contractor": "IV Waste",
    "rowid": "1134632",
    "final_x": "3666090.22535",
    "final_y": "536115.763463",
    "longitude": "-90.11657493206121",
    "latitude": "29.968591401370755",
    "geocoded_column": {
      "latitude": "29.968591401370755",
      "longitude": "-90.11657493206121"
    }
  },
  {
    "service_request": "2024-1134631",
    "request_type": "Hurricane Francine Tree-Related Issues or Emergencies\t",
    "request_reason": "Hurricane Francine Tree-Related Issues or Emergencies",
    "date_created": "2024-09-23T15:48:29.000",
    "date_modified": "2024-09-23T15:48:31.000",
    "request_status": "Pending",
    "responsible_agency": "Department of Parks & Parkway",
    "final_address": "2601 Lamanche St",
    "address_councildis": "E",
    "status": "Pending",
    "rowid": "1134631",
    "final_x": "3699945.62487",
    "final_y": "539361.803658",
    "longitude": "-90.00953998368439",
    "latitude": "29.976484885480158",
    "geocoded_column": {
      "latitude": "29.976484885480158",
      "longitude": "-90.00953998368439"
    }
  },
  {
    "service_request": "2024-1134630",
    "request_type": "General Services",
    "request_reason": "General Service Request",
    "date_created": "2024-09-23T15:48:18.000",
    "date_modified": "2024-09-23T15:51:54.000",
    "case_close_date": "2024-09-23T10:51:54.000",
    "request_status": "Closed",
    "responsible_agency": "Orleans Parish Communication District",
    "final_address": "200 BLK S Genois St",
    "address_councildis": "B",
    "status": "Question Answered.",
    "rowid": "1134630",
    "final_x": "3672230.48195",
    "final_y": "536712.944078",
    "longitude": "-90.09716328151991",
    "latitude": "29.970052732569535",
    "geocoded_column": {
      "latitude": "29.970052732569535",
      "longitude": "-90.09716328151991"
    }
  },
  {
    "service_request": "2024-1134629",
    "request_type": "Trash/Recycling",
    "request_reason": "Storm Debris Collection",
    "date_created": "2024-09-23T15:48:15.000",
    "date_modified": "2024-09-23T15:48:16.000",
    "request_status": "Pending",
    "responsible_agency": "Department of Sanitation",
    "final_address": "13143 Cherbourg St",
    "address_councildis": "E",
    "status": "Pending",
    "rowid": "1134629",
    "final_x": "3724755.54233",
    "final_y": "561180.533662",
    "longitude": "-89.93034011298505",
    "latitude": "30.035666260752752",
    "geocoded_column": {
      "latitude": "30.035666260752752",
      "longitude": "-89.93034011298505"
    }
  },
  {
    "service_request": "2024-1134628",
    "request_type": "Trash/Recycling",
    "request_reason": "Request a Large Item Pick Up",
    "date_created": "2024-09-23T15:47:19.000",
    "date_modified": "2024-09-23T15:47:20.000",
    "request_status": "Pending",
    "responsible_agency": "Department of Sanitation",
    "final_address": "614 Cadiz St",
    "address_councildis": "B",
    "status": "Assigned to Contractor",
    "contractor": "IV Waste",
    "rowid": "1134628",
    "final_x": "3670371.17274",
    "final_y": "517745.037366",
    "longitude": "-90.1036780259821",
    "latitude": "29.91795219010771",
    "geocoded_column": {
      "latitude": "29.91795219010771",
      "longitude": "-90.1036780259821"
    }
  },
  {
    "service_request": "2024-1134627",
    "request_type": "Trash/Recycling",
    "request_reason": "Return Trash Cart",
    "date_created": "2024-09-23T15:45:50.000",
    "date_modified": "2024-09-23T15:47:00.000",
    "request_status": "Pending",
    "responsible_agency": "Department of Sanitation",
    "final_address": "3307 St Ann St",
    "address_councildis": "A",
    "status": "Assigned to Contractor",
    "contractor": "IV Waste",
    "rowid": "1134627",
    "final_x": "3674859.37813",
    "final_y": "538841.846921",
    "longitude": "-90.08878792768519",
    "latitude": "29.975828244758016",
    "geocoded_column": {
      "latitude": "29.975828244758016",
      "longitude": "-90.08878792768519"
    }
  },
  {
    "service_request": "2024-1134626",
    "request_type": "Abandoned Vehicles",
    "request_reason": "Abandoned/Junk Vehicles",
    "date_created": "2024-09-23T15:45:31.000",
    "date_modified": "2024-09-23T15:45:32.000",
    "request_status": "Pending",
    "responsible_agency": "Department of Public Works",
    "final_address": "1303 S Genois St",
    "address_councildis": "B",
    "status": "Pending",
    "rowid": "1134626",
    "final_x": "3669266.35713",
    "final_y": "532440.772931",
    "longitude": "-90.10666875016493",
    "latitude": "29.95839327751103",
    "geocoded_column": {
      "latitude": "29.95839327751103",
      "longitude": "-90.10666875016493"
    }
  },
  {
    "service_request": "2024-1134625",
    "request_type": "Abandoned Vehicles",
    "request_reason": "Abandoned/Junk Vehicles",
    "date_created": "2024-09-23T15:45:00.000",
    "date_modified": "2024-09-23T15:45:00.000",
    "request_status": "Pending",
    "responsible_agency": "Department of Public Works",
    "final_address": "1831 Adams St",
    "address_councildis": "A",
    "status": "Pending",
    "rowid": "1134625",
    "final_x": "3664677.29504",
    "final_y": "529099.258304",
    "longitude": "-90.1212714535103",
    "latitude": "29.949339483853308",
    "geocoded_column": {
      "latitude": "29.949339483853308",
      "longitude": "-90.1212714535103"
    }
  },
  {
    "service_request": "2024-1134624",
    "request_type": "Abandoned Vehicles",
    "request_reason": "Abandoned/Junk Vehicles",
    "date_created": "2024-09-23T15:44:10.000",
    "date_modified": "2024-09-23T15:44:10.000",
    "request_status": "Closed",
    "responsible_agency": "Department of Public Works",
    "final_address": "BULLARD AVE & CHEF MENTEUR HWY",
    "address_councildis": "E",
    "status": "Inspected",
    "rowid": "1134624",
    "final_x": "3719420.4",
    "final_y": "556924.28",
    "longitude": "-89.94736259270046",
    "latitude": "30.024141818205965",
    "geocoded_column": {
      "latitude": "30.024141818205965",
      "longitude": "-89.94736259270046"
    }
  },
  {
    "service_request": "2024-1134623",
    "request_type": "Drainage",
    "request_reason": "Drainage Manhole Cover Missing or Damaged",
    "date_created": "2024-09-23T15:42:53.000",
    "date_modified": "2024-09-23T15:42:54.000",
    "request_status": "Pending",
    "responsible_agency": "Department of Public Works",
    "final_address": "1308 Terry St",
    "address_councildis": "C",
    "status": "Pending",
    "rowid": "1134623",
    "final_x": "3697017.97808",
    "final_y": "526461.762494",
    "longitude": "-90.0192535741593",
    "latitude": "29.941107011522178",
    "geocoded_column": {
      "latitude": "29.941107011522178",
      "longitude": "-90.0192535741593"
    }
  },
  {
    "service_request": "2024-1134622",
    "request_type": "Trash/Recycling",
    "request_reason": "Storm Debris Collection",
    "date_created": "2024-09-23T15:40:03.000",
    "date_modified": "2024-09-23T15:45:30.000",
    "request_status": "Pending",
    "responsible_agency": "Department of Sanitation",
    "final_address": "6014 Kuebel Dr",
    "address_councildis": "E",
    "contractor": "Waste Pro",
    "rowid": "1134622",
    "final_x": "3694998.35088",
    "final_y": "559657.036829",
    "longitude": "-90.0244327023045",
    "latitude": "30.032445488926125",
    "geocoded_column": {
      "latitude": "30.032445488926125",
      "longitude": "-90.0244327023045"
    }
  },
  {
    "service_request": "2024-1134621",
    "request_type": "Trash/Recycling",
    "request_reason": "Repair Trash Cart",
    "date_created": "2024-09-23T15:38:43.000",
    "date_modified": "2024-09-23T15:38:44.000",
    "request_status": "Pending",
    "responsible_agency": "Department of Sanitation",
    "final_address": "4114 Laurel St",
    "address_councildis": "B",
    "status": "Assigned to Contractor",
    "contractor": "IV Waste",
    "rowid": "1134621",
    "final_x": "3672100.60641",
    "final_y": "518105.929654",
    "longitude": "-90.09820686020907",
    "latitude": "29.91889338368294",
    "geocoded_column": {
      "latitude": "29.91889338368294",
      "longitude": "-90.09820686020907"
    }
  },
  {
    "service_request": "2024-1134620",
    "request_type": "Trash/Recycling",
    "request_reason": "Storm Debris Collection",
    "date_created": "2024-09-23T15:34:25.000",
    "date_modified": "2024-09-23T15:34:25.000",
    "request_status": "Pending",
    "responsible_agency": "Department of Sanitation",
    "final_address": "4207 St Ann St",
    "address_councildis": "A",
    "status": "Pending",
    "rowid": "1134620",
    "final_x": "3672128.82881",
    "final_y": "540892.767051",
    "longitude": "-90.0973419243611",
    "latitude": "29.98154884264765",
    "geocoded_column": {
      "latitude": "29.98154884264765",
      "longitude": "-90.0973419243611"
    }
  },
  {
    "service_request": "2024-1134619",
    "request_type": "Trash/Recycling",
    "request_reason": "Replace Trash Cart",
    "date_created": "2024-09-23T15:31:46.000",
    "date_modified": "2024-09-23T15:31:47.000",
    "request_status": "Pending",
    "responsible_agency": "Department of Sanitation",
    "final_address": "5980 Vicksburg St",
    "address_councildis": "A",
    "status": "Assigned to Contractor",
    "contractor": "IV Waste",
    "rowid": "1134619",
    "final_x": "3668770.58542",
    "final_y": "547196.563089",
    "longitude": "-90.10773588756898",
    "latitude": "29.998981300707445",
    "geocoded_column": {
      "latitude": "29.998981300707445",
      "longitude": "-90.10773588756898"
    }
  },
  {
    "service_request": "2024-1134618",
    "request_type": "Trash/Recycling",
    "request_reason": "Repair Recycling Cart",
    "date_created": "2024-09-23T15:30:43.000",
    "date_modified": "2024-09-23T15:30:45.000",
    "request_status": "Pending",
    "responsible_agency": "Department of Sanitation",
    "final_address": "5980 Vicksburg St",
    "address_councildis": "A",
    "status": "Pending",
    "rowid": "1134618",
    "final_x": "3668770.58542",
    "final_y": "547196.563089",
    "longitude": "-90.10773588756898",
    "latitude": "29.998981300707445",
    "geocoded_column": {
      "latitude": "29.998981300707445",
      "longitude": "-90.10773588756898"
    }
  },
  {
    "service_request": "2024-1134617",
    "request_type": "Trash/Recycling",
    "request_reason": "Request a Large Item Pick Up",
    "date_created": "2024-09-23T15:30:28.000",
    "date_modified": "2024-09-23T15:30:29.000",
    "request_status": "Pending",
    "responsible_agency": "Department of Sanitation",
    "final_address": "7311 Dartmoor Dr",
    "address_councildis": "E",
    "status": "Assigned to Contractor",
    "contractor": "Waste Pro",
    "rowid": "1134617",
    "final_x": "3705178.63102",
    "final_y": "561787.430815",
    "longitude": "-89.9921837018742",
    "latitude": "30.03797955257158",
    "geocoded_column": {
      "latitude": "30.03797955257158",
      "longitude": "-89.9921837018742"
    }
  },
  {
    "service_request": "2024-1134616",
    "request_type": "Trash/Recycling",
    "request_reason": "Request a Large Item Pick Up",
    "date_created": "2024-09-23T15:30:15.000",
    "date_modified": "2024-09-23T15:30:16.000",
    "request_status": "Pending",
    "responsible_agency": "Department of Sanitation",
    "final_address": "4650 San Marco Rd",
    "address_councildis": "E",
    "status": "Assigned to Contractor",
    "contractor": "Waste Pro",
    "rowid": "1134616",
    "final_x": "3763258.65821",
    "final_y": "572854.522153",
    "longitude": "-89.80817575800758",
    "latitude": "30.06641193136032",
    "geocoded_column": {
      "latitude": "30.06641193136032",
      "longitude": "-89.80817575800758"
    }
  },
  {
    "service_request": "2024-1134615",
    "request_type": "Trash/Recycling",
    "request_reason": "Repair Trash Cart",
    "date_created": "2024-09-23T15:30:10.000",
    "date_modified": "2024-09-23T15:30:11.000",
    "request_status": "Pending",
    "responsible_agency": "Department of Sanitation",
    "final_address": "608 Florida Blvd",
    "address_councildis": "A",
    "status": "Assigned to Contractor",
    "contractor": "IV Waste",
    "rowid": "1134615",
    "final_x": "3668018.73978",
    "final_y": "545280.066383",
    "longitude": "-90.11017561596243",
    "latitude": "29.993733685362127",
    "geocoded_column": {
      "latitude": "29.993733685362127",
      "longitude": "-90.11017561596243"
    }
  },
  {
    "service_request": "2024-1134614",
    "request_type": "Trash/Recycling",
    "request_reason": "Storm Debris Collection",
    "date_created": "2024-09-23T15:29:52.000",
    "date_modified": "2024-09-23T15:29:53.000",
    "request_status": "Pending",
    "responsible_agency": "Department of Sanitation",
    "final_address": "4650 San Marco Rd",
    "address_councildis": "E",
    "status": "Pending",
    "rowid": "1134614",
    "final_x": "3763258.65821",
    "final_y": "572854.522153",
    "longitude": "-89.80817575800758",
    "latitude": "30.06641193136032",
    "geocoded_column": {
      "latitude": "30.06641193136032",
      "longitude": "-89.80817575800758"
    }
  },
  {
    "service_request": "2024-1134613",
    "request_type": "Trash/Recycling",
    "request_reason": "Request a Large Item Pick Up",
    "date_created": "2024-09-23T15:29:22.000",
    "date_modified": "2024-09-23T15:29:24.000",
    "request_status": "Pending",
    "responsible_agency": "Department of Sanitation",
    "final_address": "7202 Yorktown Dr",
    "address_councildis": "E",
    "status": "Assigned to Contractor",
    "contractor": "Waste Pro",
    "rowid": "1134613",
    "final_x": "3705791.21259",
    "final_y": "561229.176542",
    "longitude": "-89.99026848468745",
    "latitude": "30.036424844457965",
    "geocoded_column": {
      "latitude": "30.036424844457965",
      "longitude": "-89.99026848468745"
    }
  },
  {
    "service_request": "2024-1134612",
    "request_type": "Property Maintenance",
    "request_reason": "Healthy Homes",
    "date_created": "2024-09-23T15:28:19.000",
    "date_modified": "2024-09-23T15:28:19.000",
    "request_status": "Pending",
    "responsible_agency": "Department of Code Enforcement",
    "final_address": "2012 Simon Bolivar Ave",
    "address_councildis": "B",
    "status": "Pending",
    "rowid": "1134612",
    "final_x": "3676747.56609",
    "final_y": "525790.059197",
    "longitude": "-90.08327419525467",
    "latitude": "29.939883688670534",
    "geocoded_column": {
      "latitude": "29.939883688670534",
      "longitude": "-90.08327419525467"
    }
  },
  {
    "service_request": "2024-1134611",
    "request_type": "Trash/Recycling",
    "request_reason": "Order Recycling Cart",
    "date_created": "2024-09-23T15:24:14.000",
    "date_modified": "2024-09-23T15:24:15.000",
    "request_status": "Pending",
    "responsible_agency": "Department of Sanitation",
    "final_address": "6449 Vicksburg St",
    "address_councildis": "A",
    "status": "Pending",
    "rowid": "1134611",
    "final_x": "3669239.71918",
    "final_y": "550306.607316",
    "longitude": "-90.10614866036514",
    "latitude": "30.007519033569395",
    "geocoded_column": {
      "latitude": "30.007519033569395",
      "longitude": "-90.10614866036514"
    }
  },
  {
    "service_request": "2024-1134610",
    "request_type": "Abandoned Vehicles",
    "request_reason": "Abandoned/Junk Vehicles",
    "date_created": "2024-09-23T15:24:05.000",
    "date_modified": "2024-09-23T15:24:05.000",
    "request_status": "Closed",
    "responsible_agency": "Department of Public Works",
    "final_address": "13638 Chef Menteur Hwy",
    "address_councildis": "E",
    "status": "Inspected",
    "rowid": "1134610",
    "final_x": "3727218.99174",
    "final_y": "559870.358749",
    "longitude": "-89.92260626786887",
    "latitude": "30.03198065289155",
    "geocoded_column": {
      "latitude": "30.03198065289155",
      "longitude": "-89.92260626786887"
    }
  },
  {
    "service_request": "2024-1134609",
    "request_type": "Trash/Recycling",
    "request_reason": "Missed Trash Pick-Up",
    "date_created": "2024-09-23T15:23:33.000",
    "date_modified": "2024-09-23T15:23:34.000",
    "request_status": "Pending",
    "responsible_agency": "Department of Sanitation",
    "final_address": "13919 Dwyer Blvd",
    "address_councildis": "E",
    "status": "Assigned to Contractor",
    "contractor": "Waste Pro",
    "rowid": "1134609",
    "final_x": "3727795.96889",
    "final_y": "562769.227616",
    "longitude": "-89.92067007585995",
    "latitude": "30.03993179830851",
    "geocoded_column": {
      "latitude": "30.03993179830851",
      "longitude": "-89.92067007585995"
    }
  },
  {
    "service_request": "2024-1134608",
    "request_type": "Abandoned Vehicles",
    "request_reason": "Abandoned/Junk Vehicles",
    "date_created": "2024-09-23T15:19:40.000",
    "date_modified": "2024-09-23T15:19:41.000",
    "request_status": "Pending",
    "responsible_agency": "Department of Public Works",
    "final_address": "1308 Terry St",
    "address_councildis": "C",
    "status": "Pending",
    "rowid": "1134608",
    "final_x": "3697017.97808",
    "final_y": "526461.762494",
    "longitude": "-90.0192535741593",
    "latitude": "29.941107011522178",
    "geocoded_column": {
      "latitude": "29.941107011522178",
      "longitude": "-90.0192535741593"
    }
  },
  {
    "service_request": "2024-1134607",
    "request_type": "Drainage",
    "request_reason": "Catch Basin Clogged",
    "date_created": "2024-09-23T15:19:15.000",
    "date_modified": "2024-09-23T15:19:16.000",
    "request_status": "Pending",
    "responsible_agency": "Department of Public Works",
    "final_address": "2907 General Pershing St",
    "address_councildis": "B",
    "status": "Pending",
    "rowid": "1134607",
    "final_x": "3670838.77889",
    "final_y": "525566.867645",
    "longitude": "-90.10193671855032",
    "latitude": "29.939445911359662",
    "geocoded_column": {
      "latitude": "29.939445911359662",
      "longitude": "-90.10193671855032"
    }
  },
  {
    "service_request": "2024-1134606",
    "request_type": "Parks & Parkways",
    "request_reason": "Request Tree Service (Right of Way/Public Property)",
    "date_created": "2024-09-23T15:17:39.000",
    "date_modified": "2024-09-23T15:17:41.000",
    "request_status": "Pending",
    "responsible_agency": "Department of Parks & Parkway",
    "final_address": "POWDER ST & ELIZA ST",
    "address_councildis": "C",
    "status": "Pending",
    "rowid": "1134606",
    "final_x": "3686050.2",
    "final_y": "529219.08",
    "longitude": "-90.05378359119507",
    "latitude": "29.949029999560715",
    "geocoded_column": {
      "latitude": "29.949029999560715",
      "longitude": "-90.05378359119507"
    }
  },
  {
    "service_request": "2024-1134605",
    "request_type": "Property Maintenance",
    "request_reason": "Property Maintenance",
    "date_created": "2024-09-23T15:17:17.000",
    "date_modified": "2024-09-23T15:17:18.000",
    "request_status": "Pending",
    "responsible_agency": "Department of Code Enforcement",
    "final_address": "8939 Edinburgh St",
    "address_councildis": "A",
    "status": "Pending",
    "rowid": "1134605",
    "final_x": "3665193.27136",
    "final_y": "536571.605255",
    "longitude": "-90.11939232194923",
    "latitude": "29.96987097454693",
    "geocoded_column": {
      "latitude": "29.96987097454693",
      "longitude": "-90.11939232194923"
    }
  },
  {
    "service_request": "2024-1134604",
    "request_type": "Streetlights",
    "request_reason": "Streetlight Outage/Malfunction",
    "date_created": "2024-09-23T15:16:25.000",
    "date_modified": "2024-09-23T15:16:26.000",
    "request_status": "Pending",
    "responsible_agency": "Department of Public Works",
    "final_address": "8527 Huntington Park Dr",
    "address_councildis": "E",
    "status": "Pending",
    "contractor": "Legacy Professional Services",
    "rowid": "1134604",
    "final_x": "3705144.36516",
    "final_y": "560183.703325",
    "longitude": "-89.99235130275343",
    "latitude": "30.03357103491113",
    "geocoded_column": {
      "latitude": "30.03357103491113",
      "longitude": "-89.99235130275343"
    }
  },
  {
    "service_request": "2024-1134603",
    "request_type": "Property Maintenance",
    "request_reason": "Property Maintenance",
    "date_created": "2024-09-23T15:14:05.000",
    "date_modified": "2024-09-23T15:14:05.000",
    "request_status": "Pending",
    "responsible_agency": "Department of Code Enforcement",
    "final_address": "621 Bouny St",
    "address_councildis": "C",
    "status": "Pending",
    "rowid": "1134603",
    "final_x": "3686425.32374",
    "final_y": "529266.202817",
    "longitude": "-90.05259750182218",
    "latitude": "29.94914804765211",
    "geocoded_column": {
      "latitude": "29.94914804765211",
      "longitude": "-90.05259750182218"
    }
  },
  {
    "service_request": "2024-1134602",
    "request_type": "Property Maintenance",
    "request_reason": "Property Maintenance",
    "date_created": "2024-09-23T15:10:28.000",
    "date_modified": "2024-09-23T15:10:29.000",
    "request_status": "Pending",
    "responsible_agency": "Department of Code Enforcement",
    "final_address": "2407 Nashville Ave",
    "address_councildis": "A",
    "status": "Pending",
    "rowid": "1134602",
    "final_x": "3667143.42202",
    "final_y": "524940.558909",
    "longitude": "-90.11362453863686",
    "latitude": "29.937832443147723",
    "geocoded_column": {
      "latitude": "29.937832443147723",
      "longitude": "-90.11362453863686"
    }
  },