[
  {
    "service_request": "2026-1262441",
    "request_type": "Health Related Request",
    "request_reason": "Noise Ordinance Complaint",
    "date_created": "2026-03-03T23:16:30.000",
    "date_modified": "2026-03-03T23:16:33.000",
    "request_status": "Pending",
    "responsible_agency": "Health Department",
    "final_address": "801 Bourbon St",
    "address_councildis": "C",
    "status": "Pending",
    "rowid": "1262441",
    "final_x": "3682490.98735",
    "final_y": "533018.672772",
    "longitude": "-90.06488875731978",
    "latitude": "29.959586396383013",
    "geocoded_column": {
      "latitude": "29.959586396383013",
      "longitude": "-90.06488875731978"
    }
  },
  {
    "service_request": "2026-1262440",
    "request_type": "Trash/Recycling",
    "request_reason": "Order Recycling Cart",
    "date_created": "2026-03-03T22:56:01.000",
    "date_modified": "2026-03-03T22:56:04.000",
    "request_status": "Pending",
    "responsible_agency": "Department of Sanitation",
    "final_address": "1113 Louisa St",
    "address_councildis": "C",
    "status": "Pending",
    "rowid": "1262440",
    "final_x": "3689635.27324",
    "final_y": "536033.156295",
    "longitude": "-90.04222156388676",
    "latitude": "29.967655777145733",
    "geocoded_column": {
      "latitude": "29.967655777145733",
      "longitude": "-90.04222156388676"
    }
  },
  {
    "service_request": "2026-1262439",
    "request_type": "Abandoned Vehicles",
    "request_reason": "Abandoned/Junk Vehicles",
    "date_created": "2026-03-03T22:25:33.000",
    "date_modified": "2026-03-03T22:25:35.000",
    "request_status": "Pending",
    "responsible_agency": "Department of Public Works",
    "final_address": "4637 New Orleans St",
    "address_councildis": "D",
    "status": "Pending",
    "rowid": "1262439",
    "final_x": "3681355.34242",
    "final_y": "549651.516052",
    "longitude": "-90.06789481184593",
    "latitude": "30.005355417866447",
    "geocoded_column": {
      "latitude": "30.005355417866447",
      "longitude": "-90.06789481184593"
    }
  },
  {
    "service_request": "2026-1262438",
    "request_type": "Trash/Recycling",
    "request_reason": "Order Trash Cart",
    "date_created": "2026-03-03T22:07:02.000",
    "date_modified": "2026-03-03T22:07:05.000",
    "request_status": "Pending",
    "responsible_agency": "Department of Sanitation",
    "final_address": "917 Cherokee St",
    "address_councildis": "A",
    "status": "Assigned to Contractor",
    "contractor": "IV Waste",
    "rowid": "1262438",
    "final_x": "3662963.3808",
    "final_y": "526256.967102",
    "longitude": "-90.12677756900993",
    "latitude": "29.941573832266066",
    "geocoded_column": {
      "latitude": "29.941573832266066",
      "longitude": "-90.12677756900993"
    }
  },
  {
    "service_request": "2026-1262437",
    "request_type": "Streetlights",
    "request_reason": "Streetlight Outage/Malfunction",
    "date_created": "2026-03-03T22:01:45.000",
    "date_modified": "2026-03-03T22:01:47.000",
    "request_status": "Pending",
    "responsible_agency": "Department of Public Works",
    "final_address": "2805 Paris Ave",
    "address_councildis": "D",
    "status": "Pending",
    "rowid": "1262437",
    "final_x": "3680032.0573",
    "final_y": "542643.965197",
    "longitude": "-90.07231899364292",
    "latitude": "29.986127250566028",
    "geocoded_column": {
      "latitude": "29.986127250566028",
      "longitude": "-90.07231899364292"
    }
  },
  {
    "service_request": "2026-1262436",
    "request_type": "Streetlights",
    "request_reason": "Streetlight Outage/Malfunction",
    "date_created": "2026-03-03T21:02:08.000",
    "date_modified": "2026-03-03T21:02:10.000",
    "request_status": "Pending",
    "responsible_agency": "Department of Public Works",
    "final_address": "507 Seguin St",
    "address_councildis": "C",
    "status": "Pending",
    "rowid": "1262436",
    "final_x": "3686439.49366",
    "final_y": "529877.952769",
    "longitude": "-90.05253117057342",
    "latitude": "29.950829715824838",
    "geocoded_column": {
      "latitude": "29.950829715824838",
      "longitude": "-90.05253117057342"
    }
  },
  {
    "service_request": "2026-1262435",
    "request_type": "Roads and Streets",
    "request_reason": "Pothole",
    "date_created": "2026-03-03T20:59:34.000",
    "date_modified": "2026-03-03T20:59:35.000",
    "request_status": "Pending",
    "responsible_agency": "Department of Public Works",
    "final_address": "2219 Lowerline St",
    "address_councildis": "A",
    "status": "Pending",
    "rowid": "1262435",
    "final_x": "3665770.0866",
    "final_y": "529881.878785",
    "longitude": "-90.11779479641447",
    "latitude": "29.951459606465534",
    "geocoded_column": {
      "latitude": "29.951459606465534",
      "longitude": "-90.11779479641447"
    }
  },
  {
    "service_request": "2026-1262434",
    "request_type": "General Services",
    "request_reason": "General Service Request",
    "date_created": "2026-03-03T20:56:08.000",
    "date_modified": "2026-03-03T20:56:16.000",
    "request_status": "Pending",
    "responsible_agency": "Orleans Parish Communication District",
    "final_address": "607 Bordeaux St",
    "address_councildis": "B",
    "status": "Pending",
    "rowid": "1262434",
    "final_x": "3669716.66977",
    "final_y": "517730.20799",
    "longitude": "-90.10574444080785",
    "latitude": "29.9179307109184",
    "geocoded_column": {
      "latitude": "29.9179307109184",
      "longitude": "-90.10574444080785"
    }
  },
  {
    "service_request": "2026-1262433",
    "request_type": "Property Maintenance",
    "request_reason": "Property Maintenance",
    "date_created": "2026-03-03T20:48:58.000",
    "date_modified": "2026-03-03T20:48:59.000",
    "request_status": "Pending",
    "responsible_agency": "Department of Code Enforcement",
    "final_address": "8716 Nelson St",
    "address_councildis": "A",
    "status": "Pending",
    "rowid": "1262433",
    "final_x": "3663409.90183",
    "final_y": "533351.104004",
    "longitude": "-90.12513164039439",
    "latitude": "29.961067483439656",
    "geocoded_column": {
      "latitude": "29.961067483439656",
      "longitude": "-90.12513164039439"
    }
  },
  {
    "service_request": "2026-1262432",
    "request_type": "Trash/Recycling",
    "request_reason": "Request a Large Item Pick Up",
    "date_created": "2026-03-03T20:41:37.000",
    "date_modified": "2026-03-03T20:41:39.000",
    "request_status": "Pending",
    "responsible_agency": "Department of Sanitation",
    "final_address": "3810 Annunciation St",
    "address_councildis": "B",
    "status": "Assigned to Contractor",
    "contractor": "IV Waste",
    "rowid": "1262432",
    "final_x": "3673559.04411",
    "final_y": "517939.781878",
    "longitude": "-90.09360899390236",
    "latitude": "29.918393222545067",
    "geocoded_column": {
      "latitude": "29.918393222545067",
      "longitude": "-90.09360899390236"
    }
  },
  {
    "service_request": "2026-1262431",
    "request_type": "Trash/Recycling",
    "request_reason": "Order Second Trash Cart",
    "date_created": "2026-03-03T20:19:25.000",
    "date_modified": "2026-03-03T20:19:28.000",
    "request_status": "Pending",
    "responsible_agency": "Department of Sanitation",
    "final_address": "2535 Gravier St",
    "address_councildis": "B",
    "status": "Assigned to Contractor",
    "contractor": "IV Waste",
    "rowid": "1262431",
    "final_x": "3674671.8244",
    "final_y": "533046.898564",
    "longitude": "-90.08957893674994",
    "latitude": "29.959899696788746",
    "geocoded_column": {
      "latitude": "29.959899696788746",
      "longitude": "-90.08957893674994"
    }
  },
  {
    "service_request": "2026-1262430",
    "request_type": "Roads and Streets",
    "request_reason": "Pothole",
    "date_created": "2026-03-03T20:14:11.000",
    "date_modified": "2026-03-03T20:14:13.000",
    "request_status": "Pending",
    "responsible_agency": "Department of Public Works",
    "final_address": "7812 Scottwood Dr",
    "address_councildis": "E",
    "status": "Pending",
    "rowid": "1262430",
    "final_x": "3716572.80197",
    "final_y": "571543.001448",
    "longitude": "-89.95580504127884",
    "latitude": "30.064431749062777",
    "geocoded_column": {
      "latitude": "30.064431749062777",
      "longitude": "-89.95580504127884"
    }
  },
  {
    "service_request": "2026-1262429",
    "request_type": "Trash/Recycling",
    "request_reason": "Request a Large Item Pick Up",
    "date_created": "2026-03-03T19:33:18.000",
    "date_modified": "2026-03-03T19:33:19.000",
    "request_status": "Pending",
    "responsible_agency": "Department of Sanitation",
    "final_address": "4919 Tchoupitoulas St",
    "address_councildis": "B",
    "status": "Assigned to Contractor",
    "contractor": "IV Waste",
    "rowid": "1262429",
    "final_x": "3668781.14945",
    "final_y": "517263.134709",
    "longitude": "-90.10871313132934",
    "latitude": "29.916673932227354",
    "geocoded_column": {
      "latitude": "29.916673932227354",
      "longitude": "-90.10871313132934"
    }
  },
  {
    "service_request": "2026-1262428",
    "request_type": "Safety & Permits",
    "request_reason": "Licenses & Permits",
    "date_created": "2026-03-03T19:32:52.000",
    "date_modified": "2026-03-03T19:32:54.000",
    "request_status": "Pending",
    "responsible_agency": "Safety and Permits",
    "final_address": "5620 Rosemary Pl",
    "address_councildis": "A",
    "status": "Pending",
    "rowid": "1262428",
    "final_x": "3667088.00525",
    "final_y": "544957.290191",
    "longitude": "-90.11312653536545",
    "latitude": "29.99287344729997",
    "geocoded_column": {
      "latitude": "29.99287344729997",
      "longitude": "-90.11312653536545"
    }
  },
  {
    "service_request": "2026-1262427",
    "request_type": "Streetlights",
    "request_reason": "Streetlight Outage/Malfunction",
    "date_created": "2026-03-03T19:28:22.000",
    "date_modified": "2026-03-03T19:28:24.000",
    "request_status": "Pending",
    "responsible_agency": "Department of Public Works",
    "final_address": "5563 Rosemary Pl",
    "address_councildis": "A",
    "status": "Pending",
    "rowid": "1262427",
    "final_x": "3667186.42394",
    "final_y": "544460.624399",
    "longitude": "-90.11283235808882",
    "latitude": "29.991504904029423",
    "geocoded_column": {
      "latitude": "29.991504904029423",
      "longitude": "-90.11283235808882"
    }
  },
  {
    "service_request": "2026-1262426",
    "request_type": "General Services",
    "request_reason": "General Service Request",
    "date_created": "2026-03-03T19:20:32.000",
    "date_modified": "2026-03-03T19:20:35.000",
    "request_status": "Pending",
    "responsible_agency": "Orleans Parish Communication District",
    "final_address": "2025 S Chippewa St",
    "address_councildis": "B",
    "status": "Pending",
    "rowid": "1262426",
    "final_x": "3680374.50863",
    "final_y": "521126.701369",
    "longitude": "-90.07198548252208",
    "latitude": "29.926951694992788",
    "geocoded_column": {
      "latitude": "29.926951694992788",
      "longitude": "-90.07198548252208"
    }
  },
  {
    "service_request": "2026-1262425",
    "request_type": "Abandoned Vehicles",
    "request_reason": "Abandoned/Junk Vehicles",
    "date_created": "2026-03-03T19:14:42.000",
    "date_modified": "2026-03-03T19:14:44.000",
    "request_status": "Pending",
    "responsible_agency": "Department of Public Works",
    "final_address": "5612 Chestnut St",
    "address_councildis": "A",
    "status": "Pending",
    "rowid": "1262425",
    "final_x": "3666078.69076",
    "final_y": "519529.868151",
    "longitude": "-90.11716729891765",
    "latitude": "29.92298588031543",
    "geocoded_column": {
      "latitude": "29.92298588031543",
      "longitude": "-90.11716729891765"
    }
  },
  {
    "service_request": "2026-1262424",
    "request_type": "Trash/Recycling",
    "request_reason": "Repair Trash Cart",
    "date_created": "2026-03-03T19:13:09.000",
    "date_modified": "2026-03-03T19:13:12.000",
    "request_status": "Pending",
    "responsible_agency": "Department of Sanitation",
    "final_address": "2404 Lavender St",
    "address_councildis": "D",
    "status": "Assigned to Contractor",
    "contractor": "IV Waste",
    "rowid": "1262424",
    "final_x": "3686037.62191",
    "final_y": "546813.699729",
    "longitude": "-90.05320265929743",
    "latitude": "29.997409433523266",
    "geocoded_column": {
      "latitude": "29.997409433523266",
      "longitude": "-90.05320265929743"
    }
  },
  {
    "service_request": "2026-1262423",
    "request_type": "Streetlights",
    "request_reason": "Streetlight Outage/Malfunction",
    "date_created": "2026-03-03T18:50:54.000",
    "date_modified": "2026-03-03T18:50:56.000",
    "request_status": "Pending",
    "responsible_agency": "Department of Public Works",
    "final_address": "6160 Milne Blvd",
    "address_councildis": "A",
    "status": "Pending",
    "rowid": "1262423",
    "final_x": "3667039.1289",
    "final_y": "548677.470611",
    "longitude": "-90.11315578980899",
    "latitude": "30.00310409388845",
    "geocoded_column": {
      "latitude": "30.00310409388845",
      "longitude": "-90.11315578980899"
    }
  },
  {
    "service_request": "2026-1262422",
    "request_type": "Trash/Recycling",
    "request_reason": "Replace Recycling Cart",
    "date_created": "2026-03-03T18:48:57.000",
    "date_modified": "2026-03-03T18:48:59.000",
    "request_status": "Pending",
    "responsible_agency": "Department of Sanitation",
    "final_address": "5818 Chatham Dr",
    "address_councildis": "D",
    "status": "Pending",
    "rowid": "1262422",
    "final_x": "3679565.38997",
    "final_y": "554006.128344",
    "longitude": "-90.0733983916079",
    "latitude": "30.017383266043957",
    "geocoded_column": {
      "latitude": "30.017383266043957",
      "longitude": "-90.0733983916079"
    }
  },
  {
    "service_request": "2026-1262421",
    "request_type": "Trash/Recycling",
    "request_reason": "Missed Trash Pick-Up",
    "date_created": "2026-03-03T18:30:14.000",
    "date_modified": "2026-03-03T18:30:18.000",
    "request_status": "Pending",
    "responsible_agency": "Department of Sanitation",
    "final_address": "700 Eleonore St, New Orleans, Louisiana, 70115",
    "address_councildis": "A",
    "status": "Assigned to Contractor",
    "contractor": "IV Waste",
    "rowid": "1262421",
    "final_x": "3665122.49901",
    "final_y": "518771.368887",
    "longitude": "-90.12021098630993",
    "latitude": "29.92092811621476",
    "geocoded_column": {
      "latitude": "29.92092811621476",
      "longitude": "-90.12021098630993"
    }
  },
  {
    "service_request": "2026-1262420",
    "request_type": "Trash/Recycling",
    "request_reason": "Request a Large Item Pick Up",
    "date_created": "2026-03-03T18:14:42.000",
    "date_modified": "2026-03-03T18:14:44.000",
    "request_status": "Pending",
    "responsible_agency": "Department of Sanitation",
    "final_address": "4968 Read Blvd",
    "address_councildis": "E",
    "status": "Assigned to Contractor",
    "contractor": "Waste Pro",
    "rowid": "1262420",
    "final_x": "3712549.51115",
    "final_y": "557361.599771",
    "longitude": "-89.96905663853717",
    "latitude": "30.02557100089648",
    "geocoded_column": {
      "latitude": "30.02557100089648",
      "longitude": "-89.96905663853717"
    }
  },
  {
    "service_request": "2026-1262419",
    "request_type": "General Services",
    "request_reason": "General Service Request",
    "date_created": "2026-03-03T18:13:52.000",
    "date_modified": "2026-03-03T18:13:56.000",
    "request_status": "Pending",
    "responsible_agency": "Orleans Parish Communication District",
    "final_address": "1750 St Charles Ave",
    "address_councildis": "B",
    "status": "Pending",
    "rowid": "1262419",
    "final_x": "3678708.23739",
    "final_y": "524583.7655",
    "longitude": "-90.07712582148702",
    "latitude": "29.93650781826905",
    "geocoded_column": {
      "latitude": "29.93650781826905",
      "longitude": "-90.07712582148702"
    }
  },
  {
    "service_request": "2026-1262418",
    "request_type": "Trash/Recycling",
    "request_reason": "Damaged Caused By Contractor",
    "date_created": "2026-03-03T18:04:41.000",
    "date_modified": "2026-03-03T18:04:43.000",
    "request_status": "Pending",
    "responsible_agency": "Department of Sanitation",
    "final_address": "8 Grand Canyon Dr",
    "address_councildis": "C",
    "status": "Assigned to Contractor",
    "contractor": "Richards Disposal",
    "rowid": "1262418",
    "final_x": "3699469.12106",
    "final_y": "517562.31999",
    "longitude": "-90.0118389547415",
    "latitude": "29.916559089228862",
    "geocoded_column": {
      "latitude": "29.916559089228862",
      "longitude": "-90.0118389547415"
    }
  },
  {
    "service_request": "2026-1262417",
    "request_type": "Abandoned Vehicles",
    "request_reason": "Abandoned/Junk Vehicles",
    "date_created": "2026-03-03T17:46:16.000",
    "date_modified": "2026-03-03T17:46:18.000",
    "request_status": "Pending",
    "responsible_agency": "Department of Public Works",
    "final_address": "2400 BLK Delachaise St",
    "address_councildis": "B",
    "status": "Pending",
    "rowid": "1262417",
    "final_x": "3672630.42636",
    "final_y": "524167.142726",
    "longitude": "-90.09632794665208",
    "latitude": "29.93554405828642",
    "geocoded_column": {
      "latitude": "29.93554405828642",
      "longitude": "-90.09632794665208"
    }
  },
  {
    "service_request": "2026-1262416",
    "request_type": "Trash/Recycling",
    "request_reason": "Missed Trash Pick-Up",
    "date_created": "2026-03-03T17:21:54.000",
    "date_modified": "2026-03-03T17:21:58.000",
    "request_status": "Pending",
    "responsible_agency": "Department of Sanitation",
    "final_address": "6710 Orleans Ave",
    "address_councildis": "A",
    "status": "Assigned to Contractor",
    "contractor": "IV Waste",
    "rowid": "1262416",
    "final_x": "3671232.86356",
    "final_y": "551966.03439",
    "longitude": "-90.09979529195809",
    "latitude": "30.012023027296934",
    "geocoded_column": {
      "latitude": "30.012023027296934",
      "longitude": "-90.09979529195809"
    }
  },
  {
    "service_request": "2026-1262415",
    "request_type": "Trash/Recycling",
    "request_reason": "Request a Large Item Pick Up",
    "date_created": "2026-03-03T17:19:55.000",
    "date_modified": "2026-03-03T17:19:57.000",
    "request_status": "Pending",
    "responsible_agency": "Department of Sanitation",
    "final_address": "1218 N Johnson St",
    "address_councildis": "D",
    "status": "Assigned to Contractor",
    "contractor": "IV Waste",
    "rowid": "1262415",
    "final_x": "3679888.57768",
    "final_y": "537053.2866",
    "longitude": "-90.07296642722123",
    "latitude": "29.970759164006644",
    "geocoded_column": {
      "latitude": "29.970759164006644",
      "longitude": "-90.07296642722123"
    }
  },
  {
    "service_request": "2026-1262414",
    "request_type": "Trash/Recycling",
    "request_reason": "Repair Trash Cart",
    "date_created": "2026-03-03T17:07:48.000",
    "date_modified": "2026-03-03T17:07:50.000",
    "request_status": "Pending",
    "responsible_agency": "Department of Sanitation",
    "final_address": "814 Bordeaux St",
    "address_councildis": "B",
    "status": "Assigned to Contractor",
    "contractor": "IV Waste",
    "rowid": "1262414",
    "final_x": "3669565.08103",
    "final_y": "518408.02367",
    "longitude": "-90.10620001189729",
    "latitude": "29.91979895470809",
    "geocoded_column": {
      "latitude": "29.91979895470809",
      "longitude": "-90.10620001189729"
    }
  },
  {
    "service_request": "2026-1262413",
    "request_type": "Trash/Recycling",
    "request_reason": "Replace Trash Cart",
    "date_created": "2026-03-03T17:01:44.000",
    "date_modified": "2026-03-03T17:01:46.000",
    "request_status": "Pending",
    "responsible_agency": "Department of Sanitation",
    "final_address": "5019 Good Dr",
    "address_councildis": "E",
    "status": "Assigned to Contractor",
    "contractor": "Waste Pro",
    "rowid": "1262413",
    "final_x": "3714739.14872",
    "final_y": "557945.939611",
    "longitude": "-89.9621156749641",
    "latitude": "30.027105837235606",
    "geocoded_column": {
      "latitude": "30.027105837235606",
      "longitude": "-89.9621156749641"
    }
  },
  {
    "service_request": "2026-1262412",
    "request_type": "Utility Poles",
    "request_reason": "Wires Sagging/Hanging Low",
    "date_created": "2026-03-03T17:00:53.000",
    "date_modified": "2026-03-03T17:00:56.000",
    "request_status": "Pending",
    "responsible_agency": "Utility Company Collective",
    "final_address": "3200 BLK Cherry St",
    "address_councildis": "A",
    "status": "Pending",
    "rowid": "1262412",
    "final_x": "3663764.90406",
    "final_y": "536634.102044",
    "longitude": "-90.12390117874139",
    "latitude": "29.970084352272533",
    "geocoded_column": {
      "latitude": "29.970084352272533",
      "longitude": "-90.12390117874139"
    }
  },
  {
    "service_request": "2026-1262411",
    "request_type": "Trash/Recycling",
    "request_reason": "Request a Large Item Pick Up",
    "date_created": "2026-03-03T16:43:41.000",
    "date_modified": "2026-03-03T16:43:43.000",
    "request_status": "Pending",
    "responsible_agency": "Department of Sanitation",
    "final_address": "14021 Linden St",
    "address_councildis": "E",
    "status": "Assigned to Contractor",
    "contractor": "Waste Pro",
    "rowid": "1262411",
    "final_x": "3718384.33113",
    "final_y": "572516.798633",
    "longitude": "-89.95004154345258",
    "latitude": "30.067049277630513",
    "geocoded_column": {
      "latitude": "30.067049277630513",
      "longitude": "-89.95004154345258"
    }
  },
  {
    "service_request": "2026-1262410",
    "request_type": "Streetlights",
    "request_reason": "Streetlight Outage/Malfunction",
    "date_created": "2026-03-03T16:41:45.000",
    "date_modified": "2026-03-03T16:41:48.000",
    "request_status": "Pending",
    "responsible_agency": "Department of Public Works",
    "final_address": "6941 Manchester St",
    "address_councildis": "E",
    "status": "Pending",
    "rowid": "1262410",
    "final_x": "3698876.36183",
    "final_y": "560179.754397",
    "longitude": "-90.01215891978553",
    "latitude": "30.033760385134865",
    "geocoded_column": {
      "latitude": "30.033760385134865",
      "longitude": "-90.01215891978553"
    }
  },
  {
    "service_request": "2026-1262409",
    "request_type": "Trash/Recycling",
    "request_reason": "Request a Large Item Pick Up",
    "date_created": "2026-03-03T16:39:46.000",
    "date_modified": "2026-03-03T16:39:48.000",
    "request_status": "Pending",
    "responsible_agency": "Department of Sanitation",
    "final_address": "1716 Washington Ave",
    "address_councildis": "B",
    "status": "Assigned to Contractor",
    "contractor": "IV Waste",
    "rowid": "1262409",
    "final_x": "3675587.92334",
    "final_y": "522938.581371",
    "longitude": "-90.08703327891132",
    "latitude": "29.932077792279404",
    "geocoded_column": {
      "latitude": "29.932077792279404",
      "longitude": "-90.08703327891132"
    }
  },
  {
    "service_request": "2026-1262408",
    "request_type": "Trash/Recycling",
    "request_reason": "Request a Large Item Pick Up",
    "date_created": "2026-03-03T16:33:41.000",
    "date_modified": "2026-03-03T16:33:42.000",
    "request_status": "Pending",
    "responsible_agency": "Department of Sanitation",
    "final_address": "4566 Viola St",
    "address_councildis": "E",
    "status": "Assigned to Contractor",
    "contractor": "Waste Pro",
    "rowid": "1262408",
    "final_x": "3704052.03646",
    "final_y": "554030.100952",
    "longitude": "-89.99603011066687",
    "latitude": "30.01668611615896",
    "geocoded_column": {
      "latitude": "30.01668611615896",
      "longitude": "-89.99603011066687"
    }
  },
  {
    "service_request": "2026-1262407",
    "request_type": "Trash/Recycling",
    "request_reason": "Request a Large Item Pick Up",
    "date_created": "2026-03-03T16:32:56.000",
    "date_modified": "2026-03-03T16:32:57.000",
    "request_status": "Pending",
    "responsible_agency": "Department of Sanitation",
    "final_address": "254 Hillary St",
    "address_councildis": "A",
    "status": "Assigned to Contractor",
    "contractor": "IV Waste",
    "rowid": "1262407",
    "final_x": "3661053.46624",
    "final_y": "524756.941436",
    "longitude": "-90.13285719965295",
    "latitude": "29.93750439724881",
    "geocoded_column": {
      "latitude": "29.93750439724881",
      "longitude": "-90.13285719965295"
    }
  },
  {
    "service_request": "2026-1262406",
    "request_type": "Trash/Recycling",
    "request_reason": "Order Recycling Cart",
    "date_created": "2026-03-03T16:31:33.000",
    "date_modified": "2026-03-03T16:31:35.000",
    "request_status": "Pending",
    "responsible_agency": "Department of Sanitation",
    "final_address": "344 Audubon St",
    "address_councildis": "A",
    "status": "Pending",
    "rowid": "1262406",
    "final_x": "3661784.36",
    "final_y": "522465.429114",
    "longitude": "-90.13062563964723",
    "latitude": "29.93118238465978",
    "geocoded_column": {
      "latitude": "29.93118238465978",
      "longitude": "-90.13062563964723"
    }
  },
  {
    "service_request": "2026-1262405",
    "request_type": "Trash/Recycling",
    "request_reason": "Request a Large Item Pick Up",
    "date_created": "2026-03-03T16:26:47.000",
    "date_modified": "2026-03-03T16:26:49.000",
    "request_status": "Pending",
    "responsible_agency": "Department of Sanitation",
    "final_address": "4818 Lancelot Dr",
    "address_councildis": "E",
    "status": "Assigned to Contractor",
    "contractor": "Waste Pro",
    "rowid": "1262405",
    "final_x": "3707318.23428",
    "final_y": "556089.75401",
    "longitude": "-89.98563385706647",
    "latitude": "30.022244144493765",
    "geocoded_column": {
      "latitude": "30.022244144493765",
      "longitude": "-89.98563385706647"
    }
  },
  {
    "service_request": "2026-1262404",
    "request_type": "Trash/Recycling",
    "request_reason": "Request a Large Item Pick Up",
    "date_created": "2026-03-03T16:22:05.000",
    "date_modified": "2026-03-03T16:22:06.000",
    "request_status": "Pending",
    "responsible_agency": "Department of Sanitation",
    "final_address": "5721 Wright Rd",
    "address_councildis": "E",
    "status": "Assigned to Contractor",
    "contractor": "Waste Pro",
    "rowid": "1262404",
    "final_x": "3714724.35083",
    "final_y": "561050.372766",
    "longitude": "-89.9620450366768",
    "latitude": "30.03564227483661",
    "geocoded_column": {
      "latitude": "30.03564227483661",
      "longitude": "-89.9620450366768"
    }
  },
  {
    "service_request": "2026-1262403",
    "request_type": "Trash/Recycling",
    "request_reason": "Request a Large Item Pick Up",
    "date_created": "2026-03-03T16:20:09.000",
    "date_modified": "2026-03-03T16:20:26.000",
    "request_status": "Pending",
    "responsible_agency": "Department of Sanitation",
    "final_address": "1724 St Roch Ave",
    "address_councildis": "D",
    "status": "Assigned to Contractor",
    "contractor": "IV Waste",
    "rowid": "1262403",
    "final_x": "3686221.08822",
    "final_y": "538830.651209",
    "longitude": "-90.05290489895715",
    "latitude": "29.975453249552594",
    "geocoded_column": {
      "latitude": "29.975453249552594",
      "longitude": "-90.05290489895715"
    }
  },
  {
    "service_request": "2026-1262402",
    "request_type": "Health Related Request",
    "request_reason": "Homeless Encampment Complaint",
    "date_created": "2026-03-03T16:19:31.000",
    "date_modified": "2026-03-03T16:19:33.000",
    "request_status": "Pending",
    "responsible_agency": "Office Of Homeless Services And Strategy",
    "final_address": "1513 N Villere St",
    "address_councildis": "C",
    "status": "Pending",
    "rowid": "1262402",
    "final_x": "3682326.73455",
    "final_y": "536886.938184",
    "longitude": "-90.06527224924432",
    "latitude": "29.97022779643756",
    "geocoded_column": {
      "latitude": "29.97022779643756",
      "longitude": "-90.06527224924432"
    }
  },
  {
    "service_request": "2026-1262401",
    "request_type": "Trash/Recycling",
    "request_reason": "Request a Large Item Pick Up",
    "date_created": "2026-03-03T16:18:33.000",
    "date_modified": "2026-03-03T16:18:36.000",
    "request_status": "Pending",
    "responsible_agency": "Department of Sanitation",
    "final_address": "6947 Mayo Rd",
    "address_councildis": "E",
    "status": "Assigned to Contractor",
    "contractor": "Waste Pro",
    "rowid": "1262401",
    "final_x": "3701902.06442",
    "final_y": "558424.932636",
    "longitude": "-90.00266180883877",
    "latitude": "30.028839033320324",
    "geocoded_column": {
      "latitude": "30.028839033320324",
      "longitude": "-90.00266180883877"
    }
  },
  {
    "service_request": "2026-1262400",
    "request_type": "Trash/Recycling",
    "request_reason": "Request a Large Item Pick Up",
    "date_created": "2026-03-03T16:17:01.000",
    "date_modified": "2026-03-03T16:17:03.000",
    "request_status": "Pending",
    "responsible_agency": "Department of Sanitation",
    "final_address": "4610 Gabriel Dr",
    "address_councildis": "E",
    "status": "Assigned to Contractor",
    "contractor": "Waste Pro",
    "rowid": "1262400",
    "final_x": "3708902.67256",
    "final_y": "554848.884184",
    "longitude": "-89.98067375488039",
    "latitude": "30.01878089957786",
    "geocoded_column": {
      "latitude": "30.01878089957786",
      "longitude": "-89.98067375488039"
    }
  },
  {
    "service_request": "2026-1262398",
    "request_type": "Trash/Recycling",
    "request_reason": "Request a Large Item Pick Up",
    "date_created": "2026-03-03T16:14:03.000",
    "date_modified": "2026-03-03T16:14:04.000",
    "request_status": "Pending",
    "responsible_agency": "Department of Sanitation",
    "final_address": "2100 Second St",
    "address_councildis": "B",
    "status": "Assigned to Contractor",
    "contractor": "IV Waste",
    "rowid": "1262398",
    "final_x": "3675665.39733",
    "final_y": "524547.265404",
    "longitude": "-90.08673345079691",
    "latitude": "29.936498831181737",
    "geocoded_column": {
      "latitude": "29.936498831181737",
      "longitude": "-90.08673345079691"
    }
  },
  {
    "service_request": "2026-1262397",
    "request_type": "Trash/Recycling",
    "request_reason": "Request a Large Item Pick Up",
    "date_created": "2026-03-03T16:12:56.000",
    "date_modified": "2026-03-03T16:12:57.000",
    "request_status": "Pending",
    "responsible_agency": "Department of Sanitation",
    "final_address": "1224 Marengo St",
    "address_councildis": "B",
    "status": "Assigned to Contractor",
    "contractor": "IV Waste",
    "rowid": "1262397",
    "final_x": "3671980.62318",
    "final_y": "520128.142584",
    "longitude": "-90.09851679856934",
    "latitude": "29.924457380369354",
    "geocoded_column": {
      "latitude": "29.924457380369354",
      "longitude": "-90.09851679856934"
    }
  },
  {
    "service_request": "2026-1262396",
    "request_type": "Trash/Recycling",
    "request_reason": "Missed Trash Pick-Up",
    "date_created": "2026-03-03T16:12:18.000",
    "date_modified": "2026-03-03T16:58:00.000",
    "case_close_date": "2026-03-03T10:57:59.000",
    "request_status": "Closed",
    "responsible_agency": "Department of Sanitation",
    "final_address": "2533 Columbus St",
    "address_councildis": "D",
    "status": "Invalid Request",
    "contractor": "IV Waste",
    "contractor_action": "Invalid Request",
    "rowid": "1262396",
    "final_x": "3679001.54542",
    "final_y": "539340.392522",
    "longitude": "-90.07568850693315",
    "latitude": "29.97707471639367",
    "geocoded_column": {
      "latitude": "29.97707471639367",
      "longitude": "-90.07568850693315"
    }
  },
  {
    "service_request": "2026-1262395",
    "request_type": "Roads and Streets",
    "request_reason": "Push-up/Pavement Expansion",
    "date_created": "2026-03-03T16:08:20.000",
    "date_modified": "2026-03-03T16:08:22.000",
    "request_status": "Pending",
    "responsible_agency": "Department of Public Works",
    "final_address": "6458 Colbert St",
    "address_councildis": "A",
    "status": "Pending",
    "rowid": "1262395",
    "final_x": "3667623.46708",
    "final_y": "550658.996308",
    "longitude": "-90.11124300817106",
    "latitude": "30.008535477415492",
    "geocoded_column": {
      "latitude": "30.008535477415492",
      "longitude": "-90.11124300817106"
    }
  },
  {
    "service_request": "2026-1262394",
    "request_type": "Streetlights",
    "request_reason": "Streetlight Outage/Malfunction",
    "date_created": "2026-03-03T16:07:13.000",
    "date_modified": "2026-03-03T16:07:15.000",
    "request_status": "Pending",
    "responsible_agency": "Department of Public Works",
    "final_address": "1932 Lapeyrouse St",
    "address_councildis": "D",
    "status": "Pending",
    "rowid": "1262394",
    "final_x": "3681073.07637",
    "final_y": "538534.966281",
    "longitude": "-90.069174011783",
    "latitude": "29.974797393120788",
    "geocoded_column": {
      "latitude": "29.974797393120788",
      "longitude": "-90.069174011783"
    }
  },
  {
    "service_request": "2026-1262393",
    "request_type": "Trash/Recycling",
    "request_reason": "Request a Large Item Pick Up",
    "date_created": "2026-03-03T16:01:30.000",
    "date_modified": "2026-03-03T16:01:31.000",
    "request_status": "Pending",
    "responsible_agency": "Department of Sanitation",
    "final_address": "2718 Annunciation St",
    "address_councildis": "B",
    "status": "Assigned to Contractor",
    "contractor": "IV Waste",
    "rowid": "1262393",
    "final_x": "3677804.18363",
    "final_y": "519974.795448",
    "longitude": "-90.08013909547412",
    "latitude": "29.92386187774481",
    "geocoded_column": {
      "latitude": "29.92386187774481",
      "longitude": "-90.08013909547412"
    }
  },
  {
    "service_request": "2026-1262392",
    "request_type": "Trash/Recycling",
    "request_reason": "Request a Large Item Pick Up",
    "date_created": "2026-03-03T16:00:03.000",
    "date_modified": "2026-03-03T16:00:04.000",
    "request_status": "Pending",
    "responsible_agency": "Department of Sanitation",
    "final_address": "2221 St Philip St",
    "address_councildis": "D",
    "status": "Assigned to Contractor",
    "contractor": "IV Waste",
    "rowid": "1262392",
    "final_x": "3678922.46069",
    "final_y": "536728.465223",
    "longitude": "-90.07602879985699",
    "latitude": "29.96989520122891",
    "geocoded_column": {
      "latitude": "29.96989520122891",
      "longitude": "-90.07602879985699"
    }
  },
  {
    "service_request": "2026-1262391",
    "request_type": "Trash/Recycling",
    "request_reason": "Request a Large Item Pick Up",
    "date_created": "2026-03-03T15:56:58.000",
    "date_modified": "2026-03-03T15:56:59.000",
    "request_status": "Pending",
    "responsible_agency": "Department of Sanitation",
    "final_address": "4937 Robin Hood Dr",
    "address_councildis": "E",
    "status": "Assigned to Contractor",
    "contractor": "Waste Pro",
    "rowid": "1262391",
    "final_x": "3717479.70508",
    "final_y": "557905.344987",
    "longitude": "-89.95345742073157",
    "latitude": "30.026903756864698",
    "geocoded_column": {
      "latitude": "30.026903756864698",
      "longitude": "-89.95345742073157"
    }
  },
  {
    "service_request": "2026-1262390",
    "request_type": "Trash/Recycling",
    "request_reason": "Illegal Dumping",
    "date_created": "2026-03-03T15:56:09.000",
    "date_modified": "2026-03-03T15:56:10.000",
    "request_status": "Pending",
    "responsible_agency": "Department of Code Enforcement",
    "final_address": "3421 Hamilton St",
    "address_councildis": "A",
    "status": "Pending",
    "rowid": "1262390",
    "final_x": "3664791.88436",
    "final_y": "536666.083015",
    "longitude": "-90.12065678784445",
    "latitude": "29.97014244373564",
    "geocoded_column": {
      "latitude": "29.97014244373564",
      "longitude": "-90.12065678784445"
    }
  },
  {
    "service_request": "2026-1262389",
    "request_type": "Trash/Recycling",
    "request_reason": "Repair Recycling Cart",
    "date_created": "2026-03-03T15:54:51.000",
    "date_modified": "2026-03-03T15:54:53.000",
    "request_status": "Pending",
    "responsible_agency": "Department of Sanitation",
    "final_address": "5520 Pitt St",
    "address_councildis": "A",
    "status": "Pending",
    "rowid": "1262389",
    "final_x": "3666641.8866",
    "final_y": "520646.555833",
    "longitude": "-90.11535203295246",
    "latitude": "29.92603997068255",
    "geocoded_column": {
      "latitude": "29.92603997068255",
      "longitude": "-90.11535203295246"
    }
  },
  {
    "service_request": "2026-1262388",
    "request_type": "Trash/Recycling",
    "request_reason": "Request a Large Item Pick Up",
    "date_created": "2026-03-03T15:51:21.000",
    "date_modified": "2026-03-03T15:51:22.000",
    "request_status": "Pending",
    "responsible_agency": "Department of Sanitation",
    "final_address": "2653 Gallinghouse St",
    "address_councildis": "C",
    "status": "Assigned to Contractor",
    "contractor": "Richards Disposal",
    "rowid": "1262388",
    "final_x": "3700035.13572",
    "final_y": "521203.956793",
    "longitude": "-90.00991963500225",
    "latitude": "29.926554381958187",
    "geocoded_column": {
      "latitude": "29.926554381958187",
      "longitude": "-90.00991963500225"
    }
  },
  {
    "service_request": "2026-1262387",
    "request_type": "Trash/Recycling",
    "request_reason": "Request a Large Item Pick Up",
    "date_created": "2026-03-03T15:51:06.000",
    "date_modified": "2026-03-03T15:51:08.000",
    "request_status": "Pending",
    "responsible_agency": "Department of Sanitation",
    "final_address": "723 Bordeaux St",
    "address_councildis": "B",
    "status": "Assigned to Contractor",
    "contractor": "IV Waste",
    "rowid": "1262387",
    "final_x": "3669675.86676",
    "final_y": "518114.03487",
    "longitude": "-90.10586025545891",
    "latitude": "29.91898731558808",
    "geocoded_column": {
      "latitude": "29.91898731558808",
      "longitude": "-90.10586025545891"
    }
  },
  {
    "service_request": "2026-1262386",
    "request_type": "Graffiti Removal",
    "request_reason": "Graffiti Removal",
    "date_created": "2026-03-03T15:49:10.000",
    "date_modified": "2026-03-03T15:49:11.000",
    "request_status": "Pending",
    "responsible_agency": "Department of Code Enforcement",
    "final_address": "Esplanade Avenue & Wisner Boulevard",
    "address_councildis": "A",
    "status": "Pending",
    "rowid": "1262386",
    "final_x": "3674531.38222",
    "final_y": "541842.509708",
    "longitude": "-90.08972097722518",
    "latitude": "29.984088829983364",
    "geocoded_column": {
      "latitude": "29.984088829983364",
      "longitude": "-90.08972097722518"
    }
  },
  {
    "service_request": "2026-1262385",
    "request_type": "Health Related Request",
    "request_reason": "Homeless Encampment Complaint",
    "date_created": "2026-03-03T15:46:30.000",
    "date_modified": "2026-03-03T15:47:56.000",
    "request_status": "Pending",
    "responsible_agency": "Office Of Homeless Services And Strategy",
    "final_address": "ELYSIAN FIELDS AV OVER & FLORIDA AVE",
    "address_councildis": "D",
    "status": "Pending",
    "rowid": "1262385",
    "final_x": "3684508.45",
    "final_y": "542348.88",
    "longitude": "-90.05819021267064",
    "latitude": "29.98517965418547",
    "geocoded_column": {
      "latitude": "29.98517965418547",
      "longitude": "-90.05819021267064"
    }
  },
  {
    "service_request": "2026-1262384",
    "request_type": "Trash/Recycling",
    "request_reason": "Request a Large Item Pick Up",
    "date_created": "2026-03-03T15:43:17.000",
    "date_modified": "2026-03-03T15:43:19.000",
    "request_status": "Pending",
    "responsible_agency": "Department of Sanitation",
    "final_address": "7569 Dearborn Rd",
    "address_councildis": "E",
    "status": "Assigned to Contractor",
    "contractor": "Waste Pro",
    "rowid": "1262384",
    "final_x": "3709427.58949",
    "final_y": "564551.714209",
    "longitude": "-89.97865277045501",
    "latitude": "30.045442799163883",
    "geocoded_column": {
      "latitude": "30.045442799163883",
      "longitude": "-89.97865277045501"
    }
  },
  {
    "service_request": "2026-1262383",
    "request_type": "Trash/Recycling",
    "request_reason": "Request a Large Item Pick Up",
    "date_created": "2026-03-03T15:42:16.000",
    "date_modified": "2026-03-03T15:42:18.000",
    "request_status": "Pending",
    "responsible_agency": "Department of Sanitation",
    "final_address": "1215 Touro St",
    "address_councildis": "C",
    "status": "Assigned to Contractor",
    "contractor": "IV Waste",
    "rowid": "1262383",
    "final_x": "3684219.21596",
    "final_y": "536757.197128",
    "longitude": "-90.05930015701607",
    "latitude": "29.969813330638814",
    "geocoded_column": {
      "latitude": "29.969813330638814",
      "longitude": "-90.05930015701607"
    }
  },
  {
    "service_request": "2026-1262382",
    "request_type": "Graffiti Removal",
    "request_reason": "Graffiti Removal",
    "date_created": "2026-03-03T15:40:09.000",
    "date_modified": "2026-03-03T15:40:10.000",
    "request_status": "Pending",
    "responsible_agency": "Department of Code Enforcement",
    "final_address": "Esplanade Avenue & Wisner Boulevard",
    "address_councildis": "A",
    "status": "Pending",
    "rowid": "1262382",
    "final_x": "3674531.38222",
    "final_y": "541842.509708",
    "longitude": "-90.08972097722518",
    "latitude": "29.984088829983364",
    "geocoded_column": {
      "latitude": "29.984088829983364",
      "longitude": "-90.08972097722518"
    }
  },
  {
    "service_request": "2026-1262381",
    "request_type": "Roads and Streets",
    "request_reason": "Debris in Driving Lanes",
    "date_created": "2026-03-03T15:35:42.000",
    "date_modified": "2026-03-03T15:35:44.000",
    "request_status": "Pending",
    "responsible_agency": "Department of Public Works",
    "final_address": "1544 Pressburg St",
    "address_councildis": "D",
    "status": "Pending",
    "rowid": "1262381",
    "final_x": "3678723.28245",
    "final_y": "553965.289752",
    "longitude": "-90.07606053016241",
    "latitude": "30.017296408321847",
    "geocoded_column": {
      "latitude": "30.017296408321847",
      "longitude": "-90.07606053016241"
    }
  },
  {
    "service_request": "2026-1262380",
    "request_type": "Trash/Recycling",
    "request_reason": "Request a Large Item Pick Up",
    "date_created": "2026-03-03T15:35:15.000",
    "date_modified": "2026-03-03T15:35:40.000",
    "request_status": "Pending",
    "responsible_agency": "Department of Sanitation",
    "final_address": "1112 Third St",
    "address_councildis": "B",
    "status": "Assigned to Contractor",
    "contractor": "IV Waste",
    "rowid": "1262380",
    "final_x": "3677451.66139",
    "final_y": "521252.228089",
    "longitude": "-90.08120781732588",
    "latitude": "29.9273849994647",
    "geocoded_column": {
      "latitude": "29.9273849994647",
      "longitude": "-90.08120781732588"
    }
  },
  {
    "service_request": "2026-1262379",
    "request_type": "Trash/Recycling",
    "request_reason": "Request a Large Item Pick Up",
    "date_created": "2026-03-03T15:34:49.000",
    "date_modified": "2026-03-03T15:34:50.000",
    "request_status": "Pending",
    "responsible_agency": "Department of Sanitation",
    "final_address": "9023 Bunker Hill Rd",
    "address_councildis": "E",
    "status": "Assigned to Contractor",
    "contractor": "Waste Pro",
    "rowid": "1262379",
    "final_x": "3706262.20145",
    "final_y": "561864.708511",
    "longitude": "-89.98875650960085",
    "latitude": "30.038157118695278",
    "geocoded_column": {
      "latitude": "30.038157118695278",
      "longitude": "-89.98875650960085"
    }
  },
  {
    "service_request": "2026-1262378",
    "request_type": "Safety & Permits",
    "request_reason": "Licenses & Permits",
    "date_created": "2026-03-03T15:34:30.000",
    "date_modified": "2026-03-03T15:34:34.000",
    "request_status": "Pending",
    "responsible_agency": "Safety and Permits",
    "final_address": "1315 Mandeville St",
    "address_councildis": "C",
    "status": "Pending",
    "rowid": "1262378",
    "final_x": "3685739.1935",
    "final_y": "537243.463368",
    "longitude": "-90.05448279682304",
    "latitude": "29.971103835872395",
    "geocoded_column": {
      "latitude": "29.971103835872395",
      "longitude": "-90.05448279682304"
    }
  },
  {
    "service_request": "2026-1262377",
    "request_type": "Utility Poles",
    "request_reason": "Wires Sagging/Hanging Low",
    "date_created": "2026-03-03T15:33:29.000",
    "date_modified": "2026-03-03T15:33:33.000",
    "request_status": "Pending",
    "responsible_agency": "Utility Company Collective",
    "final_address": "617 Bellecastle St",
    "address_councildis": "B",
    "status": "Pending",
    "rowid": "1262377",
    "final_x": "3667700.4057",
    "final_y": "517718.281782",
    "longitude": "-90.11210910410043",
    "latitude": "29.917957159771166",
    "geocoded_column": {
      "latitude": "29.917957159771166",
      "longitude": "-90.11210910410043"
    }
  },
  {
    "service_request": "2026-1262376",
    "request_type": "Trash/Recycling",
    "request_reason": "Request a Large Item Pick Up",
    "date_created": "2026-03-03T15:32:57.000",
    "date_modified": "2026-03-03T15:41:38.000",
    "request_status": "Pending",
    "responsible_agency": "Department of Sanitation",
    "final_address": "5314 Wickfield Dr",
    "address_councildis": "D",
    "status": "Assigned to Contractor",
    "contractor": "IV Waste",
    "rowid": "1262376",
    "final_x": "3681130.01659",
    "final_y": "552464.802966",
    "longitude": "-90.06850855795544",
    "latitude": "30.01309778286567",
    "geocoded_column": {
      "latitude": "30.01309778286567",
      "longitude": "-90.06850855795544"
    }
  },
  {
    "service_request": "2026-1262375",
    "request_type": "Trash/Recycling",
    "request_reason": "Request a Large Item Pick Up",
    "date_created": "2026-03-03T15:32:07.000",
    "date_modified": "2026-03-03T15:32:08.000",
    "request_status": "Pending",
    "responsible_agency": "Department of Sanitation",
    "final_address": "4949 Chrysler St",
    "address_councildis": "E",
    "status": "Assigned to Contractor",
    "contractor": "Waste Pro",
    "rowid": "1262375",
    "final_x": "3715285.84504",
    "final_y": "557820.083547",
    "longitude": "-89.96039295010296",
    "latitude": "30.026741783059006",
    "geocoded_column": {
      "latitude": "30.026741783059006",
      "longitude": "-89.96039295010296"
    }
  },
  {
    "service_request": "2026-1262374",
    "request_type": "Trash/Recycling",
    "request_reason": "Request a Large Item Pick Up",
    "date_created": "2026-03-03T15:30:52.000",
    "date_modified": "2026-03-03T15:40:48.000",
    "request_status": "Pending",
    "responsible_agency": "Department of Sanitation",
    "final_address": "5714 Pauline Dr",
    "address_councildis": "D",
    "status": "Assigned to Contractor",
    "contractor": "IV Waste",
    "rowid": "1262374",
    "final_x": "3691742.9599",
    "final_y": "555103.240601",
    "longitude": "-90.03488301671459",
    "latitude": "30.0200261134467",
    "geocoded_column": {
      "latitude": "30.0200261134467",
      "longitude": "-90.03488301671459"
    }
  },
  {
    "service_request": "2026-1262373",
    "request_type": "Trash/Recycling",
    "request_reason": "Replace Trash Cart",
    "date_created": "2026-03-03T15:29:03.000",
    "date_modified": "2026-03-03T15:29:05.000",
    "request_status": "Pending",
    "responsible_agency": "Department of Sanitation",
    "final_address": "1821 Magazine St",
    "address_councildis": "B",
    "status": "Assigned to Contractor",
    "contractor": "IV Waste",
    "rowid": "1262373",
    "final_x": "3679847.95496",
    "final_y": "522941.630907",
    "longitude": "-90.07358468563211",
    "latitude": "29.931958083424885",
    "geocoded_column": {
      "latitude": "29.931958083424885",
      "longitude": "-90.07358468563211"
    }
  },
  {
    "service_request": "2026-1262372",
    "request_type": "Streetlights",
    "request_reason": "Streetlight Outage/Malfunction",
    "date_created": "2026-03-03T15:26:08.000",
    "date_modified": "2026-03-03T15:26:09.000",
    "request_status": "Pending",
    "responsible_agency": "Department of Public Works",
    "final_address": "400 N Peters St",
    "address_councildis": "C",
    "status": "Pending",
    "rowid": "1262372",
    "final_x": "3682633.26684",
    "final_y": "531078.313282",
    "longitude": "-90.06450732049223",
    "latitude": "29.954246737053857",
    "geocoded_column": {
      "latitude": "29.954246737053857",
      "longitude": "-90.06450732049223"
    }
  },
  {
    "service_request": "2026-1262371",
    "request_type": "Roads and Streets",
    "request_reason": "Street Subsidence (Sinking)",
    "date_created": "2026-03-03T15:25:22.000",
    "date_modified": "2026-03-03T15:25:24.000",
    "request_status": "Pending",
    "responsible_agency": "Sewerage & Water Board",
    "final_address": "3700 Tall Pines Dr",
    "address_councildis": "C",
    "status": "Pending",
    "rowid": "1262371",
    "final_x": "3703847.64535",
    "final_y": "513640.437618",
    "longitude": "-89.99816289433447",
    "latitude": "29.905635677053926",
    "geocoded_column": {
      "latitude": "29.905635677053926",
      "longitude": "-89.99816289433447"
    }
  },
  {
    "service_request": "2026-1262370",
    "request_type": "Streetlights",
    "request_reason": "Streetlight Outage/Malfunction",
    "date_created": "2026-03-03T15:24:20.000",
    "date_modified": "2026-03-03T15:25:42.000",
    "request_status": "Pending",
    "responsible_agency": "Department of Public Works",
    "final_address": "1467 N Dorgenois St",
    "address_councildis": "D",
    "status": "Pending",
    "rowid": "1262370",
    "final_x": "3679047.37538",
    "final_y": "539200.35329",
    "longitude": "-90.07554861610778",
    "latitude": "29.97668827367373",
    "geocoded_column": {
      "latitude": "29.97668827367373",
      "longitude": "-90.07554861610778"
    }
  },
  {
    "service_request": "2026-1262369",
    "request_type": "Abandoned Vehicles",
    "request_reason": "Abandoned/Junk Vehicles",
    "date_created": "2026-03-03T15:22:32.000",
    "date_modified": "2026-03-03T15:22:33.000",
    "request_status": "Pending",
    "responsible_agency": "Department of Public Works",
    "final_address": "1222 Soniat St",
    "address_councildis": "B",
    "status": "Pending",
    "rowid": "1262369",
    "final_x": "3668335.79169",
    "final_y": "519871.700344",
    "longitude": "-90.11003096508148",
    "latitude": "29.923859745638058",
    "geocoded_column": {
      "latitude": "29.923859745638058",
      "longitude": "-90.11003096508148"
    }
  },
  {
    "service_request": "2026-1262368",
    "request_type": "Trash/Recycling",
    "request_reason": "Repair Trash Cart",
    "date_created": "2026-03-03T15:21:47.000",
    "date_modified": "2026-03-03T15:21:49.000",
    "request_status": "Pending",
    "responsible_agency": "Department of Sanitation",
    "final_address": "4721 Constance St",
    "address_councildis": "B",
    "status": "Assigned to Contractor",
    "contractor": "IV Waste",
    "rowid": "1262368",
    "final_x": "3669787.7161",
    "final_y": "518326.449206",
    "longitude": "-90.1055000190733",
    "latitude": "29.9195680927898",
    "geocoded_column": {
      "latitude": "29.9195680927898",
      "longitude": "-90.1055000190733"
    }
  },
  {
    "service_request": "2026-1262367",
    "request_type": "Roads and Streets",
    "request_reason": "Push-up/Pavement Expansion",
    "date_created": "2026-03-03T15:21:06.000",
    "date_modified": "2026-03-03T15:21:07.000",
    "request_status": "Pending",
    "responsible_agency": "Department of Public Works",
    "final_address": "3691 Clermont Dr",
    "address_councildis": "D",
    "status": "Pending",
    "rowid": "1262367",
    "final_x": "3685682.48975",
    "final_y": "546236.429712",
    "longitude": "-90.05434486250678",
    "latitude": "29.99583305277528",
    "geocoded_column": {
      "latitude": "29.99583305277528",
      "longitude": "-90.05434486250678"
    }
  },
  {
    "service_request": "2026-1262366",
    "request_type": "Trash/Recycling",
    "request_reason": "Request a Large Item Pick Up",
    "date_created": "2026-03-03T15:21:00.000",
    "date_modified": "2026-03-03T15:32:39.000",
    "request_status": "Pending",
    "responsible_agency": "Department of Sanitation",
    "final_address": "8809 Willow St",
    "address_councildis": "A",
    "status": "Pending",
    "contractor": "IV Waste",
    "rowid": "1262366",
    "final_x": "3660550.37914",
    "final_y": "530661.786882",
    "longitude": "-90.13425040726646",
    "latitude": "29.953755326067103",
    "geocoded_column": {
      "latitude": "29.953755326067103",
      "longitude": "-90.13425040726646"
    }
  },
  {
    "service_request": "2026-1262365",
    "request_type": "Trash/Recycling",
    "request_reason": "Request a Large Item Pick Up",
    "date_created": "2026-03-03T15:19:51.000",
    "date_modified": "2026-03-03T15:19:52.000",
    "request_status": "Pending",
    "responsible_agency": "Department of Sanitation",
    "final_address": "625 Pine St",
    "address_councildis": "A",
    "status": "Assigned to Contractor",
    "contractor": "IV Waste",
    "rowid": "1262365",
    "final_x": "3662910.16839",
    "final_y": "525088.357949",
    "longitude": "-90.12698441573066",
    "latitude": "29.938362069352205",
    "geocoded_column": {
      "latitude": "29.938362069352205",
      "longitude": "-90.12698441573066"
    }
  },
  {
    "service_request": "2026-1262364",
    "request_type": "Roads and Streets",
    "request_reason": "Sidewalk Damaged or Missing",
    "date_created": "2026-03-03T15:19:06.000",
    "date_modified": "2026-03-03T15:19:08.000",
    "request_status": "Pending",
    "responsible_agency": "Department of Public Works",
    "final_address": "3691 Clermont Dr",
    "address_councildis": "D",
    "status": "Pending",
    "rowid": "1262364",
    "final_x": "3685682.48975",
    "final_y": "546236.429712",
    "longitude": "-90.05434486250678",
    "latitude": "29.99583305277528",
    "geocoded_column": {
      "latitude": "29.99583305277528",
      "longitude": "-90.05434486250678"
    }
  },
  {
    "service_request": "2026-1262363",
    "request_type": "Trash/Recycling",
    "request_reason": "Request a Large Item Pick Up",
    "date_created": "2026-03-03T15:18:44.000",
    "date_modified": "2026-03-03T15:18:45.000",
    "request_status": "Pending",
    "responsible_agency": "Department of Sanitation",
    "final_address": "1402 Tennessee St",
    "address_councildis": "E",
    "status": "Assigned to Contractor",
    "contractor": "Waste Pro",
    "rowid": "1262363",
    "final_x": "3695917.17194",
    "final_y": "535504.987526",
    "longitude": "-90.02240235773263",
    "latitude": "29.96600737612355",
    "geocoded_column": {
      "latitude": "29.96600737612355",
      "longitude": "-90.02240235773263"
    }
  },
  {
    "service_request": "2026-1262362",
    "request_type": "Mosquito, Termite & Rodent Control",
    "request_reason": "Rodent Complaint (Mice & Rats)",
    "date_created": "2026-03-03T15:16:39.000",
    "date_modified": "2026-03-03T15:16:40.000",
    "request_status": "Pending",
    "responsible_agency": "Mosquito, Termite & Rodent Control Board",
    "final_address": "3691 Clermont Dr",
    "address_councildis": "D",
    "status": "Pending",
    "rowid": "1262362",
    "final_x": "3685682.48975",
    "final_y": "546236.429712",
    "longitude": "-90.05434486250678",
    "latitude": "29.99583305277528",
    "geocoded_column": {
      "latitude": "29.99583305277528",
      "longitude": "-90.05434486250678"
    }
  },
  {
    "service_request": "2026-1262361",
    "request_type": "Trash/Recycling",
    "request_reason": "Request a Large Item Pick Up",
    "date_created": "2026-03-03T15:16:25.000",
    "date_modified": "2026-03-03T15:16:27.000",
    "request_status": "Pending",
    "responsible_agency": "Department of Sanitation",
    "final_address": "4721 Constance St",
    "address_councildis": "B",
    "status": "Assigned to Contractor",
    "contractor": "IV Waste",
    "rowid": "1262361",
    "final_x": "3669787.7161",
    "final_y": "518326.449206",
    "longitude": "-90.1055000190733",
    "latitude": "29.9195680927898",
    "geocoded_column": {
      "latitude": "29.9195680927898",
      "longitude": "-90.1055000190733"
    }
  },
  {
    "service_request": "2026-1262360",
    "request_type": "Trash/Recycling",
    "request_reason": "Replace Recycling Cart",
    "date_created": "2026-03-03T15:15:02.000",
    "date_modified": "2026-03-03T15:15:05.000",
    "request_status": "Pending",
    "responsible_agency": "Department of Sanitation",
    "final_address": "1480 N Rocheblave St",
    "address_councildis": "D",
    "status": "Pending",
    "rowid": "1262360",
    "final_x": "3679496.40898",
    "final_y": "538869.561417",
    "longitude": "-90.07414190958684",
    "latitude": "29.97576514956594",
    "geocoded_column": {
      "latitude": "29.97576514956594",
      "longitude": "-90.07414190958684"
    }
  },
  {
    "service_request": "2026-1262359",
    "request_type": "Trash/Recycling",
    "request_reason": "Missed Trash Pick-Up",
    "date_created": "2026-03-03T15:13:17.000",
    "date_modified": "2026-03-03T16:57:35.000",
    "case_close_date": "2026-03-03T10:57:34.000",
    "request_status": "Closed",
    "responsible_agency": "Department of Sanitation",
    "final_address": "4929 Iberville St",
    "address_councildis": "A",
    "status": "Invalid Request",
    "contractor": "IV Waste",
    "contractor_action": "Invalid Request",
    "rowid": "1262359",
    "final_x": "3668636.49447",
    "final_y": "540863.627147",
    "longitude": "-90.10837335705463",
    "latitude": "29.981571837825324",
    "geocoded_column": {
      "latitude": "29.981571837825324",
      "longitude": "-90.10837335705463"
    }
  },
  {
    "service_request": "2026-1262358",
    "request_type": "Mosquito, Termite & Rodent Control",
    "request_reason": "Mosquito Complaint",
    "date_created": "2026-03-03T15:11:56.000",
    "date_modified": "2026-03-03T15:11:58.000",
    "request_status": "Pending",
    "responsible_agency": "Mosquito, Termite & Rodent Control Board",
    "final_address": "3691 Clermont Dr",
    "address_councildis": "D",
    "status": "Pending",
    "rowid": "1262358",
    "final_x": "3685682.48975",
    "final_y": "546236.429712",
    "longitude": "-90.05434486250678",
    "latitude": "29.99583305277528",
    "geocoded_column": {
      "latitude": "29.99583305277528",
      "longitude": "-90.05434486250678"
    }
  },
  {
    "service_request": "2026-1262357",
    "request_type": "Mosquito, Termite & Rodent Control",
    "request_reason": "Mosquito Complaint",
    "date_created": "2026-03-03T15:10:00.000",
    "date_modified": "2026-03-03T15:10:01.000",
    "request_status": "Pending",
    "responsible_agency": "Mosquito, Termite & Rodent Control Board",
    "final_address": "8019 Bass St",
    "address_councildis": "E",
    "status": "Pending",
    "rowid": "1262357",
    "final_x": "3719338.77042",
    "final_y": "574507.397227",
    "longitude": "-89.9469482978209",
    "latitude": "30.07249086831117",
    "geocoded_column": {
      "latitude": "30.07249086831117",
      "longitude": "-89.9469482978209"
    }
  },
  {
    "service_request": "2026-1262356",
    "request_type": "Trash/Recycling",
    "request_reason": "Request a Large Item Pick Up",
    "date_created": "2026-03-03T15:09:40.000",
    "date_modified": "2026-03-03T15:39:24.000",
    "request_status": "Pending",
    "responsible_agency": "Department of Sanitation",
    "final_address": "6328 Annunciation St",
    "address_councildis": "A",
    "status": "Assigned to Contractor",
    "contractor": "IV Waste",
    "rowid": "1262356",
    "final_x": "3662699.03539",
    "final_y": "518456.263478",
    "longitude": "-90.12787126339161",
    "latitude": "29.920132002180992",
    "geocoded_column": {
      "latitude": "29.920132002180992",
      "longitude": "-90.12787126339161"
    }
  },
  {
    "service_request": "2026-1262355",
    "request_type": "Trash/Recycling",
    "request_reason": "Return Trash Cart",
    "date_created": "2026-03-03T15:08:47.000",
    "date_modified": "2026-03-03T15:13:54.000",
    "request_status": "Pending",
    "responsible_agency": "Department of Sanitation",
    "final_address": "2019 Pace Blvd",
    "address_councildis": "C",
    "status": "Assigned to Contractor",
    "contractor": "Richards Disposal",
    "rowid": "1262355",
    "final_x": "3694385.57309",
    "final_y": "523078.575227",
    "longitude": "-90.02768623432405",
    "latitude": "29.931887154095943",
    "geocoded_column": {
      "latitude": "29.931887154095943",
      "longitude": "-90.02768623432405"
    }
  },
  {
    "service_request": "2026-1262354",
    "request_type": "Trash/Recycling",
    "request_reason": "Return Recycling Cart",
    "date_created": "2026-03-03T15:06:54.000",
    "date_modified": "2026-03-03T15:06:55.000",
    "request_status": "Pending",
    "responsible_agency": "Department of Sanitation",
    "final_address": "4615 Mandeville St",
    "address_councildis": "D",
    "status": "Pending",
    "rowid": "1262354",
    "final_x": "3684840.4893",
    "final_y": "549690.974548",
    "longitude": "-90.0568831022351",
    "latitude": "30.005357622747407",
    "geocoded_column": {
      "latitude": "30.005357622747407",
      "longitude": "-90.0568831022351"
    }
  },
  {
    "service_request": "2026-1262353",
    "request_type": "Trash/Recycling",
    "request_reason": "Repair Trash Cart",
    "date_created": "2026-03-03T15:06:53.000",
    "date_modified": "2026-03-03T15:13:18.000",
    "request_status": "Pending",
    "responsible_agency": "Department of Sanitation",
    "final_address": "322 Red Allen Way",
    "address_councildis": "C",
    "status": "Assigned to Contractor",
    "contractor": "Richards Disposal",
    "rowid": "1262353",
    "final_x": "3686311.77858",
    "final_y": "528712.655296",
    "longitude": "-90.0529755427229",
    "latitude": "29.947629469588286",
    "geocoded_column": {
      "latitude": "29.947629469588286",
      "longitude": "-90.0529755427229"
    }
  },
  {
    "service_request": "2026-1262352",
    "request_type": "Trash/Recycling",
    "request_reason": "Request a Large Item Pick Up",
    "date_created": "2026-03-03T15:06:19.000",
    "date_modified": "2026-03-03T15:06:20.000",
    "request_status": "Pending",
    "responsible_agency": "Department of Sanitation",
    "final_address": "4221 Loyola Ave",
    "address_councildis": "B",
    "status": "Assigned to Contractor",
    "contractor": "IV Waste",
    "rowid": "1262352",
    "final_x": "3671199.53025",
    "final_y": "523094.319675",
    "longitude": "-90.10088173824245",
    "latitude": "29.93263653870552",
    "geocoded_column": {
      "latitude": "29.93263653870552",
      "longitude": "-90.10088173824245"
    }
  },
  {
    "service_request": "2026-1262351",
    "request_type": "Trash/Recycling",
    "request_reason": "Replace Trash Cart",
    "date_created": "2026-03-03T15:05:16.000",
    "date_modified": "2026-03-03T15:12:58.000",
    "request_status": "Pending",
    "responsible_agency": "Department of Sanitation",
    "final_address": "320 Red Allen Way",
    "address_councildis": "C",
    "status": "Assigned to Contractor",
    "contractor": "Richards Disposal",
    "rowid": "1262351",
    "final_x": "3686301.36194",
    "final_y": "528709.789888",
    "longitude": "-90.05300853314786",
    "latitude": "29.94762191073429",
    "geocoded_column": {
      "latitude": "29.94762191073429",
      "longitude": "-90.05300853314786"
    }
  },
  {
    "service_request": "2026-1262350",
    "request_type": "Trash/Recycling",
    "request_reason": "Request a Large Item Pick Up",
    "date_created": "2026-03-03T15:03:26.000",
    "date_modified": "2026-03-03T15:03:27.000",
    "request_status": "Pending",
    "responsible_agency": "Department of Sanitation",
    "final_address": "6636 Harbourview Dr",
    "address_councildis": "E",
    "status": "Assigned to Contractor",
    "contractor": "Waste Pro",
    "rowid": "1262350",
    "final_x": "3699212.66487",
    "final_y": "555951.456601",
    "longitude": "-90.01125033996827",
    "latitude": "30.022123524500046",
    "geocoded_column": {
      "latitude": "30.022123524500046",
      "longitude": "-90.01125033996827"
    }
  },
  {
    "service_request": "2026-1262349",
    "request_type": "Trash/Recycling",
    "request_reason": "Repair Trash Cart",
    "date_created": "2026-03-03T15:02:14.000",
    "date_modified": "2026-03-03T15:02:16.000",
    "request_status": "Pending",
    "responsible_agency": "Department of Sanitation",
    "final_address": "3033 Ponce De Leon St",
    "address_councildis": "A",
    "status": "Assigned to Contractor",
    "contractor": "IV Waste",
    "rowid": "1262349",
    "final_x": "3676870.74677",
    "final_y": "540558.782731",
    "longitude": "-90.0823762508517",
    "latitude": "29.98048900424252",
    "geocoded_column": {
      "latitude": "29.98048900424252",
      "longitude": "-90.0823762508517"
    }
  },
  {
    "service_request": "2026-1262348",
    "request_type": "Trash/Recycling",
    "request_reason": "Request a Large Item Pick Up",
    "date_created": "2026-03-03T15:00:04.000",
    "date_modified": "2026-03-03T15:00:10.000",
    "request_status": "Pending",
    "responsible_agency": "Department of Sanitation",
    "final_address": "5207 N Robertson St",
    "address_councildis": "E",
    "status": "Assigned to Contractor",
    "contractor": "Waste Pro",
    "rowid": "1262348",
    "final_x": "3697053.78877",
    "final_y": "535660.883654",
    "longitude": "-90.01880732490967",
    "latitude": "29.966400230042886",
    "geocoded_column": {
      "latitude": "29.966400230042886",
      "longitude": "-90.01880732490967"
    }
  },
  {
    "service_request": "2026-1262347",
    "request_type": "Trash/Recycling",
    "request_reason": "Request a Large Item Pick Up",
    "date_created": "2026-03-03T14:56:56.000",
    "date_modified": "2026-03-03T14:56:58.000",
    "request_status": "Pending",
    "responsible_agency": "Department of Sanitation",
    "final_address": "3233 General Taylor St",
    "address_councildis": "B",
    "status": "Assigned to Contractor",
    "contractor": "IV Waste",
    "rowid": "1262347",
    "final_x": "3671309.60839",
    "final_y": "526965.14195",
    "longitude": "-90.10040274339711",
    "latitude": "29.943276789482663",
    "geocoded_column": {
      "latitude": "29.943276789482663",
      "longitude": "-90.10040274339711"
    }
  },
  {
    "service_request": "2026-1262346",
    "request_type": "Trash/Recycling",
    "request_reason": "Repair Recycling Cart",
    "date_created": "2026-03-03T14:54:33.000",
    "date_modified": "2026-03-03T14:54:35.000",
    "request_status": "Pending",
    "responsible_agency": "Department of Sanitation",
    "final_address": "6030 Hurst St",
    "address_councildis": "A",
    "status": "Pending",
    "rowid": "1262346",
    "final_x": "3665256.5074",
    "final_y": "521786.983866",
    "longitude": "-90.11968715854152",
    "latitude": "29.92921620713637",
    "geocoded_column": {
      "latitude": "29.92921620713637",
      "longitude": "-90.11968715854152"
    }
  },
  {
    "service_request": "2026-1262345",
    "request_type": "Trash/Recycling",
    "request_reason": "Request a Large Item Pick Up",
    "date_created": "2026-03-03T14:53:19.000",
    "date_modified": "2026-03-03T14:53:21.000",
    "request_status": "Pending",
    "responsible_agency": "Department of Sanitation",
    "final_address": "4226 S Miro St",
    "address_councildis": "B",
    "status": "Assigned to Contractor",
    "contractor": "IV Waste",
    "rowid": "1262345",
    "final_x": "3670704.49723",
    "final_y": "527833.369791",
    "longitude": "-90.10228378682744",
    "latitude": "29.945682022307565",
    "geocoded_column": {
      "latitude": "29.945682022307565",
      "longitude": "-90.10228378682744"
    }
  },
  {
    "service_request": "2026-1262344",
    "request_type": "Trash/Recycling",
    "request_reason": "Request a Large Item Pick Up",
    "date_created": "2026-03-03T14:53:10.000",
    "date_modified": "2026-03-03T14:53:12.000",
    "request_status": "Pending",
    "responsible_agency": "Department of Sanitation",
    "final_address": "1911 Holiday Dr",
    "address_councildis": "C",
    "status": "Assigned to Contractor",
    "contractor": "Richards Disposal",
    "rowid": "1262344",
    "final_x": "3698842.58807",
    "final_y": "523905.711996",
    "longitude": "-90.01358592539326",
    "latitude": "29.93402109690619",
    "geocoded_column": {
      "latitude": "29.93402109690619",
      "longitude": "-90.01358592539326"
    }
  },
  {
    "service_request": "2026-1262343",
    "request_type": "Trash/Recycling",
    "request_reason": "Missed Trash Pick-Up",
    "date_created": "2026-03-03T14:51:57.000",
    "date_modified": "2026-03-03T15:06:35.000",
    "case_close_date": "2026-03-03T09:06:34.000",
    "request_status": "Closed",
    "responsible_agency": "Department of Sanitation",
    "final_address": "7740 Pebble Dr",
    "address_councildis": "E",
    "status": "Invalid Request",
    "contractor": "Waste Pro",
    "contractor_action": "Invalid",
    "rowid": "1262343",
    "final_x": "3714689.57861",
    "final_y": "569430.55447",
    "longitude": "-89.96183794060133",
    "latitude": "30.058685510112884",
    "geocoded_column": {
      "latitude": "30.058685510112884",
      "longitude": "-89.96183794060133"
    }
  },
  {
    "service_request": "2026-1262342",
    "request_type": "Trash/Recycling",
    "request_reason": "Request a Large Item Pick Up",
    "date_created": "2026-03-03T14:51:42.000",
    "date_modified": "2026-03-03T14:51:44.000",
    "request_status": "Pending",
    "responsible_agency": "Department of Sanitation",
    "final_address": "2002 Prytania St",
    "address_councildis": "B",
    "status": "Assigned to Contractor",
    "contractor": "IV Waste",
    "rowid": "1262342",
    "final_x": "3678559.9076",
    "final_y": "523658.811259",
    "longitude": "-90.07762610561298",
    "latitude": "29.933968969048664",
    "geocoded_column": {
      "latitude": "29.933968969048664",
      "longitude": "-90.07762610561298"
    }
  },
  {
    "service_request": "2026-1262341",
    "request_type": "Trash/Recycling",
    "request_reason": "Illegal Dumping",
    "date_created": "2026-03-03T14:51:41.000",
    "date_modified": "2026-03-03T14:51:43.000",
    "request_status": "Pending",
    "responsible_agency": "Department of Sanitation",
    "final_address": "4427 S Robertson St",
    "address_councildis": "B",
    "status": "Pending",
    "rowid": "1262341",
    "final_x": "3670175.4169",
    "final_y": "524392.206652",
    "longitude": "-90.10407083130359",
    "latitude": "29.93623555872086",
    "geocoded_column": {
      "latitude": "29.93623555872086",
      "longitude": "-90.10407083130359"
    }
  },
  {
    "service_request": "2026-1262340",
    "request_type": "Trash/Recycling",
    "request_reason": "Order Second Trash Cart",
    "date_created": "2026-03-03T14:47:50.000",
    "date_modified": "2026-03-03T14:47:52.000",
    "request_status": "Pending",
    "responsible_agency": "Department of Sanitation",
    "final_address": "2570 Benefit St",
    "address_councildis": "D",
    "status": "Assigned to Contractor",
    "contractor": "IV Waste",
    "rowid": "1262340",
    "final_x": "3686840.55516",
    "final_y": "544559.407055",
    "longitude": "-90.0507459367528",
    "latitude": "29.991186248432616",
    "geocoded_column": {
      "latitude": "29.991186248432616",
      "longitude": "-90.0507459367528"
    }
  },
  {
    "service_request": "2026-1262339",
    "request_type": "Trash/Recycling",
    "request_reason": "Request a Large Item Pick Up",
    "date_created": "2026-03-03T14:47:08.000",
    "date_modified": "2026-03-03T14:47:10.000",
    "request_status": "Pending",
    "responsible_agency": "Department of Sanitation",
    "final_address": "2408 S Derbigny St",
    "address_councildis": "B",
    "status": "Assigned to Contractor",
    "contractor": "IV Waste",
    "rowid": "1262339",
    "final_x": "3673913.21006",
    "final_y": "527635.037695",
    "longitude": "-90.09215959028283",
    "latitude": "29.945041494235543",
    "geocoded_column": {
      "latitude": "29.945041494235543",
      "longitude": "-90.09215959028283"
    }
  },
  {
    "service_request": "2026-1262338",
    "request_type": "General Services",
    "request_reason": "General Service Request",
    "date_created": "2026-03-03T14:47:02.000",
    "date_modified": "2026-03-03T14:49:30.000",
    "case_close_date": "2026-03-03T08:49:22.000",
    "request_status": "Closed",
    "responsible_agency": "Orleans Parish Communication District",
    "final_address": "2317 Second St",
    "address_councildis": "B",
    "status": "Question Answered.",
    "rowid": "1262338",
    "final_x": "3675264.54805",
    "final_y": "525275.213885",
    "longitude": "-90.08797397144585",
    "latitude": "29.938512436527837",
    "geocoded_column": {
      "latitude": "29.938512436527837",
      "longitude": "-90.08797397144585"
    }
  },
  {
    "service_request": "2026-1262337",
    "request_type": "Trash/Recycling",
    "request_reason": "Request a Large Item Pick Up",
    "date_created": "2026-03-03T14:46:05.000",
    "date_modified": "2026-03-03T14:46:07.000",
    "request_status": "Pending",
    "responsible_agency": "Department of Sanitation",
    "final_address": "3002 Toledano St",
    "address_councildis": "B",
    "status": "Assigned to Contractor",
    "contractor": "IV Waste",
    "rowid": "1262337",
    "final_x": "3672351.56046",
    "final_y": "526776.151998",
    "longitude": "-90.09711946750025",
    "latitude": "29.94272625993462",
    "geocoded_column": {
      "latitude": "29.94272625993462",
      "longitude": "-90.09711946750025"
    }
  },
  {
    "service_request": "2026-1262336",
    "request_type": "Trash/Recycling",
    "request_reason": "Request a Large Item Pick Up",
    "date_created": "2026-03-03T14:45:23.000",
    "date_modified": "2026-03-03T14:45:26.000",
    "request_status": "Pending",
    "responsible_agency": "Department of Sanitation",
    "final_address": "5008 Magazine St",
    "address_councildis": "B",
    "status": "Assigned to Contractor",
    "contractor": "IV Waste",
    "rowid": "1262336",
    "final_x": "3668538.22151",
    "final_y": "518559.195575",
    "longitude": "-90.10943621857605",
    "latitude": "29.920244828360868",
    "geocoded_column": {
      "latitude": "29.920244828360868",
      "longitude": "-90.10943621857605"
    }
  },
  {
    "service_request": "2026-1262335",
    "request_type": "Trash/Recycling",
    "request_reason": "Request a Large Item Pick Up",
    "date_created": "2026-03-03T14:37:39.000",
    "date_modified": "2026-03-03T14:37:40.000",
    "request_status": "Pending",
    "responsible_agency": "Department of Sanitation",
    "final_address": "2629 S Johnson St",
    "address_councildis": "B",
    "status": "Assigned to Contractor",
    "contractor": "IV Waste",
    "rowid": "1262335",
    "final_x": "3672684.1188",
    "final_y": "528095.663679",
    "longitude": "-90.09602451461366",
    "latitude": "29.94634461507824",
    "geocoded_column": {
      "latitude": "29.94634461507824",
      "longitude": "-90.09602451461366"
    }
  },
  {
    "service_request": "2026-1262334",
    "request_type": "Drainage",
    "request_reason": "Illegal Dumping (Sewer Odor)",
    "date_created": "2026-03-03T14:37:08.000",
    "date_modified": "2026-03-03T14:37:10.000",
    "request_status": "Pending",
    "responsible_agency": "Sewerage & Water Board",
    "final_address": "2317 Second St",
    "address_councildis": "B",
    "status": "Pending",
    "rowid": "1262334",
    "final_x": "3675264.54805",
    "final_y": "525275.213885",
    "longitude": "-90.08797397144585",
    "latitude": "29.938512436527837",
    "geocoded_column": {
      "latitude": "29.938512436527837",
      "longitude": "-90.08797397144585"
    }
  },
  {
    "service_request": "2026-1262333",
    "request_type": "Trash/Recycling",
    "request_reason": "Request a Large Item Pick Up",
    "date_created": "2026-03-03T14:35:02.000",
    "date_modified": "2026-03-03T14:35:04.000",
    "request_status": "Pending",
    "responsible_agency": "Department of Sanitation",
    "final_address": "3422 Elysian Fields Ave",
    "address_councildis": "D",
    "status": "Assigned to Contractor",
    "contractor": "IV Waste",
    "rowid": "1262333",
    "final_x": "3684168.28962",
    "final_y": "545330.309455",
    "longitude": "-90.05915991680946",
    "latitude": "29.99338793180409",
    "geocoded_column": {
      "latitude": "29.99338793180409",
      "longitude": "-90.05915991680946"
    }
  },
  {
    "service_request": "2026-1262332",
    "request_type": "Trash/Recycling",
    "request_reason": "Request a Large Item Pick Up",
    "date_created": "2026-03-03T14:31:05.000",
    "date_modified": "2026-03-03T14:32:08.000",
    "request_status": "Pending",
    "responsible_agency": "Department of Sanitation",
    "final_address": "5958 St Bernard Ave",
    "address_councildis": "D",
    "status": "Assigned to Contractor",
    "contractor": "IV Waste",
    "rowid": "1262332",
    "final_x": "3676582.28321",
    "final_y": "554331.470104",
    "longitude": "-90.08281260255399",
    "latitude": "30.018367693276314",
    "geocoded_column": {
      "latitude": "30.018367693276314",
      "longitude": "-90.08281260255399"
    }
  },
  {
    "service_request": "2026-1262331",
    "request_type": "Trash/Recycling",
    "request_reason": "Repair Trash Cart",
    "date_created": "2026-03-03T14:30:19.000",
    "date_modified": "2026-03-03T14:30:20.000",
    "request_status": "Pending",
    "responsible_agency": "Department of Sanitation",
    "final_address": "542 Aurora Oaks Dr",
    "address_councildis": "C",
    "status": "Assigned to Contractor",
    "contractor": "Richards Disposal",
    "rowid": "1262331",
    "final_x": "3701330.50679",
    "final_y": "521134.265785",
    "longitude": "-90.00583308233638",
    "latitude": "29.926321553943588",
    "geocoded_column": {
      "latitude": "29.926321553943588",
      "longitude": "-90.00583308233638"
    }
  },
  {
    "service_request": "2026-1262330",
    "request_type": "Trash/Recycling",
    "request_reason": "Illegal Dumping",
    "date_created": "2026-03-03T14:26:41.000",
    "date_modified": "2026-03-03T14:28:01.000",
    "request_status": "Pending",
    "responsible_agency": "Department of Sanitation",
    "final_address": "4737 Baronne St",
    "address_councildis": "B",
    "status": "Pending",
    "rowid": "1262330",
    "final_x": "3669342.51233",
    "final_y": "521493.975929",
    "longitude": "-90.10679828607152",
    "latitude": "29.928290896061718",
    "geocoded_column": {
      "latitude": "29.928290896061718",
      "longitude": "-90.10679828607152"
    }
  },
  {
    "service_request": "2026-1262329",
    "request_type": "Roads and Streets",
    "request_reason": "Street Subsidence (Sinking)",
    "date_created": "2026-03-03T14:21:25.000",
    "date_modified": "2026-03-03T14:21:28.000",
    "request_status": "Pending",
    "responsible_agency": "Sewerage & Water Board",
    "final_address": "2328 Coliseum St",
    "address_councildis": "B",
    "status": "Pending",
    "rowid": "1262329",
    "final_x": "3677730.84187",
    "final_y": "522487.63449",
    "longitude": "-90.080283866196",
    "latitude": "29.930773572625625",
    "geocoded_column": {
      "latitude": "29.930773572625625",
      "longitude": "-90.080283866196"
    }
  },
  {
    "service_request": "2026-1262328",
    "request_type": "Trash/Recycling",
    "request_reason": "Repair Recycling Cart",
    "date_created": "2026-03-03T14:20:15.000",
    "date_modified": "2026-03-03T14:20:17.000",
    "request_status": "Pending",
    "responsible_agency": "Department of Sanitation",
    "final_address": "3334 Calhoun St",
    "address_councildis": "A",
    "status": "Pending",
    "rowid": "1262328",
    "final_x": "3667498.4489",
    "final_y": "529070.331648",
    "longitude": "-90.11236475714283",
    "latitude": "29.949177587917948",
    "geocoded_column": {
      "latitude": "29.949177587917948",
      "longitude": "-90.11236475714283"
    }
  },
  {
    "service_request": "2026-1262327",
    "request_type": "Roads and Streets",
    "request_reason": "Street Subsidence (Sinking)",
    "date_created": "2026-03-03T14:20:13.000",
    "date_modified": "2026-03-03T14:20:14.000",
    "request_status": "Pending",
    "responsible_agency": "Sewerage & Water Board",
    "final_address": "622 Valence St",
    "address_councildis": "B",
    "status": "Pending",
    "rowid": "1262327",
    "final_x": "3669972.0971",
    "final_y": "517860.520438",
    "longitude": "-90.1049337849221",
    "latitude": "29.918281502012675",
    "geocoded_column": {
      "latitude": "29.918281502012675",
      "longitude": "-90.1049337849221"
    }
  },
  {
    "service_request": "2026-1262326",
    "request_type": "Abandoned Vehicles",
    "request_reason": "Abandoned/Junk Vehicles",
    "date_created": "2026-03-03T14:19:50.000",
    "date_modified": "2026-03-03T14:19:52.000",
    "request_status": "Pending",
    "responsible_agency": "Department of Public Works",
    "final_address": "4318 S Robertson St",
    "address_councildis": "B",
    "status": "Pending",
    "rowid": "1262326",
    "final_x": "3670715.68859",
    "final_y": "524323.508796",
    "longitude": "-90.10236750264524",
    "latitude": "29.936030713484108",
    "geocoded_column": {
      "latitude": "29.936030713484108",
      "longitude": "-90.10236750264524"
    }
  },
  {
    "service_request": "2026-1262325",
    "request_type": "Abandoned Vehicles",
    "request_reason": "Abandoned/Junk Vehicles",
    "date_created": "2026-03-03T14:16:35.000",
    "date_modified": "2026-03-03T14:16:37.000",
    "request_status": "Pending",
    "responsible_agency": "Department of Public Works",
    "final_address": "211 N Norman C Francis Prkwy",
    "address_councildis": "B",
    "status": "Pending",
    "rowid": "1262325",
    "final_x": "3673422.67284",
    "final_y": "537252.999432",
    "longitude": "-90.093379759907",
    "latitude": "29.971502282806032",
    "geocoded_column": {
      "latitude": "29.971502282806032",
      "longitude": "-90.093379759907"
    }
  },
  {
    "service_request": "2026-1262324",
    "request_type": "Trash/Recycling",
    "request_reason": "Repair Recycling Cart",
    "date_created": "2026-03-03T14:15:07.000",
    "date_modified": "2026-03-03T14:15:08.000",
    "request_status": "Pending",
    "responsible_agency": "Department of Sanitation",
    "final_address": "5520 Wickfield Dr",
    "address_councildis": "D",
    "status": "Pending",
    "rowid": "1262324",
    "final_x": "3681049.03791",
    "final_y": "553360.926039",
    "longitude": "-90.06873315987737",
    "latitude": "30.015564253869744",
    "geocoded_column": {
      "latitude": "30.015564253869744",
      "longitude": "-90.06873315987737"
    }
  },
  {
    "service_request": "2026-1262323",
    "request_type": "Trash/Recycling",
    "request_reason": "Request a Large Item Pick Up",
    "date_created": "2026-03-03T14:14:51.000",
    "date_modified": "2026-03-03T15:38:56.000",
    "request_status": "Pending",
    "responsible_agency": "Department of Sanitation",
    "final_address": "2113 Audubon St",
    "address_councildis": "A",
    "status": "Assigned to Contractor",
    "contractor": "IV Waste",
    "rowid": "1262323",
    "final_x": "3666287.10785",
    "final_y": "529049.550272",
    "longitude": "-90.11619020552851",
    "latitude": "29.94915588200683",
    "geocoded_column": {
      "latitude": "29.94915588200683",
      "longitude": "-90.11619020552851"
    }
  },
  {
    "service_request": "2026-1262322",
    "request_type": "Trash/Recycling",
    "request_reason": "Request a Large Item Pick Up",
    "date_created": "2026-03-03T14:14:39.000",
    "date_modified": "2026-03-03T14:14:40.000",
    "request_status": "Pending",
    "responsible_agency": "Department of Sanitation",
    "final_address": "3928 Peach Tree Ct",
    "address_councildis": "C",
    "status": "Assigned to Contractor",
    "contractor": "Richards Disposal",
    "rowid": "1262322",
    "final_x": "3704295.48401",
    "final_y": "512614.981233",
    "longitude": "-89.99678724872561",
    "latitude": "29.902801664399874",
    "geocoded_column": {
      "latitude": "29.902801664399874",
      "longitude": "-89.99678724872561"
    }
  },
  {
    "service_request": "2026-1262321",
    "request_type": "Trash/Recycling",
    "request_reason": "Repair Trash Cart",
    "date_created": "2026-03-03T14:12:28.000",
    "date_modified": "2026-03-03T14:14:52.000",
    "request_status": "Pending",
    "responsible_agency": "Department of Sanitation",
    "final_address": "10120 Flossmoor Dr",
    "address_councildis": "E",
    "status": "Assigned to Contractor",
    "contractor": "Waste Pro",
    "rowid": "1262321",
    "final_x": "3709609.34027",
    "final_y": "563477.206816",
    "longitude": "-89.97811851955562",
    "latitude": "30.04248242482003",
    "geocoded_column": {
      "latitude": "30.04248242482003",
      "longitude": "-89.97811851955562"
    }
  },
  {
    "service_request": "2026-1262320",
    "request_type": "Abandoned Vehicles",
    "request_reason": "Abandoned/Junk Vehicles",
    "date_created": "2026-03-03T14:11:57.000",
    "date_modified": "2026-03-03T14:11:58.000",
    "request_status": "Pending",
    "responsible_agency": "Department of Public Works",
    "final_address": "1001 Louisiana Ave",
    "address_councildis": "B",
    "status": "Pending",
    "rowid": "1262320",
    "final_x": "3675228.31809",
    "final_y": "519352.240439",
    "longitude": "-90.0882915367828",
    "latitude": "29.922227264368964",
    "geocoded_column": {
      "latitude": "29.922227264368964",
      "longitude": "-90.0882915367828"
    }
  },
  {
    "service_request": "2026-1262319",
    "request_type": "Safety & Permits",
    "request_reason": "Zoning Enforcement",
    "date_created": "2026-03-03T14:11:00.000",
    "date_modified": "2026-03-03T14:11:02.000",
    "request_status": "Pending",
    "responsible_agency": "Safety and Permits",
    "final_address": "2616 Josephine St",
    "address_councildis": "B",
    "status": "Pending",
    "rowid": "1262319",
    "final_x": "3675598.08078",
    "final_y": "526894.905918",
    "longitude": "-90.08686534719466",
    "latitude": "29.942956085574266",
    "geocoded_column": {
      "latitude": "29.942956085574266",
      "longitude": "-90.08686534719466"
    }
  },
  {
    "service_request": "2026-1262318",
    "request_type": "Trash/Recycling",
    "request_reason": "Request a Large Item Pick Up",
    "date_created": "2026-03-03T14:08:06.000",
    "date_modified": "2026-03-03T14:08:28.000",
    "request_status": "Pending",
    "responsible_agency": "Department of Sanitation",
    "final_address": "5111 Burgundy St",
    "address_councildis": "E",
    "status": "Assigned to Contractor",
    "contractor": "Waste Pro",
    "rowid": "1262318",
    "final_x": "3696158.88163",
    "final_y": "533446.936324",
    "longitude": "-90.02171344482446",
    "latitude": "29.96034085901873",
    "geocoded_column": {
      "latitude": "29.96034085901873",
      "longitude": "-90.02171344482446"
    }
  },
  {
    "service_request": "2026-1262317",
    "request_type": "Trash/Recycling",
    "request_reason": "Request a Large Item Pick Up",
    "date_created": "2026-03-03T14:07:58.000",
    "date_modified": "2026-03-03T14:08:00.000",
    "request_status": "Pending",
    "responsible_agency": "Department of Sanitation",
    "final_address": "1305 Lawrence St",
    "address_councildis": "C",
    "status": "Assigned to Contractor",
    "contractor": "Richards Disposal",
    "rowid": "1262317",
    "final_x": "3689415.84265",
    "final_y": "525613.179453",
    "longitude": "-90.04328500801898",
    "latitude": "29.93901123215472",
    "geocoded_column": {
      "latitude": "29.93901123215472",
      "longitude": "-90.04328500801898"
    }
  },
  {
    "service_request": "2026-1262316",
    "request_type": "Property Maintenance",
    "request_reason": "Property Maintenance",
    "date_created": "2026-03-03T14:05:31.000",
    "date_modified": "2026-03-03T14:05:34.000",
    "request_status": "Pending",
    "responsible_agency": "Department of Code Enforcement",
    "final_address": "8528 Hickory St",
    "address_councildis": "A",
    "status": "Pending",
    "rowid": "1262316",
    "final_x": "3662102.20717",
    "final_y": "531048.495426",
    "longitude": "-90.12933752339907",
    "latitude": "29.95477390568288",
    "geocoded_column": {
      "latitude": "29.95477390568288",
      "longitude": "-90.12933752339907"
    }
  },
  {
    "service_request": "2026-1262315",
    "request_type": "Trash/Recycling",
    "request_reason": "Request a Large Item Pick Up",
    "date_created": "2026-03-03T14:02:42.000",
    "date_modified": "2026-03-03T14:02:44.000",
    "request_status": "Pending",
    "responsible_agency": "Department of Sanitation",
    "final_address": "1108 Flanders St",
    "address_councildis": "C",
    "status": "Assigned to Contractor",
    "contractor": "Richards Disposal",
    "rowid": "1262315",
    "final_x": "3696810.13975",
    "final_y": "527287.723327",
    "longitude": "-90.01987986297848",
    "latitude": "29.94338466940364",
    "geocoded_column": {
      "latitude": "29.94338466940364",
      "longitude": "-90.01987986297848"
    }
  },
  {
    "service_request": "2026-1262314",
    "request_type": "Property Maintenance",
    "request_reason": "Property Maintenance",
    "date_created": "2026-03-03T14:01:34.000",
    "date_modified": "2026-03-03T14:01:35.000",
    "request_status": "Pending",
    "responsible_agency": "Department of Code Enforcement",
    "final_address": "1528 Cambronne St",
    "address_councildis": "A",
    "status": "Pending",
    "rowid": "1262314",
    "final_x": "3662012.30618",
    "final_y": "530087.710977",
    "longitude": "-90.12965326708512",
    "latitude": "29.952134655330976",
    "geocoded_column": {
      "latitude": "29.952134655330976",
      "longitude": "-90.12965326708512"
    }
  },
  {
    "service_request": "2026-1262313",
    "request_type": "Property Maintenance",
    "request_reason": "Property Maintenance",
    "date_created": "2026-03-03T13:58:33.000",
    "date_modified": "2026-03-03T13:58:34.000",
    "request_status": "Pending",
    "responsible_agency": "Department of Code Enforcement",
    "final_address": "1619 Cambronne St",
    "address_councildis": "A",
    "status": "Pending",
    "rowid": "1262313",
    "final_x": "3662269.75482",
    "final_y": "530249.122049",
    "longitude": "-90.12883500276519",
    "latitude": "29.952571044948332",
    "geocoded_column": {
      "latitude": "29.952571044948332",
      "longitude": "-90.12883500276519"
    }
  },
  {
    "service_request": "2026-1262312",
    "request_type": "Trash/Recycling",
    "request_reason": "Missed Trash Pick-Up",
    "date_created": "2026-03-03T13:58:14.000",
    "date_modified": "2026-03-03T15:12:58.000",
    "case_close_date": "2026-03-03T09:12:57.000",
    "request_status": "Closed",
    "responsible_agency": "Department of Sanitation",
    "final_address": "238 S Salcedo St",
    "address_councildis": "B",
    "status": "Invalid Request",
    "contractor": "IV Waste",
    "contractor_action": "Invalid Request",
    "rowid": "1262312",
    "final_x": "3673683.57179",
    "final_y": "535419.78631",
    "longitude": "-90.09261849072301",
    "latitude": "29.966453800435605",
    "geocoded_column": {
      "latitude": "29.966453800435605",
      "longitude": "-90.09261849072301"
    }
  },
  {
    "service_request": "2026-1262311",
    "request_type": "Property Maintenance",
    "request_reason": "Property Maintenance",
    "date_created": "2026-03-03T13:53:02.000",
    "date_modified": "2026-03-03T13:53:04.000",
    "request_status": "Pending",
    "responsible_agency": "Department of Code Enforcement",
    "final_address": "1626 Cambronne St",
    "address_councildis": "A",
    "status": "Pending",
    "rowid": "1262311",
    "final_x": "3662224.73607",
    "final_y": "530326.979074",
    "longitude": "-90.12897456838903",
    "latitude": "29.95278642783495",
    "geocoded_column": {
      "latitude": "29.95278642783495",
      "longitude": "-90.12897456838903"
    }
  },
  {
    "service_request": "2026-1262310",
    "request_type": "Trash/Recycling",
    "request_reason": "Request a Large Item Pick Up",
    "date_created": "2026-03-03T13:51:51.000",
    "date_modified": "2026-03-03T14:45:12.000",
    "request_status": "Pending",
    "responsible_agency": "Department of Sanitation",
    "final_address": "1528 General Collins Ave",
    "address_councildis": "C",
    "status": "Assigned to Contractor",
    "contractor": "Richards Disposal",
    "rowid": "1262310",
    "final_x": "3698620.25872",
    "final_y": "525481.480253",
    "longitude": "-90.01423053775062",
    "latitude": "29.938360952932232",
    "geocoded_column": {
      "latitude": "29.938360952932232",
      "longitude": "-90.01423053775062"
    }
  },
  {
    "service_request": "2026-1262309",
    "request_type": "Trash/Recycling",
    "request_reason": "Request a Large Item Pick Up",
    "date_created": "2026-03-03T13:49:46.000",
    "date_modified": "2026-03-03T13:49:48.000",
    "request_status": "Pending",
    "responsible_agency": "Department of Sanitation",
    "final_address": "2800 Wabash St",
    "address_councildis": "C",
    "status": "Assigned to Contractor",
    "contractor": "Richards Disposal",
    "rowid": "1262309",
    "final_x": "3693433.24605",
    "final_y": "521326.869561",
    "longitude": "-90.03075547951109",
    "latitude": "29.927100361807284",
    "geocoded_column": {
      "latitude": "29.927100361807284",
      "longitude": "-90.03075547951109"
    }
  },
  {
    "service_request": "2026-1262308",
    "request_type": "Trash/Recycling",
    "request_reason": "Request a Large Item Pick Up",
    "date_created": "2026-03-03T13:47:02.000",
    "date_modified": "2026-03-03T13:47:04.000",
    "request_status": "Pending",
    "responsible_agency": "Department of Sanitation",
    "final_address": "60 Morrison Ct",
    "address_councildis": "E",
    "status": "Assigned to Contractor",
    "contractor": "Waste Pro",
    "rowid": "1262308",
    "final_x": "3704015.4723",
    "final_y": "561412.990558",
    "longitude": "-89.99587336010275",
    "latitude": "30.036987371511188",
    "geocoded_column": {
      "latitude": "30.036987371511188",
      "longitude": "-89.99587336010275"
    }
  },
  {
    "service_request": "2026-1262307",
    "request_type": "Trash/Recycling",
    "request_reason": "Replace Recycling Cart",
    "date_created": "2026-03-03T13:43:44.000",
    "date_modified": "2026-03-03T13:43:46.000",
    "request_status": "Pending",
    "responsible_agency": "Department of Sanitation",
    "final_address": "5520 Pitt St",
    "address_councildis": "A",
    "status": "Pending",
    "rowid": "1262307",
    "final_x": "3666641.8866",
    "final_y": "520646.555833",
    "longitude": "-90.11535203295246",
    "latitude": "29.92603997068255",
    "geocoded_column": {
      "latitude": "29.92603997068255",
      "longitude": "-90.11535203295246"
    }
  },
  {
    "service_request": "2026-1262306",
    "request_type": "Trash/Recycling",
    "request_reason": "Request a Large Item Pick Up",
    "date_created": "2026-03-03T13:43:30.000",
    "date_modified": "2026-03-03T13:43:31.000",
    "request_status": "Pending",
    "responsible_agency": "Department of Sanitation",
    "final_address": "2709 N Robertson St",
    "address_councildis": "C",
    "status": "Assigned to Contractor",
    "contractor": "IV Waste",
    "rowid": "1262306",
    "final_x": "3687899.22127",
    "final_y": "537886.305865",
    "longitude": "-90.04763837846083",
    "latitude": "29.972804962650866",
    "geocoded_column": {
      "latitude": "29.972804962650866",
      "longitude": "-90.04763837846083"
    }
  },
  {
    "service_request": "2026-1262305",
    "request_type": "Property Maintenance",
    "request_reason": "Property Maintenance",
    "date_created": "2026-03-03T13:43:09.000",
    "date_modified": "2026-03-03T13:43:11.000",
    "request_status": "Pending",
    "responsible_agency": "Department of Code Enforcement",
    "final_address": "1600 Cambronne St",
    "address_councildis": "A",
    "status": "Pending",
    "rowid": "1262305",
    "final_x": "3662103.25293",
    "final_y": "530195.147393",
    "longitude": "-90.12936253377028",
    "latitude": "29.952427443599184",
    "geocoded_column": {
      "latitude": "29.952427443599184",
      "longitude": "-90.12936253377028"
    }
  },
  {
    "service_request": "2026-1262304",
    "request_type": "Roads and Streets",
    "request_reason": "Street Subsidence (Sinking)",
    "date_created": "2026-03-03T13:42:46.000",
    "date_modified": "2026-03-03T13:42:47.000",
    "request_status": "Pending",
    "responsible_agency": "Sewerage & Water Board",
    "final_address": "1000 BLK Camp St",
    "address_councildis": "B",
    "status": "Pending",
    "rowid": "1262304",
    "final_x": "3680484.00284",
    "final_y": "526729.901052",
    "longitude": "-90.07144504620884",
    "latitude": "29.94235532793877",
    "geocoded_column": {
      "latitude": "29.94235532793877",
      "longitude": "-90.07144504620884"
    }
  },
  {
    "service_request": "2026-1262303",
    "request_type": "Streetlights",
    "request_reason": "Streetlight Outage/Malfunction",
    "date_created": "2026-03-03T13:42:27.000",
    "date_modified": "2026-03-03T13:46:15.000",
    "request_status": "Pending",
    "responsible_agency": "Department of Public Works",
    "final_address": "3701 Delgado Dr",
    "address_councildis": "A",
    "status": "Pending",
    "rowid": "1262303",
    "final_x": "3674311.29409",
    "final_y": "540561.876555",
    "longitude": "-90.09046001124534",
    "latitude": "29.980574095172003",
    "geocoded_column": {
      "latitude": "29.980574095172003",
      "longitude": "-90.09046001124534"
    }
  },