[
  {
    "service_request": "2022-944601",
    "request_type": "Traffic Signals/Signs/Striping/Streetlights",
    "request_reason": "Street Light Outage/Malfunction",
    "date_created": "2022-11-18T00:30:01.000",
    "date_modified": "2022-11-18T00:30:01.000",
    "request_status": "Pending",
    "responsible_agency": "Department of Public Works",
    "final_address": "7924 Jeannette St",
    "address_councildis": "A",
    "status": "Pending",
    "contractor": "Legacy Professional Services",
    "rowid": "944601",
    "final_x": "3663070.40775",
    "final_y": "528736.34208",
    "longitude": "-90.12635720650337",
    "latitude": "29.948388220706125",
    "geocoded_column": {
      "latitude": "29.948388220706125",
      "longitude": "-90.12635720650337"
    }
  },
  {
    "service_request": "2022-944600",
    "request_type": "Roads/Drainage",
    "request_reason": "Street Subsidence (Sinking)",
    "date_created": "2022-11-18T00:04:23.000",
    "date_modified": "2022-11-18T00:04:23.000",
    "request_status": "Pending",
    "responsible_agency": "Department of Public Works",
    "final_address": "7837 Freret St",
    "address_councildis": "A",
    "status": "Pending",
    "rowid": "944600",
    "final_x": "3662138.56167",
    "final_y": "527322.121215",
    "longitude": "-90.12934636504077",
    "latitude": "29.944526522546525",
    "geocoded_column": {
      "latitude": "29.944526522546525",
      "longitude": "-90.12934636504077"
    }
  },
  {
    "service_request": "2022-944599",
    "request_type": "Trash/Recycling",
    "request_reason": "MIssed Recycling Pick-Up",
    "date_created": "2022-11-17T21:10:04.000",
    "date_modified": "2022-11-17T21:10:05.000",
    "request_status": "Pending",
    "responsible_agency": "Department of Sanitation",
    "final_address": "424 Arabella St",
    "address_councildis": "A",
    "status": "Assigned to Contractor",
    "contractor": "Richards Disposal",
    "rowid": "944599",
    "final_x": "3665541.30189",
    "final_y": "517807.24447",
    "longitude": "-90.11892126447295",
    "latitude": "29.918264877067546",
    "geocoded_column": {
      "latitude": "29.918264877067546",
      "longitude": "-90.11892126447295"
    }
  },
  {
    "service_request": "2022-944598",
    "request_type": "Trash/Recycling",
    "request_reason": "MIssed Recycling Pick-Up",
    "date_created": "2022-11-17T21:07:26.000",
    "date_modified": "2022-11-17T21:07:27.000",
    "request_status": "Pending",
    "responsible_agency": "Department of Sanitation",
    "final_address": "2216 Wirth Pl",
    "address_councildis": "A",
    "status": "Assigned to Contractor",
    "contractor": "Richards Disposal",
    "rowid": "944598",
    "final_x": "3667026.72327",
    "final_y": "524340.441276",
    "longitude": "-90.11401312858841",
    "latitude": "29.93618572702672",
    "geocoded_column": {
      "latitude": "29.93618572702672",
      "longitude": "-90.11401312858841"
    }
  },
  {
    "service_request": "2022-944597",
    "request_type": "Traffic Signals/Signs/Striping/Streetlights",
    "request_reason": "Street Light Outage/Malfunction",
    "date_created": "2022-11-17T20:52:49.000",
    "date_modified": "2022-11-17T20:52:49.000",
    "request_status": "Pending",
    "responsible_agency": "Department of Public Works",
    "final_address": "4790 Hickerson Dr",
    "address_councildis": "E",
    "status": "Pending",
    "contractor": "Legacy Professional Services",
    "rowid": "944597",
    "final_x": "3710194.69137",
    "final_y": "556100.148506",
    "longitude": "-89.97654466196646",
    "latitude": "30.022179386415427",
    "geocoded_column": {
      "latitude": "30.022179386415427",
      "longitude": "-89.97654466196646"
    }
  },
  {
    "service_request": "2022-944596",
    "request_type": "Trash/Recycling",
    "request_reason": "Order Recycling Cart",
    "date_created": "2022-11-17T20:37:21.000",
    "date_modified": "2022-11-17T20:37:21.000",
    "request_status": "Pending",
    "responsible_agency": "Department of Sanitation",
    "final_address": "7130 Lake Willow Dr",
    "address_councildis": "E",
    "status": "Pending",
    "rowid": "944596",
    "final_x": "3702301.87377",
    "final_y": "559655.590877",
    "longitude": "-90.0013532299079",
    "latitude": "30.03221009327739",
    "geocoded_column": {
      "latitude": "30.03221009327739",
      "longitude": "-90.0013532299079"
    }
  },
  {
    "service_request": "2022-944595",
    "request_type": "Trash/Recycling",
    "request_reason": "Missed Trash Pick-Up",
    "date_created": "2022-11-17T20:13:08.000",
    "date_modified": "2022-11-17T20:13:09.000",
    "request_status": "Pending",
    "responsible_agency": "Department of Sanitation",
    "final_address": "917 Seventh St",
    "address_councildis": "B",
    "status": "Assigned to Contractor",
    "contractor": "Richards Disposal",
    "rowid": "944595",
    "final_x": "3676723.41729",
    "final_y": "519913.963512",
    "longitude": "-90.08355278195359",
    "latitude": "29.92372706715264",
    "geocoded_column": {
      "latitude": "29.92372706715264",
      "longitude": "-90.08355278195359"
    }
  },
  {
    "service_request": "2022-944594",
    "request_type": "Trash/Recycling",
    "request_reason": "Missed Trash Pick-Up",
    "date_created": "2022-11-17T19:52:21.000",
    "date_modified": "2022-11-17T19:52:21.000",
    "request_status": "Pending",
    "responsible_agency": "Department of Sanitation",
    "final_address": "4308 Fontainebleau Dr",
    "address_councildis": "A",
    "status": "Assigned to Contractor",
    "contractor": "Richards Disposal",
    "rowid": "944594",
    "final_x": "3669345.78151",
    "final_y": "529354.417473",
    "longitude": "-90.10652229438067",
    "latitude": "29.94990447584146",
    "geocoded_column": {
      "latitude": "29.94990447584146",
      "longitude": "-90.10652229438067"
    }
  },
  {
    "service_request": "2022-944593",
    "request_type": "Trash/Recycling",
    "request_reason": "Order Recycling Cart",
    "date_created": "2022-11-17T19:45:05.000",
    "date_modified": "2022-11-17T19:45:06.000",
    "request_status": "Pending",
    "responsible_agency": "Department of Sanitation",
    "final_address": "6218 Spain St",
    "address_councildis": "D",
    "status": "Pending",
    "rowid": "944593",
    "final_x": "3684496.47106",
    "final_y": "556089.508762",
    "longitude": "-90.0577448961377",
    "latitude": "30.0229617858896",
    "geocoded_column": {
      "latitude": "30.0229617858896",
      "longitude": "-90.0577448961377"
    }
  },
  {
    "service_request": "2022-944592",
    "request_type": "Abandoned Vehicles",
    "request_reason": "Abandoned/Junk Vehicles",
    "date_created": "2022-11-17T19:28:07.000",
    "date_modified": "2022-11-17T19:28:08.000",
    "request_status": "Pending",
    "responsible_agency": "Department of Public Works",
    "final_address": "1045 Jourdan Ave",
    "address_councildis": "E",
    "status": "Pending",
    "rowid": "944592",
    "final_x": "3695043.90435",
    "final_y": "534371.533829",
    "longitude": "-90.02520096315007",
    "latitude": "29.962918222318322",
    "geocoded_column": {
      "latitude": "29.962918222318322",
      "longitude": "-90.02520096315007"
    }
  },
  {
    "service_request": "2022-944591",
    "request_type": "Abandoned Vehicles",
    "request_reason": "Abandoned/Junk Vehicles",
    "date_created": "2022-11-17T19:16:53.000",
    "date_modified": "2022-11-17T19:16:53.000",
    "request_status": "Pending",
    "responsible_agency": "Department of Public Works",
    "final_address": "325 Broadway St",
    "address_councildis": "A",
    "status": "Pending",
    "rowid": "944591",
    "final_x": "3661668.97184",
    "final_y": "522674.408314",
    "longitude": "-90.13098298447608",
    "latitude": "29.93176034161313",
    "geocoded_column": {
      "latitude": "29.93176034161313",
      "longitude": "-90.13098298447608"
    }
  },
  {
    "service_request": "2022-944590",
    "request_type": "Mosquito, Termite & Rodent Control",
    "request_reason": "Rodent Complaint (Rats)",
    "date_created": "2022-11-17T19:10:38.000",
    "date_modified": "2022-11-17T19:10:38.000",
    "request_status": "Pending",
    "responsible_agency": "Mosquito, Termite & Rodent Control Board",
    "final_address": "237 Decatur St",
    "address_councildis": "C",
    "status": "Pending",
    "rowid": "944590",
    "final_x": "3682182.9302",
    "final_y": "530813.406914",
    "longitude": "-90.0659385543882",
    "latitude": "29.953532038475988",
    "geocoded_column": {
      "latitude": "29.953532038475988",
      "longitude": "-90.0659385543882"
    }
  },
  {
    "service_request": "2022-944589",
    "request_type": "Trash/Recycling",
    "request_reason": "MIssed Recycling Pick-Up",
    "date_created": "2022-11-17T19:04:38.000",
    "date_modified": "2022-11-17T19:04:39.000",
    "request_status": "Pending",
    "responsible_agency": "Department of Sanitation",
    "final_address": "5521 S Claiborne Ave",
    "address_councildis": "A",
    "status": "Assigned to Contractor",
    "contractor": "Richards Disposal",
    "rowid": "944589",
    "final_x": "3668020.69805",
    "final_y": "526758.56755",
    "longitude": "-90.11079365983107",
    "latitude": "29.942805674570323",
    "geocoded_column": {
      "latitude": "29.942805674570323",
      "longitude": "-90.11079365983107"
    }
  },
  {
    "service_request": "2022-944588",
    "request_type": "Property Maintenance",
    "request_reason": "Property Maintenance",
    "date_created": "2022-11-17T18:56:36.000",
    "date_modified": "2022-11-17T18:56:36.000",
    "request_status": "Pending",
    "responsible_agency": "Department of Code Enforcement",
    "final_address": "3336 Bryson St",
    "address_councildis": "C",
    "status": "Pending",
    "rowid": "944588",
    "final_x": "3714690.88767",
    "final_y": "517337.186293",
    "longitude": "-89.96380187325897",
    "latitude": "29.915448565763363",
    "geocoded_column": {
      "latitude": "29.915448565763363",
      "longitude": "-89.96380187325897"
    }
  },
  {
    "service_request": "2022-944587",
    "request_type": "Trash/Recycling",
    "request_reason": "Missed Trash Pick-Up",
    "date_created": "2022-11-17T18:55:52.000",
    "date_modified": "2022-11-17T18:55:53.000",
    "request_status": "Pending",
    "responsible_agency": "Department of Sanitation",
    "final_address": "4219 Clio St",
    "address_councildis": "B",
    "status": "Assigned to Contractor",
    "contractor": "Richards Disposal",
    "rowid": "944587",
    "final_x": "3671468.16065",
    "final_y": "531591.879683",
    "longitude": "-90.09974488806519",
    "latitude": "29.955994106084443",
    "geocoded_column": {
      "latitude": "29.955994106084443",
      "longitude": "-90.09974488806519"
    }
  },
  {
    "service_request": "2022-944586",
    "request_type": "Safety & Permits",
    "request_reason": "Licenses & Permits",
    "date_created": "2022-11-17T18:53:36.000",
    "date_modified": "2022-11-17T18:53:36.000",
    "request_status": "Pending",
    "responsible_agency": "Safety and Permits",
    "final_address": "3336 Bryson St",
    "address_councildis": "C",
    "status": "Pending",
    "rowid": "944586",
    "final_x": "3714690.88767",
    "final_y": "517337.186293",
    "longitude": "-89.96380187325897",
    "latitude": "29.915448565763363",
    "geocoded_column": {
      "latitude": "29.915448565763363",
      "longitude": "-89.96380187325897"
    }
  },
  {
    "service_request": "2022-944585",
    "request_type": "Trash/Recycling",
    "request_reason": "Missed Trash Pick-Up",
    "date_created": "2022-11-17T18:47:35.000",
    "date_modified": "2022-11-17T18:47:36.000",
    "request_status": "Pending",
    "responsible_agency": "Department of Sanitation",
    "final_address": "4910 Dauphine St",
    "address_councildis": "E",
    "status": "Assigned to Contractor",
    "contractor": "Waste Pro",
    "rowid": "944585",
    "final_x": "3695174.76982",
    "final_y": "533223.825348",
    "longitude": "-90.02482909663985",
    "latitude": "29.959758320453343",
    "geocoded_column": {
      "latitude": "29.959758320453343",
      "longitude": "-90.02482909663985"
    }
  },
  {
    "service_request": "2022-944584",
    "request_type": "Traffic Signals/Signs/Striping/Streetlights",
    "request_reason": "Street Light Outage/Malfunction",
    "date_created": "2022-11-17T18:45:52.000",
    "date_modified": "2022-11-17T18:45:53.000",
    "request_status": "Pending",
    "responsible_agency": "Department of Public Works",
    "final_address": "7455 Dominican St",
    "address_councildis": "A",
    "status": "Pending",
    "contractor": "Legacy Professional Services",
    "rowid": "944584",
    "final_x": "3661781.51104",
    "final_y": "524846.248188",
    "longitude": "-90.13055573928638",
    "latitude": "29.93772896909779",
    "geocoded_column": {
      "latitude": "29.93772896909779",
      "longitude": "-90.13055573928638"
    }
  },
  {
    "service_request": "2022-944583",
    "request_type": "Trash/Recycling",
    "request_reason": "MIssed Recycling Pick-Up",
    "date_created": "2022-11-17T18:45:34.000",
    "date_modified": "2022-11-17T18:45:34.000",
    "request_status": "Pending",
    "responsible_agency": "Department of Sanitation",
    "final_address": "609 Eleonore St",
    "address_councildis": "A",
    "status": "Assigned to Contractor",
    "contractor": "Richards Disposal",
    "rowid": "944583",
    "final_x": "3665134.981",
    "final_y": "518484.693558",
    "longitude": "-90.12018116679658",
    "latitude": "29.920139485356092",
    "geocoded_column": {
      "latitude": "29.920139485356092",
      "longitude": "-90.12018116679658"
    }
  },
  {
    "service_request": "2022-944581",
    "request_type": "Abandoned Vehicles",
    "request_reason": "Abandoned/Junk Vehicles",
    "date_created": "2022-11-17T18:42:22.000",
    "date_modified": "2022-11-17T18:42:23.000",
    "request_status": "Pending",
    "responsible_agency": "Department of Public Works",
    "final_address": "326 Elmira Ave",
    "address_councildis": "C",
    "status": "Pending",
    "rowid": "944581",
    "final_x": "3688278.42454",
    "final_y": "530525.909122",
    "longitude": "-90.04670180366399",
    "latitude": "29.952554725146395",
    "geocoded_column": {
      "latitude": "29.952554725146395",
      "longitude": "-90.04670180366399"
    }
  },
  {
    "service_request": "2022-944580",
    "request_type": "Trash/Recycling",
    "request_reason": "Missed Trash Pick-Up",
    "date_created": "2022-11-17T18:40:59.000",
    "date_modified": "2022-11-17T18:41:00.000",
    "request_status": "Pending",
    "responsible_agency": "Department of Sanitation",
    "final_address": "3212 St Charles Ave",
    "address_councildis": "B",
    "status": "Assigned to Contractor",
    "contractor": "Richards Disposal",
    "rowid": "944580",
    "final_x": "3674753.54094",
    "final_y": "521705.572025",
    "longitude": "-90.08970959013618",
    "latitude": "29.928712344124584",
    "geocoded_column": {
      "latitude": "29.928712344124584",
      "longitude": "-90.08970959013618"
    }
  },
  {
    "service_request": "2022-944579",
    "request_type": "Trash/Recycling",
    "request_reason": "Missed Trash Pick-Up",
    "date_created": "2022-11-17T18:36:30.000",
    "date_modified": "2022-11-17T18:36:31.000",
    "request_status": "Pending",
    "responsible_agency": "Department of Sanitation",
    "final_address": "1814 Duels St",
    "address_councildis": "D",
    "status": "Assigned to Contractor",
    "contractor": "IV Waste",
    "rowid": "944579",
    "final_x": "3681678.1485",
    "final_y": "542306.650509",
    "longitude": "-90.06713141198934",
    "latitude": "29.985149839708352",
    "geocoded_column": {
      "latitude": "29.985149839708352",
      "longitude": "-90.06713141198934"
    }
  },
  {
    "service_request": "2022-944578",
    "request_type": "Trash/Recycling",
    "request_reason": "MIssed Recycling Pick-Up",
    "date_created": "2022-11-17T18:35:28.000",
    "date_modified": "2022-11-17T18:35:29.000",
    "request_status": "Pending",
    "responsible_agency": "Department of Sanitation",
    "final_address": "1620 Fourth St",
    "address_councildis": "B",
    "status": "Assigned to Contractor",
    "contractor": "Richards Disposal",
    "rowid": "944578",
    "final_x": "3676043.77665",
    "final_y": "522866.967739",
    "longitude": "-90.08559665644712",
    "latitude": "29.931867236838222",
    "geocoded_column": {
      "latitude": "29.931867236838222",
      "longitude": "-90.08559665644712"
    }
  },
  {
    "service_request": "2022-944577",
    "request_type": "Trash/Recycling",
    "request_reason": "Missed Trash Pick-Up",
    "date_created": "2022-11-17T18:34:50.000",
    "date_modified": "2022-11-17T18:34:51.000",
    "request_status": "Pending",
    "responsible_agency": "Department of Sanitation",
    "final_address": "1620 Fourth St",
    "address_councildis": "B",
    "status": "Assigned to Contractor",
    "contractor": "Richards Disposal",
    "rowid": "944577",
    "final_x": "3676043.77665",
    "final_y": "522866.967739",
    "longitude": "-90.08559665644712",
    "latitude": "29.931867236838222",
    "geocoded_column": {
      "latitude": "29.931867236838222",
      "longitude": "-90.08559665644712"
    }
  },
  {
    "service_request": "2022-944576",
    "request_type": "Trash/Recycling",
    "request_reason": "Missed Trash Pick-Up",
    "date_created": "2022-11-17T18:33:13.000",
    "date_modified": "2022-11-17T18:33:14.000",
    "request_status": "Pending",
    "responsible_agency": "Department of Sanitation",
    "final_address": "1800 BLK Duels St",
    "address_councildis": "D",
    "status": "Assigned to Contractor",
    "contractor": "IV Waste",
    "rowid": "944576",
    "final_x": "3681717.76678",
    "final_y": "542340.848833",
    "longitude": "-90.06700508087435",
    "latitude": "29.985242669242375",
    "geocoded_column": {
      "latitude": "29.985242669242375",
      "longitude": "-90.06700508087435"
    }
  },
  {
    "service_request": "2022-944575",
    "request_type": "Trash/Recycling",
    "request_reason": "Order Trash Cart",
    "date_created": "2022-11-17T18:18:18.000",
    "date_modified": "2022-11-17T18:18:18.000",
    "request_status": "Pending",
    "responsible_agency": "Department of Sanitation",
    "final_address": "4911 Kendall Dr",
    "address_councildis": "D",
    "status": "Assigned to Contractor",
    "contractor": "IV Waste",
    "rowid": "944575",
    "final_x": "3690362.48323",
    "final_y": "551544.704021",
    "longitude": "-90.03937184363632",
    "latitude": "30.010284399211095",
    "geocoded_column": {
      "latitude": "30.010284399211095",
      "longitude": "-90.03937184363632"
    }
  },
  {
    "service_request": "2022-944574",
    "request_type": "Trash/Recycling",
    "request_reason": "Order Recycling Cart",
    "date_created": "2022-11-17T18:13:24.000",
    "date_modified": "2022-11-17T18:13:24.000",
    "request_status": "Pending",
    "responsible_agency": "Department of Sanitation",
    "final_address": "2621 Fats Domino Ave",
    "address_councildis": "E",
    "status": "Pending",
    "rowid": "944574",
    "final_x": "3699695.32874",
    "final_y": "539553.356234",
    "longitude": "-90.01032350474644",
    "latitude": "29.977019534260414",
    "geocoded_column": {
      "latitude": "29.977019534260414",
      "longitude": "-90.01032350474644"
    }
  },
  {
    "service_request": "2022-944573",
    "request_type": "Traffic Signals/Signs/Striping/Streetlights",
    "request_reason": "Street Light Outage/Malfunction",
    "date_created": "2022-11-17T18:09:05.000",
    "date_modified": "2022-11-17T18:09:06.000",
    "request_status": "Pending",
    "responsible_agency": "Department of Public Works",
    "final_address": "7934 Willow St",
    "address_councildis": "A",
    "status": "Pending",
    "contractor": "Legacy Professional Services",
    "rowid": "944573",
    "final_x": "3662794.15911",
    "final_y": "528513.815872",
    "longitude": "-90.12723683791944",
    "latitude": "29.947784343371843",
    "geocoded_column": {
      "latitude": "29.947784343371843",
      "longitude": "-90.12723683791944"
    }
  },
  {
    "service_request": "2022-944572",
    "request_type": "Trash/Recycling",
    "request_reason": "Missed Trash Pick-Up",
    "date_created": "2022-11-17T18:05:24.000",
    "date_modified": "2022-11-17T18:05:25.000",
    "request_status": "Pending",
    "responsible_agency": "Department of Sanitation",
    "final_address": "731 Fern St",
    "address_councildis": "A",
    "status": "Assigned to Contractor",
    "contractor": "Richards Disposal",
    "rowid": "944572",
    "final_x": "3661572.91936",
    "final_y": "526733.867006",
    "longitude": "-90.1311517589614",
    "latitude": "29.942925341207168",
    "geocoded_column": {
      "latitude": "29.942925341207168",
      "longitude": "-90.1311517589614"
    }
  },
  {
    "service_request": "2022-944571",
    "request_type": "Trash/Recycling",
    "request_reason": "MIssed Recycling Pick-Up",
    "date_created": "2022-11-17T18:05:02.000",
    "date_modified": "2022-11-17T18:05:03.000",
    "request_status": "Pending",
    "responsible_agency": "Department of Sanitation",
    "final_address": "1529 Nashville Ave, New Orleans, Louisiana, 70115",
    "address_councildis": "A",
    "status": "Assigned to Contractor",
    "contractor": "Richards Disposal",
    "rowid": "944571",
    "final_x": "3666228.28692",
    "final_y": "521867.901114",
    "longitude": "-90.11661671233426",
    "latitude": "29.92941036615711",
    "geocoded_column": {
      "latitude": "29.92941036615711",
      "longitude": "-90.11661671233426"
    }
  },
  {
    "service_request": "2022-944570",
    "request_type": "Trash/Recycling",
    "request_reason": "Replace Trash Cart",
    "date_created": "2022-11-17T18:04:06.000",
    "date_modified": "2022-11-17T18:04:06.000",
    "request_status": "Pending",
    "responsible_agency": "Department of Sanitation",
    "final_address": "1016 Antonine St",
    "address_councildis": "B",
    "status": "Assigned to Contractor",
    "contractor": "Richards Disposal",
    "rowid": "944570",
    "final_x": "3673907.83649",
    "final_y": "518987.091127",
    "longitude": "-90.09247224136851",
    "latitude": "29.921262607118717",
    "geocoded_column": {
      "latitude": "29.921262607118717",
      "longitude": "-90.09247224136851"
    }
  },
  {
    "service_request": "2022-944569",
    "request_type": "Trash/Recycling",
    "request_reason": "Missed Trash Pick-Up",
    "date_created": "2022-11-17T17:59:50.000",
    "date_modified": "2022-11-17T17:59:51.000",
    "request_status": "Pending",
    "responsible_agency": "Department of Sanitation",
    "final_address": "2415 Magnolia St",
    "address_councildis": "B",
    "status": "Assigned to Contractor",
    "contractor": "Richards Disposal",
    "rowid": "944569",
    "final_x": "3674638.72289",
    "final_y": "526462.09715",
    "longitude": "-90.08990910609505",
    "latitude": "29.941794664525467",
    "geocoded_column": {
      "latitude": "29.941794664525467",
      "longitude": "-90.08990910609505"
    }
  },
  {
    "service_request": "2022-944568",
    "request_type": "Roads/Drainage",
    "request_reason": "Pothole",
    "date_created": "2022-11-17T17:56:56.000",
    "date_modified": "2022-11-17T17:56:56.000",
    "request_status": "Pending",
    "responsible_agency": "Department of Public Works",
    "final_address": "5310 Loyola Ave",
    "address_councildis": "B",
    "status": "Pending",
    "rowid": "944568",
    "final_x": "3668102.72666",
    "final_y": "522832.730235",
    "longitude": "-90.11066693370712",
    "latitude": "29.9320084764634",
    "geocoded_column": {
      "latitude": "29.9320084764634",
      "longitude": "-90.11066693370712"
    }
  },
  {
    "service_request": "2022-944567",
    "request_type": "Parks & Parkways",
    "request_reason": "Request Tree Service (Right of Way/Public Property)",
    "date_created": "2022-11-17T17:56:39.000",
    "date_modified": "2022-11-17T17:56:40.000",
    "request_status": "Pending",
    "responsible_agency": "Department of Parks & Parkway",
    "final_address": "2638 Louisiana Ave",
    "address_councildis": "B",
    "status": "Pending",
    "rowid": "944567",
    "final_x": "3672613.71521",
    "final_y": "525057.580477",
    "longitude": "-90.0963503567633",
    "latitude": "29.93799296902511",
    "geocoded_column": {
      "latitude": "29.93799296902511",
      "longitude": "-90.0963503567633"
    }
  },
  {
    "service_request": "2022-944566",
    "request_type": "Roads/Drainage",
    "request_reason": "Street Flooding / Drainage",
    "date_created": "2022-11-17T17:55:56.000",
    "date_modified": "2022-11-17T17:55:56.000",
    "request_status": "Pending",
    "responsible_agency": "Department of Public Works",
    "final_address": "5000 Paris Ave",
    "address_councildis": "D",
    "status": "Pending",
    "rowid": "944566",
    "final_x": "3679104.59483",
    "final_y": "550779.476693",
    "longitude": "-90.07496628081512",
    "latitude": "30.008525060952465",
    "geocoded_column": {
      "latitude": "30.008525060952465",
      "longitude": "-90.07496628081512"
    }
  },
  {
    "service_request": "2022-944565",
    "request_type": "Trash/Recycling",
    "request_reason": "MIssed Recycling Pick-Up",
    "date_created": "2022-11-17T17:54:55.000",
    "date_modified": "2022-11-17T17:54:56.000",
    "request_status": "Pending",
    "responsible_agency": "Department of Sanitation",
    "final_address": "1334 Henry Clay Ave",
    "address_councildis": "A",
    "status": "Assigned to Contractor",
    "contractor": "Richards Disposal",
    "rowid": "944565",
    "final_x": "3664463.52551",
    "final_y": "521447.226105",
    "longitude": "-90.12220179822322",
    "latitude": "29.928305051290806",
    "geocoded_column": {
      "latitude": "29.928305051290806",
      "longitude": "-90.12220179822322"
    }
  },
  {
    "service_request": "2022-944564",
    "request_type": "Trash/Recycling",
    "request_reason": "MIssed Recycling Pick-Up",
    "date_created": "2022-11-17T17:45:24.000",
    "date_modified": "2022-11-17T17:45:25.000",
    "request_status": "Pending",
    "responsible_agency": "Department of Sanitation",
    "final_address": "321 Alonzo St",
    "address_councildis": "A",
    "status": "Assigned to Contractor",
    "contractor": "Richards Disposal",
    "rowid": "944564",
    "final_x": "3664633.28365",
    "final_y": "517570.918774",
    "longitude": "-90.12179528947192",
    "latitude": "29.91764148554684",
    "geocoded_column": {
      "latitude": "29.91764148554684",
      "longitude": "-90.12179528947192"
    }
  },
  {
    "service_request": "2022-944563",
    "request_type": "Trash/Recycling",
    "request_reason": "Order Recycling Cart",
    "date_created": "2022-11-17T17:40:34.000",
    "date_modified": "2022-11-17T17:40:34.000",
    "request_status": "Pending",
    "responsible_agency": "Department of Sanitation",
    "final_address": "5512 Baccich St",
    "address_councildis": "D",
    "status": "Pending",
    "rowid": "944563",
    "final_x": "3687594.97903",
    "final_y": "553463.352855",
    "longitude": "-90.04804740895882",
    "latitude": "30.015645620961646",
    "geocoded_column": {
      "latitude": "30.015645620961646",
      "longitude": "-90.04804740895882"
    }
  },
  {
    "service_request": "2022-944562",
    "request_type": "Trash/Recycling",
    "request_reason": "MIssed Recycling Pick-Up",
    "date_created": "2022-11-17T17:36:39.000",
    "date_modified": "2022-11-17T17:36:40.000",
    "request_status": "Pending",
    "responsible_agency": "Department of Sanitation",
    "final_address": "6030 Hurst St",
    "address_councildis": "A",
    "status": "Assigned to Contractor",
    "contractor": "Richards Disposal",
    "rowid": "944562",
    "final_x": "3665256.5074",
    "final_y": "521786.983866",
    "longitude": "-90.11968715854152",
    "latitude": "29.92921620713637",
    "geocoded_column": {
      "latitude": "29.92921620713637",
      "longitude": "-90.11968715854152"
    }
  },
  {
    "service_request": "2022-944561",
    "request_type": "Trash/Recycling",
    "request_reason": "MIssed Recycling Pick-Up",
    "date_created": "2022-11-17T17:36:15.000",
    "date_modified": "2022-11-17T17:36:16.000",
    "request_status": "Pending",
    "responsible_agency": "Department of Sanitation",
    "final_address": "5413 S Tonti St",
    "address_councildis": "A",
    "status": "Assigned to Contractor",
    "contractor": "Richards Disposal",
    "rowid": "944561",
    "final_x": "3668738.98932",
    "final_y": "528061.945855",
    "longitude": "-90.10848184761353",
    "latitude": "29.94636844980022",
    "geocoded_column": {
      "latitude": "29.94636844980022",
      "longitude": "-90.10848184761353"
    }
  },
  {
    "service_request": "2022-944560",
    "request_type": "Trash/Recycling",
    "request_reason": "Request a Large Item Pick Up",
    "date_created": "2022-11-17T17:33:47.000",
    "date_modified": "2022-11-17T17:33:48.000",
    "request_status": "Pending",
    "responsible_agency": "Department of Sanitation",
    "final_address": "1115 Lyons St",
    "address_councildis": "B",
    "status": "Assigned to Contractor",
    "contractor": "Richards Disposal",
    "rowid": "944560",
    "final_x": "3669204.98068",
    "final_y": "519489.652343",
    "longitude": "-90.10730014473744",
    "latitude": "29.922783690562895",
    "geocoded_column": {
      "latitude": "29.922783690562895",
      "longitude": "-90.10730014473744"
    }
  },
  {
    "service_request": "2022-944559",
    "request_type": "Trash/Recycling",
    "request_reason": "Missed Trash Pick-Up",
    "date_created": "2022-11-17T17:33:14.000",
    "date_modified": "2022-11-17T17:33:15.000",
    "request_status": "Pending",
    "responsible_agency": "Department of Sanitation",
    "final_address": "4100 St Anthony Ave",
    "address_councildis": "D",
    "status": "Assigned to Contractor",
    "contractor": "IV Waste",
    "rowid": "944559",
    "final_x": "3682480.69986",
    "final_y": "547910.493778",
    "longitude": "-90.0644004768966",
    "latitude": "30.000534010652128",
    "geocoded_column": {
      "latitude": "30.000534010652128",
      "longitude": "-90.0644004768966"
    }
  },
  {
    "service_request": "2022-944558",
    "request_type": "Roads/Drainage",
    "request_reason": "Catch Basin - Clogged",
    "date_created": "2022-11-17T17:30:53.000",
    "date_modified": "2022-11-17T17:30:54.000",
    "request_status": "Pending",
    "responsible_agency": "Department of Public Works",
    "final_address": "1014 Eleonore St",
    "address_councildis": "A",
    "status": "Pending",
    "rowid": "944558",
    "final_x": "3665367.52608",
    "final_y": "519881.803832",
    "longitude": "-90.11940040938434",
    "latitude": "29.923974328672756",
    "geocoded_column": {
      "latitude": "29.923974328672756",
      "longitude": "-90.11940040938434"
    }
  },
  {
    "service_request": "2022-944557",
    "request_type": "Trash/Recycling",
    "request_reason": "MIssed Recycling Pick-Up",
    "date_created": "2022-11-17T17:29:53.000",
    "date_modified": "2022-11-17T17:29:54.000",
    "request_status": "Pending",
    "responsible_agency": "Department of Sanitation",
    "final_address": "406 Henry Clay Ave",
    "address_councildis": "A",
    "status": "Assigned to Contractor",
    "contractor": "Richards Disposal",
    "rowid": "944557",
    "final_x": "3663210.89523",
    "final_y": "518339.596406",
    "longitude": "-90.12625943864438",
    "latitude": "29.91979638725064",
    "geocoded_column": {
      "latitude": "29.91979638725064",
      "longitude": "-90.12625943864438"
    }
  },
  {
    "service_request": "2022-944556",
    "request_type": "Trash/Recycling",
    "request_reason": "MIssed Recycling Pick-Up",
    "date_created": "2022-11-17T17:27:27.000",
    "date_modified": "2022-11-17T17:27:28.000",
    "request_status": "Pending",
    "responsible_agency": "Department of Sanitation",
    "final_address": "1306 Calhoun St",
    "address_councildis": "A",
    "status": "Assigned to Contractor",
    "contractor": "Richards Disposal",
    "rowid": "944556",
    "final_x": "3664103.11738",
    "final_y": "521391.034809",
    "longitude": "-90.12334140557269",
    "latitude": "29.928161012734737",
    "geocoded_column": {
      "latitude": "29.928161012734737",
      "longitude": "-90.12334140557269"
    }
  },
  {
    "service_request": "2022-944554",
    "request_type": "Trash/Recycling",
    "request_reason": "Repair Trash Cart",
    "date_created": "2022-11-17T17:22:58.000",
    "date_modified": "2022-11-17T17:22:58.000",
    "request_status": "Pending",
    "responsible_agency": "Department of Sanitation",
    "final_address": "2403 St Charles Ave",
    "address_councildis": "B",
    "status": "Assigned to Contractor",
    "contractor": "Richards Disposal",
    "rowid": "944554",
    "final_x": "3676877.13621",
    "final_y": "523246.707387",
    "longitude": "-90.08295274640982",
    "latitude": "29.932886418152176",
    "geocoded_column": {
      "latitude": "29.932886418152176",
      "longitude": "-90.08295274640982"
    }
  },
  {
    "service_request": "2022-944553",
    "request_type": "Trash/Recycling",
    "request_reason": "Repair Trash Cart",
    "date_created": "2022-11-17T17:22:58.000",
    "date_modified": "2022-11-17T17:22:58.000",
    "request_status": "Pending",
    "responsible_agency": "Department of Sanitation",
    "final_address": "2403 St Charles Ave",
    "address_councildis": "B",
    "status": "Assigned to Contractor",
    "contractor": "Richards Disposal",
    "rowid": "944553",
    "final_x": "3676877.13621",
    "final_y": "523246.707387",
    "longitude": "-90.08295274640982",
    "latitude": "29.932886418152176",
    "geocoded_column": {
      "latitude": "29.932886418152176",
      "longitude": "-90.08295274640982"
    }
  },
  {
    "service_request": "2022-944552",
    "request_type": "Trash/Recycling",
    "request_reason": "Repair Trash Cart",
    "date_created": "2022-11-17T17:22:56.000",
    "date_modified": "2022-11-17T17:22:57.000",
    "request_status": "Pending",
    "responsible_agency": "Department of Sanitation",
    "final_address": "2403 St Charles Ave",
    "address_councildis": "B",
    "status": "Assigned to Contractor",
    "contractor": "Richards Disposal",
    "rowid": "944552",
    "final_x": "3676877.13621",
    "final_y": "523246.707387",
    "longitude": "-90.08295274640982",
    "latitude": "29.932886418152176",
    "geocoded_column": {
      "latitude": "29.932886418152176",
      "longitude": "-90.08295274640982"
    }
  },
  {
    "service_request": "2022-944551",
    "request_type": "Trash/Recycling",
    "request_reason": "Missed Trash Pick-Up",
    "date_created": "2022-11-17T17:18:18.000",
    "date_modified": "2022-11-17T17:18:20.000",
    "request_status": "Pending",
    "responsible_agency": "Department of Sanitation",
    "final_address": "4520 Annette St",
    "address_councildis": "D",
    "status": "Assigned to Contractor",
    "contractor": "IV Waste",
    "rowid": "944551",
    "final_x": "3682052.98018",
    "final_y": "549264.790611",
    "longitude": "-90.06570433982859",
    "latitude": "30.00427085873398",
    "geocoded_column": {
      "latitude": "30.00427085873398",
      "longitude": "-90.06570433982859"
    }
  },
  {
    "service_request": "2022-944549",
    "request_type": "Trash/Recycling",
    "request_reason": "MIssed Recycling Pick-Up",
    "date_created": "2022-11-17T17:13:20.000",
    "date_modified": "2022-11-17T17:13:20.000",
    "request_status": "Pending",
    "responsible_agency": "Department of Sanitation",
    "final_address": "1324 Seventh St",
    "address_councildis": "B",
    "status": "Assigned to Contractor",
    "contractor": "Richards Disposal",
    "rowid": "944549",
    "final_x": "3675809.12475",
    "final_y": "521157.073273",
    "longitude": "-90.08639617014401",
    "latitude": "29.927172606081",
    "geocoded_column": {
      "latitude": "29.927172606081",
      "longitude": "-90.08639617014401"
    }
  },
  {
    "service_request": "2022-944548",
    "request_type": "Trash/Recycling",
    "request_reason": "MIssed Recycling Pick-Up",
    "date_created": "2022-11-17T17:12:32.000",
    "date_modified": "2022-11-17T17:12:33.000",
    "request_status": "Pending",
    "responsible_agency": "Department of Sanitation",
    "final_address": "625 S Rocheblave St",
    "address_councildis": "B",
    "status": "Assigned to Contractor",
    "contractor": "Richards Disposal",
    "rowid": "944548",
    "final_x": "3674667.03649",
    "final_y": "532757.690692",
    "longitude": "-90.08960396867559",
    "latitude": "29.959104614912476",
    "geocoded_column": {
      "latitude": "29.959104614912476",
      "longitude": "-90.08960396867559"
    }
  },
  {
    "service_request": "2022-944547",
    "request_type": "Trash/Recycling",
    "request_reason": "Missed Trash Pick-Up",
    "date_created": "2022-11-17T17:11:26.000",
    "date_modified": "2022-11-17T17:11:26.000",
    "request_status": "Pending",
    "responsible_agency": "Department of Sanitation",
    "final_address": "1324 Seventh St",
    "address_councildis": "B",
    "status": "Assigned to Contractor",
    "contractor": "Richards Disposal",
    "rowid": "944547",
    "final_x": "3675809.12475",
    "final_y": "521157.073273",
    "longitude": "-90.08639617014401",
    "latitude": "29.927172606081",
    "geocoded_column": {
      "latitude": "29.927172606081",
      "longitude": "-90.08639617014401"
    }
  },
  {
    "service_request": "2022-944546",
    "request_type": "Trash/Recycling",
    "request_reason": "MIssed Recycling Pick-Up",
    "date_created": "2022-11-17T17:02:56.000",
    "date_modified": "2022-11-17T17:02:58.000",
    "request_status": "Pending",
    "responsible_agency": "Department of Sanitation",
    "final_address": "18 Richmond Pl",
    "address_councildis": "A",
    "status": "Assigned to Contractor",
    "contractor": "Richards Disposal",
    "rowid": "944546",
    "final_x": "3666565.54554",
    "final_y": "524105.339644",
    "longitude": "-90.11547697427197",
    "latitude": "29.935552758662038",
    "geocoded_column": {
      "latitude": "29.935552758662038",
      "longitude": "-90.11547697427197"
    }
  },
  {
    "service_request": "2022-944545",
    "request_type": "Trash/Recycling",
    "request_reason": "Order Trash Cart",
    "date_created": "2022-11-17T17:02:35.000",
    "date_modified": "2022-11-17T17:02:36.000",
    "request_status": "Pending",
    "responsible_agency": "Department of Sanitation",
    "final_address": "935 Barracks St",
    "address_councildis": "C",
    "status": "Assigned to Contractor",
    "contractor": "Empire Services",
    "rowid": "944545",
    "final_x": "3683086.21858",
    "final_y": "534841.932102",
    "longitude": "-90.06294532425949",
    "latitude": "29.96458160274991",
    "geocoded_column": {
      "latitude": "29.96458160274991",
      "longitude": "-90.06294532425949"
    }
  },
  {
    "service_request": "2022-944544",
    "request_type": "Trash/Recycling",
    "request_reason": "Order Recycling Cart",
    "date_created": "2022-11-17T17:01:45.000",
    "date_modified": "2022-11-17T17:01:46.000",
    "case_close_date": "2022-10-19T19:00:00.000",
    "request_status": "Pending",
    "responsible_agency": "Department of Sanitation",
    "final_address": "2122 Oretha Castle Haley Blvd",
    "address_councildis": "B",
    "status": "Pending",
    "contractor": "Richards Disposal",
    "rowid": "944544",
    "final_x": "3676989.53672",
    "final_y": "524811.987836",
    "longitude": "-90.0825439655408",
    "latitude": "29.93718705340186",
    "geocoded_column": {
      "latitude": "29.93718705340186",
      "longitude": "-90.0825439655408"
    }
  },
  {
    "service_request": "2022-944543",
    "request_type": "Trash/Recycling",
    "request_reason": "MIssed Recycling Pick-Up",
    "date_created": "2022-11-17T17:01:12.000",
    "date_modified": "2022-11-17T17:01:12.000",
    "case_close_date": "2022-10-19T19:00:00.000",
    "request_status": "Closed",
    "responsible_agency": "Department of Sanitation",
    "final_address": "2116 Oretha Castle Haley Blvd",
    "address_councildis": "B",
    "status": "Resolved",
    "contractor": "Richards Disposal",
    "rowid": "944543",
    "final_x": "3677023.08584",
    "final_y": "524835.779004",
    "longitude": "-90.08243722889668",
    "latitude": "29.937251464273828",
    "geocoded_column": {
      "latitude": "29.937251464273828",
      "longitude": "-90.08243722889668"
    }
  },
  {
    "service_request": "2022-944542",
    "request_type": "Roads/Drainage",
    "request_reason": "Catch Basin - Clogged",
    "date_created": "2022-11-17T17:00:53.000",
    "date_modified": "2022-11-17T17:00:53.000",
    "request_status": "Pending",
    "responsible_agency": "Department of Public Works",
    "final_address": "920 St Louis St Unit 5",
    "address_councildis": "C",
    "status": "Pending",
    "rowid": "944542",
    "final_x": "3681348.64309",
    "final_y": "532346.447299",
    "longitude": "-90.06851944603731",
    "latitude": "29.957772727070946",
    "geocoded_column": {
      "latitude": "29.957772727070946",
      "longitude": "-90.06851944603731"
    }
  },
  {
    "service_request": "2022-944541",
    "request_type": "Trash/Recycling",
    "request_reason": "Order Recycling Cart",
    "date_created": "2022-11-17T16:55:08.000",
    "date_modified": "2022-11-17T16:55:09.000",
    "case_close_date": "2021-09-13T19:00:00.000",
    "request_status": "Pending",
    "responsible_agency": "Department of Sanitation",
    "final_address": "7824 Primrose Dr",
    "address_councildis": "E",
    "status": "Pending",
    "contractor": "Metro Disposal",
    "rowid": "944541",
    "final_x": "3701438.62583",
    "final_y": "561827.215455",
    "longitude": "-90.00400152011697",
    "latitude": "30.038208778856344",
    "geocoded_column": {
      "latitude": "30.038208778856344",
      "longitude": "-90.00400152011697"
    }
  },
  {
    "service_request": "2022-944540",
    "request_type": "Trash/Recycling",
    "request_reason": "Order Recycling Cart",
    "date_created": "2022-11-17T16:53:21.000",
    "date_modified": "2022-11-17T16:53:21.000",
    "request_status": "Pending",
    "responsible_agency": "Department of Sanitation",
    "final_address": "2823 Pauger St",
    "address_councildis": "D",
    "status": "Pending",
    "rowid": "944540",
    "final_x": "3683598.02684",
    "final_y": "540102.405195",
    "longitude": "-90.06114463353006",
    "latitude": "29.97903046470161",
    "geocoded_column": {
      "latitude": "29.97903046470161",
      "longitude": "-90.06114463353006"
    }
  },
  {
    "service_request": "2022-944539",
    "request_type": "Trash/Recycling",
    "request_reason": "Request a Large Item Pick Up",
    "date_created": "2022-11-17T16:52:34.000",
    "date_modified": "2022-11-17T16:52:34.000",
    "case_close_date": "2022-11-08T18:00:00.000",
    "request_status": "Pending",
    "responsible_agency": "Department of Sanitation",
    "final_address": "2716 Calhoun St",
    "address_councildis": "A",
    "status": "Assigned to Contractor",
    "contractor": "Richards Disposal",
    "rowid": "944539",
    "final_x": "3666473.01178",
    "final_y": "526790.563198",
    "longitude": "-90.11567901942337",
    "latitude": "29.942938966430567",
    "geocoded_column": {
      "latitude": "29.942938966430567",
      "longitude": "-90.11567901942337"
    }
  },
  {
    "service_request": "2022-944538",
    "request_type": "Trash/Recycling",
    "request_reason": "Order Recycling Cart",
    "date_created": "2022-11-17T16:51:46.000",
    "date_modified": "2022-11-17T16:53:49.000",
    "request_status": "Pending",
    "responsible_agency": "Department of Sanitation",
    "final_address": "2324 Columbus St",
    "address_councildis": "D",
    "status": "Pending",
    "rowid": "944538",
    "final_x": "3679606.96168",
    "final_y": "538746.828105",
    "longitude": "-90.07379701398004",
    "latitude": "29.975424334355367",
    "geocoded_column": {
      "latitude": "29.975424334355367",
      "longitude": "-90.07379701398004"
    }
  },
  {
    "service_request": "2022-944537",
    "request_type": "Trash/Recycling",
    "request_reason": "Illegal Dumping",
    "date_created": "2022-11-17T16:45:49.000",
    "date_modified": "2022-11-17T16:45:50.000",
    "request_status": "Pending",
    "responsible_agency": "Department of Sanitation",
    "final_address": "2401 Milan St",
    "address_councildis": "B",
    "status": "Pending",
    "rowid": "944537",
    "final_x": "3671354.99092",
    "final_y": "523807.333307",
    "longitude": "-90.10036673989404",
    "latitude": "29.9345924975467",
    "geocoded_column": {
      "latitude": "29.9345924975467",
      "longitude": "-90.10036673989404"
    }
  },
  {
    "service_request": "2022-944536",
    "request_type": "Trash/Recycling",
    "request_reason": "MIssed Recycling Pick-Up",
    "date_created": "2022-11-17T16:43:36.000",
    "date_modified": "2022-11-17T16:43:37.000",
    "request_status": "Pending",
    "responsible_agency": "Department of Sanitation",
    "final_address": "3135 Octavia St",
    "address_councildis": "A",
    "status": "Assigned to Contractor",
    "contractor": "Richards Disposal",
    "rowid": "944536",
    "final_x": "3668359.92122",
    "final_y": "527295.460351",
    "longitude": "-90.10970454617323",
    "latitude": "29.944271999720904",
    "geocoded_column": {
      "latitude": "29.944271999720904",
      "longitude": "-90.10970454617323"
    }
  },
  {
    "service_request": "2022-944535",
    "request_type": "Trash/Recycling",
    "request_reason": "MIssed Recycling Pick-Up",
    "date_created": "2022-11-17T16:43:36.000",
    "date_modified": "2022-11-17T16:43:37.000",
    "request_status": "Pending",
    "responsible_agency": "Department of Sanitation",
    "final_address": "3135 Octavia St",
    "address_councildis": "A",
    "status": "Assigned to Contractor",
    "contractor": "Richards Disposal",
    "rowid": "944535",
    "final_x": "3668359.92122",
    "final_y": "527295.460351",
    "longitude": "-90.10970454617323",
    "latitude": "29.944271999720904",
    "geocoded_column": {
      "latitude": "29.944271999720904",
      "longitude": "-90.10970454617323"
    }
  },
  {
    "service_request": "2022-944534",
    "request_type": "Trash/Recycling",
    "request_reason": "Replace Trash Cart",
    "date_created": "2022-11-17T16:41:58.000",
    "date_modified": "2022-11-17T16:41:58.000",
    "request_status": "Pending",
    "responsible_agency": "Department of Sanitation",
    "final_address": "7518 Briarheath Dr",
    "address_councildis": "E",
    "status": "Assigned to Contractor",
    "contractor": "Waste Pro",
    "rowid": "944534",
    "final_x": "3714844.72088",
    "final_y": "566998.124196",
    "longitude": "-89.96143961055942",
    "latitude": "30.05199221896717",
    "geocoded_column": {
      "latitude": "30.05199221896717",
      "longitude": "-89.96143961055942"
    }
  },
  {
    "service_request": "2022-944532",
    "request_type": "Trash/Recycling",
    "request_reason": "MIssed Recycling Pick-Up",
    "date_created": "2022-11-17T16:31:44.000",
    "date_modified": "2022-11-17T16:31:44.000",
    "request_status": "Pending",
    "responsible_agency": "Department of Sanitation",
    "final_address": "6022 Pitt St",
    "address_councildis": "A",
    "status": "Assigned to Contractor",
    "contractor": "Richards Disposal",
    "rowid": "944532",
    "final_x": "3665083.62919",
    "final_y": "521135.197945",
    "longitude": "-90.12025468730062",
    "latitude": "29.927429035267803",
    "geocoded_column": {
      "latitude": "29.927429035267803",
      "longitude": "-90.12025468730062"
    }
  },
  {
    "service_request": "2022-944531",
    "request_type": "Trash/Recycling",
    "request_reason": "Missed Trash Pick-Up",
    "date_created": "2022-11-17T16:28:05.000",
    "date_modified": "2022-11-17T16:28:06.000",
    "request_status": "Pending",
    "responsible_agency": "Department of Sanitation",
    "final_address": "1936 Elysian Fields Ave",
    "address_councildis": "D",
    "status": "Assigned to Contractor",
    "contractor": "IV Waste",
    "rowid": "944531",
    "final_x": "3684647.72386",
    "final_y": "539542.568842",
    "longitude": "-90.05784897431457",
    "latitude": "29.97745902363321",
    "geocoded_column": {
      "latitude": "29.97745902363321",
      "longitude": "-90.05784897431457"
    }
  },
  {
    "service_request": "2022-944530",
    "request_type": "Trash/Recycling",
    "request_reason": "Replace Recycling Cart",
    "date_created": "2022-11-17T16:17:21.000",
    "date_modified": "2022-11-17T16:17:21.000",
    "request_status": "Pending",
    "responsible_agency": "Department of Sanitation",
    "final_address": "6145 Colbert St",
    "address_councildis": "A",
    "status": "Pending",
    "rowid": "944530",
    "final_x": "3667598.89524",
    "final_y": "548372.452306",
    "longitude": "-90.11139767543654",
    "latitude": "30.002248997271558",
    "geocoded_column": {
      "latitude": "30.002248997271558",
      "longitude": "-90.11139767543654"
    }
  },
  {
    "service_request": "2022-944529",
    "request_type": "Trash/Recycling",
    "request_reason": "Missed Trash Pick-Up",
    "date_created": "2022-11-17T16:15:19.000",
    "date_modified": "2022-11-17T16:15:20.000",
    "request_status": "Pending",
    "responsible_agency": "Department of Sanitation",
    "final_address": "1323 S Derbigny St",
    "address_councildis": "B",
    "status": "Assigned to Contractor",
    "contractor": "Richards Disposal",
    "rowid": "944529",
    "final_x": "3674920.98037",
    "final_y": "528685.855808",
    "longitude": "-90.08894171264667",
    "latitude": "29.947900842776853",
    "geocoded_column": {
      "latitude": "29.947900842776853",
      "longitude": "-90.08894171264667"
    }
  },
  {
    "service_request": "2022-944528",
    "request_type": "Trash/Recycling",
    "request_reason": "Order Recycling Cart",
    "date_created": "2022-11-17T16:14:56.000",
    "date_modified": "2022-11-17T16:14:57.000",
    "request_status": "Pending",
    "responsible_agency": "Department of Sanitation",
    "final_address": "121 Torrey Pines Dr",
    "address_councildis": "E",
    "status": "Pending",
    "rowid": "944528",
    "final_x": "3718076.16633",
    "final_y": "564570.767649",
    "longitude": "-89.95131865389713",
    "latitude": "30.04521120768748",
    "geocoded_column": {
      "latitude": "30.04521120768748",
      "longitude": "-89.95131865389713"
    }
  },
  {
    "service_request": "2022-944527",
    "request_type": "Trash/Recycling",
    "request_reason": "Order Trash Cart",
    "date_created": "2022-11-17T16:14:54.000",
    "date_modified": "2022-11-17T16:14:55.000",
    "request_status": "Pending",
    "responsible_agency": "Department of Sanitation",
    "final_address": "4859 Gabriel Dr, New Orleans, Louisiana, 70127",
    "address_councildis": "E",
    "status": "Assigned to Contractor",
    "contractor": "Waste Pro",
    "rowid": "944527",
    "final_x": "3708864.7564",
    "final_y": "556514.400026",
    "longitude": "-89.98073143532582",
    "latitude": "30.023361649709713",
    "geocoded_column": {
      "latitude": "30.023361649709713",
      "longitude": "-89.98073143532582"
    }
  },
  {
    "service_request": "2022-944525",
    "request_type": "Trash/Recycling",
    "request_reason": "Request a Large Item Pick Up",
    "date_created": "2022-11-17T16:11:55.000",
    "date_modified": "2022-11-17T16:11:56.000",
    "request_status": "Pending",
    "responsible_agency": "Department of Sanitation",
    "final_address": "4929 Desire Dr",
    "address_councildis": "D",
    "status": "Assigned to Contractor",
    "contractor": "IV Waste",
    "rowid": "944525",
    "final_x": "3691675.87465",
    "final_y": "552152.384086",
    "longitude": "-90.03520061372417",
    "latitude": "30.011914447128856",
    "geocoded_column": {
      "latitude": "30.011914447128856",
      "longitude": "-90.03520061372417"
    }
  },
  {
    "service_request": "2022-944524",
    "request_type": "Trash/Recycling",
    "request_reason": "Repair Trash Cart",
    "date_created": "2022-11-17T16:10:06.000",
    "date_modified": "2022-11-17T16:10:07.000",
    "request_status": "Pending",
    "responsible_agency": "Department of Sanitation",
    "final_address": "8836 Hayne Blvd",
    "address_councildis": "E",
    "status": "Assigned to Contractor",
    "contractor": "Waste Pro",
    "rowid": "944524",
    "final_x": "3704343.39281",
    "final_y": "564028.618529",
    "longitude": "-89.9947405028374",
    "latitude": "30.044168788257878",
    "geocoded_column": {
      "latitude": "30.044168788257878",
      "longitude": "-89.9947405028374"
    }
  },
  {
    "service_request": "2022-944523",
    "request_type": "Trash/Recycling",
    "request_reason": "Order Recycling Cart",
    "date_created": "2022-11-17T16:09:50.000",
    "date_modified": "2022-11-17T16:09:50.000",
    "request_status": "Pending",
    "responsible_agency": "Department of Sanitation",
    "final_address": "6534 Orleans Ave",
    "address_councildis": "A",
    "status": "Pending",
    "rowid": "944523",
    "final_x": "3671178.83022",
    "final_y": "550796.976021",
    "longitude": "-90.10000576260883",
    "latitude": "30.0088101286252",
    "geocoded_column": {
      "latitude": "30.0088101286252",
      "longitude": "-90.10000576260883"
    }
  },
  {
    "service_request": "2022-944522",
    "request_type": "Trash/Recycling",
    "request_reason": "Order Trash Cart",
    "date_created": "2022-11-17T16:09:14.000",
    "date_modified": "2022-11-17T16:09:15.000",
    "request_status": "Pending",
    "responsible_agency": "Department of Sanitation",
    "final_address": "12531 Carmel Pl, New Orleans, Louisiana, 70128",
    "address_councildis": "E",
    "status": "Assigned to Contractor",
    "contractor": "Waste Pro",
    "rowid": "944522",
    "final_x": "3716359.7381",
    "final_y": "566925.797348",
    "longitude": "-89.9566539044965",
    "latitude": "30.051743387510015",
    "geocoded_column": {
      "latitude": "30.051743387510015",
      "longitude": "-89.9566539044965"
    }
  },
  {
    "service_request": "2022-944521",
    "request_type": "Roads/Drainage",
    "request_reason": "Pothole",
    "date_created": "2022-11-17T16:02:49.000",
    "date_modified": "2022-11-17T16:02:49.000",
    "request_status": "Pending",
    "responsible_agency": "Department of Public Works",
    "final_address": "1022 Toulouse St",
    "address_councildis": "C",
    "status": "Pending",
    "rowid": "944521",
    "final_x": "3681270.45666",
    "final_y": "532891.987908",
    "longitude": "-90.06874732428547",
    "latitude": "29.95927515108443",
    "geocoded_column": {
      "latitude": "29.95927515108443",
      "longitude": "-90.06874732428547"
    }
  },
  {
    "service_request": "2022-944520",
    "request_type": "Mosquito, Termite & Rodent Control",
    "request_reason": "Rodent Complaint (Rats)",
    "date_created": "2022-11-17T15:59:17.000",
    "date_modified": "2022-11-17T15:59:18.000",
    "request_status": "Pending",
    "responsible_agency": "Mosquito, Termite & Rodent Control Board",
    "final_address": "1327 Seville Dr",
    "address_councildis": "D",
    "status": "Pending",
    "rowid": "944520",
    "final_x": "3677402.34517",
    "final_y": "551212.298197",
    "longitude": "-90.08032927985559",
    "latitude": "30.009766457835116",
    "geocoded_column": {
      "latitude": "30.009766457835116",
      "longitude": "-90.08032927985559"
    }
  },
  {
    "service_request": "2022-944519",
    "request_type": "Trash/Recycling",
    "request_reason": "Missed Trash Pick-Up",
    "date_created": "2022-11-17T15:58:00.000",
    "date_modified": "2022-11-17T15:58:00.000",
    "case_close_date": "2022-11-07T18:00:00.000",
    "request_status": "Pending",
    "responsible_agency": "Department of Sanitation",
    "final_address": "6325 S Robertson St",
    "address_councildis": "A",
    "status": "Assigned to Contractor",
    "contractor": "Richards Disposal",
    "rowid": "944519",
    "final_x": "3665587.74471",
    "final_y": "525193.649533",
    "longitude": "-90.11852748677317",
    "latitude": "29.93857380347427",
    "geocoded_column": {
      "latitude": "29.93857380347427",
      "longitude": "-90.11852748677317"
    }
  },
  {
    "service_request": "2022-944518",
    "request_type": "Trash/Recycling",
    "request_reason": "Missed Trash Pick-Up",
    "date_created": "2022-11-17T15:52:50.000",
    "date_modified": "2022-11-17T15:52:51.000",
    "request_status": "Pending",
    "responsible_agency": "Department of Sanitation",
    "final_address": "4127 Orleans Ave",
    "address_councildis": "A",
    "status": "Assigned to Contractor",
    "contractor": "Richards Disposal",
    "rowid": "944518",
    "final_x": "3672476.12916",
    "final_y": "540436.942859",
    "longitude": "-90.09626052968329",
    "latitude": "29.980285176381592",
    "geocoded_column": {
      "latitude": "29.980285176381592",
      "longitude": "-90.09626052968329"
    }
  },
  {
    "service_request": "2022-944517",
    "request_type": "Traffic Signals/Signs/Striping/Streetlights",
    "request_reason": "Street Light Outage/Malfunction",
    "date_created": "2022-11-17T15:52:26.000",
    "date_modified": "2022-11-17T15:52:26.000",
    "request_status": "Pending",
    "responsible_agency": "Department of Public Works",
    "final_address": "2644 General Collins Ave",
    "address_councildis": "C",
    "status": "Pending",
    "contractor": "Legacy Professional Services",
    "rowid": "944517",
    "final_x": "3698433.80612",
    "final_y": "521346.475385",
    "longitude": "-90.01496938488393",
    "latitude": "29.926997016950835",
    "geocoded_column": {
      "latitude": "29.926997016950835",
      "longitude": "-90.01496938488393"
    }
  },
  {
    "service_request": "2022-944516",
    "request_type": "Trash/Recycling",
    "request_reason": "Order Recycling Cart",
    "date_created": "2022-11-17T15:51:17.000",
    "date_modified": "2022-11-17T15:51:18.000",
    "request_status": "Pending",
    "responsible_agency": "Department of Sanitation",
    "final_address": "4530 Elysian Fields Ave",
    "address_councildis": "D",
    "status": "Pending",
    "rowid": "944516",
    "final_x": "3683848.72188",
    "final_y": "549449.311699",
    "longitude": "-90.06002479163517",
    "latitude": "30.00472347833917",
    "geocoded_column": {
      "latitude": "30.00472347833917",
      "longitude": "-90.06002479163517"
    }
  },
  {
    "service_request": "2022-944515",
    "request_type": "Traffic Signals/Signs/Striping/Streetlights",
    "request_reason": "Street Light Outage/Malfunction",
    "date_created": "2022-11-17T15:49:45.000",
    "date_modified": "2022-11-17T15:49:46.000",
    "request_status": "Pending",
    "responsible_agency": "Department of Public Works",
    "final_address": "17 S Oak Ridge Ct",
    "address_councildis": "E",
    "status": "Pending",
    "contractor": "Legacy Professional Services",
    "rowid": "944515",
    "final_x": "3713610.75691",
    "final_y": "567642.495332",
    "longitude": "-89.9653154376695",
    "latitude": "30.05380454151084",
    "geocoded_column": {
      "latitude": "30.05380454151084",
      "longitude": "-89.9653154376695"
    }
  },
  {
    "service_request": "2022-944513",
    "request_type": "Trash/Recycling",
    "request_reason": "MIssed Recycling Pick-Up",
    "date_created": "2022-11-17T15:41:43.000",
    "date_modified": "2022-11-17T15:41:43.000",
    "request_status": "Pending",
    "responsible_agency": "Department of Sanitation",
    "final_address": "700 Block of Jefferson Ave, New Orleans, Louisiana, 70115",
    "status": "Assigned to Contractor",
    "rowid": "944513",
    "longitude": "0.0",
    "latitude": "0.0",
    "geocoded_column": {
      "latitude": "0.0",
      "longitude": "0.0"
    }
  },
  {
    "service_request": "2022-944512",
    "request_type": "Trash/Recycling",
    "request_reason": "Order Recycling Cart",
    "date_created": "2022-11-17T15:41:32.000",
    "date_modified": "2022-11-17T15:41:33.000",
    "request_status": "Pending",
    "responsible_agency": "Department of Sanitation",
    "final_address": "1240 Desire St",
    "address_councildis": "C",
    "status": "Pending",
    "rowid": "944512",
    "final_x": "3690310.4376",
    "final_y": "536412.231111",
    "longitude": "-90.0400758740111",
    "latitude": "29.968677164039452",
    "geocoded_column": {
      "latitude": "29.968677164039452",
      "longitude": "-90.0400758740111"
    }
  },
  {
    "service_request": "2022-944511",
    "request_type": "Abandoned Vehicles",
    "request_reason": "Abandoned/Junk Vehicles",
    "date_created": "2022-11-17T15:40:46.000",
    "date_modified": "2022-11-17T16:09:14.000",
    "request_status": "Pending",
    "responsible_agency": "Department of Public Works",
    "final_address": "New Orleans,LA",
    "address_councildis": "B",
    "rowid": "944511",
    "final_x": "3675234.65704",
    "final_y": "518273.464822",
    "longitude": "-90.08830852741461",
    "latitude": "29.91926078839607",
    "geocoded_column": {
      "latitude": "29.91926078839607",
      "longitude": "-90.08830852741461"
    }
  },
  {
    "service_request": "2022-944510",
    "request_type": "Trash/Recycling",
    "request_reason": "Order Recycling Cart",
    "date_created": "2022-11-17T15:33:50.000",
    "date_modified": "2022-11-17T15:33:51.000",
    "request_status": "Pending",
    "responsible_agency": "Department of Sanitation",
    "final_address": "1420 Adams St",
    "address_councildis": "A",
    "status": "Pending",
    "rowid": "944510",
    "final_x": "3663608.92295",
    "final_y": "528044.746943",
    "longitude": "-90.12467991625199",
    "latitude": "29.946470947928326",
    "geocoded_column": {
      "latitude": "29.946470947928326",
      "longitude": "-90.12467991625199"
    }
  },
  {
    "service_request": "2022-944508",
    "request_type": "Trash/Recycling",
    "request_reason": "Return Trash Cart",
    "date_created": "2022-11-17T15:28:53.000",
    "date_modified": "2022-11-17T15:28:54.000",
    "request_status": "Pending",
    "responsible_agency": "Department of Sanitation",
    "final_address": "4757 Lafon Dr",
    "address_councildis": "E",
    "status": "Assigned to Contractor",
    "contractor": "Waste Pro",
    "rowid": "944508",
    "final_x": "3701208.44292",
    "final_y": "554365.943448",
    "longitude": "-90.00500230137128",
    "latitude": "30.017700501558032",
    "geocoded_column": {
      "latitude": "30.017700501558032",
      "longitude": "-90.00500230137128"
    }
  },
  {
    "service_request": "2022-944507",
    "request_type": "Trash/Recycling",
    "request_reason": "Replace Trash Cart",
    "date_created": "2022-11-17T15:23:36.000",
    "date_modified": "2022-11-17T15:23:37.000",
    "request_status": "Pending",
    "responsible_agency": "Department of Sanitation",
    "final_address": "1257 Harrison Ave",
    "address_councildis": "D",
    "status": "Assigned to Contractor",
    "contractor": "IV Waste",
    "rowid": "944507",
    "final_x": "3676988.77403",
    "final_y": "547585.694162",
    "longitude": "-90.08176105005634",
    "latitude": "29.999807013833255",
    "geocoded_column": {
      "latitude": "29.999807013833255",
      "longitude": "-90.08176105005634"
    }
  },
  {
    "service_request": "2022-944506",
    "request_type": "Trash/Recycling",
    "request_reason": "Order Recycling Cart",
    "date_created": "2022-11-17T15:22:10.000",
    "date_modified": "2022-11-17T15:24:12.000",
    "request_status": "Pending",
    "responsible_agency": "Department of Sanitation",
    "final_address": "5318 Annunciation St.",
    "address_councildis": "B",
    "rowid": "944506",
    "final_x": "3667164.82145",
    "final_y": "517533.566134",
    "longitude": "-90.11380586187173",
    "latitude": "29.917464934488432",
    "geocoded_column": {
      "latitude": "29.917464934488432",
      "longitude": "-90.11380586187173"
    }
  },
  {
    "service_request": "2022-944505",
    "request_type": "Trash/Recycling",
    "request_reason": "Order Trash Cart",
    "date_created": "2022-11-17T15:18:12.000",
    "date_modified": "2022-11-17T15:18:13.000",
    "request_status": "Pending",
    "responsible_agency": "Department of Sanitation",
    "final_address": "10674 Hayne Blvd",
    "address_councildis": "E",
    "status": "Assigned to Contractor",
    "contractor": "Waste Pro",
    "rowid": "944505",
    "final_x": "3708677.71851",
    "final_y": "566415.495331",
    "longitude": "-89.98095318507202",
    "latitude": "30.050591803740197",
    "geocoded_column": {
      "latitude": "30.050591803740197",
      "longitude": "-89.98095318507202"
    }
  },
  {
    "service_request": "2022-944504",
    "request_type": "Roads/Drainage",
    "request_reason": "Street Flooding / Drainage",
    "date_created": "2022-11-17T15:12:43.000",
    "date_modified": "2022-11-17T15:12:43.000",
    "request_status": "Pending",
    "responsible_agency": "Department of Public Works",
    "final_address": "LAKE FOREST BLVD & CINDY PL",
    "address_councildis": "E",
    "status": "Pending",
    "rowid": "944504",
    "final_x": "3707368.9",
    "final_y": "558431.58",
    "longitude": "-89.98538672005068",
    "latitude": "30.0286816132361",
    "geocoded_column": {
      "latitude": "30.0286816132361",
      "longitude": "-89.98538672005068"
    }
  },
  {
    "service_request": "2022-944503",
    "request_type": "Trash/Recycling",
    "request_reason": "Order Recycling Cart",
    "date_created": "2022-11-17T15:10:45.000",
    "date_modified": "2022-11-17T15:10:45.000",
    "request_status": "Pending",
    "responsible_agency": "Department of Sanitation",
    "final_address": "2530 Clover St",
    "address_councildis": "D",
    "status": "Pending",
    "rowid": "944503",
    "final_x": "3686631.51746",
    "final_y": "546554.825745",
    "longitude": "-90.0513357167874",
    "latitude": "29.99667936604779",
    "geocoded_column": {
      "latitude": "29.99667936604779",
      "longitude": "-90.0513357167874"
    }
  },
  {
    "service_request": "2022-944502",
    "request_type": "Trash/Recycling",
    "request_reason": "Missed Trash Pick-Up",
    "date_created": "2022-11-17T15:07:11.000",
    "date_modified": "2022-11-17T15:07:11.000",
    "request_status": "Pending",
    "responsible_agency": "Department of Sanitation",
    "final_address": "4774 Arthur Dr",
    "address_councildis": "E",
    "status": "Assigned to Contractor",
    "contractor": "Waste Pro",
    "rowid": "944502",
    "final_x": "3707591.13892",
    "final_y": "555747.730393",
    "longitude": "-89.98478427233404",
    "latitude": "30.021294883944826",
    "geocoded_column": {
      "latitude": "30.021294883944826",
      "longitude": "-89.98478427233404"
    }
  },
  {
    "service_request": "2022-944501",
    "request_type": "Trash/Recycling",
    "request_reason": "Request a Large Item Pick Up",
    "date_created": "2022-11-17T15:05:17.000",
    "date_modified": "2022-11-17T15:05:18.000",
    "request_status": "Pending",
    "responsible_agency": "Department of Sanitation",
    "final_address": "13118 Dwyer Blvd",
    "address_councildis": "E",
    "status": "Assigned to Contractor",
    "contractor": "Waste Pro",
    "rowid": "944501",
    "final_x": "3724198.54828",
    "final_y": "561238.55683",
    "longitude": "-89.93209804600616",
    "latitude": "30.035844541176957",
    "geocoded_column": {
      "latitude": "30.035844541176957",
      "longitude": "-89.93209804600616"
    }
  },
  {
    "service_request": "2022-944500",
    "request_type": "Trash/Recycling",
    "request_reason": "Missed Trash Pick-Up",
    "date_created": "2022-11-17T15:01:34.000",
    "date_modified": "2022-11-17T15:02:43.000",
    "request_status": "Pending",
    "responsible_agency": "Department of Sanitation",
    "final_address": "2314 Delery St",
    "address_councildis": "E",
    "status": "Assigned to Contractor",
    "contractor": "Waste Pro",
    "rowid": "944500",
    "final_x": "3702208.70065",
    "final_y": "537434.866696",
    "longitude": "-90.00246323893724",
    "latitude": "29.971114425544155",
    "geocoded_column": {
      "latitude": "29.971114425544155",
      "longitude": "-90.00246323893724"
    }
  },
  {
    "service_request": "2022-944499",
    "request_type": "Abandoned Vehicles",
    "request_reason": "Vehicle Blocking Your Driveway",
    "date_created": "2022-11-17T15:00:43.000",
    "date_modified": "2022-11-17T15:00:43.000",
    "request_status": "Pending",
    "responsible_agency": "Department of Public Works",
    "final_address": "813 Dublin St",
    "address_councildis": "A",
    "status": "Pending",
    "rowid": "944499",
    "final_x": "3660862.03661",
    "final_y": "527636.441087",
    "longitude": "-90.13336635754749",
    "latitude": "29.94542762185745",
    "geocoded_column": {
      "latitude": "29.94542762185745",
      "longitude": "-90.13336635754749"
    }
  },
  {
    "service_request": "2022-944498",
    "request_type": "Trash/Recycling",
    "request_reason": "Order Recycling Cart",
    "date_created": "2022-11-17T14:58:32.000",
    "date_modified": "2022-11-17T14:58:32.000",
    "request_status": "Pending",
    "responsible_agency": "Department of Sanitation",
    "final_address": "2139 Louisa St",
    "address_councildis": "D",
    "status": "Pending",
    "rowid": "944498",
    "final_x": "3690615.7279",
    "final_y": "539936.804426",
    "longitude": "-90.03898601923531",
    "latitude": "29.97835901557031",
    "geocoded_column": {
      "latitude": "29.97835901557031",
      "longitude": "-90.03898601923531"
    }
  },
  {
    "service_request": "2022-944497",
    "request_type": "Trash/Recycling",
    "request_reason": "Order Recycling Cart",
    "date_created": "2022-11-17T14:58:12.000",
    "date_modified": "2022-11-17T14:58:12.000",
    "request_status": "Pending",
    "responsible_agency": "Department of Sanitation",
    "final_address": "1309 Congress St",
    "address_councildis": "D",
    "status": "Pending",
    "rowid": "944497",
    "final_x": "3690954.30115",
    "final_y": "536390.696967",
    "longitude": "-90.03804329229368",
    "latitude": "29.968597955302187",
    "geocoded_column": {
      "latitude": "29.968597955302187",
      "longitude": "-90.03804329229368"
    }
  },
  {
    "service_request": "2022-944495",
    "request_type": "Abandoned Vehicles",
    "request_reason": "Abandoned/Junk Vehicles",
    "date_created": "2022-11-17T14:57:49.000",
    "date_modified": "2022-11-17T14:57:49.000",
    "request_status": "Pending",
    "responsible_agency": "Department of Public Works",
    "final_address": "3155 N Villere St",
    "address_councildis": "C",
    "status": "Pending",
    "rowid": "944495",
    "final_x": "3689754.18921",
    "final_y": "537024.44884",
    "longitude": "-90.04181074015555",
    "latitude": "29.97037779852177",
    "geocoded_column": {
      "latitude": "29.97037779852177",
      "longitude": "-90.04181074015555"
    }
  },
  {
    "service_request": "2022-944496",
    "request_type": "Trash/Recycling",
    "request_reason": "Order Recycling Cart",
    "date_created": "2022-11-17T14:57:49.000",
    "date_modified": "2022-11-17T14:57:50.000",
    "request_status": "Pending",
    "responsible_agency": "Department of Sanitation",
    "final_address": "1309 Congress St",
    "address_councildis": "D",
    "status": "Pending",
    "rowid": "944496",
    "final_x": "3690954.30115",
    "final_y": "536390.696967",
    "longitude": "-90.03804329229368",
    "latitude": "29.968597955302187",
    "geocoded_column": {
      "latitude": "29.968597955302187",
      "longitude": "-90.03804329229368"
    }
  },
  {
    "service_request": "2022-944494",
    "request_type": "Trash/Recycling",
    "request_reason": "Order Recycling Cart",
    "date_created": "2022-11-17T14:52:43.000",
    "date_modified": "2022-11-17T14:52:43.000",
    "request_status": "Pending",
    "responsible_agency": "Department of Sanitation",
    "final_address": "529 S Galvez St",
    "address_councildis": "B",
    "status": "Pending",
    "rowid": "944494",
    "final_x": "3675596.2468",
    "final_y": "532254.590467",
    "longitude": "-90.086687032129",
    "latitude": "29.957693492371817",
    "geocoded_column": {
      "latitude": "29.957693492371817",
      "longitude": "-90.086687032129"
    }
  },
  {
    "service_request": "2022-944493",
    "request_type": "Trash/Recycling",
    "request_reason": "Missed Trash Pick-Up",
    "date_created": "2022-11-17T14:44:27.000",
    "date_modified": "2022-11-17T14:44:27.000",
    "request_status": "Pending",
    "responsible_agency": "Department of Sanitation",
    "final_address": "2618 St Charles Ave",
    "address_councildis": "B",
    "status": "Assigned to Contractor",
    "contractor": "Richards Disposal",
    "rowid": "944493",
    "final_x": "3676369.97845",
    "final_y": "522667.828538",
    "longitude": "-90.08457372284147",
    "latitude": "29.93130989779299",
    "geocoded_column": {
      "latitude": "29.93130989779299",
      "longitude": "-90.08457372284147"
    }
  },
  {
    "service_request": "2022-944492",
    "request_type": "Trash/Recycling",
    "request_reason": "Order Recycling Cart",
    "date_created": "2022-11-17T14:41:22.000",
    "date_modified": "2022-11-17T14:41:22.000",
    "request_status": "Pending",
    "responsible_agency": "Department of Sanitation",
    "final_address": "6330 St Claude Ave",
    "address_councildis": "E",
    "status": "Pending",
    "rowid": "944492",
    "final_x": "3700371.12471",
    "final_y": "532893.861188",
    "longitude": "-90.00843233377913",
    "latitude": "29.95868684821063",
    "geocoded_column": {
      "latitude": "29.95868684821063",
      "longitude": "-90.00843233377913"
    }
  },
  {
    "service_request": "2022-944491",
    "request_type": "Trash/Recycling",
    "request_reason": "Order Trash Cart",
    "date_created": "2022-11-17T14:39:46.000",
    "date_modified": "2022-11-17T14:40:39.000",
    "request_status": "Pending",
    "responsible_agency": "Department of Sanitation",
    "final_address": "434 39Th St",
    "address_councildis": "A",
    "status": "Assigned to Contractor",
    "contractor": "IV Waste",
    "rowid": "944491",
    "final_x": "3664777.19501",
    "final_y": "552970.197463",
    "longitude": "-90.12015801902348",
    "latitude": "30.014973638900663",
    "geocoded_column": {
      "latitude": "30.014973638900663",
      "longitude": "-90.12015801902348"
    }
  },
  {
    "service_request": "2022-944490",
    "request_type": "Abandoned Vehicles",
    "request_reason": "Abandoned/Junk Vehicles",
    "date_created": "2022-11-17T14:36:18.000",
    "date_modified": "2022-11-17T14:36:19.000",
    "request_status": "Pending",
    "responsible_agency": "Department of Public Works",
    "final_address": "GENTILLY BLVD & ANNETTE ST",
    "address_councildis": "D",
    "status": "Pending",
    "rowid": "944490",
    "final_x": "3682373.11",
    "final_y": "545667.23",
    "longitude": "-90.06481881310665",
    "latitude": "29.994369110989695",
    "geocoded_column": {
      "latitude": "29.994369110989695",
      "longitude": "-90.06481881310665"
    }
  },
  {
    "service_request": "2022-944489",
    "request_type": "Trash/Recycling",
    "request_reason": "Missed Trash Pick-Up",
    "date_created": "2022-11-17T14:33:10.000",
    "date_modified": "2022-11-17T14:36:24.000",
    "request_status": "Pending",
    "responsible_agency": "Department of Sanitation",
    "final_address": "4744 Lynhuber Dr",
    "address_councildis": "D",
    "status": "Assigned to Contractor",
    "contractor": "Waste Pro",
    "rowid": "944489",
    "final_x": "3697958.37687",
    "final_y": "554356.55292",
    "longitude": "-90.01527152210447",
    "latitude": "30.017777878127298",
    "geocoded_column": {
      "latitude": "30.017777878127298",
      "longitude": "-90.01527152210447"
    }
  },
  {
    "service_request": "2022-944486",
    "request_type": "Trash/Recycling",
    "request_reason": "Order Recycling Cart",
    "date_created": "2022-11-17T14:31:51.000",
    "date_modified": "2022-11-17T14:31:55.000",
    "request_status": "Pending",
    "responsible_agency": "Department of Sanitation",
    "final_address": "719 Atlantic Ave",
    "address_councildis": "C",
    "status": "Pending",
    "rowid": "944486",
    "final_x": "3688711.5519",
    "final_y": "528858.405056",
    "longitude": "-90.04539336944786",
    "latitude": "29.94795628121928",
    "geocoded_column": {
      "latitude": "29.94795628121928",
      "longitude": "-90.04539336944786"
    }
  },
  {
    "service_request": "2022-944485",
    "request_type": "Trash/Recycling",
    "request_reason": "Order Trash Cart",
    "date_created": "2022-11-17T14:27:41.000",
    "date_modified": "2022-11-17T14:27:42.000",
    "request_status": "Pending",
    "responsible_agency": "Department of Sanitation",
    "final_address": "3619 Second St",
    "address_councildis": "B",
    "status": "Assigned to Contractor",
    "contractor": "Richards Disposal",
    "rowid": "944485",
    "final_x": "3672758.21524",
    "final_y": "529070.68608",
    "longitude": "-90.09575731621923",
    "latitude": "29.949023405763537",
    "geocoded_column": {
      "latitude": "29.949023405763537",
      "longitude": "-90.09575731621923"
    }
  },
  {
    "service_request": "2022-944484",
    "request_type": "Trash/Recycling",
    "request_reason": "Request a Large Item Pick Up",
    "date_created": "2022-11-17T14:26:04.000",
    "date_modified": "2022-11-17T14:26:04.000",
    "request_status": "Pending",
    "responsible_agency": "Department of Sanitation",
    "final_address": "7825 Ligustrum Dr",
    "address_councildis": "E",
    "status": "Assigned to Contractor",
    "contractor": "Waste Pro",
    "rowid": "944484",
    "final_x": "3701342.76151",
    "final_y": "561784.456735",
    "longitude": "-90.00430604144388",
    "latitude": "30.03809426674522",
    "geocoded_column": {
      "latitude": "30.03809426674522",
      "longitude": "-90.00430604144388"
    }
  },
  {
    "service_request": "2022-944483",
    "request_type": "Trash/Recycling",
    "request_reason": "Order Recycling Cart",
    "date_created": "2022-11-17T14:19:11.000",
    "date_modified": "2022-11-17T14:19:12.000",
    "request_status": "Pending",
    "responsible_agency": "Department of Sanitation",
    "final_address": "14074 Partridge Ln",
    "address_councildis": "E",
    "status": "Pending",
    "rowid": "944483",
    "final_x": "3719723.11026",
    "final_y": "571863.828008",
    "longitude": "-89.94583447963684",
    "latitude": "30.06520937536783",
    "geocoded_column": {
      "latitude": "30.06520937536783",
      "longitude": "-89.94583447963684"
    }
  },
  {
    "service_request": "2022-944482",
    "request_type": "Trash/Recycling",
    "request_reason": "Replace Trash Cart",
    "date_created": "2022-11-17T14:15:06.000",
    "date_modified": "2022-11-17T14:15:06.000",
    "request_status": "Pending",
    "responsible_agency": "Department of Sanitation",
    "final_address": "1105 N Robertson St",
    "address_councildis": "D",
    "status": "Assigned to Contractor",
    "contractor": "Richards Disposal",
    "rowid": "944482",
    "final_x": "3681006.22191",
    "final_y": "535641.150342",
    "longitude": "-90.06948596117341",
    "latitude": "29.966842424536598",
    "geocoded_column": {
      "latitude": "29.966842424536598",
      "longitude": "-90.06948596117341"
    }
  },
  {
    "service_request": "2022-944481",
    "request_type": "Abandoned Vehicles",
    "request_reason": "Abandoned/Junk Vehicles",
    "date_created": "2022-11-17T14:06:58.000",
    "date_modified": "2022-11-17T14:06:58.000",
    "request_status": "Pending",
    "responsible_agency": "Department of Public Works",
    "final_address": "6072 Wickfield Dr",
    "address_councildis": "D",
    "status": "Pending",
    "rowid": "944481",
    "final_x": "3680855.08386",
    "final_y": "555443.146841",
    "longitude": "-90.0692733892556",
    "latitude": "30.021295486806483",
    "geocoded_column": {
      "latitude": "30.021295486806483",
      "longitude": "-90.0692733892556"
    }
  },
  {
    "service_request": "2022-944480",
    "request_type": "Trash/Recycling",
    "request_reason": "Request a Large Item Pick Up",
    "date_created": "2022-11-17T14:05:33.000",
    "date_modified": "2022-11-17T14:05:37.000",
    "request_status": "Pending",
    "responsible_agency": "Department of Sanitation",
    "final_address": "837 Washington Ave",
    "address_councildis": "B",
    "status": "Assigned to Contractor",
    "contractor": "Richards Disposal",
    "rowid": "944480",
    "final_x": "3677531.77646",
    "final_y": "520175.600504",
    "longitude": "-90.08099205923831",
    "latitude": "29.92442221582028",
    "geocoded_column": {
      "latitude": "29.92442221582028",
      "longitude": "-90.08099205923831"
    }
  },
  {
    "service_request": "2022-944479",
    "request_type": "Traffic Signals/Signs/Striping/Streetlights",
    "request_reason": "Street Light Outage/Malfunction",
    "date_created": "2022-11-17T14:05:22.000",
    "date_modified": "2022-11-17T14:05:23.000",
    "request_status": "Pending",
    "responsible_agency": "Department of Public Works",
    "final_address": "857 Wilson Dr, New Orleans, Louisiana, 70119",
    "address_councildis": "A",
    "status": "Pending",
    "contractor": "Legacy Professional Services",
    "rowid": "944479",
    "final_x": "3674033.71771",
    "final_y": "539692.351626",
    "longitude": "-90.09136648650885",
    "latitude": "29.97819147504569",
    "geocoded_column": {
      "latitude": "29.97819147504569",
      "longitude": "-90.09136648650885"
    }
  },
  {
    "service_request": "2022-944478",
    "request_type": "Trash/Recycling",
    "request_reason": "Repair Trash Cart",
    "date_created": "2022-11-17T13:57:18.000",
    "date_modified": "2022-11-17T13:57:21.000",
    "case_close_date": "2021-02-01T18:00:00.000",
    "request_status": "Pending",
    "responsible_agency": "Department of Sanitation",
    "final_address": "3825 Fourth St",
    "address_councildis": "B",
    "status": "Assigned to Contractor",
    "contractor": "Richards Disposal",
    "rowid": "944478",
    "final_x": "3671840.60878",
    "final_y": "529336.401601",
    "longitude": "-90.09864556514209",
    "latitude": "29.94978125530252",
    "geocoded_column": {
      "latitude": "29.94978125530252",
      "longitude": "-90.09864556514209"
    }
  },
  {
    "service_request": "2022-944477",
    "request_type": "Trash/Recycling",
    "request_reason": "Order Recycling Cart",
    "date_created": "2022-11-17T13:50:35.000",
    "date_modified": "2022-11-17T13:50:35.000",
    "request_status": "Pending",
    "responsible_agency": "Department of Sanitation",
    "final_address": "6678 Canal Blvd",
    "address_councildis": "A",
    "status": "Pending",
    "rowid": "944477",
    "final_x": "3668741.34004",
    "final_y": "551982.049366",
    "longitude": "-90.10766656828976",
    "latitude": "30.012140578815895",
    "geocoded_column": {
      "latitude": "30.012140578815895",
      "longitude": "-90.10766656828976"
    }
  },
  {
    "service_request": "2022-944476",
    "request_type": "Trash/Recycling",
    "request_reason": "Missed Trash Pick-Up",
    "date_created": "2022-11-17T13:48:58.000",
    "date_modified": "2022-11-17T13:48:59.000",
    "request_status": "Pending",
    "responsible_agency": "Department of Sanitation",
    "final_address": "2300 BLK Rex Pl",
    "address_councildis": "B",
    "status": "Assigned to Contractor",
    "contractor": "Richards Disposal",
    "rowid": "944476",
    "final_x": "3673951.88467",
    "final_y": "527908.276976",
    "longitude": "-90.0920281366244",
    "latitude": "29.94579166040464",
    "geocoded_column": {
      "latitude": "29.94579166040464",
      "longitude": "-90.0920281366244"
    }
  },
  {
    "service_request": "2022-944475",
    "request_type": "Trash/Recycling",
    "request_reason": "Replace Trash Cart",
    "date_created": "2022-11-17T13:48:56.000",
    "date_modified": "2022-11-17T13:48:57.000",
    "request_status": "Pending",
    "responsible_agency": "Department of Sanitation",
    "final_address": "6678 Canal Blvd",
    "address_councildis": "A",
    "status": "Assigned to Contractor",
    "contractor": "IV Waste",
    "rowid": "944475",
    "final_x": "3668741.34004",
    "final_y": "551982.049366",
    "longitude": "-90.10766656828976",
    "latitude": "30.012140578815895",
    "geocoded_column": {
      "latitude": "30.012140578815895",
      "longitude": "-90.10766656828976"
    }
  },
  {
    "service_request": "2022-944474",
    "request_type": "Trash/Recycling",
    "request_reason": "Order Trash Cart",
    "date_created": "2022-11-17T13:44:36.000",
    "date_modified": "2022-11-17T13:44:37.000",
    "request_status": "Pending",
    "responsible_agency": "Department of Sanitation",
    "final_address": "7806 Star St",
    "address_councildis": "E",
    "status": "Assigned to Contractor",
    "contractor": "Waste Pro",
    "rowid": "944474",
    "final_x": "3720694.01465",
    "final_y": "574376.571499",
    "longitude": "-89.94266897793668",
    "latitude": "30.072085996833444",
    "geocoded_column": {
      "latitude": "30.072085996833444",
      "longitude": "-89.94266897793668"
    }
  },
  {
    "service_request": "2022-944473",
    "request_type": "Trash/Recycling",
    "request_reason": "Illegal Dumping",
    "date_created": "2022-11-17T13:41:32.000",
    "date_modified": "2022-11-17T13:41:32.000",
    "request_status": "Pending",
    "responsible_agency": "Department of Sanitation",
    "final_address": "5200 St Claude Ave",
    "address_councildis": "E",
    "status": "Pending",
    "rowid": "944473",
    "final_x": "3696551.15568",
    "final_y": "534076.914565",
    "longitude": "-90.02045193770105",
    "latitude": "29.962060723542958",
    "geocoded_column": {
      "latitude": "29.962060723542958",
      "longitude": "-90.02045193770105"
    }
  },
  {
    "service_request": "2022-944472",
    "request_type": "Roads/Drainage",
    "request_reason": "Catch Basin - Clogged",
    "date_created": "2022-11-17T13:40:33.000",
    "date_modified": "2022-11-17T13:40:33.000",
    "request_status": "Pending",
    "responsible_agency": "Department of Public Works",
    "final_address": "921 St Louis St",
    "address_councildis": "C",
    "status": "Pending",
    "rowid": "944472",
    "final_x": "3681393.12124",
    "final_y": "532435.578435",
    "longitude": "-90.06837588985634",
    "latitude": "29.95801645733983",
    "geocoded_column": {
      "latitude": "29.95801645733983",
      "longitude": "-90.06837588985634"
    }
  },
  {
    "service_request": "2022-944471",
    "request_type": "Trash/Recycling",
    "request_reason": "Order Recycling Cart",
    "date_created": "2022-11-17T13:38:24.000",
    "date_modified": "2022-11-17T13:38:24.000",
    "request_status": "Pending",
    "responsible_agency": "Department of Sanitation",
    "final_address": "419 Exposition Blvd",
    "address_councildis": "A",
    "status": "Pending",
    "rowid": "944471",
    "final_x": "3662648.28672",
    "final_y": "518721.711415",
    "longitude": "-90.12802263962828",
    "latitude": "29.920863369445737",
    "geocoded_column": {
      "latitude": "29.920863369445737",
      "longitude": "-90.12802263962828"
    }
  },
  {
    "service_request": "2022-944470",
    "request_type": "Trash/Recycling",
    "request_reason": "Replace Trash Cart",
    "date_created": "2022-11-17T13:36:01.000",
    "date_modified": "2022-11-17T13:36:01.000",
    "request_status": "Pending",
    "responsible_agency": "Department of Sanitation",
    "final_address": "1439 Charbonnet St",
    "address_councildis": "E",
    "status": "Assigned to Contractor",
    "contractor": "Waste Pro",
    "rowid": "944470",
    "final_x": "3699040.55133",
    "final_y": "535012.20679",
    "longitude": "-90.01255680972996",
    "latitude": "29.9645537799578",
    "geocoded_column": {
      "latitude": "29.9645537799578",
      "longitude": "-90.01255680972996"
    }
  },
  {
    "service_request": "2022-944469",
    "request_type": "Property Maintenance",
    "request_reason": "Property Maintenance",
    "date_created": "2022-11-17T13:35:24.000",
    "date_modified": "2022-11-17T13:35:24.000",
    "request_status": "Pending",
    "responsible_agency": "Department of Code Enforcement",
    "final_address": "7101 Warfield St",
    "address_councildis": "E",
    "status": "Pending",
    "rowid": "944469",
    "final_x": "3701416.96778",
    "final_y": "553135.001879",
    "longitude": "-90.00438855672648",
    "latitude": "30.01430923264679",
    "geocoded_column": {
      "latitude": "30.01430923264679",
      "longitude": "-90.00438855672648"
    }
  },
  {
    "service_request": "2022-944467",
    "request_type": "Trash/Recycling",
    "request_reason": "MIssed Recycling Pick-Up",
    "date_created": "2022-11-17T13:33:49.000",
    "date_modified": "2022-11-17T13:33:50.000",
    "request_status": "Pending",
    "responsible_agency": "Department of Sanitation",
    "final_address": "5610 Magnolia St",
    "address_councildis": "A",
    "status": "Assigned to Contractor",
    "contractor": "Richards Disposal",
    "rowid": "944467",
    "final_x": "3667271.33562",
    "final_y": "524781.482044",
    "longitude": "-90.11322605129095",
    "latitude": "29.93739128821321",
    "geocoded_column": {
      "latitude": "29.93739128821321",
      "longitude": "-90.11322605129095"
    }
  },
  {
    "service_request": "2022-944466",
    "request_type": "Trash/Recycling",
    "request_reason": "Return Trash Cart",
    "date_created": "2022-11-17T13:32:42.000",
    "date_modified": "2022-11-17T13:32:43.000",
    "case_close_date": "2021-09-27T19:00:00.000",
    "request_status": "Pending",
    "responsible_agency": "Department of Sanitation",
    "final_address": "10336 Deerfield Dr",
    "address_councildis": "E",
    "status": "Assigned to Contractor",
    "contractor": "Waste Pro",
    "rowid": "944466",
    "final_x": "3710329.35973",
    "final_y": "563637.228257",
    "longitude": "-89.97583700473423",
    "latitude": "30.042898984656638",
    "geocoded_column": {
      "latitude": "30.042898984656638",
      "longitude": "-89.97583700473423"
    }
  },
  {
    "service_request": "2022-944465",
    "request_type": "Trash/Recycling",
    "request_reason": "Order Recycling Cart",
    "date_created": "2022-11-17T13:30:03.000",
    "date_modified": "2022-11-17T13:30:03.000",
    "request_status": "Pending",
    "responsible_agency": "Department of Sanitation",
    "final_address": "4724 Plauche Cir",
    "address_councildis": "D",
    "status": "Pending",
    "rowid": "944465",
    "final_x": "3692515.42473",
    "final_y": "551699.197269",
    "longitude": "-90.03256438220625",
    "latitude": "30.010642172132137",
    "geocoded_column": {
      "latitude": "30.010642172132137",
      "longitude": "-90.03256438220625"
    }
  },
  {
    "service_request": "2022-944464",
    "request_type": "Traffic Signals/Signs/Striping/Streetlights",
    "request_reason": "Traffic Sign Missing/Damaged",
    "date_created": "2022-11-17T13:28:30.000",
    "date_modified": "2022-11-17T13:28:30.000",
    "request_status": "Pending",
    "responsible_agency": "Department of Public Works",
    "final_address": "4700 Perlita St",
    "address_councildis": "D",
    "status": "Pending",
    "rowid": "944464",
    "final_x": "3678614.75618",
    "final_y": "549820.072084",
    "longitude": "-90.07654708298314",
    "latitude": "30.005901823790282",
    "geocoded_column": {
      "latitude": "30.005901823790282",
      "longitude": "-90.07654708298314"
    }
  },
  {
    "service_request": "2022-944463",
    "request_type": "Trash/Recycling",
    "request_reason": "Missed Trash Pick-Up",
    "date_created": "2022-11-17T13:28:24.000",
    "date_modified": "2022-11-17T13:28:25.000",
    "request_status": "Pending",
    "responsible_agency": "Department of Sanitation",
    "final_address": "5800 BLK N Rocheblave St",
    "address_councildis": "E",
    "status": "Assigned to Contractor",
    "contractor": "Waste Pro",
    "rowid": "944463",
    "final_x": "3700079.00925",
    "final_y": "538448.375319",
    "longitude": "-90.00915205683515",
    "latitude": "29.97396905099924",
    "geocoded_column": {
      "latitude": "29.97396905099924",
      "longitude": "-90.00915205683515"
    }
  },
  {
    "service_request": "2022-944462",
    "request_type": "Trash/Recycling",
    "request_reason": "MIssed Recycling Pick-Up",
    "date_created": "2022-11-17T13:28:11.000",
    "date_modified": "2022-11-17T13:28:11.000",
    "request_status": "Pending",
    "responsible_agency": "Department of Sanitation",
    "final_address": "4100 BLK Camp St",
    "address_councildis": "B",
    "status": "Assigned to Contractor",
    "contractor": "Richards Disposal",
    "rowid": "944462",
    "final_x": "3671946.7522",
    "final_y": "519238.392085",
    "longitude": "-90.09865398189187",
    "latitude": "29.922011854179697",
    "geocoded_column": {
      "latitude": "29.922011854179697",
      "longitude": "-90.09865398189187"
    }
  },
  {
    "service_request": "2022-944461",
    "request_type": "Trash/Recycling",
    "request_reason": "MIssed Recycling Pick-Up",
    "date_created": "2022-11-17T13:27:01.000",
    "date_modified": "2022-11-17T13:57:11.000",
    "request_status": "Pending",
    "responsible_agency": "Department of Sanitation",
    "final_address": "25 Park Timbers Dr, New Orleans, Louisiana, 70131",
    "address_councildis": "C",
    "status": "Assigned to Contractor",
    "contractor": "Richards Disposal",
    "rowid": "944461",
    "final_x": "3699172.38077",
    "final_y": "517737.30815",
    "longitude": "-90.0127692169301",
    "latitude": "29.917049654031867",
    "geocoded_column": {
      "latitude": "29.917049654031867",
      "longitude": "-90.0127692169301"
    }
  },
  {
    "service_request": "2022-944460",
    "request_type": "Trash/Recycling",
    "request_reason": "Replace Trash Cart",
    "date_created": "2022-11-17T13:25:01.000",
    "date_modified": "2022-11-17T13:25:01.000",
    "request_status": "Pending",
    "responsible_agency": "Department of Sanitation",
    "final_address": "1338 Tennessee St",
    "address_councildis": "E",
    "status": "Assigned to Contractor",
    "contractor": "Waste Pro",
    "rowid": "944460",
    "final_x": "3695882.31389",
    "final_y": "535382.460678",
    "longitude": "-90.02251686439067",
    "latitude": "29.96567156735583",
    "geocoded_column": {
      "latitude": "29.96567156735583",
      "longitude": "-90.02251686439067"
    }
  },
  {
    "service_request": "2022-944459",
    "request_type": "Trash/Recycling",
    "request_reason": "MIssed Recycling Pick-Up",
    "date_created": "2022-11-17T13:23:40.000",
    "date_modified": "2022-11-17T13:23:41.000",
    "request_status": "Pending",
    "responsible_agency": "Department of Sanitation",
    "final_address": "5517 York St",
    "address_councildis": "A",
    "status": "Assigned to Contractor",
    "contractor": "Richards Disposal",
    "rowid": "944459",
    "final_x": "3668464.14657",
    "final_y": "528811.943168",
    "longitude": "-90.10932432994724",
    "latitude": "29.948438773964817",
    "geocoded_column": {
      "latitude": "29.948438773964817",
      "longitude": "-90.10932432994724"
    }
  },
  {
    "service_request": "2022-944458",
    "request_type": "Trash/Recycling",
    "request_reason": "Request a Large Item Pick Up",
    "date_created": "2022-11-17T13:23:24.000",
    "date_modified": "2022-11-17T13:23:25.000",
    "request_status": "Pending",
    "responsible_agency": "Department of Sanitation",
    "final_address": "2113 Lapeyrouse St",
    "address_councildis": "D",
    "status": "Assigned to Contractor",
    "contractor": "IV Waste",
    "rowid": "944458",
    "final_x": "3680718.27029",
    "final_y": "539007.099914",
    "longitude": "-90.0702781413227",
    "latitude": "29.976106355702857",
    "geocoded_column": {
      "latitude": "29.976106355702857",
      "longitude": "-90.0702781413227"
    }
  },
  {
    "service_request": "2022-944457",
    "request_type": "Trash/Recycling",
    "request_reason": "Repair Trash Cart",
    "date_created": "2022-11-17T13:14:31.000",
    "date_modified": "2022-11-17T13:14:32.000",
    "request_status": "Pending",
    "responsible_agency": "Department of Sanitation",
    "final_address": "7830 Briarwood Dr",
    "address_councildis": "E",
    "status": "Assigned to Contractor",
    "contractor": "Waste Pro",
    "rowid": "944457",
    "final_x": "3716713.60927",
    "final_y": "571863.48932",
    "longitude": "-89.95534775858627",
    "latitude": "30.06530830187214",
    "geocoded_column": {
      "latitude": "30.06530830187214",
      "longitude": "-89.95534775858627"
    }
  },
  {
    "service_request": "2022-944456",
    "request_type": "Trash/Recycling",
    "request_reason": "Order Recycling Cart",
    "date_created": "2022-11-17T13:13:26.000",
    "date_modified": "2022-11-17T13:13:26.000",
    "request_status": "Pending",
    "responsible_agency": "Department of Sanitation",
    "final_address": "6624 Louis Xiv St",
    "address_councildis": "A",
    "status": "Pending",
    "rowid": "944456",
    "final_x": "3668381.11316",
    "final_y": "551712.510037",
    "longitude": "-90.10881378541849",
    "latitude": "30.011410030390028",
    "geocoded_column": {
      "latitude": "30.011410030390028",
      "longitude": "-90.10881378541849"
    }
  },
  {
    "service_request": "2022-944454",
    "request_type": "Trash/Recycling",
    "request_reason": "Return Trash Cart",
    "date_created": "2022-11-17T13:12:22.000",
    "date_modified": "2022-11-17T13:12:23.000",
    "request_status": "Pending",
    "responsible_agency": "Department of Sanitation",
    "final_address": "600 Elmira Ave",
    "address_councildis": "C",
    "status": "Assigned to Contractor",
    "contractor": "Richards Disposal",
    "rowid": "944454",
    "final_x": "3688234.74678",
    "final_y": "529431.576065",
    "longitude": "-90.04687851228041",
    "latitude": "29.949547033157177",
    "geocoded_column": {
      "latitude": "29.949547033157177",
      "longitude": "-90.04687851228041"
    }
  },
  {
    "service_request": "2022-944453",
    "request_type": "Health Related Questions",
    "request_reason": "Request Information on the Health Marketplace",
    "date_created": "2022-11-17T13:07:04.000",
    "date_modified": "2022-11-17T13:07:04.000",
    "request_status": "Pending",
    "responsible_agency": "Health Department",
    "final_address": "3900 St Charles Ave",
    "address_councildis": "B",
    "status": "Pending",
    "rowid": "944453",
    "final_x": "3672610.04174",
    "final_y": "520869.542265",
    "longitude": "-90.09650467355853",
    "latitude": "29.926477325914437",
    "geocoded_column": {
      "latitude": "29.926477325914437",
      "longitude": "-90.09650467355853"
    }
  },