[
  {
    "service_request": "2023-977446",
    "request_type": "Roads/Drainage",
    "request_reason": "Pothole",
    "date_created": "2023-02-24T01:57:37.000",
    "date_modified": "2023-02-24T01:57:37.000",
    "request_status": "Pending",
    "responsible_agency": "Department of Public Works",
    "final_address": "120 38Th St",
    "address_councildis": "A",
    "status": "Pending",
    "rowid": "977446",
    "final_x": "3666158.82209",
    "final_y": "552593.485462",
    "longitude": "-90.11580536650303",
    "latitude": "30.01389751831719",
    "geocoded_column": {
      "latitude": "30.01389751831719",
      "longitude": "-90.11580536650303"
    }
  },
  {
    "service_request": "2023-977445",
    "request_type": "Mayor's Request",
    "request_reason": "Requests to the Mayor",
    "date_created": "2023-02-24T00:49:28.000",
    "date_modified": "2023-02-24T00:49:28.000",
    "request_status": "Pending",
    "responsible_agency": "Executive Office of the Mayor",
    "status": "Pending",
    "rowid": "977445",
    "longitude": "0.0",
    "latitude": "0.0",
    "geocoded_column": {
      "latitude": "0.0",
      "longitude": "0.0"
    }
  },
  {
    "service_request": "2023-977444",
    "request_type": "Trash/Recycling",
    "request_reason": "Missed Trash Pick-Up",
    "date_created": "2023-02-23T23:56:43.000",
    "date_modified": "2023-02-23T23:56:44.000",
    "request_status": "Pending",
    "responsible_agency": "Department of Sanitation",
    "final_address": "1992 N Dorgenois St",
    "address_councildis": "D",
    "status": "Assigned to Contractor",
    "contractor": "IV Waste",
    "rowid": "977444",
    "final_x": "3682261.62485",
    "final_y": "541234.85838",
    "longitude": "-90.0653259206139",
    "latitude": "29.982185045677888",
    "geocoded_column": {
      "latitude": "29.982185045677888",
      "longitude": "-90.0653259206139"
    }
  },
  {
    "service_request": "2023-977443",
    "request_type": "Trash/Recycling",
    "request_reason": "MIssed Recycling Pick-Up",
    "date_created": "2023-02-23T23:56:30.000",
    "date_modified": "2023-02-23T23:56:31.000",
    "request_status": "Pending",
    "responsible_agency": "Department of Sanitation",
    "final_address": "161 W Greenbrier Dr",
    "address_councildis": "E",
    "status": "Assigned to Contractor",
    "contractor": "Waste Pro",
    "rowid": "977443",
    "final_x": "3716997.28684",
    "final_y": "565025.833954",
    "longitude": "-89.95471108726204",
    "latitude": "30.046498189526996",
    "geocoded_column": {
      "latitude": "30.046498189526996",
      "longitude": "-89.95471108726204"
    }
  },
  {
    "service_request": "2023-977442",
    "request_type": "Trash/Recycling",
    "request_reason": "Missed Trash Pick-Up",
    "date_created": "2023-02-23T23:27:37.000",
    "date_modified": "2023-02-23T23:27:38.000",
    "request_status": "Pending",
    "responsible_agency": "Department of Sanitation",
    "final_address": "2815 St Claude Ave",
    "address_councildis": "C",
    "status": "Assigned to Contractor",
    "contractor": "IV Waste",
    "rowid": "977442",
    "final_x": "3687880.94134",
    "final_y": "536395.510151",
    "longitude": "-90.04774893386045",
    "latitude": "29.968706360800535",
    "geocoded_column": {
      "latitude": "29.968706360800535",
      "longitude": "-90.04774893386045"
    }
  },
  {
    "service_request": "2023-977441",
    "request_type": "Trash/Recycling",
    "request_reason": "Missed Trash Pick-Up",
    "date_created": "2023-02-23T23:08:19.000",
    "date_modified": "2023-02-23T23:08:19.000",
    "request_status": "Pending",
    "responsible_agency": "Department of Sanitation",
    "final_address": "1720 Washington Ave Unit 1",
    "address_councildis": "B",
    "status": "Assigned to Contractor",
    "contractor": "Richards Disposal",
    "rowid": "977441",
    "final_x": "3675566.7204",
    "final_y": "522987.465083",
    "longitude": "-90.08709853610662",
    "latitude": "29.932212840687804",
    "geocoded_column": {
      "latitude": "29.932212840687804",
      "longitude": "-90.08709853610662"
    }
  },
  {
    "service_request": "2023-977440",
    "request_type": "Trash/Recycling",
    "request_reason": "Order Recycling Cart",
    "date_created": "2023-02-23T22:57:57.000",
    "date_modified": "2023-02-23T22:57:57.000",
    "request_status": "Pending",
    "responsible_agency": "Department of Sanitation",
    "final_address": "1829 Robert St",
    "address_councildis": "B",
    "status": "Pending",
    "rowid": "977440",
    "final_x": "3668807.47175",
    "final_y": "522415.551546",
    "longitude": "-90.10845619753405",
    "latitude": "29.93084067214775",
    "geocoded_column": {
      "latitude": "29.93084067214775",
      "longitude": "-90.10845619753405"
    }
  },
  {
    "service_request": "2023-977439",
    "request_type": "Trash/Recycling",
    "request_reason": "MIssed Recycling Pick-Up",
    "date_created": "2023-02-23T22:57:47.000",
    "date_modified": "2023-02-23T22:57:48.000",
    "request_status": "Pending",
    "responsible_agency": "Department of Sanitation",
    "final_address": "1720 Washington Ave Unit 4",
    "address_councildis": "B",
    "status": "Assigned to Contractor",
    "contractor": "Richards Disposal",
    "rowid": "977439",
    "final_x": "3675549.38843",
    "final_y": "522986.934331",
    "longitude": "-90.08715326974408",
    "latitude": "29.93221189960906",
    "geocoded_column": {
      "latitude": "29.93221189960906",
      "longitude": "-90.08715326974408"
    }
  },
  {
    "service_request": "2023-977438",
    "request_type": "Trash/Recycling",
    "request_reason": "Missed Trash Pick-Up",
    "date_created": "2023-02-23T22:56:35.000",
    "date_modified": "2023-02-23T22:56:36.000",
    "request_status": "Pending",
    "responsible_agency": "Department of Sanitation",
    "final_address": "1720 Washington Ave Unit 4",
    "address_councildis": "B",
    "status": "Assigned to Contractor",
    "contractor": "Richards Disposal",
    "rowid": "977438",
    "final_x": "3675549.38843",
    "final_y": "522986.934331",
    "longitude": "-90.08715326974408",
    "latitude": "29.93221189960906",
    "geocoded_column": {
      "latitude": "29.93221189960906",
      "longitude": "-90.08715326974408"
    }
  },
  {
    "service_request": "2023-977437",
    "request_type": "Trash/Recycling",
    "request_reason": "MIssed Recycling Pick-Up",
    "date_created": "2023-02-23T22:31:21.000",
    "date_modified": "2023-02-23T22:31:21.000",
    "request_status": "Pending",
    "responsible_agency": "Department of Sanitation",
    "final_address": "4716 Annunciation St Unit 1C",
    "address_councildis": "B",
    "status": "Assigned to Contractor",
    "contractor": "Richards Disposal",
    "rowid": "977437",
    "final_x": "3669832.37761",
    "final_y": "517586.197942",
    "longitude": "-90.10538408491216",
    "latitude": "29.917531319647225",
    "geocoded_column": {
      "latitude": "29.917531319647225",
      "longitude": "-90.10538408491216"
    }
  },
  {
    "service_request": "2023-977436",
    "request_type": "Traffic Signals/Signs/Striping/Streetlights",
    "request_reason": "Street Light Outage/Malfunction",
    "date_created": "2023-02-23T22:29:08.000",
    "date_modified": "2023-02-23T22:29:08.000",
    "request_status": "Pending",
    "responsible_agency": "Department of Public Works",
    "final_address": "2611 N Rocheblave St",
    "address_councildis": "D",
    "status": "Assigned to Contractor",
    "contractor": "Legacy Professional Services",
    "rowid": "977436",
    "final_x": "3686565.62364",
    "final_y": "541287.867532",
    "longitude": "-90.05172996455444",
    "latitude": "29.982199137459094",
    "geocoded_column": {
      "latitude": "29.982199137459094",
      "longitude": "-90.05172996455444"
    }
  },
  {
    "service_request": "2023-977435",
    "request_type": "Trash/Recycling",
    "request_reason": "Missed Trash Pick-Up",
    "date_created": "2023-02-23T22:27:30.000",
    "date_modified": "2023-02-23T22:27:31.000",
    "request_status": "Pending",
    "responsible_agency": "Department of Sanitation",
    "final_address": "2611 N Rocheblave St",
    "address_councildis": "D",
    "status": "Assigned to Contractor",
    "contractor": "IV Waste",
    "rowid": "977435",
    "final_x": "3686565.62364",
    "final_y": "541287.867532",
    "longitude": "-90.05172996455444",
    "latitude": "29.982199137459094",
    "geocoded_column": {
      "latitude": "29.982199137459094",
      "longitude": "-90.05172996455444"
    }
  },
  {
    "service_request": "2023-977434",
    "request_type": "Traffic Signals/Signs/Striping/Streetlights",
    "request_reason": "Street Light Outage/Malfunction",
    "date_created": "2023-02-23T22:25:05.000",
    "date_modified": "2023-02-23T22:25:06.000",
    "request_status": "Pending",
    "responsible_agency": "Department of Public Works",
    "final_address": "307 S Olympia St",
    "address_councildis": "A",
    "status": "Assigned to Contractor",
    "contractor": "Legacy Professional Services",
    "rowid": "977434",
    "final_x": "3668829.3099",
    "final_y": "538940.521994",
    "longitude": "-90.10782931795029",
    "latitude": "29.976278279126632",
    "geocoded_column": {
      "latitude": "29.976278279126632",
      "longitude": "-90.10782931795029"
    }
  },
  {
    "service_request": "2023-977433",
    "request_type": "Trash/Recycling",
    "request_reason": "Repair Trash Cart",
    "date_created": "2023-02-23T22:03:52.000",
    "date_modified": "2023-02-23T22:03:53.000",
    "request_status": "Pending",
    "responsible_agency": "Department of Sanitation",
    "final_address": "518 Peniston St",
    "address_councildis": "B",
    "status": "Assigned to Contractor",
    "contractor": "Richards Disposal",
    "rowid": "977433",
    "final_x": "3673635.57492",
    "final_y": "517886.086966",
    "longitude": "-90.09336926065487",
    "latitude": "29.91824330166899",
    "geocoded_column": {
      "latitude": "29.91824330166899",
      "longitude": "-90.09336926065487"
    }
  },
  {
    "service_request": "2023-977432",
    "request_type": "Trash/Recycling",
    "request_reason": "Request a Large Item Pick Up",
    "date_created": "2023-02-23T22:02:55.000",
    "date_modified": "2023-02-23T22:02:56.000",
    "request_status": "Pending",
    "responsible_agency": "Department of Sanitation",
    "final_address": "105 W Hubbell Rd",
    "address_councildis": "C",
    "status": "Assigned to Contractor",
    "contractor": "Richards Disposal",
    "rowid": "977432",
    "final_x": "3689079.27708",
    "final_y": "531180.843074",
    "longitude": "-90.04414981506073",
    "latitude": "29.95433081701317",
    "geocoded_column": {
      "latitude": "29.95433081701317",
      "longitude": "-90.04414981506073"
    }
  },
  {
    "service_request": "2023-977431",
    "request_type": "Trash/Recycling",
    "request_reason": "Missed Trash Pick-Up",
    "date_created": "2023-02-23T21:57:51.000",
    "date_modified": "2023-02-23T21:57:51.000",
    "request_status": "Pending",
    "responsible_agency": "Department of Sanitation",
    "final_address": "1633 Third St",
    "address_councildis": "B",
    "status": "Assigned to Contractor",
    "contractor": "Richards Disposal",
    "rowid": "977431",
    "final_x": "3676298.84629",
    "final_y": "523147.287867",
    "longitude": "-90.08478178566985",
    "latitude": "29.932630386043655",
    "geocoded_column": {
      "latitude": "29.932630386043655",
      "longitude": "-90.08478178566985"
    }
  },
  {
    "service_request": "2023-977430",
    "request_type": "Trash/Recycling",
    "request_reason": "Request a Large Item Pick Up",
    "date_created": "2023-02-23T21:56:08.000",
    "date_modified": "2023-02-23T21:56:09.000",
    "request_status": "Pending",
    "responsible_agency": "Department of Sanitation",
    "final_address": "535 S Murat St, New Orleans, Louisiana, 70119",
    "address_councildis": "A",
    "status": "Assigned to Contractor",
    "contractor": "Richards Disposal",
    "rowid": "977430",
    "final_x": "3668497.57786",
    "final_y": "537919.131273",
    "longitude": "-90.1089115006951",
    "latitude": "29.97347954928179",
    "geocoded_column": {
      "latitude": "29.97347954928179",
      "longitude": "-90.1089115006951"
    }
  },
  {
    "service_request": "2023-977429",
    "request_type": "Trash/Recycling",
    "request_reason": "Missed Trash Pick-Up",
    "date_created": "2023-02-23T21:51:00.000",
    "date_modified": "2023-02-23T21:51:01.000",
    "request_status": "Pending",
    "responsible_agency": "Department of Sanitation",
    "final_address": "915 Sixth St",
    "address_councildis": "B",
    "status": "Assigned to Contractor",
    "contractor": "Richards Disposal",
    "rowid": "977429",
    "final_x": "3676994.15125",
    "final_y": "520069.34828",
    "longitude": "-90.0826928195403",
    "latitude": "29.924146202614033",
    "geocoded_column": {
      "latitude": "29.924146202614033",
      "longitude": "-90.0826928195403"
    }
  },
  {
    "service_request": "2023-977428",
    "request_type": "Trash/Recycling",
    "request_reason": "MIssed Recycling Pick-Up",
    "date_created": "2023-02-23T21:47:07.000",
    "date_modified": "2023-02-23T21:47:07.000",
    "request_status": "Pending",
    "responsible_agency": "Department of Sanitation",
    "final_address": "2131 Joseph St",
    "address_councildis": "A",
    "status": "Assigned to Contractor",
    "contractor": "Richards Disposal",
    "rowid": "977428",
    "final_x": "3667303.17242",
    "final_y": "523996.552956",
    "longitude": "-90.1131519285362",
    "latitude": "29.93523205238563",
    "geocoded_column": {
      "latitude": "29.93523205238563",
      "longitude": "-90.1131519285362"
    }
  },
  {
    "service_request": "2023-977427",
    "request_type": "Traffic Signals/Signs/Striping/Streetlights",
    "request_reason": "Street Light Outage/Malfunction",
    "date_created": "2023-02-23T21:46:47.000",
    "date_modified": "2023-02-23T21:46:48.000",
    "request_status": "Pending",
    "responsible_agency": "Department of Public Works",
    "final_address": "6133 Carlisle Ct",
    "address_councildis": "C",
    "status": "Assigned to Contractor",
    "contractor": "Legacy Professional Services",
    "rowid": "977427",
    "final_x": "3706640.81726",
    "final_y": "516406.221173",
    "longitude": "-89.98924515129089",
    "latitude": "29.913150841579256",
    "geocoded_column": {
      "latitude": "29.913150841579256",
      "longitude": "-89.98924515129089"
    }
  },
  {
    "service_request": "2023-977426",
    "request_type": "Traffic Signals/Signs/Striping/Streetlights",
    "request_reason": "Street Light Outage/Malfunction",
    "date_created": "2023-02-23T21:46:18.000",
    "date_modified": "2023-02-23T21:46:19.000",
    "request_status": "Pending",
    "responsible_agency": "Department of Public Works",
    "final_address": "211 Polk St",
    "address_councildis": "A",
    "status": "Assigned to Contractor",
    "contractor": "Legacy Professional Services",
    "rowid": "977426",
    "final_x": "3666909.85505",
    "final_y": "547654.402194",
    "longitude": "-90.11359859098715",
    "latitude": "30.00029479395307",
    "geocoded_column": {
      "latitude": "30.00029479395307",
      "longitude": "-90.11359859098715"
    }
  },
  {
    "service_request": "2023-977425",
    "request_type": "Traffic Signals/Signs/Striping/Streetlights",
    "request_reason": "Street Light Outage/Malfunction",
    "date_created": "2023-02-23T21:41:40.000",
    "date_modified": "2023-02-23T21:41:41.000",
    "request_status": "Pending",
    "responsible_agency": "Department of Public Works",
    "final_address": "1427 Oretha Castle Haley Blvd",
    "address_councildis": "B",
    "status": "Assigned to Contractor",
    "contractor": "Legacy Professional Services",
    "rowid": "977425",
    "final_x": "3678026.09224",
    "final_y": "526368.689342",
    "longitude": "-90.07921770566836",
    "latitude": "29.94143631561387",
    "geocoded_column": {
      "latitude": "29.94143631561387",
      "longitude": "-90.07921770566836"
    }
  },
  {
    "service_request": "2023-977423",
    "request_type": "Trash/Recycling",
    "request_reason": "Missed Trash Pick-Up",
    "date_created": "2023-02-23T21:18:08.000",
    "date_modified": "2023-02-23T21:18:09.000",
    "request_status": "Pending",
    "responsible_agency": "Department of Sanitation",
    "final_address": "3000 St Roch Ave",
    "address_councildis": "D",
    "status": "Assigned to Contractor",
    "contractor": "IV Waste",
    "rowid": "977423",
    "final_x": "3685812.19222",
    "final_y": "543820.392142",
    "longitude": "-90.05402035474606",
    "latitude": "29.989185831718906",
    "geocoded_column": {
      "latitude": "29.989185831718906",
      "longitude": "-90.05402035474606"
    }
  },
  {
    "service_request": "2023-977422",
    "request_type": "Abandoned Vehicles",
    "request_reason": "Abandoned/Junk Vehicles",
    "date_created": "2023-02-23T21:08:20.000",
    "date_modified": "2023-02-23T21:08:20.000",
    "request_status": "Pending",
    "responsible_agency": "Department of Public Works",
    "final_address": "2328 N Galvez St",
    "address_councildis": "D",
    "status": "Pending",
    "rowid": "977422",
    "final_x": "3685738.83023",
    "final_y": "540031.024203",
    "longitude": "-90.05438568261626",
    "latitude": "29.978768662945917",
    "geocoded_column": {
      "latitude": "29.978768662945917",
      "longitude": "-90.05438568261626"
    }
  },
  {
    "service_request": "2023-977421",
    "request_type": "Abandoned Vehicles",
    "request_reason": "Abandoned/Junk Vehicles",
    "date_created": "2023-02-23T21:04:55.000",
    "date_modified": "2023-02-23T21:04:55.000",
    "request_status": "Pending",
    "responsible_agency": "Department of Public Works",
    "final_address": "2328 N Galvez St",
    "address_councildis": "D",
    "status": "Pending",
    "rowid": "977421",
    "final_x": "3685738.83023",
    "final_y": "540031.024203",
    "longitude": "-90.05438568261626",
    "latitude": "29.978768662945917",
    "geocoded_column": {
      "latitude": "29.978768662945917",
      "longitude": "-90.05438568261626"
    }
  },
  {
    "service_request": "2023-977420",
    "request_type": "Traffic Signals/Signs/Striping/Streetlights",
    "request_reason": "Street Light Knocked Down/Leaning",
    "date_created": "2023-02-23T20:47:28.000",
    "date_modified": "2023-02-23T20:47:29.000",
    "request_status": "Pending",
    "responsible_agency": "Department of Public Works",
    "final_address": "1441 St Roch Ave",
    "address_councildis": "C",
    "status": "Pending",
    "contractor": "Legacy Professional Services",
    "rowid": "977420",
    "final_x": "3686444.16879",
    "final_y": "537867.848137",
    "longitude": "-90.05223434886068",
    "latitude": "29.972799022289216",
    "geocoded_column": {
      "latitude": "29.972799022289216",
      "longitude": "-90.05223434886068"
    }
  },
  {
    "service_request": "2023-977419",
    "request_type": "Traffic Signals/Signs/Striping/Streetlights",
    "request_reason": "Street Light Knocked Down/Leaning",
    "date_created": "2023-02-23T20:40:19.000",
    "date_modified": "2023-02-23T20:40:19.000",
    "request_status": "Pending",
    "responsible_agency": "Department of Public Works",
    "final_address": "1441 St Roch Ave",
    "address_councildis": "C",
    "status": "Pending",
    "contractor": "Legacy Professional Services",
    "rowid": "977419",
    "final_x": "3686444.16879",
    "final_y": "537867.848137",
    "longitude": "-90.05223434886068",
    "latitude": "29.972799022289216",
    "geocoded_column": {
      "latitude": "29.972799022289216",
      "longitude": "-90.05223434886068"
    }
  },
  {
    "service_request": "2023-977418",
    "request_type": "Trash/Recycling",
    "request_reason": "Missed Trash Pick-Up",
    "date_created": "2023-02-23T20:34:25.000",
    "date_modified": "2023-02-23T20:34:26.000",
    "request_status": "Pending",
    "responsible_agency": "Department of Sanitation",
    "final_address": "1123 Louisiana Ave",
    "address_councildis": "B",
    "status": "Assigned to Contractor",
    "contractor": "Richards Disposal",
    "rowid": "977418",
    "final_x": "3675017.26952",
    "final_y": "519856.663736",
    "longitude": "-90.08894043886947",
    "latitude": "29.92362057005257",
    "geocoded_column": {
      "latitude": "29.92362057005257",
      "longitude": "-90.08894043886947"
    }
  },
  {
    "service_request": "2023-977417",
    "request_type": "Trash/Recycling",
    "request_reason": "Missed Trash Pick-Up",
    "date_created": "2023-02-23T20:31:45.000",
    "date_modified": "2023-02-23T20:31:46.000",
    "request_status": "Pending",
    "responsible_agency": "Department of Sanitation",
    "final_address": "1200 Seventh St",
    "address_councildis": "B",
    "status": "Assigned to Contractor",
    "contractor": "Richards Disposal",
    "rowid": "977417",
    "final_x": "3676112.32801",
    "final_y": "520688.106873",
    "longitude": "-90.08545515656749",
    "latitude": "29.925874024197334",
    "geocoded_column": {
      "latitude": "29.925874024197334",
      "longitude": "-90.08545515656749"
    }
  },
  {
    "service_request": "2023-977416",
    "request_type": "Trash/Recycling",
    "request_reason": "Dead Animal Pick Up",
    "date_created": "2023-02-23T20:28:16.000",
    "date_modified": "2023-02-23T20:28:16.000",
    "request_status": "Pending",
    "responsible_agency": "Department of Sanitation",
    "final_address": "7301 Dartmoor Dr",
    "address_councildis": "E",
    "status": "Assigned to Contractor",
    "contractor": "Waste Pro",
    "rowid": "977416",
    "final_x": "3705209.99089",
    "final_y": "561731.059551",
    "longitude": "-89.99208668286276",
    "latitude": "30.0378235445142",
    "geocoded_column": {
      "latitude": "30.0378235445142",
      "longitude": "-89.99208668286276"
    }
  },
  {
    "service_request": "2023-977415",
    "request_type": "Trash/Recycling",
    "request_reason": "Missed Trash Pick-Up",
    "date_created": "2023-02-23T20:26:15.000",
    "date_modified": "2023-02-23T20:26:15.000",
    "request_status": "Pending",
    "responsible_agency": "Department of Sanitation",
    "final_address": "2502 Annette St, New Orleans, Louisiana, 70119",
    "address_councildis": "D",
    "status": "Assigned to Contractor",
    "contractor": "IV Waste",
    "rowid": "977415",
    "final_x": "3682682.04008",
    "final_y": "541351.975052",
    "longitude": "-90.06399394918265",
    "latitude": "29.982494276309637",
    "geocoded_column": {
      "latitude": "29.982494276309637",
      "longitude": "-90.06399394918265"
    }
  },
  {
    "service_request": "2023-977414",
    "request_type": "Trash/Recycling",
    "request_reason": "MIssed Recycling Pick-Up",
    "date_created": "2023-02-23T20:22:42.000",
    "date_modified": "2023-02-23T20:22:43.000",
    "request_status": "Pending",
    "responsible_agency": "Department of Sanitation",
    "final_address": "1529 Nashville Ave, New Orleans, Louisiana, 70115",
    "address_councildis": "A",
    "status": "Assigned to Contractor",
    "contractor": "Richards Disposal",
    "rowid": "977414",
    "final_x": "3666228.28692",
    "final_y": "521867.901114",
    "longitude": "-90.11661671233426",
    "latitude": "29.92941036615711",
    "geocoded_column": {
      "latitude": "29.92941036615711",
      "longitude": "-90.11661671233426"
    }
  },
  {
    "service_request": "2023-977413",
    "request_type": "Traffic Signals/Signs/Striping/Streetlights",
    "request_reason": "Traffic Signal Malfunctioning/Damaged",
    "date_created": "2023-02-23T20:22:39.000",
    "date_modified": "2023-02-23T20:22:39.000",
    "request_status": "Pending",
    "responsible_agency": "Department of Public Works",
    "final_address": "1441 St Roch Ave",
    "address_councildis": "C",
    "status": "Pending",
    "rowid": "977413",
    "final_x": "3686444.16879",
    "final_y": "537867.848137",
    "longitude": "-90.05223434886068",
    "latitude": "29.972799022289216",
    "geocoded_column": {
      "latitude": "29.972799022289216",
      "longitude": "-90.05223434886068"
    }
  },
  {
    "service_request": "2023-977412",
    "request_type": "Traffic Signals/Signs/Striping/Streetlights",
    "request_reason": "Street Light Knocked Down/Leaning",
    "date_created": "2023-02-23T20:19:09.000",
    "date_modified": "2023-02-23T20:19:10.000",
    "request_status": "Pending",
    "responsible_agency": "Department of Public Works",
    "final_address": "1441 St Roch Ave",
    "address_councildis": "C",
    "status": "Pending",
    "contractor": "Legacy Professional Services",
    "rowid": "977412",
    "final_x": "3686444.16879",
    "final_y": "537867.848137",
    "longitude": "-90.05223434886068",
    "latitude": "29.972799022289216",
    "geocoded_column": {
      "latitude": "29.972799022289216",
      "longitude": "-90.05223434886068"
    }
  },
  {
    "service_request": "2023-977411",
    "request_type": "Traffic Signals/Signs/Striping/Streetlights",
    "request_reason": "Street Light Outage/Malfunction",
    "date_created": "2023-02-23T20:11:46.000",
    "date_modified": "2023-02-23T20:11:47.000",
    "request_status": "Pending",
    "responsible_agency": "Department of Public Works",
    "final_address": "1500 St Roch Ave",
    "address_councildis": "C",
    "status": "Assigned to Contractor",
    "contractor": "Legacy Professional Services",
    "rowid": "977411",
    "final_x": "3686297.54025",
    "final_y": "537931.246601",
    "longitude": "-90.05269519049259",
    "latitude": "29.972977852767453",
    "geocoded_column": {
      "latitude": "29.972977852767453",
      "longitude": "-90.05269519049259"
    }
  },
  {
    "service_request": "2023-977410",
    "request_type": "Trash/Recycling",
    "request_reason": "Missed Trash Pick-Up",
    "date_created": "2023-02-23T20:08:46.000",
    "date_modified": "2023-02-23T20:08:47.000",
    "request_status": "Pending",
    "responsible_agency": "Department of Sanitation",
    "final_address": "1500 St Roch Ave",
    "address_councildis": "C",
    "status": "Assigned to Contractor",
    "contractor": "IV Waste",
    "rowid": "977410",
    "final_x": "3686297.54025",
    "final_y": "537931.246601",
    "longitude": "-90.05269519049259",
    "latitude": "29.972977852767453",
    "geocoded_column": {
      "latitude": "29.972977852767453",
      "longitude": "-90.05269519049259"
    }
  },
  {
    "service_request": "2023-977409",
    "request_type": "Abandoned Vehicles",
    "request_reason": "Abandoned/Junk Vehicles",
    "date_created": "2023-02-23T19:26:34.000",
    "date_modified": "2023-02-23T19:26:34.000",
    "request_status": "Pending",
    "responsible_agency": "Department of Public Works",
    "final_address": "9200 Forshey St",
    "address_councildis": "A",
    "status": "Pending",
    "rowid": "977409",
    "final_x": "3664086.55482",
    "final_y": "536533.002567",
    "longitude": "-90.12288874125579",
    "latitude": "29.969797023051623",
    "geocoded_column": {
      "latitude": "29.969797023051623",
      "longitude": "-90.12288874125579"
    }
  },
  {
    "service_request": "2023-977408",
    "request_type": "Trash/Recycling",
    "request_reason": "Missed Trash Pick-Up",
    "date_created": "2023-02-23T19:25:42.000",
    "date_modified": "2023-02-23T19:25:43.000",
    "request_status": "Pending",
    "responsible_agency": "Department of Sanitation",
    "final_address": "2924 Pauger St",
    "address_councildis": "D",
    "status": "Assigned to Contractor",
    "contractor": "IV Waste",
    "rowid": "977408",
    "final_x": "3683476.4509",
    "final_y": "540465.050571",
    "longitude": "-90.06151590363741",
    "latitude": "29.9800313234574",
    "geocoded_column": {
      "latitude": "29.9800313234574",
      "longitude": "-90.06151590363741"
    }
  },
  {
    "service_request": "2023-977407",
    "request_type": "Trash/Recycling",
    "request_reason": "Illegal Dumping",
    "date_created": "2023-02-23T19:15:56.000",
    "date_modified": "2023-02-23T19:15:56.000",
    "request_status": "Pending",
    "responsible_agency": "Department of Sanitation",
    "final_address": "2550 Ursulines Ave",
    "address_councildis": "D",
    "status": "Pending",
    "rowid": "977407",
    "final_x": "3678076.69998",
    "final_y": "537716.914312",
    "longitude": "-90.07866561296773",
    "latitude": "29.97263858844416",
    "geocoded_column": {
      "latitude": "29.97263858844416",
      "longitude": "-90.07866561296773"
    }
  },
  {
    "service_request": "2023-977406",
    "request_type": "Trash/Recycling",
    "request_reason": "Replace Trash Cart",
    "date_created": "2023-02-23T19:15:26.000",
    "date_modified": "2023-02-23T19:15:26.000",
    "request_status": "Pending",
    "responsible_agency": "Department of Sanitation",
    "final_address": "2718 Magazine St",
    "address_councildis": "B",
    "status": "Assigned to Contractor",
    "contractor": "Richards Disposal",
    "rowid": "977406",
    "final_x": "3677208.9556",
    "final_y": "520852.071417",
    "longitude": "-90.08198777451852",
    "latitude": "29.926291989030855",
    "geocoded_column": {
      "latitude": "29.926291989030855",
      "longitude": "-90.08198777451852"
    }
  },
  {
    "service_request": "2023-977405",
    "request_type": "Trash/Recycling",
    "request_reason": "Missed Trash Pick-Up",
    "date_created": "2023-02-23T19:14:10.000",
    "date_modified": "2023-02-23T19:14:11.000",
    "request_status": "Pending",
    "responsible_agency": "Department of Sanitation",
    "final_address": "2716 Magazine St",
    "address_councildis": "B",
    "status": "Assigned to Contractor",
    "contractor": "Richards Disposal",
    "rowid": "977405",
    "final_x": "3677218.3396",
    "final_y": "520856.278713",
    "longitude": "-90.08195800683177",
    "latitude": "29.926303275937578",
    "geocoded_column": {
      "latitude": "29.926303275937578",
      "longitude": "-90.08195800683177"
    }
  },
  {
    "service_request": "2023-977404",
    "request_type": "Trash/Recycling",
    "request_reason": "MIssed Recycling Pick-Up",
    "date_created": "2023-02-23T19:08:50.000",
    "date_modified": "2023-02-23T19:08:51.000",
    "request_status": "Pending",
    "responsible_agency": "Department of Sanitation",
    "final_address": "2025 Almonaster Ave",
    "address_councildis": "D",
    "status": "Assigned to Contractor",
    "contractor": "IV Waste",
    "rowid": "977404",
    "final_x": "3688067.44668",
    "final_y": "540027.970187",
    "longitude": "-90.04703116346818",
    "latitude": "29.97868859321199",
    "geocoded_column": {
      "latitude": "29.97868859321199",
      "longitude": "-90.04703116346818"
    }
  },
  {
    "service_request": "2023-977403",
    "request_type": "Trash/Recycling",
    "request_reason": "Missed Trash Pick-Up",
    "date_created": "2023-02-23T19:08:16.000",
    "date_modified": "2023-02-23T19:08:16.000",
    "request_status": "Pending",
    "responsible_agency": "Department of Sanitation",
    "final_address": "2025 Almonaster Ave",
    "address_councildis": "D",
    "status": "Assigned to Contractor",
    "contractor": "IV Waste",
    "rowid": "977403",
    "final_x": "3688067.44668",
    "final_y": "540027.970187",
    "longitude": "-90.04703116346818",
    "latitude": "29.97868859321199",
    "geocoded_column": {
      "latitude": "29.97868859321199",
      "longitude": "-90.04703116346818"
    }
  },
  {
    "service_request": "2023-977402",
    "request_type": "Abandoned Vehicles",
    "request_reason": "Vehicle Blocking Your Driveway",
    "date_created": "2023-02-23T18:54:56.000",
    "date_modified": "2023-02-23T18:54:56.000",
    "request_status": "Pending",
    "responsible_agency": "Department of Public Works",
    "final_address": "800 Bourbon St",
    "address_councildis": "C",
    "status": "Pending",
    "rowid": "977402",
    "final_x": "3682553.51528",
    "final_y": "533013.631428",
    "longitude": "-90.06469148499534",
    "latitude": "29.95957063099051",
    "geocoded_column": {
      "latitude": "29.95957063099051",
      "longitude": "-90.06469148499534"
    }
  },
  {
    "service_request": "2023-977401",
    "request_type": "Abandoned Vehicles",
    "request_reason": "Abandoned/Junk Vehicles",
    "date_created": "2023-02-23T18:54:28.000",
    "date_modified": "2023-02-23T18:54:28.000",
    "request_status": "Pending",
    "responsible_agency": "Department of Public Works",
    "final_address": "6300 Argonne Blvd",
    "address_councildis": "A",
    "status": "Pending",
    "rowid": "977401",
    "final_x": "3670263.31745",
    "final_y": "549349.481619",
    "longitude": "-90.10294728065384",
    "latitude": "30.00485709009762",
    "geocoded_column": {
      "latitude": "30.00485709009762",
      "longitude": "-90.10294728065384"
    }
  },
  {
    "service_request": "2023-977400",
    "request_type": "Trash/Recycling",
    "request_reason": "Missed Trash Pick-Up",
    "date_created": "2023-02-23T18:50:11.000",
    "date_modified": "2023-02-23T18:50:12.000",
    "request_status": "Pending",
    "responsible_agency": "Department of Sanitation",
    "final_address": "612 Eighth St",
    "address_councildis": "B",
    "status": "Assigned to Contractor",
    "contractor": "Richards Disposal",
    "rowid": "977400",
    "final_x": "3677022.7835",
    "final_y": "518773.060663",
    "longitude": "-90.08264710094622",
    "latitude": "29.92058097119563",
    "geocoded_column": {
      "latitude": "29.92058097119563",
      "longitude": "-90.08264710094622"
    }
  },
  {
    "service_request": "2023-977399",
    "request_type": "Abandoned Vehicles",
    "request_reason": "Abandoned/Junk Vehicles",
    "date_created": "2023-02-23T18:42:16.000",
    "date_modified": "2023-02-23T18:42:16.000",
    "request_status": "Pending",
    "responsible_agency": "Department of Public Works",
    "final_address": "Marigny St & Saint Claude Ave, New Orleans, Louisiana, 70117",
    "status": "Pending",
    "rowid": "977399",
    "longitude": "0.0",
    "latitude": "0.0",
    "geocoded_column": {
      "latitude": "0.0",
      "longitude": "0.0"
    }
  },
  {
    "service_request": "2023-977398",
    "request_type": "Traffic Signals/Signs/Striping/Streetlights",
    "request_reason": "Street Light Outage/Malfunction",
    "date_created": "2023-02-23T18:32:00.000",
    "date_modified": "2023-02-23T18:35:13.000",
    "request_status": "Pending",
    "responsible_agency": "Department of Public Works",
    "final_address": "8932 Morrison Rd",
    "address_councildis": "E",
    "status": "Assigned to Contractor",
    "contractor": "Legacy Professional Services",
    "rowid": "977398",
    "final_x": "3705909.85495",
    "final_y": "561864.828703",
    "longitude": "-89.98987000153231",
    "latitude": "30.038168812996084",
    "geocoded_column": {
      "latitude": "30.038168812996084",
      "longitude": "-89.98987000153231"
    }
  },
  {
    "service_request": "2023-977397",
    "request_type": "Trash/Recycling",
    "request_reason": "Missed Trash Pick-Up",
    "date_created": "2023-02-23T18:30:10.000",
    "date_modified": "2023-02-23T18:30:10.000",
    "request_status": "Pending",
    "responsible_agency": "Department of Sanitation",
    "final_address": "2916 Annunciation St",
    "address_councildis": "B",
    "status": "Assigned to Contractor",
    "contractor": "Richards Disposal",
    "rowid": "977397",
    "final_x": "3677120.92757",
    "final_y": "519502.791799",
    "longitude": "-90.08231215688713",
    "latitude": "29.922584550232244",
    "geocoded_column": {
      "latitude": "29.922584550232244",
      "longitude": "-90.08231215688713"
    }
  },
  {
    "service_request": "2023-977396",
    "request_type": "Trash/Recycling",
    "request_reason": "Missed Trash Pick-Up",
    "date_created": "2023-02-23T18:29:29.000",
    "date_modified": "2023-02-23T18:29:29.000",
    "request_status": "Pending",
    "responsible_agency": "Department of Sanitation",
    "final_address": "2914 Annunciation St",
    "address_councildis": "B",
    "status": "Assigned to Contractor",
    "contractor": "Richards Disposal",
    "rowid": "977396",
    "final_x": "3677134.08942",
    "final_y": "519513.446711",
    "longitude": "-90.08227024296154",
    "latitude": "29.922613452660002",
    "geocoded_column": {
      "latitude": "29.922613452660002",
      "longitude": "-90.08227024296154"
    }
  },
  {
    "service_request": "2023-977395",
    "request_type": "Trash/Recycling",
    "request_reason": "Missed Trash Pick-Up",
    "date_created": "2023-02-23T18:28:53.000",
    "date_modified": "2023-02-23T18:28:53.000",
    "request_status": "Pending",
    "responsible_agency": "Department of Sanitation",
    "final_address": "2908 Annunciation St",
    "address_councildis": "B",
    "status": "Assigned to Contractor",
    "contractor": "Richards Disposal",
    "rowid": "977395",
    "final_x": "3677169.18696",
    "final_y": "519540.395895",
    "longitude": "-90.0821585251264",
    "latitude": "29.92268650046469",
    "geocoded_column": {
      "latitude": "29.92268650046469",
      "longitude": "-90.0821585251264"
    }
  },
  {
    "service_request": "2023-977394",
    "request_type": "Trash/Recycling",
    "request_reason": "Missed Trash Pick-Up",
    "date_created": "2023-02-23T18:28:18.000",
    "date_modified": "2023-02-23T18:28:19.000",
    "request_status": "Pending",
    "responsible_agency": "Department of Sanitation",
    "final_address": "2915 Annunciation St",
    "address_councildis": "B",
    "status": "Assigned to Contractor",
    "contractor": "Richards Disposal",
    "rowid": "977394",
    "final_x": "3677093.22254",
    "final_y": "519576.636024",
    "longitude": "-90.08239706584881",
    "latitude": "29.922788429674977",
    "geocoded_column": {
      "latitude": "29.922788429674977",
      "longitude": "-90.08239706584881"
    }
  },
  {
    "service_request": "2023-977393",
    "request_type": "Trash/Recycling",
    "request_reason": "Missed Trash Pick-Up",
    "date_created": "2023-02-23T18:28:11.000",
    "date_modified": "2023-02-23T18:28:12.000",
    "request_status": "Pending",
    "responsible_agency": "Department of Sanitation",
    "final_address": "3025 Laurel St",
    "address_councildis": "B",
    "status": "Assigned to Contractor",
    "contractor": "Richards Disposal",
    "rowid": "977393",
    "final_x": "3676575.44123",
    "final_y": "519667.637624",
    "longitude": "-90.08402836645416",
    "latitude": "29.92305418767449",
    "geocoded_column": {
      "latitude": "29.92305418767449",
      "longitude": "-90.08402836645416"
    }
  },
  {
    "service_request": "2023-977392",
    "request_type": "Trash/Recycling",
    "request_reason": "Missed Trash Pick-Up",
    "date_created": "2023-02-23T18:27:13.000",
    "date_modified": "2023-02-23T18:27:13.000",
    "request_status": "Pending",
    "responsible_agency": "Department of Sanitation",
    "final_address": "2912 Annunciation St",
    "address_councildis": "B",
    "status": "Assigned to Contractor",
    "contractor": "Richards Disposal",
    "rowid": "977392",
    "final_x": "3677146.62389",
    "final_y": "519523.474615",
    "longitude": "-90.08223033101143",
    "latitude": "29.922640649840694",
    "geocoded_column": {
      "latitude": "29.922640649840694",
      "longitude": "-90.08223033101143"
    }
  },
  {
    "service_request": "2023-977391",
    "request_type": "Trash/Recycling",
    "request_reason": "Missed Trash Pick-Up",
    "date_created": "2023-02-23T18:26:37.000",
    "date_modified": "2023-02-23T18:26:38.000",
    "request_status": "Pending",
    "responsible_agency": "Department of Sanitation",
    "final_address": "939 Seventh St",
    "address_councildis": "B",
    "status": "Assigned to Contractor",
    "contractor": "Richards Disposal",
    "rowid": "977391",
    "final_x": "3676639.38568",
    "final_y": "520053.925048",
    "longitude": "-90.08381322144345",
    "latitude": "29.924114436043542",
    "geocoded_column": {
      "latitude": "29.924114436043542",
      "longitude": "-90.08381322144345"
    }
  },
  {
    "service_request": "2023-977390",
    "request_type": "Trash/Recycling",
    "request_reason": "Damaged Caused By Contractor",
    "date_created": "2023-02-23T18:26:34.000",
    "date_modified": "2023-02-23T18:26:35.000",
    "request_status": "Pending",
    "responsible_agency": "Department of Sanitation",
    "final_address": "4861 Cardenas Dr",
    "address_councildis": "E",
    "status": "Assigned to Contractor",
    "contractor": "Waste Pro",
    "rowid": "977390",
    "final_x": "3713691.10456",
    "final_y": "556980.613466",
    "longitude": "-89.96546377524972",
    "latitude": "30.02448601650552",
    "geocoded_column": {
      "latitude": "30.02448601650552",
      "longitude": "-89.96546377524972"
    }
  },
  {
    "service_request": "2023-977389",
    "request_type": "Trash/Recycling",
    "request_reason": "Missed Trash Pick-Up",
    "date_created": "2023-02-23T18:20:15.000",
    "date_modified": "2023-02-23T18:20:16.000",
    "request_status": "Pending",
    "responsible_agency": "Department of Sanitation",
    "final_address": "3212 Prytania St",
    "address_councildis": "B",
    "status": "Assigned to Contractor",
    "contractor": "Richards Disposal",
    "rowid": "977389",
    "final_x": "3675025.34568",
    "final_y": "521262.878137",
    "longitude": "-90.08886673564436",
    "latitude": "29.927486964821558",
    "geocoded_column": {
      "latitude": "29.927486964821558",
      "longitude": "-90.08886673564436"
    }
  },
  {
    "service_request": "2023-977388",
    "request_type": "Trash/Recycling",
    "request_reason": "Request a Large Item Pick Up",
    "date_created": "2023-02-23T18:14:20.000",
    "date_modified": "2023-02-23T18:14:21.000",
    "request_status": "Pending",
    "responsible_agency": "Department of Sanitation",
    "final_address": "2120 Cambronne St",
    "address_councildis": "A",
    "status": "Assigned to Contractor",
    "contractor": "Richards Disposal",
    "rowid": "977388",
    "final_x": "3663389.7161",
    "final_y": "531599.942851",
    "longitude": "-90.12525368573436",
    "latitude": "29.95625294548032",
    "geocoded_column": {
      "latitude": "29.95625294548032",
      "longitude": "-90.12525368573436"
    }
  },
  {
    "service_request": "2023-977387",
    "request_type": "Abandoned Vehicles",
    "request_reason": "Abandoned/Junk Vehicles",
    "date_created": "2023-02-23T18:13:59.000",
    "date_modified": "2023-02-23T18:13:59.000",
    "request_status": "Pending",
    "responsible_agency": "Department of Public Works",
    "final_address": "2431 Napoleon Ave",
    "address_councildis": "B",
    "status": "Pending",
    "rowid": "977387",
    "final_x": "3670641.46753",
    "final_y": "523965.61222",
    "longitude": "-90.10261395678687",
    "latitude": "29.935048805615182",
    "geocoded_column": {
      "latitude": "29.935048805615182",
      "longitude": "-90.10261395678687"
    }
  },
  {
    "service_request": "2023-977386",
    "request_type": "Trash/Recycling",
    "request_reason": "MIssed Recycling Pick-Up",
    "date_created": "2023-02-23T18:09:07.000",
    "date_modified": "2023-02-23T18:09:08.000",
    "request_status": "Pending",
    "responsible_agency": "Department of Sanitation",
    "final_address": "522 Napoleon Ave",
    "address_councildis": "B",
    "status": "Assigned to Contractor",
    "contractor": "Richards Disposal",
    "rowid": "977386",
    "final_x": "3671051.50849",
    "final_y": "517584.827702",
    "longitude": "-90.10153600960744",
    "latitude": "29.91749157130745",
    "geocoded_column": {
      "latitude": "29.91749157130745",
      "longitude": "-90.10153600960744"
    }
  },
  {
    "service_request": "2023-977385",
    "request_type": "Trash/Recycling",
    "request_reason": "Missed Trash Pick-Up",
    "date_created": "2023-02-23T18:05:37.000",
    "date_modified": "2023-02-23T18:05:37.000",
    "request_status": "Pending",
    "responsible_agency": "Department of Sanitation",
    "final_address": "5324 N Galvez St",
    "address_councildis": "E",
    "status": "Assigned to Contractor",
    "contractor": "Waste Pro",
    "rowid": "977385",
    "final_x": "3697990.90224",
    "final_y": "537648.572872",
    "longitude": "-90.01577577418092",
    "latitude": "29.971836068875117",
    "geocoded_column": {
      "latitude": "29.971836068875117",
      "longitude": "-90.01577577418092"
    }
  },
  {
    "service_request": "2023-977384",
    "request_type": "Trash/Recycling",
    "request_reason": "Order Trash Cart",
    "date_created": "2023-02-23T18:00:44.000",
    "date_modified": "2023-02-23T18:00:45.000",
    "request_status": "Pending",
    "responsible_agency": "Department of Sanitation",
    "final_address": "6545 Louisville St",
    "address_councildis": "A",
    "status": "Assigned to Contractor",
    "contractor": "IV Waste",
    "rowid": "977384",
    "final_x": "3668180.30689",
    "final_y": "551120.929045",
    "longitude": "-90.1094681800635",
    "latitude": "30.00978928907276",
    "geocoded_column": {
      "latitude": "30.00978928907276",
      "longitude": "-90.1094681800635"
    }
  },
  {
    "service_request": "2023-977383",
    "request_type": "Traffic Signals/Signs/Striping/Streetlights",
    "request_reason": "Traffic Signal Malfunctioning/Damaged",
    "date_created": "2023-02-23T17:57:56.000",
    "date_modified": "2023-02-23T17:57:56.000",
    "request_status": "Pending",
    "responsible_agency": "Department of Public Works",
    "final_address": "S CARROLLTON AVE & TULANE AVE",
    "address_councildis": "A",
    "status": "Pending",
    "rowid": "977383",
    "final_x": "3669337.8",
    "final_y": "536308.78",
    "longitude": "-90.10631235722039",
    "latitude": "29.96902690865695",
    "geocoded_column": {
      "latitude": "29.96902690865695",
      "longitude": "-90.10631235722039"
    }
  },
  {
    "service_request": "2023-977382",
    "request_type": "Trash/Recycling",
    "request_reason": "Request a Large Item Pick Up",
    "date_created": "2023-02-23T17:56:41.000",
    "date_modified": "2023-02-23T17:56:41.000",
    "request_status": "Pending",
    "responsible_agency": "Department of Sanitation",
    "final_address": "1444 Egania St",
    "address_councildis": "E",
    "status": "Assigned to Contractor",
    "contractor": "Waste Pro",
    "rowid": "977382",
    "final_x": "3697173.27632",
    "final_y": "535507.472326",
    "longitude": "-90.018435546605",
    "latitude": "29.965974633887058",
    "geocoded_column": {
      "latitude": "29.965974633887058",
      "longitude": "-90.018435546605"
    }
  },
  {
    "service_request": "2023-977381",
    "request_type": "Trash/Recycling",
    "request_reason": "MIssed Recycling Pick-Up",
    "date_created": "2023-02-23T17:53:25.000",
    "date_modified": "2023-02-23T17:53:26.000",
    "request_status": "Pending",
    "responsible_agency": "Department of Sanitation",
    "final_address": "4430 Lancelot Dr, New Orleans, Louisiana, 70127",
    "address_councildis": "E",
    "status": "Assigned to Contractor",
    "contractor": "Waste Pro",
    "rowid": "977381",
    "final_x": "3707544.13688",
    "final_y": "553760.070743",
    "longitude": "-89.98500668723098",
    "latitude": "30.01583111096896",
    "geocoded_column": {
      "latitude": "30.01583111096896",
      "longitude": "-89.98500668723098"
    }
  },
  {
    "service_request": "2023-977380",
    "request_type": "Trash/Recycling",
    "request_reason": "MIssed Recycling Pick-Up",
    "date_created": "2023-02-23T17:52:49.000",
    "date_modified": "2023-02-23T17:52:49.000",
    "request_status": "Pending",
    "responsible_agency": "Department of Sanitation",
    "final_address": "6030 Hurst St",
    "address_councildis": "A",
    "status": "Assigned to Contractor",
    "contractor": "Richards Disposal",
    "rowid": "977380",
    "final_x": "3665256.5074",
    "final_y": "521786.983866",
    "longitude": "-90.11968715854152",
    "latitude": "29.92921620713637",
    "geocoded_column": {
      "latitude": "29.92921620713637",
      "longitude": "-90.11968715854152"
    }
  },
  {
    "service_request": "2023-977379",
    "request_type": "Trash/Recycling",
    "request_reason": "MIssed Recycling Pick-Up",
    "date_created": "2023-02-23T17:46:35.000",
    "date_modified": "2023-02-23T17:46:36.000",
    "request_status": "Pending",
    "responsible_agency": "Department of Sanitation",
    "final_address": "5351 Tchoupitoulas St",
    "address_councildis": "B",
    "status": "Assigned to Contractor",
    "contractor": "Richards Disposal",
    "rowid": "977379",
    "final_x": "3666843.49517",
    "final_y": "517212.276725",
    "longitude": "-90.11483089618059",
    "latitude": "29.916590888881792",
    "geocoded_column": {
      "latitude": "29.916590888881792",
      "longitude": "-90.11483089618059"
    }
  },
  {
    "service_request": "2023-977378",
    "request_type": "Trash/Recycling",
    "request_reason": "Missed Trash Pick-Up",
    "date_created": "2023-02-23T17:46:09.000",
    "date_modified": "2023-02-23T17:46:09.000",
    "request_status": "Pending",
    "responsible_agency": "Department of Sanitation",
    "final_address": "1156 Merrill St",
    "address_councildis": "C",
    "status": "Assigned to Contractor",
    "contractor": "Richards Disposal",
    "rowid": "977378",
    "final_x": "3695011.01232",
    "final_y": "527494.697599",
    "longitude": "-90.02555268424724",
    "latitude": "29.944010360767912",
    "geocoded_column": {
      "latitude": "29.944010360767912",
      "longitude": "-90.02555268424724"
    }
  },
  {
    "service_request": "2023-977377",
    "request_type": "Trash/Recycling",
    "request_reason": "Illegal Dumping",
    "date_created": "2023-02-23T17:40:06.000",
    "date_modified": "2023-02-23T17:40:06.000",
    "request_status": "Pending",
    "responsible_agency": "Department of Sanitation",
    "final_address": "EDINBURGH ST & DUBLIN ST",
    "address_councildis": "A",
    "status": "Pending",
    "rowid": "977377",
    "final_x": "3667231.7",
    "final_y": "534689.78",
    "longitude": "-90.11301804059624",
    "latitude": "29.964637041157378",
    "geocoded_column": {
      "latitude": "29.964637041157378",
      "longitude": "-90.11301804059624"
    }
  },
  {
    "service_request": "2023-977376",
    "request_type": "Trash/Recycling",
    "request_reason": "Replace Trash Cart",
    "date_created": "2023-02-23T17:38:48.000",
    "date_modified": "2023-02-23T17:38:49.000",
    "request_status": "Pending",
    "responsible_agency": "Department of Sanitation",
    "final_address": "5707 Willow St",
    "address_councildis": "A",
    "status": "Assigned to Contractor",
    "contractor": "Richards Disposal",
    "rowid": "977376",
    "final_x": "3667503.34887",
    "final_y": "525488.772221",
    "longitude": "-90.11246977565567",
    "latitude": "29.93932931393179",
    "geocoded_column": {
      "latitude": "29.93932931393179",
      "longitude": "-90.11246977565567"
    }
  },
  {
    "service_request": "2023-977375",
    "request_type": "Property Maintenance",
    "request_reason": "Property Maintenance",
    "date_created": "2023-02-23T17:37:29.000",
    "date_modified": "2023-02-23T17:37:29.000",
    "request_status": "Pending",
    "responsible_agency": "Department of Code Enforcement",
    "final_address": "1343 Spain St",
    "address_councildis": "C",
    "status": "Pending",
    "rowid": "977375",
    "final_x": "3686085.65078",
    "final_y": "537465.977672",
    "longitude": "-90.0533807908755",
    "latitude": "29.971705035761463",
    "geocoded_column": {
      "latitude": "29.971705035761463",
      "longitude": "-90.0533807908755"
    }
  },
  {
    "service_request": "2023-977374",
    "request_type": "Trash/Recycling",
    "request_reason": "Missed Trash Pick-Up",
    "date_created": "2023-02-23T17:33:37.000",
    "date_modified": "2023-02-23T17:33:38.000",
    "request_status": "Pending",
    "responsible_agency": "Department of Sanitation",
    "final_address": "3103 Chippewa St",
    "address_councildis": "B",
    "status": "Assigned to Contractor",
    "contractor": "Richards Disposal",
    "rowid": "977374",
    "final_x": "3676877.71285",
    "final_y": "518956.302199",
    "longitude": "-90.08309871087482",
    "latitude": "29.921089179503205",
    "geocoded_column": {
      "latitude": "29.921089179503205",
      "longitude": "-90.08309871087482"
    }
  },
  {
    "service_request": "2023-977372",
    "request_type": "Trash/Recycling",
    "request_reason": "Missed Trash Pick-Up",
    "date_created": "2023-02-23T17:29:21.000",
    "date_modified": "2023-02-23T17:29:22.000",
    "request_status": "Pending",
    "responsible_agency": "Department of Sanitation",
    "final_address": "1709 Prytania St",
    "address_councildis": "B",
    "status": "Assigned to Contractor",
    "contractor": "Richards Disposal",
    "rowid": "977372",
    "final_x": "3679224.59707",
    "final_y": "524657.101948",
    "longitude": "-90.07549311217129",
    "latitude": "29.936693893441053",
    "geocoded_column": {
      "latitude": "29.936693893441053",
      "longitude": "-90.07549311217129"
    }
  },
  {
    "service_request": "2023-977371",
    "request_type": "Abandoned Vehicles",
    "request_reason": "Abandoned/Junk Vehicles",
    "date_created": "2023-02-23T17:28:34.000",
    "date_modified": "2023-02-23T17:28:34.000",
    "request_status": "Pending",
    "responsible_agency": "Department of Public Works",
    "final_address": "6851 Louisville St",
    "address_councildis": "A",
    "status": "Pending",
    "rowid": "977371",
    "final_x": "3668365.1458",
    "final_y": "553142.363223",
    "longitude": "-90.10881595619153",
    "latitude": "30.015342092739434",
    "geocoded_column": {
      "latitude": "30.015342092739434",
      "longitude": "-90.10881595619153"
    }
  },
  {
    "service_request": "2023-977370",
    "request_type": "Trash/Recycling",
    "request_reason": "Request a Large Item Pick Up",
    "date_created": "2023-02-23T17:28:11.000",
    "date_modified": "2023-02-23T17:28:12.000",
    "request_status": "Pending",
    "responsible_agency": "Department of Sanitation",
    "final_address": "4316 State Street Dr",
    "address_councildis": "B",
    "status": "Assigned to Contractor",
    "contractor": "Richards Disposal",
    "rowid": "977370",
    "final_x": "3668529.31527",
    "final_y": "531409.528515",
    "longitude": "-90.10903093174993",
    "latitude": "29.955579369737148",
    "geocoded_column": {
      "latitude": "29.955579369737148",
      "longitude": "-90.10903093174993"
    }
  },
  {
    "service_request": "2023-977369",
    "request_type": "Trash/Recycling",
    "request_reason": "Request a Large Item Pick Up",
    "date_created": "2023-02-23T17:28:08.000",
    "date_modified": "2023-02-23T17:28:08.000",
    "request_status": "Pending",
    "responsible_agency": "Department of Sanitation",
    "final_address": "4316 State Street Dr",
    "address_councildis": "B",
    "status": "Assigned to Contractor",
    "contractor": "Richards Disposal",
    "rowid": "977369",
    "final_x": "3668529.31527",
    "final_y": "531409.528515",
    "longitude": "-90.10903093174993",
    "latitude": "29.955579369737148",
    "geocoded_column": {
      "latitude": "29.955579369737148",
      "longitude": "-90.10903093174993"
    }
  },
  {
    "service_request": "2023-977368",
    "request_type": "Trash/Recycling",
    "request_reason": "Request a Large Item Pick Up",
    "date_created": "2023-02-23T17:28:07.000",
    "date_modified": "2023-02-23T17:28:08.000",
    "request_status": "Pending",
    "responsible_agency": "Department of Sanitation",
    "final_address": "4316 State Street Dr",
    "address_councildis": "B",
    "status": "Assigned to Contractor",
    "contractor": "Richards Disposal",
    "rowid": "977368",
    "final_x": "3668529.31527",
    "final_y": "531409.528515",
    "longitude": "-90.10903093174993",
    "latitude": "29.955579369737148",
    "geocoded_column": {
      "latitude": "29.955579369737148",
      "longitude": "-90.10903093174993"
    }
  },
  {
    "service_request": "2023-977367",
    "request_type": "Trash/Recycling",
    "request_reason": "Request a Large Item Pick Up",
    "date_created": "2023-02-23T17:28:02.000",
    "date_modified": "2023-02-23T17:28:03.000",
    "request_status": "Pending",
    "responsible_agency": "Department of Sanitation",
    "final_address": "4316 State Street Dr",
    "address_councildis": "B",
    "status": "Assigned to Contractor",
    "contractor": "Richards Disposal",
    "rowid": "977367",
    "final_x": "3668529.31527",
    "final_y": "531409.528515",
    "longitude": "-90.10903093174993",
    "latitude": "29.955579369737148",
    "geocoded_column": {
      "latitude": "29.955579369737148",
      "longitude": "-90.10903093174993"
    }
  },
  {
    "service_request": "2023-977366",
    "request_type": "Trash/Recycling",
    "request_reason": "Request a Large Item Pick Up",
    "date_created": "2023-02-23T17:28:01.000",
    "date_modified": "2023-02-23T17:28:02.000",
    "request_status": "Pending",
    "responsible_agency": "Department of Sanitation",
    "final_address": "4316 State Street Dr",
    "address_councildis": "B",
    "status": "Assigned to Contractor",
    "contractor": "Richards Disposal",
    "rowid": "977366",
    "final_x": "3668529.31527",
    "final_y": "531409.528515",
    "longitude": "-90.10903093174993",
    "latitude": "29.955579369737148",
    "geocoded_column": {
      "latitude": "29.955579369737148",
      "longitude": "-90.10903093174993"
    }
  },
  {
    "service_request": "2023-977365",
    "request_type": "Trash/Recycling",
    "request_reason": "Request a Large Item Pick Up",
    "date_created": "2023-02-23T17:27:59.000",
    "date_modified": "2023-02-23T17:28:00.000",
    "request_status": "Pending",
    "responsible_agency": "Department of Sanitation",
    "final_address": "4316 State Street Dr",
    "address_councildis": "B",
    "status": "Assigned to Contractor",
    "contractor": "Richards Disposal",
    "rowid": "977365",
    "final_x": "3668529.31527",
    "final_y": "531409.528515",
    "longitude": "-90.10903093174993",
    "latitude": "29.955579369737148",
    "geocoded_column": {
      "latitude": "29.955579369737148",
      "longitude": "-90.10903093174993"
    }
  },
  {
    "service_request": "2023-977364",
    "request_type": "Trash/Recycling",
    "request_reason": "Missed Trash Pick-Up",
    "date_created": "2023-02-23T17:23:06.000",
    "date_modified": "2023-02-23T17:23:07.000",
    "request_status": "Pending",
    "responsible_agency": "Department of Sanitation",
    "final_address": "1461 N Robertson St",
    "address_councildis": "C",
    "status": "Assigned to Contractor",
    "contractor": "IV Waste",
    "rowid": "977364",
    "final_x": "3681878.51093",
    "final_y": "536801.645128",
    "longitude": "-90.0666907634754",
    "latitude": "29.970006901563583",
    "geocoded_column": {
      "latitude": "29.970006901563583",
      "longitude": "-90.0666907634754"
    }
  },
  {
    "service_request": "2023-977363",
    "request_type": "Trash/Recycling",
    "request_reason": "MIssed Recycling Pick-Up",
    "date_created": "2023-02-23T17:22:13.000",
    "date_modified": "2023-02-23T17:22:14.000",
    "request_status": "Pending",
    "responsible_agency": "Department of Sanitation",
    "final_address": "1461 N Robertson St",
    "address_councildis": "C",
    "status": "Assigned to Contractor",
    "contractor": "IV Waste",
    "rowid": "977363",
    "final_x": "3681878.51093",
    "final_y": "536801.645128",
    "longitude": "-90.0666907634754",
    "latitude": "29.970006901563583",
    "geocoded_column": {
      "latitude": "29.970006901563583",
      "longitude": "-90.0666907634754"
    }
  },
  {
    "service_request": "2023-977362",
    "request_type": "Trash/Recycling",
    "request_reason": "Missed Trash Pick-Up",
    "date_created": "2023-02-23T17:16:42.000",
    "date_modified": "2023-02-23T17:16:43.000",
    "request_status": "Pending",
    "responsible_agency": "Department of Sanitation",
    "final_address": "2836 Chippewa St",
    "address_councildis": "B",
    "status": "Assigned to Contractor",
    "contractor": "Richards Disposal",
    "rowid": "977362",
    "final_x": "3677643.69474",
    "final_y": "519367.486583",
    "longitude": "-90.08066665906492",
    "latitude": "29.922196800451434",
    "geocoded_column": {
      "latitude": "29.922196800451434",
      "longitude": "-90.08066665906492"
    }
  },
  {
    "service_request": "2023-977361",
    "request_type": "Trash/Recycling",
    "request_reason": "Order Trash Cart",
    "date_created": "2023-02-23T17:14:31.000",
    "date_modified": "2023-02-23T17:14:31.000",
    "request_status": "Pending",
    "responsible_agency": "Department of Sanitation",
    "final_address": "1319 Crescent St",
    "address_councildis": "D",
    "status": "Assigned to Contractor",
    "contractor": "IV Waste",
    "rowid": "977361",
    "final_x": "3677141.22485",
    "final_y": "552451.673622",
    "longitude": "-90.08111146130352",
    "latitude": "30.013182145058206",
    "geocoded_column": {
      "latitude": "30.013182145058206",
      "longitude": "-90.08111146130352"
    }
  },
  {
    "service_request": "2023-977359",
    "request_type": "Trash/Recycling",
    "request_reason": "Illegal Dumping",
    "date_created": "2023-02-23T17:13:14.000",
    "date_modified": "2023-02-23T17:13:14.000",
    "request_status": "Pending",
    "responsible_agency": "Department of Sanitation",
    "final_address": "2331 N Villere St",
    "address_councildis": "C",
    "status": "Pending",
    "rowid": "977359",
    "final_x": "3685932.14601",
    "final_y": "537528.363976",
    "longitude": "-90.05386338138231",
    "latitude": "29.97188129029126",
    "geocoded_column": {
      "latitude": "29.97188129029126",
      "longitude": "-90.05386338138231"
    }
  },
  {
    "service_request": "2023-977358",
    "request_type": "Trash/Recycling",
    "request_reason": "MIssed Recycling Pick-Up",
    "date_created": "2023-02-23T17:03:19.000",
    "date_modified": "2023-02-23T17:03:20.000",
    "request_status": "Pending",
    "responsible_agency": "Department of Sanitation",
    "final_address": "700 Block of Jefferson Ave, New Orleans, Louisiana, 70115",
    "status": "Assigned to Contractor",
    "rowid": "977358",
    "longitude": "0.0",
    "latitude": "0.0",
    "geocoded_column": {
      "latitude": "0.0",
      "longitude": "0.0"
    }
  },
  {
    "service_request": "2023-977357",
    "request_type": "Trash/Recycling",
    "request_reason": "Missed Trash Pick-Up",
    "date_created": "2023-02-23T16:58:57.000",
    "date_modified": "2023-02-23T16:58:58.000",
    "request_status": "Pending",
    "responsible_agency": "Department of Sanitation",
    "final_address": "4627 S Claiborne Ave",
    "address_councildis": "B",
    "status": "Assigned to Contractor",
    "contractor": "Richards Disposal",
    "rowid": "977357",
    "final_x": "3669366.70708",
    "final_y": "525879.283709",
    "longitude": "-90.1065736974965",
    "latitude": "29.94034837190073",
    "geocoded_column": {
      "latitude": "29.94034837190073",
      "longitude": "-90.1065736974965"
    }
  },
  {
    "service_request": "2023-977356",
    "request_type": "Trash/Recycling",
    "request_reason": "Order Recycling Cart",
    "date_created": "2023-02-23T16:57:58.000",
    "date_modified": "2023-02-23T16:58:28.000",
    "request_status": "Pending",
    "responsible_agency": "Department of Sanitation",
    "final_address": "4615 Annette St",
    "address_councildis": "D",
    "status": "Pending",
    "rowid": "977356",
    "final_x": "3682111.43023",
    "final_y": "549555.031635",
    "longitude": "-90.06550954015076",
    "latitude": "30.005067139102298",
    "geocoded_column": {
      "latitude": "30.005067139102298",
      "longitude": "-90.06550954015076"
    }
  },
  {
    "service_request": "2023-977355",
    "request_type": "Trash/Recycling",
    "request_reason": "Request a Large Item Pick Up",
    "date_created": "2023-02-23T16:54:16.000",
    "date_modified": "2023-02-23T16:54:17.000",
    "request_status": "Pending",
    "responsible_agency": "Department of Sanitation",
    "final_address": "406 Pacific Ave",
    "address_councildis": "C",
    "status": "Assigned to Contractor",
    "contractor": "Richards Disposal",
    "rowid": "977355",
    "final_x": "3688567.99868",
    "final_y": "530233.254273",
    "longitude": "-90.04579784578416",
    "latitude": "29.951741081091583",
    "geocoded_column": {
      "latitude": "29.951741081091583",
      "longitude": "-90.04579784578416"
    }
  },
  {
    "service_request": "2023-977354",
    "request_type": "Traffic Signals/Signs/Striping/Streetlights",
    "request_reason": "Street Light Outage/Malfunction",
    "date_created": "2023-02-23T16:53:34.000",
    "date_modified": "2023-02-23T16:55:10.000",
    "request_status": "Pending",
    "responsible_agency": "Department of Public Works",
    "final_address": "PERLITA ST & OWENS BLVD",
    "address_councildis": "D",
    "status": "Assigned to Contractor",
    "contractor": "Legacy Professional Services",
    "rowid": "977354",
    "final_x": "3678761.3",
    "final_y": "549019.48",
    "longitude": "-90.07611186761319",
    "latitude": "30.003696060746037",
    "geocoded_column": {
      "latitude": "30.003696060746037",
      "longitude": "-90.07611186761319"
    }
  },
  {
    "service_request": "2023-977353",
    "request_type": "Trash/Recycling",
    "request_reason": "Missed Trash Pick-Up",
    "date_created": "2023-02-23T16:52:14.000",
    "date_modified": "2023-02-23T16:52:15.000",
    "request_status": "Pending",
    "responsible_agency": "Department of Sanitation",
    "final_address": "2530 Cadiz St",
    "address_councildis": "B",
    "status": "Assigned to Contractor",
    "contractor": "Richards Disposal",
    "rowid": "977353",
    "final_x": "3669715.21774",
    "final_y": "524222.201276",
    "longitude": "-90.10552944930284",
    "latitude": "29.935781665899484",
    "geocoded_column": {
      "latitude": "29.935781665899484",
      "longitude": "-90.10552944930284"
    }
  },
  {
    "service_request": "2023-977352",
    "request_type": "Trash/Recycling",
    "request_reason": "Order Recycling Cart",
    "date_created": "2023-02-23T16:52:03.000",
    "date_modified": "2023-02-23T16:52:03.000",
    "request_status": "Pending",
    "responsible_agency": "Department of Sanitation",
    "final_address": "2002 Palmer Ave",
    "address_councildis": "A",
    "status": "Pending",
    "rowid": "977352",
    "final_x": "3665759.64474",
    "final_y": "524384.020156",
    "longitude": "-90.11801188906159",
    "latitude": "29.936342568984905",
    "geocoded_column": {
      "latitude": "29.936342568984905",
      "longitude": "-90.11801188906159"
    }
  },
  {
    "service_request": "2023-977351",
    "request_type": "Trash/Recycling",
    "request_reason": "Request a Large Item Pick Up",
    "date_created": "2023-02-23T16:50:44.000",
    "date_modified": "2023-02-23T16:50:45.000",
    "request_status": "Pending",
    "responsible_agency": "Department of Sanitation",
    "final_address": "2546 St Nick Dr",
    "address_councildis": "C",
    "status": "Assigned to Contractor",
    "contractor": "Richards Disposal",
    "rowid": "977351",
    "final_x": "3699410.35805",
    "final_y": "521734.639418",
    "longitude": "-90.01187255386237",
    "latitude": "29.92803340349947",
    "geocoded_column": {
      "latitude": "29.92803340349947",
      "longitude": "-90.01187255386237"
    }
  },
  {
    "service_request": "2023-977350",
    "request_type": "Trash/Recycling",
    "request_reason": "Repair Trash Cart",
    "date_created": "2023-02-23T16:50:33.000",
    "date_modified": "2023-02-23T16:50:34.000",
    "request_status": "Pending",
    "responsible_agency": "Department of Sanitation",
    "final_address": "1344 Farragut St",
    "address_councildis": "C",
    "status": "Assigned to Contractor",
    "contractor": "Richards Disposal",
    "rowid": "977350",
    "final_x": "3692406.36982",
    "final_y": "526224.54675",
    "longitude": "-90.03382170785588",
    "latitude": "29.940599365755567",
    "geocoded_column": {
      "latitude": "29.940599365755567",
      "longitude": "-90.03382170785588"
    }
  },
  {
    "service_request": "2023-977349",
    "request_type": "Traffic Signals/Signs/Striping/Streetlights",
    "request_reason": "Traffic Sign Missing/Damaged",
    "date_created": "2023-02-23T16:47:43.000",
    "date_modified": "2023-02-23T16:47:43.000",
    "request_status": "Pending",
    "responsible_agency": "Department of Public Works",
    "final_address": "COMMERCE ST & LAFAYETTE ST",
    "address_councildis": "B",
    "status": "Pending",
    "rowid": "977349",
    "final_x": "3682017.0",
    "final_y": "528582.78",
    "longitude": "-90.06654036005447",
    "latitude": "29.947403613006745",
    "geocoded_column": {
      "latitude": "29.947403613006745",
      "longitude": "-90.06654036005447"
    }
  },
  {
    "service_request": "2023-977348",
    "request_type": "Traffic Signals/Signs/Striping/Streetlights",
    "request_reason": "Traffic Sign Missing/Damaged",
    "date_created": "2023-02-23T16:47:26.000",
    "date_modified": "2023-02-23T16:47:27.000",
    "request_status": "Pending",
    "responsible_agency": "Department of Public Works",
    "final_address": "COMMERCE ST & GIROD ST",
    "address_councildis": "B",
    "status": "Pending",
    "rowid": "977348",
    "final_x": "3682002.2",
    "final_y": "528186.58",
    "longitude": "-90.0666009186683",
    "latitude": "29.946314646117408",
    "geocoded_column": {
      "latitude": "29.946314646117408",
      "longitude": "-90.0666009186683"
    }
  },
  {
    "service_request": "2023-977347",
    "request_type": "Trash/Recycling",
    "request_reason": "Missed Trash Pick-Up",
    "date_created": "2023-02-23T16:42:13.000",
    "date_modified": "2023-02-23T16:42:14.000",
    "request_status": "Pending",
    "responsible_agency": "Department of Sanitation",
    "final_address": "519 Philip St",
    "address_councildis": "B",
    "status": "Assigned to Contractor",
    "contractor": "Richards Disposal",
    "rowid": "977347",
    "final_x": "3679832.93039",
    "final_y": "520220.232952",
    "longitude": "-90.0737265581521",
    "latitude": "29.9244755846313",
    "geocoded_column": {
      "latitude": "29.9244755846313",
      "longitude": "-90.0737265581521"
    }
  },
  {
    "service_request": "2023-977346",
    "request_type": "Trash/Recycling",
    "request_reason": "Request a Large Item Pick Up",
    "date_created": "2023-02-23T16:40:54.000",
    "date_modified": "2023-02-23T16:45:28.000",
    "request_status": "Pending",
    "responsible_agency": "Department of Sanitation",
    "final_address": "530 Madison St",
    "address_councildis": "C",
    "status": "Assigned to Contractor",
    "contractor": "Empire Services",
    "rowid": "977346",
    "final_x": "3683282.74063",
    "final_y": "532586.035012",
    "longitude": "-90.06240373930018",
    "latitude": "29.95837266676027",
    "geocoded_column": {
      "latitude": "29.95837266676027",
      "longitude": "-90.06240373930018"
    }
  },
  {
    "service_request": "2023-977345",
    "request_type": "Traffic Signals/Signs/Striping/Streetlights",
    "request_reason": "Additional signage",
    "date_created": "2023-02-23T16:34:46.000",
    "date_modified": "2023-02-23T16:34:47.000",
    "request_status": "Pending",
    "responsible_agency": "Department of Public Works",
    "final_address": "LOUISIANA AVE & S SARATOGA ST",
    "address_councildis": "B",
    "status": "Pending",
    "rowid": "977345",
    "final_x": "3673466.8",
    "final_y": "523186.48",
    "longitude": "-90.09372099646559",
    "latitude": "29.932822700214924",
    "geocoded_column": {
      "latitude": "29.932822700214924",
      "longitude": "-90.09372099646559"
    }
  },
  {
    "service_request": "2023-977344",
    "request_type": "Trash/Recycling",
    "request_reason": "Dead Animal Pick Up",
    "date_created": "2023-02-23T16:32:07.000",
    "date_modified": "2023-02-23T16:32:07.000",
    "request_status": "Pending",
    "responsible_agency": "Department of Sanitation",
    "final_address": "1200 St Roch Ave",
    "address_councildis": "C",
    "status": "Assigned to Contractor",
    "contractor": "IV Waste",
    "rowid": "977344",
    "final_x": "3686369.9174",
    "final_y": "536818.21812",
    "longitude": "-90.05250590260395",
    "latitude": "29.969915188900192",
    "geocoded_column": {
      "latitude": "29.969915188900192",
      "longitude": "-90.05250590260395"
    }
  },
  {
    "service_request": "2023-977343",
    "request_type": "Trash/Recycling",
    "request_reason": "Order Recycling Cart",
    "date_created": "2023-02-23T16:26:01.000",
    "date_modified": "2023-02-23T16:26:02.000",
    "request_status": "Pending",
    "responsible_agency": "Department of Sanitation",
    "final_address": "2351 Jay St",
    "address_councildis": "D",
    "status": "Pending",
    "rowid": "977343",
    "final_x": "3684503.77781",
    "final_y": "557407.808283",
    "longitude": "-90.05767543387329",
    "latitude": "30.026586397905866",
    "geocoded_column": {
      "latitude": "30.026586397905866",
      "longitude": "-90.05767543387329"
    }
  },
  {
    "service_request": "2023-977342",
    "request_type": "Trash/Recycling",
    "request_reason": "Order Trash Cart",
    "date_created": "2023-02-23T16:25:16.000",
    "date_modified": "2023-02-23T16:25:17.000",
    "request_status": "Pending",
    "responsible_agency": "Department of Sanitation",
    "final_address": "2231 Desire St",
    "address_councildis": "D",
    "status": "Assigned to Contractor",
    "contractor": "IV Waste",
    "rowid": "977342",
    "final_x": "3691315.64348",
    "final_y": "540072.844299",
    "longitude": "-90.03677057784869",
    "latitude": "29.978711318651285",
    "geocoded_column": {
      "latitude": "29.978711318651285",
      "longitude": "-90.03677057784869"
    }
  },
  {
    "service_request": "2023-977341",
    "request_type": "Trash/Recycling",
    "request_reason": "Missed Trash Pick-Up",
    "date_created": "2023-02-23T16:21:01.000",
    "date_modified": "2023-02-23T16:21:02.000",
    "request_status": "Pending",
    "responsible_agency": "Department of Sanitation",
    "final_address": "11288 Waverly Dr",
    "address_councildis": "E",
    "status": "Assigned to Contractor",
    "contractor": "Waste Pro",
    "rowid": "977341",
    "final_x": "3717766.09522",
    "final_y": "560317.136861",
    "longitude": "-89.95246062540947",
    "latitude": "30.033525729243692",
    "geocoded_column": {
      "latitude": "30.033525729243692",
      "longitude": "-89.95246062540947"
    }
  },
  {
    "service_request": "2023-977340",
    "request_type": "Trash/Recycling",
    "request_reason": "Order Recycling Cart",
    "date_created": "2023-02-23T16:20:32.000",
    "date_modified": "2023-02-23T16:20:32.000",
    "request_status": "Pending",
    "responsible_agency": "Department of Sanitation",
    "final_address": "3421 Cecil St",
    "address_councildis": "A",
    "status": "Pending",
    "rowid": "977340",
    "final_x": "3663430.14541",
    "final_y": "537906.953225",
    "longitude": "-90.12491599220616",
    "latitude": "29.973593983445653",
    "geocoded_column": {
      "latitude": "29.973593983445653",
      "longitude": "-90.12491599220616"
    }
  },
  {
    "service_request": "2023-977339",
    "request_type": "Trash/Recycling",
    "request_reason": "Request a Large Item Pick Up",
    "date_created": "2023-02-23T16:19:53.000",
    "date_modified": "2023-02-23T16:19:54.000",
    "request_status": "Pending",
    "responsible_agency": "Department of Sanitation",
    "final_address": "7816 Dogwood Dr",
    "address_councildis": "E",
    "status": "Assigned to Contractor",
    "contractor": "Waste Pro",
    "rowid": "977339",
    "final_x": "3700991.10212",
    "final_y": "561568.729695",
    "longitude": "-90.00542526823533",
    "latitude": "30.037512312023086",
    "geocoded_column": {
      "latitude": "30.037512312023086",
      "longitude": "-90.00542526823533"
    }
  },
  {
    "service_request": "2023-977338",
    "request_type": "Trash/Recycling",
    "request_reason": "MIssed Recycling Pick-Up",
    "date_created": "2023-02-23T16:18:07.000",
    "date_modified": "2023-02-23T16:18:08.000",
    "request_status": "Pending",
    "responsible_agency": "Department of Sanitation",
    "final_address": "13132 Wales St",
    "address_councildis": "E",
    "status": "Assigned to Contractor",
    "contractor": "Waste Pro",
    "rowid": "977338",
    "final_x": "3716150.53087",
    "final_y": "570805.678887",
    "longitude": "-89.95716785516677",
    "latitude": "30.062418370215706",
    "geocoded_column": {
      "latitude": "30.062418370215706",
      "longitude": "-89.95716785516677"
    }
  },
  {
    "service_request": "2023-977337",
    "request_type": "Trash/Recycling",
    "request_reason": "Order Trash Cart",
    "date_created": "2023-02-23T16:16:51.000",
    "date_modified": "2023-02-23T16:16:51.000",
    "request_status": "Pending",
    "responsible_agency": "Department of Sanitation",
    "final_address": "7816 Dogwood Dr",
    "address_councildis": "E",
    "status": "Assigned to Contractor",
    "contractor": "Waste Pro",
    "rowid": "977337",
    "final_x": "3700991.10212",
    "final_y": "561568.729695",
    "longitude": "-90.00542526823533",
    "latitude": "30.037512312023086",
    "geocoded_column": {
      "latitude": "30.037512312023086",
      "longitude": "-90.00542526823533"
    }
  },
  {
    "service_request": "2023-977336",
    "request_type": "Roads/Drainage",
    "request_reason": "Catch Basin - Broken/Damage",
    "date_created": "2023-02-23T16:16:20.000",
    "date_modified": "2023-02-23T16:16:20.000",
    "request_status": "Pending",
    "responsible_agency": "Department of Public Works",
    "final_address": "2824 Carondelet St",
    "address_councildis": "B",
    "status": "Pending",
    "rowid": "977336",
    "final_x": "3675535.22741",
    "final_y": "522704.100602",
    "longitude": "-90.08720768501283",
    "latitude": "29.93143462232989",
    "geocoded_column": {
      "latitude": "29.93143462232989",
      "longitude": "-90.08720768501283"
    }
  },
  {
    "service_request": "2023-977335",
    "request_type": "Trash/Recycling",
    "request_reason": "Missed Trash Pick-Up",
    "date_created": "2023-02-23T16:15:45.000",
    "date_modified": "2023-02-23T16:15:45.000",
    "request_status": "Pending",
    "responsible_agency": "Department of Sanitation",
    "final_address": "11225 Notaway Ln",
    "address_councildis": "E",
    "status": "Assigned to Contractor",
    "contractor": "Waste Pro",
    "rowid": "977335",
    "final_x": "3717672.26117",
    "final_y": "559405.531677",
    "longitude": "-89.95279185602746",
    "latitude": "30.03102229102986",
    "geocoded_column": {
      "latitude": "30.03102229102986",
      "longitude": "-89.95279185602746"
    }
  },
  {
    "service_request": "2023-977334",
    "request_type": "Traffic Signals/Signs/Striping/Streetlights",
    "request_reason": "Disabled Parking Sign ",
    "date_created": "2023-02-23T16:14:14.000",
    "date_modified": "2023-02-23T16:14:14.000",
    "request_status": "Pending",
    "responsible_agency": "Department of Public Works",
    "final_address": "2208 Ursulines Ave",
    "address_councildis": "D",
    "status": "Pending",
    "rowid": "977334",
    "final_x": "3679149.46914",
    "final_y": "536892.839304",
    "longitude": "-90.07530618612296",
    "latitude": "29.970340322495765",
    "geocoded_column": {
      "latitude": "29.970340322495765",
      "longitude": "-90.07530618612296"
    }
  },
  {
    "service_request": "2023-977333",
    "request_type": "Trash/Recycling",
    "request_reason": "Missed Trash Pick-Up",
    "date_created": "2023-02-23T16:14:09.000",
    "date_modified": "2023-02-23T16:14:10.000",
    "request_status": "Pending",
    "responsible_agency": "Department of Sanitation",
    "final_address": "520 N Salcedo St",
    "address_councildis": "A",
    "status": "Assigned to Contractor",
    "contractor": "Richards Disposal",
    "rowid": "977333",
    "final_x": "3675129.11259",
    "final_y": "537389.872264",
    "longitude": "-90.08798586862079",
    "latitude": "29.971827751089823",
    "geocoded_column": {
      "latitude": "29.971827751089823",
      "longitude": "-90.08798586862079"
    }
  },
  {
    "service_request": "2023-977332",
    "request_type": "Roads/Drainage",
    "request_reason": "Damaged Sidewalk",
    "date_created": "2023-02-23T16:11:33.000",
    "date_modified": "2023-02-23T16:11:33.000",
    "request_status": "Pending",
    "responsible_agency": "Department of Public Works",
    "final_address": "2824 Carondelet St",
    "address_councildis": "B",
    "status": "Pending",
    "rowid": "977332",
    "final_x": "3675535.22741",
    "final_y": "522704.100602",
    "longitude": "-90.08720768501283",
    "latitude": "29.93143462232989",
    "geocoded_column": {
      "latitude": "29.93143462232989",
      "longitude": "-90.08720768501283"
    }
  },
  {
    "service_request": "2023-977331",
    "request_type": "Trash/Recycling",
    "request_reason": "Missed Trash Pick-Up",
    "date_created": "2023-02-23T16:11:09.000",
    "date_modified": "2023-02-23T16:11:10.000",
    "request_status": "Pending",
    "responsible_agency": "Department of Sanitation",
    "final_address": "919 Toledano St",
    "address_councildis": "B",
    "status": "Assigned to Contractor",
    "contractor": "Richards Disposal",
    "rowid": "977331",
    "final_x": "3675650.7595",
    "final_y": "519274.000439",
    "longitude": "-90.08696074843645",
    "latitude": "29.921999501387756",
    "geocoded_column": {
      "latitude": "29.921999501387756",
      "longitude": "-90.08696074843645"
    }
  },
  {
    "service_request": "2023-977330",
    "request_type": "Trash/Recycling",
    "request_reason": "Missed Trash Pick-Up",
    "date_created": "2023-02-23T16:08:34.000",
    "date_modified": "2023-02-23T16:08:36.000",
    "request_status": "Pending",
    "responsible_agency": "Department of Sanitation",
    "final_address": "612 Moss St",
    "address_councildis": "A",
    "status": "Assigned to Contractor",
    "contractor": "Richards Disposal",
    "rowid": "977330",
    "final_x": "3674346.33147",
    "final_y": "538326.226953",
    "longitude": "-90.09042594106351",
    "latitude": "29.974425777838345",
    "geocoded_column": {
      "latitude": "29.974425777838345",
      "longitude": "-90.09042594106351"
    }
  },
  {
    "service_request": "2023-977329",
    "request_type": "Trash/Recycling",
    "request_reason": "Missed Trash Pick-Up",
    "date_created": "2023-02-23T16:08:21.000",
    "date_modified": "2023-02-23T16:08:22.000",
    "request_status": "Pending",
    "responsible_agency": "Department of Sanitation",
    "final_address": "1629 Conery St",
    "address_councildis": "B",
    "status": "Assigned to Contractor",
    "contractor": "Richards Disposal",
    "rowid": "977329",
    "final_x": "3675549.34075",
    "final_y": "522667.935994",
    "longitude": "-90.08716437249724",
    "latitude": "29.931334759374074",
    "geocoded_column": {
      "latitude": "29.931334759374074",
      "longitude": "-90.08716437249724"
    }
  },
  {
    "service_request": "2023-977328",
    "request_type": "Roads/Drainage",
    "request_reason": "Pothole",
    "date_created": "2023-02-23T16:05:56.000",
    "date_modified": "2023-02-23T16:05:56.000",
    "request_status": "Pending",
    "responsible_agency": "Department of Public Works",
    "final_address": "5400 Atlanta St",
    "address_councildis": "A",
    "status": "Pending",
    "rowid": "977328",
    "final_x": "3667073.59617",
    "final_y": "520838.454585",
    "longitude": "-90.11398280058988",
    "latitude": "29.92655500649478",
    "geocoded_column": {
      "latitude": "29.92655500649478",
      "longitude": "-90.11398280058988"
    }
  },
  {
    "service_request": "2023-977327",
    "request_type": "Trash/Recycling",
    "request_reason": "Missed Trash Pick-Up",
    "date_created": "2023-02-23T16:03:41.000",
    "date_modified": "2023-02-23T16:04:02.000",
    "request_status": "Pending",
    "responsible_agency": "Department of Sanitation",
    "final_address": "3131 Music St",
    "address_councildis": "D",
    "status": "Assigned to Contractor",
    "contractor": "IV Waste",
    "rowid": "977327",
    "final_x": "3686260.84975",
    "final_y": "544451.410703",
    "longitude": "-90.05258090163987",
    "latitude": "29.990907126454264",
    "geocoded_column": {
      "latitude": "29.990907126454264",
      "longitude": "-90.05258090163987"
    }
  },
  {
    "service_request": "2023-977326",
    "request_type": "Trash/Recycling",
    "request_reason": "Order Recycling Cart",
    "date_created": "2023-02-23T16:02:21.000",
    "date_modified": "2023-02-23T16:02:52.000",
    "request_status": "Pending",
    "responsible_agency": "Department of Sanitation",
    "final_address": "3172 State Street Dr",
    "address_councildis": "A",
    "status": "Pending",
    "rowid": "977326",
    "final_x": "3667563.44583",
    "final_y": "528191.412864",
    "longitude": "-90.11218910768685",
    "latitude": "29.94675894216266",
    "geocoded_column": {
      "latitude": "29.94675894216266",
      "longitude": "-90.11218910768685"
    }
  },
  {
    "service_request": "2023-977325",
    "request_type": "Trash/Recycling",
    "request_reason": "MIssed Recycling Pick-Up",
    "date_created": "2023-02-23T16:02:17.000",
    "date_modified": "2023-02-23T16:02:51.000",
    "request_status": "Pending",
    "responsible_agency": "Department of Sanitation",
    "final_address": "5826 Clara St",
    "address_councildis": "A",
    "status": "Assigned to Contractor",
    "contractor": "Richards Disposal",
    "rowid": "977325",
    "final_x": "3666914.57978",
    "final_y": "525225.735933",
    "longitude": "-90.11433743670578",
    "latitude": "29.938623284611396",
    "geocoded_column": {
      "latitude": "29.938623284611396",
      "longitude": "-90.11433743670578"
    }
  },
  {
    "service_request": "2023-977324",
    "request_type": "Trash/Recycling",
    "request_reason": "Missed Trash Pick-Up",
    "date_created": "2023-02-23T16:00:29.000",
    "date_modified": "2023-02-23T16:00:40.000",
    "request_status": "Pending",
    "responsible_agency": "Department of Sanitation",
    "final_address": "2623 Baronne St",
    "address_councildis": "B",
    "status": "Assigned to Contractor",
    "contractor": "Richards Disposal",
    "rowid": "977324",
    "final_x": "3675835.21985",
    "final_y": "523410.652283",
    "longitude": "-90.08623636823869",
    "latitude": "29.933368435130255",
    "geocoded_column": {
      "latitude": "29.933368435130255",
      "longitude": "-90.08623636823869"
    }
  },
  {
    "service_request": "2023-977323",
    "request_type": "Trash/Recycling",
    "request_reason": "Replace Trash Cart",
    "date_created": "2023-02-23T15:57:17.000",
    "date_modified": "2023-02-23T15:57:20.000",
    "request_status": "Pending",
    "responsible_agency": "Department of Sanitation",
    "final_address": "7823 Pearl St",
    "address_councildis": "A",
    "status": "Assigned to Contractor",
    "contractor": "Richards Disposal",
    "rowid": "977323",
    "final_x": "3661026.6352",
    "final_y": "525960.926077",
    "longitude": "-90.13290208595694",
    "latitude": "29.940815747174188",
    "geocoded_column": {
      "latitude": "29.940815747174188",
      "longitude": "-90.13290208595694"
    }
  },
  {
    "service_request": "2023-977322",
    "request_type": "Property Maintenance",
    "request_reason": "Property Maintenance",
    "date_created": "2023-02-23T15:51:28.000",
    "date_modified": "2023-02-23T15:51:28.000",
    "request_status": "Pending",
    "responsible_agency": "Department of Code Enforcement",
    "final_address": "6951 Coventry St",
    "address_councildis": "E",
    "status": "Pending",
    "rowid": "977322",
    "final_x": "3699073.77117",
    "final_y": "559861.865053",
    "longitude": "-90.01154667496932",
    "latitude": "30.032880052228247",
    "geocoded_column": {
      "latitude": "30.032880052228247",
      "longitude": "-90.01154667496932"
    }
  },
  {
    "service_request": "2023-977321",
    "request_type": "Property Maintenance",
    "request_reason": "Property Maintenance",
    "date_created": "2023-02-23T15:40:29.000",
    "date_modified": "2023-02-23T15:40:29.000",
    "request_status": "Pending",
    "responsible_agency": "Department of Code Enforcement",
    "final_address": "3746 Somerset Dr",
    "address_councildis": "C",
    "status": "Pending",
    "rowid": "977321",
    "final_x": "3702461.68516",
    "final_y": "516687.182709",
    "longitude": "-90.00242535290029",
    "latitude": "29.91405752232244",
    "geocoded_column": {
      "latitude": "29.91405752232244",
      "longitude": "-90.00242535290029"
    }
  },
  {
    "service_request": "2023-977320",
    "request_type": "Trash/Recycling",
    "request_reason": "Missed Trash Pick-Up",
    "date_created": "2023-02-23T15:37:49.000",
    "date_modified": "2023-02-23T15:37:50.000",
    "request_status": "Pending",
    "responsible_agency": "Department of Sanitation",
    "final_address": "4218 S Liberty St",
    "address_councildis": "B",
    "status": "Assigned to Contractor",
    "contractor": "Richards Disposal",
    "rowid": "977320",
    "final_x": "3671185.93729",
    "final_y": "523358.597755",
    "longitude": "-90.1009156767612",
    "latitude": "29.933363620293107",
    "geocoded_column": {
      "latitude": "29.933363620293107",
      "longitude": "-90.1009156767612"
    }
  },
  {
    "service_request": "2023-977319",
    "request_type": "Trash/Recycling",
    "request_reason": "Repair Trash Cart",
    "date_created": "2023-02-23T15:36:26.000",
    "date_modified": "2023-02-23T15:36:27.000",
    "request_status": "Pending",
    "responsible_agency": "Department of Sanitation",
    "final_address": "4218 S Liberty St",
    "address_councildis": "B",
    "status": "Assigned to Contractor",
    "contractor": "Richards Disposal",
    "rowid": "977319",
    "final_x": "3671185.93729",
    "final_y": "523358.597755",
    "longitude": "-90.1009156767612",
    "latitude": "29.933363620293107",
    "geocoded_column": {
      "latitude": "29.933363620293107",
      "longitude": "-90.1009156767612"
    }
  },
  {
    "service_request": "2023-977317",
    "request_type": "Roads/Drainage",
    "request_reason": "Pothole",
    "date_created": "2023-02-23T15:32:02.000",
    "date_modified": "2023-02-23T15:32:02.000",
    "request_status": "Pending",
    "responsible_agency": "Department of Public Works",
    "final_address": "1712 Valmont St",
    "address_councildis": "B",
    "status": "Pending",
    "rowid": "977317",
    "final_x": "3667865.39361",
    "final_y": "521961.61721",
    "longitude": "-90.11144549752316",
    "latitude": "29.92962015454138",
    "geocoded_column": {
      "latitude": "29.92962015454138",
      "longitude": "-90.11144549752316"
    }
  },
  {
    "service_request": "2023-977316",
    "request_type": "Trash/Recycling",
    "request_reason": "Request a Large Item Pick Up",
    "date_created": "2023-02-23T15:30:45.000",
    "date_modified": "2023-02-23T15:30:46.000",
    "request_status": "Pending",
    "responsible_agency": "Department of Sanitation",
    "final_address": "1816 Benefit St",
    "address_councildis": "D",
    "status": "Assigned to Contractor",
    "contractor": "IV Waste",
    "rowid": "977316",
    "final_x": "3681538.69314",
    "final_y": "544150.024974",
    "longitude": "-90.067507571057",
    "latitude": "29.990222707410656",
    "geocoded_column": {
      "latitude": "29.990222707410656",
      "longitude": "-90.067507571057"
    }
  },
  {
    "service_request": "2023-977315",
    "request_type": "Trash/Recycling",
    "request_reason": "Repair Trash Cart",
    "date_created": "2023-02-23T15:28:12.000",
    "date_modified": "2023-02-23T15:28:36.000",
    "request_status": "Pending",
    "responsible_agency": "Department of Sanitation",
    "final_address": "836 Louisiana Ave",
    "address_councildis": "B",
    "status": "Assigned to Contractor",
    "contractor": "Richards Disposal",
    "rowid": "977315",
    "final_x": "3675286.56667",
    "final_y": "518852.188855",
    "longitude": "-90.08812482324069",
    "latitude": "29.920850542789413",
    "geocoded_column": {
      "latitude": "29.920850542789413",
      "longitude": "-90.08812482324069"
    }
  },
  {
    "service_request": "2023-977314",
    "request_type": "Trash/Recycling",
    "request_reason": "Replace Trash Cart",
    "date_created": "2023-02-23T15:27:38.000",
    "date_modified": "2023-02-23T18:04:15.000",
    "case_close_date": "2023-02-23T12:04:15.000",
    "request_status": "Closed",
    "responsible_agency": "Department of Sanitation",
    "final_address": "2 Morrison Ct",
    "address_councildis": "E",
    "status": "Duplicate Request",
    "contractor": "Waste Pro",
    "rowid": "977314",
    "final_x": "3704139.93316",
    "final_y": "561188.095198",
    "longitude": "-89.9954883375005",
    "latitude": "30.036365002450303",
    "geocoded_column": {
      "latitude": "30.036365002450303",
      "longitude": "-89.9954883375005"
    }
  },
  {
    "service_request": "2023-977313",
    "request_type": "Parks & Parkways",
    "request_reason": "Request Tree Service (Right of Way/Public Property)",
    "date_created": "2023-02-23T15:23:06.000",
    "date_modified": "2023-02-23T15:23:06.000",
    "request_status": "Pending",
    "responsible_agency": "Department of Parks & Parkway",
    "final_address": "836 Louisiana Ave",
    "address_councildis": "B",
    "status": "Pending",
    "rowid": "977313",
    "final_x": "3675286.56667",
    "final_y": "518852.188855",
    "longitude": "-90.08812482324069",
    "latitude": "29.920850542789413",
    "geocoded_column": {
      "latitude": "29.920850542789413",
      "longitude": "-90.08812482324069"
    }
  },
  {
    "service_request": "2023-977312",
    "request_type": "Abandoned Vehicles",
    "request_reason": "Abandoned/Junk Vehicles",
    "date_created": "2023-02-23T15:21:27.000",
    "date_modified": "2023-02-23T15:21:27.000",
    "request_status": "Pending",
    "responsible_agency": "Department of Public Works",
    "final_address": "3117 N Villere St",
    "address_councildis": "C",
    "status": "Pending",
    "rowid": "977312",
    "final_x": "3689429.97321",
    "final_y": "537103.568072",
    "longitude": "-90.04283183289137",
    "latitude": "29.97060539285459",
    "geocoded_column": {
      "latitude": "29.97060539285459",
      "longitude": "-90.04283183289137"
    }
  },
  {
    "service_request": "2023-977311",
    "request_type": "Abandoned Vehicles",
    "request_reason": "Abandoned/Junk Vehicles",
    "date_created": "2023-02-23T15:17:13.000",
    "date_modified": "2023-02-23T15:17:13.000",
    "request_status": "Pending",
    "responsible_agency": "Department of Public Works",
    "final_address": "1701 Painters St",
    "address_councildis": "D",
    "status": "Pending",
    "rowid": "977311",
    "final_x": "3687414.21033",
    "final_y": "538754.220617",
    "longitude": "-90.04913941019517",
    "latitude": "29.97520637824742",
    "geocoded_column": {
      "latitude": "29.97520637824742",
      "longitude": "-90.04913941019517"
    }
  },
  {
    "service_request": "2023-977310",
    "request_type": "Trash/Recycling",
    "request_reason": "Replace Trash Cart",
    "date_created": "2023-02-23T15:16:26.000",
    "date_modified": "2023-02-23T15:16:26.000",
    "request_status": "Pending",
    "responsible_agency": "Department of Sanitation",
    "final_address": "2 Morrison Ct",
    "address_councildis": "E",
    "status": "Assigned to Contractor",
    "contractor": "Waste Pro",
    "rowid": "977310",
    "final_x": "3704139.93316",
    "final_y": "561188.095198",
    "longitude": "-89.9954883375005",
    "latitude": "30.036365002450303",
    "geocoded_column": {
      "latitude": "30.036365002450303",
      "longitude": "-89.9954883375005"
    }
  },
  {
    "service_request": "2023-977309",
    "request_type": "Trash/Recycling",
    "request_reason": "Missed Trash Pick-Up",
    "date_created": "2023-02-23T15:15:17.000",
    "date_modified": "2023-02-23T15:15:18.000",
    "request_status": "Pending",
    "responsible_agency": "Department of Sanitation",
    "final_address": "620 Soraparu St",
    "address_councildis": "B",
    "status": "Assigned to Contractor",
    "contractor": "Richards Disposal",
    "rowid": "977309",
    "final_x": "3679239.42933",
    "final_y": "520277.98508",
    "longitude": "-90.0755980373529",
    "latitude": "29.924652310462665",
    "geocoded_column": {
      "latitude": "29.924652310462665",
      "longitude": "-90.0755980373529"
    }
  },
  {
    "service_request": "2023-977308",
    "request_type": "Trash/Recycling",
    "request_reason": "Missed Trash Pick-Up",
    "date_created": "2023-02-23T15:13:28.000",
    "date_modified": "2023-02-23T15:50:36.000",
    "case_close_date": "2023-02-23T09:50:36.000",
    "request_status": "Closed",
    "responsible_agency": "Department of Sanitation",
    "final_address": "4858 Bundy Rd",
    "address_councildis": "E",
    "status": "Assigned to Contractor",
    "contractor": "Waste Pro",
    "contractor_action": "Completed",
    "rowid": "977308",
    "final_x": "3709179.55723",
    "final_y": "556541.638746",
    "longitude": "-89.97973572384791",
    "latitude": "30.02342632402837",
    "geocoded_column": {
      "latitude": "30.02342632402837",
      "longitude": "-89.97973572384791"
    }
  },
  {
    "service_request": "2023-977307",
    "request_type": "Trash/Recycling",
    "request_reason": "Request a Large Item Pick Up",
    "date_created": "2023-02-23T15:13:02.000",
    "date_modified": "2023-02-23T15:13:03.000",
    "request_status": "Pending",
    "responsible_agency": "Department of Sanitation",
    "final_address": "1224 Delachaise Street New Orleans LA 70115",
    "address_councildis": "B",
    "status": "Assigned to Contractor",
    "contractor": "Richards Disposal",
    "rowid": "977307",
    "final_x": "3674419.43361",
    "final_y": "519961.707832",
    "longitude": "-90.09082399374616",
    "latitude": "29.92392724641998",
    "geocoded_column": {
      "latitude": "29.92392724641998",
      "longitude": "-90.09082399374616"
    }
  },
  {
    "service_request": "2023-977306",
    "request_type": "Trash/Recycling",
    "request_reason": "Repair Trash Cart",
    "date_created": "2023-02-23T15:10:26.000",
    "date_modified": "2023-02-23T15:10:27.000",
    "request_status": "Pending",
    "responsible_agency": "Department of Sanitation",
    "final_address": "812 N Solomon St",
    "address_councildis": "A",
    "status": "Assigned to Contractor",
    "contractor": "Richards Disposal",
    "rowid": "977306",
    "final_x": "3672294.82292",
    "final_y": "540871.411339",
    "longitude": "-90.09681836466495",
    "latitude": "29.98148519732726",
    "geocoded_column": {
      "latitude": "29.98148519732726",
      "longitude": "-90.09681836466495"
    }
  },