[
  {
    "service_request": "2023-1032785",
    "request_type": "Health Related Request",
    "request_reason": "Noise Ordinance Complaint",
    "date_created": "2023-09-07T02:08:15.000",
    "date_modified": "2023-09-07T02:08:15.000",
    "request_status": "Pending",
    "responsible_agency": "Health Department",
    "final_address": "1775 Joseph Guillaume Pl",
    "address_councildis": "C",
    "status": "Pending",
    "rowid": "1032785",
    "final_x": "3683462.43785",
    "final_y": "536121.270855",
    "longitude": "-90.06171241725919",
    "latitude": "29.96808786850646",
    "geocoded_column": {
      "latitude": "29.96808786850646",
      "longitude": "-90.06171241725919"
    }
  },
  {
    "service_request": "2023-1032784",
    "request_type": "Trash/Recycling",
    "request_reason": "MIssed Recycling Pick-Up",
    "date_created": "2023-09-07T02:00:05.000",
    "date_modified": "2023-09-07T02:00:06.000",
    "request_status": "Pending",
    "responsible_agency": "Department of Sanitation",
    "final_address": "1802 Upperline St",
    "address_councildis": "B",
    "status": "Assigned to Contractor",
    "contractor": "Richards Disposal",
    "rowid": "1032784",
    "final_x": "3669001.53889",
    "final_y": "521486.759737",
    "longitude": "-90.10787491089187",
    "latitude": "29.928281085364247",
    "geocoded_column": {
      "latitude": "29.928281085364247",
      "longitude": "-90.10787491089187"
    }
  },
  {
    "service_request": "2023-1032783",
    "request_type": "Trash/Recycling",
    "request_reason": "MIssed Recycling Pick-Up",
    "date_created": "2023-09-07T01:41:36.000",
    "date_modified": "2023-09-07T01:41:36.000",
    "request_status": "Pending",
    "responsible_agency": "Department of Sanitation",
    "final_address": "4720 Pitt St",
    "address_councildis": "B",
    "status": "Assigned to Contractor",
    "contractor": "Richards Disposal",
    "rowid": "1032783",
    "final_x": "3669570.69332",
    "final_y": "520372.625208",
    "longitude": "-90.10611587954998",
    "latitude": "29.925200820755936",
    "geocoded_column": {
      "latitude": "29.925200820755936",
      "longitude": "-90.10611587954998"
    }
  },
  {
    "service_request": "2023-1032782",
    "request_type": "Trash/Recycling",
    "request_reason": "MIssed Recycling Pick-Up",
    "date_created": "2023-09-07T01:25:39.000",
    "date_modified": "2023-09-07T01:25:40.000",
    "request_status": "Pending",
    "responsible_agency": "Department of Sanitation",
    "final_address": "1719 Bordeaux St",
    "address_councildis": "B",
    "status": "Assigned to Contractor",
    "contractor": "Richards Disposal",
    "rowid": "1032782",
    "final_x": "3669362.6969",
    "final_y": "521259.470649",
    "longitude": "-90.10674249216794",
    "latitude": "29.927645487202934",
    "geocoded_column": {
      "latitude": "29.927645487202934",
      "longitude": "-90.10674249216794"
    }
  },
  {
    "service_request": "2023-1032781",
    "request_type": "Roads/Drainage",
    "request_reason": "Pothole",
    "date_created": "2023-09-07T00:37:43.000",
    "date_modified": "2023-09-07T00:37:43.000",
    "request_status": "Pending",
    "responsible_agency": "Department of Public Works",
    "final_address": "1509 Valmont St",
    "address_councildis": "B",
    "status": "Pending",
    "rowid": "1032781",
    "final_x": "3667781.74388",
    "final_y": "520516.710776",
    "longitude": "-90.11175819366206",
    "latitude": "29.9256495730252",
    "geocoded_column": {
      "latitude": "29.9256495730252",
      "longitude": "-90.11175819366206"
    }
  },
  {
    "service_request": "2023-1032780",
    "request_type": "Trash/Recycling",
    "request_reason": "Illegal Dumping",
    "date_created": "2023-09-07T00:16:19.000",
    "date_modified": "2023-09-07T00:16:19.000",
    "request_status": "Pending",
    "responsible_agency": "Department of Sanitation",
    "final_address": "1725 Dufossat St",
    "address_councildis": "B",
    "status": "Pending",
    "rowid": "1032780",
    "final_x": "3668192.68743",
    "final_y": "522036.060218",
    "longitude": "-90.11040977787289",
    "latitude": "29.92981524824353",
    "geocoded_column": {
      "latitude": "29.92981524824353",
      "longitude": "-90.11040977787289"
    }
  },
  {
    "service_request": "2023-1032779",
    "request_type": "Trash/Recycling",
    "request_reason": "Illegal Dumping",
    "date_created": "2023-09-06T23:48:24.000",
    "date_modified": "2023-09-06T23:48:24.000",
    "request_status": "Pending",
    "responsible_agency": "Department of Sanitation",
    "final_address": "1516 Soniat St",
    "address_councildis": "B",
    "status": "Pending",
    "rowid": "1032779",
    "final_x": "3668314.3753",
    "final_y": "520566.220216",
    "longitude": "-90.11007516436523",
    "latitude": "29.925770083884853",
    "geocoded_column": {
      "latitude": "29.925770083884853",
      "longitude": "-90.11007516436523"
    }
  },
  {
    "service_request": "2023-1032778",
    "request_type": "Abandoned Vehicles",
    "request_reason": "Abandoned/Junk Vehicles",
    "date_created": "2023-09-06T22:16:07.000",
    "date_modified": "2023-09-06T22:16:07.000",
    "request_status": "Pending",
    "responsible_agency": "Department of Public Works",
    "final_address": "826 N Miro St",
    "address_councildis": "D",
    "status": "Pending",
    "rowid": "1032778",
    "final_x": "3678452.01083",
    "final_y": "536328.151111",
    "longitude": "-90.07752838138796",
    "latitude": "29.968808660028238",
    "geocoded_column": {
      "latitude": "29.968808660028238",
      "longitude": "-90.07752838138796"
    }
  },
  {
    "service_request": "2023-1032777",
    "request_type": "Trash/Recycling",
    "request_reason": "Replace Trash Cart",
    "date_created": "2023-09-06T22:11:21.000",
    "date_modified": "2023-09-06T22:11:22.000",
    "request_status": "Pending",
    "responsible_agency": "Department of Sanitation",
    "final_address": "5132 Touro St",
    "address_councildis": "D",
    "status": "Assigned to Contractor",
    "contractor": "IV Waste",
    "rowid": "1032777",
    "final_x": "3682920.0461",
    "final_y": "551705.322581",
    "longitude": "-90.06287963640375",
    "latitude": "30.0109550359472",
    "geocoded_column": {
      "latitude": "30.0109550359472",
      "longitude": "-90.06287963640375"
    }
  },
  {
    "service_request": "2023-1032776",
    "request_type": "Parks & Parkways",
    "request_reason": "Request Tree Service (Right of Way/Public Property)",
    "date_created": "2023-09-06T22:06:10.000",
    "date_modified": "2023-09-06T22:06:10.000",
    "request_status": "Pending",
    "responsible_agency": "Department of Parks & Parkway",
    "final_address": "3300 BLK Saint Anthony Ave",
    "address_councildis": "D",
    "status": "Pending",
    "rowid": "1032776",
    "final_x": "3682782.41655",
    "final_y": "544834.604344",
    "longitude": "-90.06355501459039",
    "latitude": "29.99206722045152",
    "geocoded_column": {
      "latitude": "29.99206722045152",
      "longitude": "-90.06355501459039"
    }
  },
  {
    "service_request": "2023-1032774",
    "request_type": "Parks & Parkways",
    "request_reason": "Request Tree Service (Right of Way/Public Property)",
    "date_created": "2023-09-06T22:03:47.000",
    "date_modified": "2023-09-06T22:03:47.000",
    "request_status": "Pending",
    "responsible_agency": "Department of Parks & Parkway",
    "final_address": "6117 Franklin Ave",
    "address_councildis": "D",
    "status": "Pending",
    "rowid": "1032774",
    "final_x": "3686468.66198",
    "final_y": "555716.994457",
    "longitude": "-90.05152639563431",
    "latitude": "30.021876993744364",
    "geocoded_column": {
      "latitude": "30.021876993744364",
      "longitude": "-90.05152639563431"
    }
  },
  {
    "service_request": "2023-1032771",
    "request_type": "Parks & Parkways",
    "request_reason": "Request Tree Service (Right of Way/Public Property)",
    "date_created": "2023-09-06T22:01:50.000",
    "date_modified": "2023-09-06T22:01:50.000",
    "request_status": "Pending",
    "responsible_agency": "Department of Parks & Parkway",
    "final_address": "6117 Franklin Ave",
    "address_councildis": "D",
    "status": "Pending",
    "rowid": "1032771",
    "final_x": "3686468.66198",
    "final_y": "555716.994457",
    "longitude": "-90.05152639563431",
    "latitude": "30.021876993744364",
    "geocoded_column": {
      "latitude": "30.021876993744364",
      "longitude": "-90.05152639563431"
    }
  },
  {
    "service_request": "2023-1032770",
    "request_type": "Abandoned Vehicles",
    "request_reason": "Abandoned/Junk Vehicles",
    "date_created": "2023-09-06T21:59:04.000",
    "date_modified": "2023-09-06T21:59:04.000",
    "request_status": "Pending",
    "responsible_agency": "Department of Public Works",
    "final_address": "826 N Galvez St",
    "address_councildis": "D",
    "status": "Pending",
    "rowid": "1032770",
    "final_x": "3678724.34574",
    "final_y": "536102.967431",
    "longitude": "-90.0766761301524",
    "latitude": "29.9681812721533",
    "geocoded_column": {
      "latitude": "29.9681812721533",
      "longitude": "-90.0766761301524"
    }
  },
  {
    "service_request": "2023-1032769",
    "request_type": "Traffic Signals/Signs/Striping/Streetlights",
    "request_reason": "Street Light Outage/Malfunction",
    "date_created": "2023-09-06T21:55:33.000",
    "date_modified": "2023-09-06T21:55:34.000",
    "request_status": "Pending",
    "responsible_agency": "Department of Public Works",
    "final_address": "7554 Tricia Ct",
    "address_councildis": "E",
    "status": "Assigned to Contractor",
    "contractor": "Legacy Professional Services",
    "rowid": "1032769",
    "final_x": "3717840.10713",
    "final_y": "570775.181863",
    "longitude": "-89.9518282873636",
    "latitude": "30.062278612900585",
    "geocoded_column": {
      "latitude": "30.062278612900585",
      "longitude": "-89.9518282873636"
    }
  },
  {
    "service_request": "2023-1032768",
    "request_type": "Abandoned Vehicles",
    "request_reason": "Abandoned/Junk Vehicles",
    "date_created": "2023-09-06T21:53:07.000",
    "date_modified": "2023-09-06T21:53:07.000",
    "request_status": "Pending",
    "responsible_agency": "Department of Public Works",
    "final_address": "826 N Galvez St",
    "address_councildis": "D",
    "status": "Pending",
    "rowid": "1032768",
    "final_x": "3678724.34574",
    "final_y": "536102.967431",
    "longitude": "-90.0766761301524",
    "latitude": "29.9681812721533",
    "geocoded_column": {
      "latitude": "29.9681812721533",
      "longitude": "-90.0766761301524"
    }
  },
  {
    "service_request": "2023-1032767",
    "request_type": "Traffic Signals/Signs/Striping/Streetlights",
    "request_reason": "Traffic Sign Missing/Damaged",
    "date_created": "2023-09-06T21:41:24.000",
    "date_modified": "2023-09-06T21:41:24.000",
    "request_status": "Pending",
    "responsible_agency": "Department of Public Works",
    "final_address": "2939 Joliet St",
    "address_councildis": "A",
    "status": "Pending",
    "rowid": "1032767",
    "final_x": "3665243.73472",
    "final_y": "534046.004229",
    "longitude": "-90.11931745982943",
    "latitude": "29.962924934990983",
    "geocoded_column": {
      "latitude": "29.962924934990983",
      "longitude": "-90.11931745982943"
    }
  },
  {
    "service_request": "2023-1032766",
    "request_type": "Traffic Signals/Signs/Striping/Streetlights",
    "request_reason": "Street Light Outage/Malfunction",
    "date_created": "2023-09-06T21:37:57.000",
    "date_modified": "2023-09-06T21:37:58.000",
    "request_status": "Pending",
    "responsible_agency": "Department of Public Works",
    "final_address": "2925 Joliet St",
    "address_councildis": "A",
    "status": "Assigned to Contractor",
    "contractor": "Legacy Professional Services",
    "rowid": "1032766",
    "final_x": "3665181.99188",
    "final_y": "533973.097541",
    "longitude": "-90.11951487570406",
    "latitude": "29.962726264138727",
    "geocoded_column": {
      "latitude": "29.962726264138727",
      "longitude": "-90.11951487570406"
    }
  },
  {
    "service_request": "2023-1032765",
    "request_type": "Traffic Signals/Signs/Striping/Streetlights",
    "request_reason": "Street Name Sign Damaged or Missing",
    "date_created": "2023-09-06T21:34:09.000",
    "date_modified": "2023-09-06T21:34:09.000",
    "request_status": "Pending",
    "responsible_agency": "Department of Public Works",
    "final_address": "1131 General Pershing St",
    "address_councildis": "B",
    "status": "Pending",
    "rowid": "1032765",
    "final_x": "3671416.3778",
    "final_y": "519794.4046",
    "longitude": "-90.10030926903697",
    "latitude": "29.923556415029356",
    "geocoded_column": {
      "latitude": "29.923556415029356",
      "longitude": "-90.10030926903697"
    }
  },
  {
    "service_request": "2023-1032764",
    "request_type": "Roads/Drainage",
    "request_reason": "Road Shoulder Repair",
    "date_created": "2023-09-06T21:26:17.000",
    "date_modified": "2023-09-06T21:26:17.000",
    "request_status": "Pending",
    "responsible_agency": "Department of Public Works",
    "final_address": "4422 S Miro St",
    "address_councildis": "B",
    "status": "Pending",
    "rowid": "1032764",
    "final_x": "3669872.42785",
    "final_y": "527745.146431",
    "longitude": "-90.10491389754071",
    "latitude": "29.945463991112028",
    "geocoded_column": {
      "latitude": "29.945463991112028",
      "longitude": "-90.10491389754071"
    }
  },
  {
    "service_request": "2023-1032763",
    "request_type": "Roads/Drainage",
    "request_reason": "Road Shoulder Repair",
    "date_created": "2023-09-06T21:21:43.000",
    "date_modified": "2023-09-06T21:24:42.000",
    "request_status": "Pending",
    "responsible_agency": "Department of Public Works",
    "final_address": "4422 S Miro St",
    "address_councildis": "B",
    "status": "Pending",
    "rowid": "1032763",
    "final_x": "3669872.42785",
    "final_y": "527745.146431",
    "longitude": "-90.10491389754071",
    "latitude": "29.945463991112028",
    "geocoded_column": {
      "latitude": "29.945463991112028",
      "longitude": "-90.10491389754071"
    }
  },
  {
    "service_request": "2023-1032762",
    "request_type": "Roads/Drainage",
    "request_reason": "Pothole",
    "date_created": "2023-09-06T21:18:36.000",
    "date_modified": "2023-09-06T21:18:36.000",
    "request_status": "Pending",
    "responsible_agency": "Department of Public Works",
    "final_address": "4314 Pitt St",
    "address_councildis": "B",
    "status": "Pending",
    "rowid": "1032762",
    "final_x": "3671181.83662",
    "final_y": "520562.776248",
    "longitude": "-90.10102354544037",
    "latitude": "29.92567612958479",
    "geocoded_column": {
      "latitude": "29.92567612958479",
      "longitude": "-90.10102354544037"
    }
  },
  {
    "service_request": "2023-1032761",
    "request_type": "Traffic Signals/Signs/Striping/Streetlights",
    "request_reason": "Street Light Outage/Malfunction",
    "date_created": "2023-09-06T21:16:41.000",
    "date_modified": "2023-09-06T21:16:42.000",
    "request_status": "Pending",
    "responsible_agency": "Department of Public Works",
    "final_address": "800 Solomon Pl",
    "address_councildis": "A",
    "status": "Assigned to Contractor",
    "contractor": "Legacy Professional Services",
    "rowid": "1032761",
    "final_x": "3672500.30932",
    "final_y": "540492.241739",
    "longitude": "-90.0961822725638",
    "latitude": "29.98043651159096",
    "geocoded_column": {
      "latitude": "29.98043651159096",
      "longitude": "-90.0961822725638"
    }
  },
  {
    "service_request": "2023-1032760",
    "request_type": "Property Maintenance",
    "request_reason": "Property Maintenance",
    "date_created": "2023-09-06T21:08:18.000",
    "date_modified": "2023-09-06T21:08:18.000",
    "request_status": "Pending",
    "responsible_agency": "Department of Code Enforcement",
    "final_address": "3025 Delachaise St",
    "address_councildis": "B",
    "status": "Pending",
    "rowid": "1032760",
    "final_x": "3671833.78823",
    "final_y": "526346.800766",
    "longitude": "-90.09876880546783",
    "latitude": "29.941561033793914",
    "geocoded_column": {
      "latitude": "29.941561033793914",
      "longitude": "-90.09876880546783"
    }
  },
  {
    "service_request": "2023-1032759",
    "request_type": "Roads/Drainage",
    "request_reason": "Pothole",
    "date_created": "2023-09-06T20:44:52.000",
    "date_modified": "2023-09-06T20:44:52.000",
    "request_status": "Pending",
    "responsible_agency": "Department of Public Works",
    "final_address": "1430 Webster St",
    "address_councildis": "A",
    "status": "Pending",
    "rowid": "1032759",
    "final_x": "3664809.49536",
    "final_y": "521665.727865",
    "longitude": "-90.12110234564213",
    "latitude": "29.928895802564302",
    "geocoded_column": {
      "latitude": "29.928895802564302",
      "longitude": "-90.12110234564213"
    }
  },
  {
    "service_request": "2023-1032758",
    "request_type": "Trash/Recycling",
    "request_reason": "Missed Trash Pick-Up",
    "date_created": "2023-09-06T20:34:34.000",
    "date_modified": "2023-09-06T20:34:35.000",
    "request_status": "Pending",
    "responsible_agency": "Department of Sanitation",
    "final_address": "809 Milan St",
    "address_councildis": "B",
    "status": "Assigned to Contractor",
    "contractor": "Richards Disposal",
    "rowid": "1032758",
    "final_x": "3671868.96251",
    "final_y": "518591.801207",
    "longitude": "-90.0989215197202",
    "latitude": "29.920236239745353",
    "geocoded_column": {
      "latitude": "29.920236239745353",
      "longitude": "-90.0989215197202"
    }
  },
  {
    "service_request": "2023-1032757",
    "request_type": "Hard Rock Hotel Collapse",
    "request_reason": "Hard Rock Event- Businesses ",
    "date_created": "2023-09-06T20:31:19.000",
    "date_modified": "2023-09-06T20:31:19.000",
    "request_status": "Pending",
    "responsible_agency": "Office of Community and Economic Development",
    "final_address": "1528 St Philip St",
    "address_councildis": "C",
    "status": "Pending",
    "rowid": "1032757",
    "final_x": "3680772.24552",
    "final_y": "535182.214022",
    "longitude": "-90.07024083428946",
    "latitude": "29.96558760095176",
    "geocoded_column": {
      "latitude": "29.96558760095176",
      "longitude": "-90.07024083428946"
    }
  },
  {
    "service_request": "2023-1032756",
    "request_type": "Abandoned Vehicles",
    "request_reason": "Abandoned/Junk Vehicles",
    "date_created": "2023-09-06T20:21:22.000",
    "date_modified": "2023-09-06T20:21:22.000",
    "request_status": "Pending",
    "responsible_agency": "Department of Public Works",
    "final_address": "1623 Conery St",
    "address_councildis": "B",
    "status": "Pending",
    "rowid": "1032756",
    "final_x": "3675587.43118",
    "final_y": "522612.377978",
    "longitude": "-90.08704603326537",
    "latitude": "29.9311808537707",
    "geocoded_column": {
      "latitude": "29.9311808537707",
      "longitude": "-90.08704603326537"
    }
  },
  {
    "service_request": "2023-1032755",
    "request_type": "Abandoned Vehicles",
    "request_reason": "Abandoned/Junk Vehicles",
    "date_created": "2023-09-06T20:19:31.000",
    "date_modified": "2023-09-06T20:19:31.000",
    "request_status": "Pending",
    "responsible_agency": "Department of Public Works",
    "final_address": "1623 Conery St",
    "address_councildis": "B",
    "status": "Pending",
    "rowid": "1032755",
    "final_x": "3675587.43118",
    "final_y": "522612.377978",
    "longitude": "-90.08704603326537",
    "latitude": "29.9311808537707",
    "geocoded_column": {
      "latitude": "29.9311808537707",
      "longitude": "-90.08704603326537"
    }
  },
  {
    "service_request": "2023-1032754",
    "request_type": "Traffic Signals/Signs/Striping/Streetlights",
    "request_reason": "Street Light Outage/Malfunction",
    "date_created": "2023-09-06T20:13:22.000",
    "date_modified": "2023-09-06T20:13:23.000",
    "request_status": "Pending",
    "responsible_agency": "Department of Public Works",
    "final_address": "26TH ST & PONTCHARTRAIN BLVD",
    "address_councildis": "A",
    "status": "Assigned to Contractor",
    "contractor": "Legacy Professional Services",
    "rowid": "1032754",
    "final_x": "3666208.9",
    "final_y": "549875.98",
    "longitude": "-90.11573838134862",
    "latitude": "30.0064238627547",
    "geocoded_column": {
      "latitude": "30.0064238627547",
      "longitude": "-90.11573838134862"
    }
  },
  {
    "service_request": "2023-1032753",
    "request_type": "Traffic Signals/Signs/Striping/Streetlights",
    "request_reason": "Street Light Outage/Malfunction",
    "date_created": "2023-09-06T20:09:50.000",
    "date_modified": "2023-09-06T20:09:50.000",
    "request_status": "Pending",
    "responsible_agency": "Department of Public Works",
    "final_address": "2220 Oriole St",
    "address_councildis": "D",
    "status": "Assigned to Contractor",
    "contractor": "Legacy Professional Services",
    "rowid": "1032753",
    "final_x": "3683827.62389",
    "final_y": "557984.700571",
    "longitude": "-90.05979174272741",
    "latitude": "30.028193318558753",
    "geocoded_column": {
      "latitude": "30.028193318558753",
      "longitude": "-90.05979174272741"
    }
  },
  {
    "service_request": "2023-1032752",
    "request_type": "Roads/Drainage",
    "request_reason": "Pothole",
    "date_created": "2023-09-06T20:08:17.000",
    "date_modified": "2023-09-06T20:08:17.000",
    "request_status": "Pending",
    "responsible_agency": "Department of Public Works",
    "final_address": "1505 Nashville Ave",
    "address_councildis": "A",
    "status": "Pending",
    "rowid": "1032752",
    "final_x": "3666188.94471",
    "final_y": "521704.476409",
    "longitude": "-90.11674638643406",
    "latitude": "29.928962148618314",
    "geocoded_column": {
      "latitude": "29.928962148618314",
      "longitude": "-90.11674638643406"
    }
  },
  {
    "service_request": "2023-1032751",
    "request_type": "Trash/Recycling",
    "request_reason": "Start Trash Service",
    "date_created": "2023-09-06T20:08:09.000",
    "date_modified": "2023-09-06T20:08:10.000",
    "request_status": "Pending",
    "responsible_agency": "Department of Sanitation",
    "final_address": "907 Cherokee St",
    "address_councildis": "A",
    "status": "Assigned to Contractor",
    "contractor": "Richards Disposal",
    "rowid": "1032751",
    "final_x": "3662914.65594",
    "final_y": "526201.816702",
    "longitude": "-90.1269332370911",
    "latitude": "29.941423596913193",
    "geocoded_column": {
      "latitude": "29.941423596913193",
      "longitude": "-90.1269332370911"
    }
  },
  {
    "service_request": "2023-1032750",
    "request_type": "Trash/Recycling",
    "request_reason": "Start Trash Service",
    "date_created": "2023-09-06T20:07:23.000",
    "date_modified": "2023-09-06T20:07:23.000",
    "request_status": "Pending",
    "responsible_agency": "Department of Sanitation",
    "final_address": "907 Cherokee St",
    "address_councildis": "A",
    "status": "Assigned to Contractor",
    "contractor": "Richards Disposal",
    "rowid": "1032750",
    "final_x": "3662914.65594",
    "final_y": "526201.816702",
    "longitude": "-90.1269332370911",
    "latitude": "29.941423596913193",
    "geocoded_column": {
      "latitude": "29.941423596913193",
      "longitude": "-90.1269332370911"
    }
  },
  {
    "service_request": "2023-1032749",
    "request_type": "Traffic Signals/Signs/Striping/Streetlights",
    "request_reason": "Street Light Outage/Malfunction",
    "date_created": "2023-09-06T20:06:37.000",
    "date_modified": "2023-09-06T20:06:37.000",
    "request_status": "Pending",
    "responsible_agency": "Department of Public Works",
    "final_address": "2220 Oriole St",
    "address_councildis": "D",
    "status": "Assigned to Contractor",
    "contractor": "Legacy Professional Services",
    "rowid": "1032749",
    "final_x": "3683827.62389",
    "final_y": "557984.700571",
    "longitude": "-90.05979174272741",
    "latitude": "30.028193318558753",
    "geocoded_column": {
      "latitude": "30.028193318558753",
      "longitude": "-90.05979174272741"
    }
  },
  {
    "service_request": "2023-1032748",
    "request_type": "Traffic Signals/Signs/Striping/Streetlights",
    "request_reason": "Street Light Outage/Malfunction",
    "date_created": "2023-09-06T19:55:15.000",
    "date_modified": "2023-09-06T19:55:16.000",
    "request_status": "Pending",
    "responsible_agency": "Department of Public Works",
    "final_address": "75 Neron Pl",
    "address_councildis": "A",
    "status": "Assigned to Contractor",
    "contractor": "Legacy Professional Services",
    "rowid": "1032748",
    "final_x": "3666004.96474",
    "final_y": "530049.928257",
    "longitude": "-90.11704753049966",
    "latitude": "29.951914834609678",
    "geocoded_column": {
      "latitude": "29.951914834609678",
      "longitude": "-90.11704753049966"
    }
  },
  {
    "service_request": "2023-1032746",
    "request_type": "Parks & Parkways",
    "request_reason": "Request Tree Service (Right of Way/Public Property)",
    "date_created": "2023-09-06T19:39:53.000",
    "date_modified": "2023-09-06T19:39:53.000",
    "request_status": "Pending",
    "responsible_agency": "Department of Parks & Parkway",
    "final_address": "3811 Carondelet St",
    "address_councildis": "B",
    "status": "Pending",
    "rowid": "1032746",
    "final_x": "3672669.66024",
    "final_y": "521484.956921",
    "longitude": "-90.09629550102866",
    "latitude": "29.92816774885329",
    "geocoded_column": {
      "latitude": "29.92816774885329",
      "longitude": "-90.09629550102866"
    }
  },
  {
    "service_request": "2023-1032745",
    "request_type": "Traffic Signals/Signs/Striping/Streetlights",
    "request_reason": "Street Light Outage/Malfunction",
    "date_created": "2023-09-06T19:32:59.000",
    "date_modified": "2023-09-06T19:33:00.000",
    "request_status": "Pending",
    "responsible_agency": "Department of Public Works",
    "final_address": "300 BLK Gaiennie St",
    "address_councildis": "B",
    "status": "Assigned to Contractor",
    "contractor": "Legacy Professional Services",
    "rowid": "1032745",
    "final_x": "3682507.92661",
    "final_y": "525978.011808",
    "longitude": "-90.06508134639999",
    "latitude": "29.94022644151633",
    "geocoded_column": {
      "latitude": "29.94022644151633",
      "longitude": "-90.06508134639999"
    }
  },
  {
    "service_request": "2023-1032744",
    "request_type": "Parks & Parkways",
    "request_reason": "Request Tree Service (Right of Way/Public Property)",
    "date_created": "2023-09-06T19:11:56.000",
    "date_modified": "2023-09-06T19:11:56.000",
    "request_status": "Pending",
    "responsible_agency": "Department of Parks & Parkway",
    "final_address": "6125 Pratt Dr",
    "address_councildis": "D",
    "status": "Pending",
    "rowid": "1032744",
    "final_x": "3680255.90651",
    "final_y": "555209.354649",
    "longitude": "-90.07117476034962",
    "latitude": "30.02067080497346",
    "geocoded_column": {
      "latitude": "30.02067080497346",
      "longitude": "-90.07117476034962"
    }
  },
  {
    "service_request": "2023-1032743",
    "request_type": "Trash/Recycling",
    "request_reason": "Missed Trash Pick-Up",
    "date_created": "2023-09-06T18:53:13.000",
    "date_modified": "2023-09-06T18:53:14.000",
    "request_status": "Pending",
    "responsible_agency": "Department of Sanitation",
    "final_address": "1525 Dufossat St",
    "address_councildis": "B",
    "status": "Assigned to Contractor",
    "contractor": "Richards Disposal",
    "rowid": "1032743",
    "final_x": "3668161.69364",
    "final_y": "520678.110521",
    "longitude": "-90.11055336688219",
    "latitude": "29.926082227758133",
    "geocoded_column": {
      "latitude": "29.926082227758133",
      "longitude": "-90.11055336688219"
    }
  },
  {
    "service_request": "2023-1032742",
    "request_type": "Trash/Recycling",
    "request_reason": "Order Recycling Cart",
    "date_created": "2023-09-06T18:47:53.000",
    "date_modified": "2023-09-06T18:47:53.000",
    "request_status": "Pending",
    "responsible_agency": "Department of Sanitation",
    "final_address": "5617 Woodlawn Pl",
    "address_councildis": "A",
    "status": "Pending",
    "rowid": "1032742",
    "final_x": "3667585.00423",
    "final_y": "544831.337807",
    "longitude": "-90.1115608403723",
    "latitude": "29.99251255935614",
    "geocoded_column": {
      "latitude": "29.99251255935614",
      "longitude": "-90.1115608403723"
    }
  },
  {
    "service_request": "2023-1032741",
    "request_type": "Abandoned Vehicles",
    "request_reason": "Abandoned/Junk Vehicles",
    "date_created": "2023-09-06T18:28:20.000",
    "date_modified": "2023-09-06T18:28:20.000",
    "request_status": "Pending",
    "responsible_agency": "Department of Public Works",
    "final_address": "217 S Olympia St",
    "address_councildis": "A",
    "status": "Pending",
    "rowid": "1032741",
    "final_x": "3669009.0569",
    "final_y": "539236.004106",
    "longitude": "-90.10725163596516",
    "latitude": "29.977085468059922",
    "geocoded_column": {
      "latitude": "29.977085468059922",
      "longitude": "-90.10725163596516"
    }
  },
  {
    "service_request": "2023-1032740",
    "request_type": "Roads/Drainage",
    "request_reason": "Property Maintenance",
    "date_created": "2023-09-06T18:25:34.000",
    "date_modified": "2023-09-06T18:25:34.000",
    "request_status": "Pending",
    "responsible_agency": "Department of Code Enforcement",
    "final_address": "1001 Henry Clay Ave",
    "address_councildis": "A",
    "status": "Pending",
    "rowid": "1032740",
    "final_x": "3664114.85536",
    "final_y": "520229.992632",
    "longitude": "-90.12334305472245",
    "latitude": "29.924968170625775",
    "geocoded_column": {
      "latitude": "29.924968170625775",
      "longitude": "-90.12334305472245"
    }
  },
  {
    "service_request": "2023-1032739",
    "request_type": "Trash/Recycling",
    "request_reason": "Request a Large Item Pick Up",
    "date_created": "2023-09-06T18:22:06.000",
    "date_modified": "2023-09-06T18:22:07.000",
    "request_status": "Pending",
    "responsible_agency": "Department of Sanitation",
    "final_address": "1026 Cadiz St",
    "address_councildis": "B",
    "status": "Assigned to Contractor",
    "contractor": "Richards Disposal",
    "rowid": "1032739",
    "final_x": "3670211.66036",
    "final_y": "519290.557623",
    "longitude": "-90.10412918774753",
    "latitude": "29.92220658724318",
    "geocoded_column": {
      "latitude": "29.92220658724318",
      "longitude": "-90.10412918774753"
    }
  },
  {
    "service_request": "2023-1032738",
    "request_type": "Trash/Recycling",
    "request_reason": "Replace Trash Cart",
    "date_created": "2023-09-06T18:13:29.000",
    "date_modified": "2023-09-06T18:13:30.000",
    "request_status": "Pending",
    "responsible_agency": "Department of Sanitation",
    "final_address": "4842 Lurline St",
    "address_councildis": "E",
    "status": "Assigned to Contractor",
    "contractor": "Waste Pro",
    "rowid": "1032738",
    "final_x": "3711842.21963",
    "final_y": "556677.80521",
    "longitude": "-89.97131724006849",
    "latitude": "30.02371397157899",
    "geocoded_column": {
      "latitude": "30.02371397157899",
      "longitude": "-89.97131724006849"
    }
  },
  {
    "service_request": "2023-1032737",
    "request_type": "Trash/Recycling",
    "request_reason": "Request a Large Item Pick Up",
    "date_created": "2023-09-06T18:07:59.000",
    "date_modified": "2023-09-06T18:08:00.000",
    "request_status": "Pending",
    "responsible_agency": "Department of Sanitation",
    "final_address": "2761 Palmyra St",
    "address_councildis": "B",
    "status": "Assigned to Contractor",
    "contractor": "Richards Disposal",
    "rowid": "1032737",
    "final_x": "3674449.83092",
    "final_y": "534831.40551",
    "longitude": "-90.09021880953685",
    "latitude": "29.964813115309372",
    "geocoded_column": {
      "latitude": "29.964813115309372",
      "longitude": "-90.09021880953685"
    }
  },
  {
    "service_request": "2023-1032736",
    "request_type": "Trash/Recycling",
    "request_reason": "Replace Trash Cart",
    "date_created": "2023-09-06T18:03:34.000",
    "date_modified": "2023-09-06T18:03:35.000",
    "request_status": "Pending",
    "responsible_agency": "Department of Sanitation",
    "final_address": "1 Versailles Blvd",
    "address_councildis": "A",
    "status": "Assigned to Contractor",
    "contractor": "Richards Disposal",
    "rowid": "1032736",
    "final_x": "3666974.73722",
    "final_y": "528546.488448",
    "longitude": "-90.1140359517739",
    "latitude": "29.947752523209438",
    "geocoded_column": {
      "latitude": "29.947752523209438",
      "longitude": "-90.1140359517739"
    }
  },
  {
    "service_request": "2023-1032735",
    "request_type": "Trash/Recycling",
    "request_reason": "Missed Trash Pick-Up",
    "date_created": "2023-09-06T17:51:30.000",
    "date_modified": "2023-09-06T17:51:30.000",
    "request_status": "Pending",
    "responsible_agency": "Department of Sanitation",
    "final_address": "6331 Eastover Dr",
    "address_councildis": "E",
    "status": "Assigned to Contractor",
    "contractor": "Waste Pro",
    "rowid": "1032735",
    "final_x": "3718013.58815",
    "final_y": "563937.956385",
    "longitude": "-89.95154054679116",
    "latitude": "30.043473310349714",
    "geocoded_column": {
      "latitude": "30.043473310349714",
      "longitude": "-89.95154054679116"
    }
  },
  {
    "service_request": "2023-1032734",
    "request_type": "Trash/Recycling",
    "request_reason": "Missed Trash Pick-Up",
    "date_created": "2023-09-06T17:40:21.000",
    "date_modified": "2023-09-06T17:41:07.000",
    "request_status": "Pending",
    "responsible_agency": "Department of Sanitation",
    "final_address": "6952 Yorktown Dr",
    "address_councildis": "E",
    "status": "Assigned to Contractor",
    "contractor": "Waste Pro",
    "rowid": "1032734",
    "final_x": "3706235.42366",
    "final_y": "560303.899421",
    "longitude": "-89.98889900799918",
    "latitude": "30.033866372680574",
    "geocoded_column": {
      "latitude": "30.033866372680574",
      "longitude": "-89.98889900799918"
    }
  },
  {
    "service_request": "2023-1032733",
    "request_type": "Trash/Recycling",
    "request_reason": "Missed Trash Pick-Up",
    "date_created": "2023-09-06T17:25:07.000",
    "date_modified": "2023-09-06T17:25:07.000",
    "request_status": "Pending",
    "responsible_agency": "Department of Sanitation",
    "final_address": "6950 Yorktown Dr",
    "address_councildis": "E",
    "status": "Assigned to Contractor",
    "contractor": "Waste Pro",
    "rowid": "1032733",
    "final_x": "3706243.30199",
    "final_y": "560288.286365",
    "longitude": "-89.98887469064296",
    "latitude": "30.033823188742147",
    "geocoded_column": {
      "latitude": "30.033823188742147",
      "longitude": "-89.98887469064296"
    }
  },
  {
    "service_request": "2023-1032732",
    "request_type": "Roads/Drainage",
    "request_reason": "Street Flooding / Drainage",
    "date_created": "2023-09-06T17:23:29.000",
    "date_modified": "2023-09-06T17:23:29.000",
    "request_status": "Pending",
    "responsible_agency": "Department of Public Works",
    "final_address": "5533 Durham Dr",
    "address_councildis": "C",
    "status": "Pending",
    "rowid": "1032732",
    "final_x": "3704549.76542",
    "final_y": "518680.044535",
    "longitude": "-89.99576130989638",
    "latitude": "29.91947035168491",
    "geocoded_column": {
      "latitude": "29.91947035168491",
      "longitude": "-89.99576130989638"
    }
  },
  {
    "service_request": "2023-1032731",
    "request_type": "Trash/Recycling",
    "request_reason": "Missed Trash Pick-Up",
    "date_created": "2023-09-06T17:22:46.000",
    "date_modified": "2023-09-06T17:23:01.000",
    "request_status": "Pending",
    "responsible_agency": "Department of Sanitation",
    "final_address": "2 W Blue Ridge Ct",
    "address_councildis": "E",
    "status": "Assigned to Contractor",
    "contractor": "Waste Pro",
    "rowid": "1032731",
    "final_x": "3714075.37893",
    "final_y": "567202.732772",
    "longitude": "-89.96386351067711",
    "latitude": "30.052580113710388",
    "geocoded_column": {
      "latitude": "30.052580113710388",
      "longitude": "-89.96386351067711"
    }
  },
  {
    "service_request": "2023-1032730",
    "request_type": "Roads/Drainage",
    "request_reason": "Catch Basin - Clogged",
    "date_created": "2023-09-06T17:20:12.000",
    "date_modified": "2023-09-06T17:21:00.000",
    "case_close_date": "2023-09-05T19:00:00.000",
    "request_status": "Closed",
    "responsible_agency": "Department of Public Works",
    "final_address": "936 Broadway St",
    "address_councildis": "A",
    "status": "Resolved",
    "rowid": "1032730",
    "final_x": "3663692.55463",
    "final_y": "525884.518333",
    "longitude": "-90.12448781673785",
    "latitude": "29.940528584558518",
    "geocoded_column": {
      "latitude": "29.940528584558518",
      "longitude": "-90.12448781673785"
    }
  },
  {
    "service_request": "2023-1032729",
    "request_type": "Trash/Recycling",
    "request_reason": "Missed Trash Pick-Up",
    "date_created": "2023-09-06T17:07:01.000",
    "date_modified": "2023-09-06T17:07:02.000",
    "request_status": "Pending",
    "responsible_agency": "Department of Sanitation",
    "final_address": "5724 Wingate Dr",
    "address_councildis": "D",
    "status": "Assigned to Contractor",
    "contractor": "IV Waste",
    "rowid": "1032729",
    "final_x": "3681219.18626",
    "final_y": "553987.10524",
    "longitude": "-90.0681737248157",
    "latitude": "30.01728085443889",
    "geocoded_column": {
      "latitude": "30.01728085443889",
      "longitude": "-90.0681737248157"
    }
  },
  {
    "service_request": "2023-1032728",
    "request_type": "Trash/Recycling",
    "request_reason": "Illegal Dumping",
    "date_created": "2023-09-06T17:05:08.000",
    "date_modified": "2023-09-06T17:05:08.000",
    "request_status": "Pending",
    "responsible_agency": "Department of Sanitation",
    "final_address": "N DORGENOIS ST & DESIRE ST",
    "address_councildis": "D",
    "status": "Pending",
    "rowid": "1032728",
    "final_x": "3691488.4",
    "final_y": "540983.08",
    "longitude": "-90.03619240542076",
    "latitude": "29.98120876555012",
    "geocoded_column": {
      "latitude": "29.98120876555012",
      "longitude": "-90.03619240542076"
    }
  },
  {
    "service_request": "2023-1032727",
    "request_type": "Trash/Recycling",
    "request_reason": "Request a Large Item Pick Up",
    "date_created": "2023-09-06T17:04:21.000",
    "date_modified": "2023-09-06T17:06:30.000",
    "request_status": "Pending",
    "responsible_agency": "Department of Sanitation",
    "final_address": "4843 Perelli Dr",
    "address_councildis": "E",
    "status": "Assigned to Contractor",
    "contractor": "Waste Pro",
    "rowid": "1032727",
    "final_x": "3711737.12882",
    "final_y": "556666.698394",
    "longitude": "-89.97164971965289",
    "latitude": "30.023686866546228",
    "geocoded_column": {
      "latitude": "30.023686866546228",
      "longitude": "-89.97164971965289"
    }
  },
  {
    "service_request": "2023-1032726",
    "request_type": "Trash/Recycling",
    "request_reason": "Order Trash Cart",
    "date_created": "2023-09-06T17:01:35.000",
    "date_modified": "2023-09-06T17:06:27.000",
    "request_status": "Pending",
    "responsible_agency": "Department of Sanitation",
    "final_address": "1618 N Miro St",
    "address_councildis": "D",
    "status": "Assigned to Contractor",
    "contractor": "IV Waste",
    "rowid": "1032726",
    "final_x": "3680689.64373",
    "final_y": "539175.389066",
    "longitude": "-90.07036269394357",
    "latitude": "29.976569960166852",
    "geocoded_column": {
      "latitude": "29.976569960166852",
      "longitude": "-90.07036269394357"
    }
  },
  {
    "service_request": "2023-1032725",
    "request_type": "Abandoned Vehicles",
    "request_reason": "Abandoned/Junk Vehicles",
    "date_created": "2023-09-06T17:00:54.000",
    "date_modified": "2023-09-06T17:00:54.000",
    "request_status": "Pending",
    "responsible_agency": "Department of Public Works",
    "final_address": "3500 BLK N Prieur St",
    "address_councildis": "D",
    "status": "Pending",
    "rowid": "1032725",
    "final_x": "3691334.51953",
    "final_y": "538608.06496",
    "longitude": "-90.03676330928207",
    "latitude": "29.974683109224266",
    "geocoded_column": {
      "latitude": "29.974683109224266",
      "longitude": "-90.03676330928207"
    }
  },
  {
    "service_request": "2023-1032724",
    "request_type": "Trash/Recycling",
    "request_reason": "Request a Large Item Pick Up",
    "date_created": "2023-09-06T16:54:49.000",
    "date_modified": "2023-09-06T17:06:20.000",
    "request_status": "Pending",
    "responsible_agency": "Department of Sanitation",
    "status": "Assigned to Contractor",
    "rowid": "1032724",
    "longitude": "0.0",
    "latitude": "0.0",
    "geocoded_column": {
      "latitude": "0.0",
      "longitude": "0.0"
    }
  },
  {
    "service_request": "2023-1032723",
    "request_type": "Trash/Recycling",
    "request_reason": "Replace Trash Cart",
    "date_created": "2023-09-06T16:52:01.000",
    "date_modified": "2023-09-06T17:06:19.000",
    "request_status": "Pending",
    "responsible_agency": "Department of Sanitation",
    "final_address": "5900 Berkley Dr",
    "address_councildis": "C",
    "status": "Assigned to Contractor",
    "contractor": "Richards Disposal",
    "rowid": "1032723",
    "final_x": "3705583.48049",
    "final_y": "518163.549622",
    "longitude": "-89.99251749195408",
    "latitude": "29.9180169492325",
    "geocoded_column": {
      "latitude": "29.9180169492325",
      "longitude": "-89.99251749195408"
    }
  },
  {
    "service_request": "2023-1032722",
    "request_type": "Trash/Recycling",
    "request_reason": "MIssed Recycling Pick-Up",
    "date_created": "2023-09-06T16:51:33.000",
    "date_modified": "2023-09-06T17:06:19.000",
    "request_status": "Pending",
    "responsible_agency": "Department of Sanitation",
    "final_address": "5551 Pratt Dr",
    "address_councildis": "D",
    "status": "Assigned to Contractor",
    "contractor": "IV Waste",
    "rowid": "1032722",
    "final_x": "3680429.96623",
    "final_y": "553052.351511",
    "longitude": "-90.0706998852243",
    "latitude": "30.014734557747904",
    "geocoded_column": {
      "latitude": "30.014734557747904",
      "longitude": "-90.0706998852243"
    }
  },
  {
    "service_request": "2023-1032721",
    "request_type": "Property Maintenance",
    "request_reason": "Property Maintenance",
    "date_created": "2023-09-06T16:51:05.000",
    "date_modified": "2023-09-06T16:51:05.000",
    "request_status": "Pending",
    "responsible_agency": "Department of Code Enforcement",
    "final_address": "4682 Longfellow Dr",
    "address_councildis": "E",
    "status": "Pending",
    "rowid": "1032721",
    "final_x": "3709586.75294",
    "final_y": "555492.952793",
    "longitude": "-89.97848826320197",
    "latitude": "30.020529614753368",
    "geocoded_column": {
      "latitude": "30.020529614753368",
      "longitude": "-89.97848826320197"
    }
  },
  {
    "service_request": "2023-1032720",
    "request_type": "Property Maintenance",
    "request_reason": "Property Maintenance",
    "date_created": "2023-09-06T16:50:45.000",
    "date_modified": "2023-09-06T16:50:45.000",
    "request_status": "Pending",
    "responsible_agency": "Department of Code Enforcement",
    "final_address": "4700 Longfellow Dr",
    "address_councildis": "E",
    "status": "Pending",
    "rowid": "1032720",
    "final_x": "3709580.80811",
    "final_y": "555552.466265",
    "longitude": "-89.9785048234846",
    "latitude": "30.020693446855855",
    "geocoded_column": {
      "latitude": "30.020693446855855",
      "longitude": "-89.9785048234846"
    }
  },
  {
    "service_request": "2023-1032719",
    "request_type": "Property Maintenance",
    "request_reason": "Property Maintenance",
    "date_created": "2023-09-06T16:50:23.000",
    "date_modified": "2023-09-06T16:50:23.000",
    "request_status": "Pending",
    "responsible_agency": "Department of Code Enforcement",
    "final_address": "4711 Longfellow Dr",
    "address_councildis": "E",
    "status": "Pending",
    "rowid": "1032719",
    "final_x": "3709709.21829",
    "final_y": "555624.194329",
    "longitude": "-89.97809640863616",
    "latitude": "30.020886495627675",
    "geocoded_column": {
      "latitude": "30.020886495627675",
      "longitude": "-89.97809640863616"
    }
  },
  {
    "service_request": "2023-1032718",
    "request_type": "Property Maintenance",
    "request_reason": "Property Maintenance",
    "date_created": "2023-09-06T16:49:44.000",
    "date_modified": "2023-09-06T17:06:16.000",
    "request_status": "Pending",
    "responsible_agency": "Department of Code Enforcement",
    "final_address": "4719 Longfellow Dr",
    "address_councildis": "E",
    "status": "Pending",
    "rowid": "1032718",
    "final_x": "3709703.2611",
    "final_y": "555683.762777",
    "longitude": "-89.97811300533347",
    "latitude": "30.021050479334686",
    "geocoded_column": {
      "latitude": "30.021050479334686",
      "longitude": "-89.97811300533347"
    }
  },
  {
    "service_request": "2023-1032717",
    "request_type": "Property Maintenance",
    "request_reason": "Property Maintenance",
    "date_created": "2023-09-06T16:48:15.000",
    "date_modified": "2023-09-06T17:05:24.000",
    "request_status": "Pending",
    "responsible_agency": "Department of Code Enforcement",
    "final_address": "2030 Marais St",
    "address_councildis": "C",
    "status": "Pending",
    "rowid": "1032717",
    "final_x": "3684463.82133",
    "final_y": "536591.241095",
    "longitude": "-90.05853350264785",
    "latitude": "29.969349528610213",
    "geocoded_column": {
      "latitude": "29.969349528610213",
      "longitude": "-90.05853350264785"
    }
  },
  {
    "service_request": "2023-1032716",
    "request_type": "Trash/Recycling",
    "request_reason": "Repair Trash Cart",
    "date_created": "2023-09-06T16:48:07.000",
    "date_modified": "2023-09-06T17:05:09.000",
    "request_status": "Pending",
    "responsible_agency": "Department of Sanitation",
    "final_address": "4650 Evangeline Dr",
    "address_councildis": "E",
    "status": "Assigned to Contractor",
    "contractor": "Waste Pro",
    "rowid": "1032716",
    "final_x": "3709096.80069",
    "final_y": "555182.927577",
    "longitude": "-89.98004791957973",
    "latitude": "30.01969308623968",
    "geocoded_column": {
      "latitude": "30.01969308623968",
      "longitude": "-89.98004791957973"
    }
  },
  {
    "service_request": "2023-1032715",
    "request_type": "Roads/Drainage",
    "request_reason": "Pothole",
    "date_created": "2023-09-06T16:44:59.000",
    "date_modified": "2023-09-06T16:44:59.000",
    "request_status": "Pending",
    "responsible_agency": "Department of Public Works",
    "final_address": "1610 Allen Toussaint Blvd",
    "address_councildis": "D",
    "status": "Pending",
    "rowid": "1032715",
    "final_x": "3679122.13621",
    "final_y": "555269.311065",
    "longitude": "-90.07475505755605",
    "latitude": "30.020869953757085",
    "geocoded_column": {
      "latitude": "30.020869953757085",
      "longitude": "-90.07475505755605"
    }
  },
  {
    "service_request": "2023-1032714",
    "request_type": "Trash/Recycling",
    "request_reason": "Replace Trash Cart",
    "date_created": "2023-09-06T16:42:04.000",
    "date_modified": "2023-09-06T16:57:00.000",
    "request_status": "Pending",
    "responsible_agency": "Department of Sanitation",
    "final_address": "7536 Briarwood Dr",
    "address_councildis": "E",
    "status": "Assigned to Contractor",
    "contractor": "Waste Pro",
    "rowid": "1032714",
    "final_x": "3717763.82367",
    "final_y": "570502.793383",
    "longitude": "-89.95207979732272",
    "latitude": "30.06153218667181",
    "geocoded_column": {
      "latitude": "30.06153218667181",
      "longitude": "-89.95207979732272"
    }
  },
  {
    "service_request": "2023-1032713",
    "request_type": "Parks & Parkways",
    "request_reason": "Request Tree Service (Right of Way/Public Property)",
    "date_created": "2023-09-06T16:40:31.000",
    "date_modified": "2023-09-06T16:40:31.000",
    "request_status": "Pending",
    "responsible_agency": "Department of Parks & Parkway",
    "final_address": "2139 N Broad St",
    "address_councildis": "D",
    "status": "Pending",
    "rowid": "1032713",
    "final_x": "3680679.66011",
    "final_y": "542350.952141",
    "longitude": "-90.07028367207504",
    "latitude": "29.98530195476595",
    "geocoded_column": {
      "latitude": "29.98530195476595",
      "longitude": "-90.07028367207504"
    }
  },
  {
    "service_request": "2023-1032712",
    "request_type": "Trash/Recycling",
    "request_reason": "Order Recycling Cart",
    "date_created": "2023-09-06T16:40:10.000",
    "date_modified": "2023-09-06T16:54:05.000",
    "request_status": "Pending",
    "responsible_agency": "Department of Sanitation",
    "final_address": "4900 Chantilly Dr",
    "address_councildis": "E",
    "status": "Pending",
    "rowid": "1032712",
    "final_x": "3700715.95089",
    "final_y": "555084.762137",
    "longitude": "-90.00653207473009",
    "latitude": "30.01969266796388",
    "geocoded_column": {
      "latitude": "30.01969266796388",
      "longitude": "-90.00653207473009"
    }
  },
  {
    "service_request": "2023-1032711",
    "request_type": "Trash/Recycling",
    "request_reason": "Order Recycling Cart",
    "date_created": "2023-09-06T16:38:07.000",
    "date_modified": "2023-09-06T16:38:07.000",
    "request_status": "Pending",
    "responsible_agency": "Department of Sanitation",
    "final_address": "4934 Donna Dr",
    "address_councildis": "E",
    "status": "Pending",
    "rowid": "1032711",
    "final_x": "3710810.28766",
    "final_y": "557044.115162",
    "longitude": "-89.97456418062018",
    "latitude": "30.024754867048017",
    "geocoded_column": {
      "latitude": "30.024754867048017",
      "longitude": "-89.97456418062018"
    }
  },
  {
    "service_request": "2023-1032710",
    "request_type": "Parks & Parkways",
    "request_reason": "Request Tree Service (Right of Way/Public Property)",
    "date_created": "2023-09-06T16:35:51.000",
    "date_modified": "2023-09-06T16:47:52.000",
    "request_status": "Pending",
    "responsible_agency": "Department of Parks & Parkway",
    "final_address": "334 OKeefe Ave",
    "address_councildis": "B",
    "status": "Pending",
    "rowid": "1032710",
    "final_x": "3679747.31624",
    "final_y": "530153.936449",
    "longitude": "-90.07365208575929",
    "latitude": "29.95179256758149",
    "geocoded_column": {
      "latitude": "29.95179256758149",
      "longitude": "-90.07365208575929"
    }
  },
  {
    "service_request": "2023-1032709",
    "request_type": "Abandoned Vehicles",
    "request_reason": "Abandoned/Junk Vehicles",
    "date_created": "2023-09-06T16:26:02.000",
    "date_modified": "2023-09-06T16:26:02.000",
    "request_status": "Pending",
    "responsible_agency": "Department of Public Works",
    "final_address": "3512 Republic St",
    "address_councildis": "D",
    "status": "Pending",
    "rowid": "1032709",
    "final_x": "3680424.14389",
    "final_y": "545368.64616",
    "longitude": "-90.07098573305397",
    "latitude": "29.993607294045134",
    "geocoded_column": {
      "latitude": "29.993607294045134",
      "longitude": "-90.07098573305397"
    }
  },
  {
    "service_request": "2023-1032708",
    "request_type": "Parks & Parkways",
    "request_reason": "Request Tree Service (Right of Way/Public Property)",
    "date_created": "2023-09-06T16:25:45.000",
    "date_modified": "2023-09-06T16:32:01.000",
    "request_status": "Pending",
    "responsible_agency": "Department of Parks & Parkway",
    "final_address": "510 S Norman C Francis Prkwy",
    "address_councildis": "B",
    "status": "Pending",
    "rowid": "1032708",
    "final_x": "3672287.98817",
    "final_y": "535268.299142",
    "longitude": "-90.09703089596817",
    "latitude": "29.966078738890364",
    "geocoded_column": {
      "latitude": "29.966078738890364",
      "longitude": "-90.09703089596817"
    }
  },
  {
    "service_request": "2023-1032707",
    "request_type": "Trash/Recycling",
    "request_reason": "Missed Trash Pick-Up",
    "date_created": "2023-09-06T16:23:41.000",
    "date_modified": "2023-09-06T16:28:41.000",
    "request_status": "Pending",
    "responsible_agency": "Department of Sanitation",
    "final_address": "4917 N Claiborne Ave, New Orleans, Louisiana, 70117",
    "address_councildis": "E",
    "status": "Assigned to Contractor",
    "contractor": "Waste Pro",
    "rowid": "1032707",
    "final_x": "3696055.05878",
    "final_y": "536280.002119",
    "longitude": "-90.02193890627353",
    "latitude": "29.96813405197663",
    "geocoded_column": {
      "latitude": "29.96813405197663",
      "longitude": "-90.02193890627353"
    }
  },
  {
    "service_request": "2023-1032706",
    "request_type": "Trash/Recycling",
    "request_reason": "Replace Trash Cart",
    "date_created": "2023-09-06T16:20:36.000",
    "date_modified": "2023-09-06T16:23:42.000",
    "request_status": "Pending",
    "responsible_agency": "Department of Sanitation",
    "final_address": "340 Elmira Ave",
    "address_councildis": "C",
    "status": "Assigned to Contractor",
    "contractor": "Richards Disposal",
    "rowid": "1032706",
    "final_x": "3688272.79503",
    "final_y": "530419.90829",
    "longitude": "-90.04672333726965",
    "latitude": "29.95226343309295",
    "geocoded_column": {
      "latitude": "29.95226343309295",
      "longitude": "-90.04672333726965"
    }
  },
  {
    "service_request": "2023-1032705",
    "request_type": "Roads/Drainage",
    "request_reason": "Pothole",
    "date_created": "2023-09-06T16:16:06.000",
    "date_modified": "2023-09-06T16:16:06.000",
    "request_status": "Pending",
    "responsible_agency": "Department of Public Works",
    "final_address": "6026 Paris Ave",
    "address_councildis": "D",
    "status": "Pending",
    "rowid": "1032705",
    "final_x": "3678668.87189",
    "final_y": "554580.345112",
    "longitude": "-90.07621112501809",
    "latitude": "30.01898922915417",
    "geocoded_column": {
      "latitude": "30.01898922915417",
      "longitude": "-90.07621112501809"
    }
  },
  {
    "service_request": "2023-1032704",
    "request_type": "Abandoned Vehicles",
    "request_reason": "Abandoned/Junk Vehicles",
    "date_created": "2023-09-06T16:11:49.000",
    "date_modified": "2023-09-06T16:11:50.000",
    "request_status": "Pending",
    "responsible_agency": "Department of Public Works",
    "final_address": "2710 Ap Tureaud Ave",
    "address_councildis": "D",
    "status": "Pending",
    "rowid": "1032704",
    "final_x": "3681419.99221",
    "final_y": "542412.843597",
    "longitude": "-90.0679431141945",
    "latitude": "29.985449674946782",
    "geocoded_column": {
      "latitude": "29.985449674946782",
      "longitude": "-90.0679431141945"
    }
  },
  {
    "service_request": "2023-1032703",
    "request_type": "Abandoned Vehicles",
    "request_reason": "Abandoned/Junk Vehicles",
    "date_created": "2023-09-06T16:10:03.000",
    "date_modified": "2023-09-06T16:10:03.000",
    "request_status": "Pending",
    "responsible_agency": "Department of Public Works",
    "final_address": "7121 Yorktown Dr",
    "address_councildis": "E",
    "status": "Pending",
    "rowid": "1032703",
    "final_x": "3706006.38155",
    "final_y": "560973.86627",
    "longitude": "-89.98959797462436",
    "latitude": "30.03571590534759",
    "geocoded_column": {
      "latitude": "30.03571590534759",
      "longitude": "-89.98959797462436"
    }
  },
  {
    "service_request": "2023-1032702",
    "request_type": "Trash/Recycling",
    "request_reason": "Order Trash Cart",
    "date_created": "2023-09-06T16:09:57.000",
    "date_modified": "2023-09-06T16:09:58.000",
    "request_status": "Pending",
    "responsible_agency": "Department of Sanitation",
    "final_address": "120 N Hennessey St",
    "address_councildis": "A",
    "status": "Assigned to Contractor",
    "contractor": "Richards Disposal",
    "rowid": "1032702",
    "final_x": "3670481.74875",
    "final_y": "539142.447818",
    "longitude": "-90.10260356073394",
    "latitude": "29.97678480804073",
    "geocoded_column": {
      "latitude": "29.97678480804073",
      "longitude": "-90.10260356073394"
    }
  },
  {
    "service_request": "2023-1032701",
    "request_type": "Property Maintenance",
    "request_reason": "Property Maintenance",
    "date_created": "2023-09-06T16:08:24.000",
    "date_modified": "2023-09-06T16:08:25.000",
    "request_status": "Pending",
    "responsible_agency": "Department of Code Enforcement",
    "final_address": "4937 N Galvez St",
    "address_councildis": "E",
    "status": "Pending",
    "rowid": "1032701",
    "final_x": "3696901.00567",
    "final_y": "538078.167241",
    "longitude": "-90.0192022599555",
    "latitude": "29.97305171367157",
    "geocoded_column": {
      "latitude": "29.97305171367157",
      "longitude": "-90.0192022599555"
    }
  },
  {
    "service_request": "2023-1032700",
    "request_type": "Trash/Recycling",
    "request_reason": "Missed Trash Pick-Up",
    "date_created": "2023-09-06T16:06:15.000",
    "date_modified": "2023-09-06T16:06:16.000",
    "request_status": "Pending",
    "responsible_agency": "Department of Sanitation",
    "final_address": "6390 Eastover Dr",
    "address_councildis": "E",
    "status": "Assigned to Contractor",
    "contractor": "Waste Pro",
    "rowid": "1032700",
    "final_x": "3718165.90578",
    "final_y": "563340.759008",
    "longitude": "-89.95108193212951",
    "latitude": "30.0418262096572",
    "geocoded_column": {
      "latitude": "30.0418262096572",
      "longitude": "-89.95108193212951"
    }
  },
  {
    "service_request": "2023-1032699",
    "request_type": "Trash/Recycling",
    "request_reason": "Repair Trash Cart",
    "date_created": "2023-09-06T16:02:54.000",
    "date_modified": "2023-09-06T16:02:55.000",
    "request_status": "Pending",
    "responsible_agency": "Department of Sanitation",
    "final_address": "4919 Coronado Dr",
    "address_councildis": "E",
    "status": "Assigned to Contractor",
    "contractor": "Waste Pro",
    "rowid": "1032699",
    "final_x": "3714092.26559",
    "final_y": "557464.697947",
    "longitude": "-89.96417791358459",
    "latitude": "30.025803883133737",
    "geocoded_column": {
      "latitude": "30.025803883133737",
      "longitude": "-89.96417791358459"
    }
  },
  {
    "service_request": "2023-1032698",
    "request_type": "Trash/Recycling",
    "request_reason": "Request a Large Item Pick Up",
    "date_created": "2023-09-06T16:02:53.000",
    "date_modified": "2023-09-06T16:02:54.000",
    "request_status": "Pending",
    "responsible_agency": "Department of Sanitation",
    "final_address": "2020 Barracks St",
    "address_councildis": "D",
    "status": "Assigned to Contractor",
    "contractor": "Richards Disposal",
    "rowid": "1032698",
    "final_x": "3680078.49512",
    "final_y": "537091.329928",
    "longitude": "-90.07236532258773",
    "latitude": "29.970858024687544",
    "geocoded_column": {
      "latitude": "29.970858024687544",
      "longitude": "-90.07236532258773"
    }
  },
  {
    "service_request": "2023-1032697",
    "request_type": "Trash/Recycling",
    "request_reason": "Missed Trash Pick-Up",
    "date_created": "2023-09-06T16:01:52.000",
    "date_modified": "2023-09-06T16:01:53.000",
    "request_status": "Pending",
    "responsible_agency": "Department of Sanitation",
    "status": "Assigned to Contractor",
    "rowid": "1032697",
    "longitude": "0.0",
    "latitude": "0.0",
    "geocoded_column": {
      "latitude": "0.0",
      "longitude": "0.0"
    }
  },
  {
    "service_request": "2023-1032695",
    "request_type": "Trash/Recycling",
    "request_reason": "Replace Trash Cart",
    "date_created": "2023-09-06T15:55:24.000",
    "date_modified": "2023-09-06T15:55:24.000",
    "request_status": "Pending",
    "responsible_agency": "Department of Sanitation",
    "final_address": "3120 Jefferson Ave",
    "address_councildis": "A",
    "status": "Assigned to Contractor",
    "contractor": "Richards Disposal",
    "rowid": "1032695",
    "final_x": "3668432.73626",
    "final_y": "526813.845502",
    "longitude": "-90.10949088871412",
    "latitude": "29.94294557655131",
    "geocoded_column": {
      "latitude": "29.94294557655131",
      "longitude": "-90.10949088871412"
    }
  },
  {
    "service_request": "2023-1032694",
    "request_type": "Roads/Drainage",
    "request_reason": "Damaged Sidewalk",
    "date_created": "2023-09-06T15:54:09.000",
    "date_modified": "2023-09-06T15:54:09.000",
    "request_status": "Pending",
    "responsible_agency": "Department of Public Works",
    "final_address": "10201 Deerfield Dr",
    "address_councildis": "E",
    "status": "Pending",
    "rowid": "1032694",
    "final_x": "3709828.64715",
    "final_y": "563466.70448",
    "longitude": "-89.97742582270405",
    "latitude": "30.042446413820727",
    "geocoded_column": {
      "latitude": "30.042446413820727",
      "longitude": "-89.97742582270405"
    }
  },
  {
    "service_request": "2023-1032693",
    "request_type": "Trash/Recycling",
    "request_reason": "Missed Trash Pick-Up",
    "date_created": "2023-09-06T15:53:49.000",
    "date_modified": "2023-09-06T15:53:50.000",
    "request_status": "Pending",
    "responsible_agency": "Department of Sanitation",
    "final_address": "3513 S Tonti St",
    "address_councildis": "B",
    "status": "Assigned to Contractor",
    "contractor": "Richards Disposal",
    "rowid": "1032693",
    "final_x": "3671082.03751",
    "final_y": "528306.87072",
    "longitude": "-90.10107568740045",
    "latitude": "29.946972836542376",
    "geocoded_column": {
      "latitude": "29.946972836542376",
      "longitude": "-90.10107568740045"
    }
  },
  {
    "service_request": "2023-1032692",
    "request_type": "Trash/Recycling",
    "request_reason": "Repair Recycling Cart",
    "date_created": "2023-09-06T15:53:37.000",
    "date_modified": "2023-09-06T15:53:37.000",
    "request_status": "Pending",
    "responsible_agency": "Department of Sanitation",
    "final_address": "6060 Kingston Ct",
    "address_councildis": "C",
    "status": "Pending",
    "rowid": "1032692",
    "final_x": "3706437.48228",
    "final_y": "517825.385782",
    "longitude": "-89.9898344123511",
    "latitude": "29.91705961033264",
    "geocoded_column": {
      "latitude": "29.91705961033264",
      "longitude": "-89.9898344123511"
    }
  },
  {
    "service_request": "2023-1032691",
    "request_type": "Trash/Recycling",
    "request_reason": "Start Trash Service",
    "date_created": "2023-09-06T15:53:34.000",
    "date_modified": "2023-09-06T15:53:35.000",
    "request_status": "Pending",
    "responsible_agency": "Department of Sanitation",
    "final_address": "535 Elmira Ave",
    "address_councildis": "C",
    "status": "Assigned to Contractor",
    "contractor": "Richards Disposal",
    "rowid": "1032691",
    "final_x": "3688150.25711",
    "final_y": "529619.401345",
    "longitude": "-90.04713862668795",
    "latitude": "29.9500660963469",
    "geocoded_column": {
      "latitude": "29.9500660963469",
      "longitude": "-90.04713862668795"
    }
  },
  {
    "service_request": "2023-1032690",
    "request_type": "Abandoned Vehicles",
    "request_reason": "Abandoned/Junk Vehicles",
    "date_created": "2023-09-06T15:53:20.000",
    "date_modified": "2023-09-06T15:53:20.000",
    "request_status": "Pending",
    "responsible_agency": "Department of Public Works",
    "final_address": "1701 Prytania St",
    "address_councildis": "B",
    "status": "Pending",
    "rowid": "1032690",
    "final_x": "3679267.94178",
    "final_y": "524722.120316",
    "longitude": "-90.07535401742466",
    "latitude": "29.936871364081135",
    "geocoded_column": {
      "latitude": "29.936871364081135",
      "longitude": "-90.07535401742466"
    }
  },
  {
    "service_request": "2023-1032688",
    "request_type": "Trash/Recycling",
    "request_reason": "Return Trash Cart",
    "date_created": "2023-09-06T15:51:37.000",
    "date_modified": "2023-09-06T15:51:37.000",
    "request_status": "Pending",
    "responsible_agency": "Department of Sanitation",
    "final_address": "3518 Lang St",
    "address_councildis": "C",
    "status": "Assigned to Contractor",
    "contractor": "Richards Disposal",
    "rowid": "1032688",
    "final_x": "3702026.3793",
    "final_y": "518065.589174",
    "longitude": "-90.00374882817802",
    "latitude": "29.91786156394569",
    "geocoded_column": {
      "latitude": "29.91786156394569",
      "longitude": "-90.00374882817802"
    }
  },
  {
    "service_request": "2023-1032687",
    "request_type": "Trash/Recycling",
    "request_reason": "Repair Trash Cart",
    "date_created": "2023-09-06T15:50:59.000",
    "date_modified": "2023-09-06T15:51:00.000",
    "request_status": "Pending",
    "responsible_agency": "Department of Sanitation",
    "final_address": "3518 Lang St",
    "address_councildis": "C",
    "status": "Assigned to Contractor",
    "contractor": "Richards Disposal",
    "rowid": "1032687",
    "final_x": "3702026.3793",
    "final_y": "518065.589174",
    "longitude": "-90.00374882817802",
    "latitude": "29.91786156394569",
    "geocoded_column": {
      "latitude": "29.91786156394569",
      "longitude": "-90.00374882817802"
    }
  },
  {
    "service_request": "2023-1032684",
    "request_type": "Parks & Parkways",
    "request_reason": "Request Tree Service (Right of Way/Public Property)",
    "date_created": "2023-09-06T15:50:28.000",
    "date_modified": "2023-09-06T15:50:29.000",
    "request_status": "Pending",
    "responsible_agency": "Department of Parks & Parkway",
    "final_address": "4740 Banks St",
    "address_councildis": "A",
    "status": "Pending",
    "rowid": "1032684",
    "final_x": "3668083.70356",
    "final_y": "539035.249098",
    "longitude": "-90.11018097887147",
    "latitude": "29.976560652723332",
    "geocoded_column": {
      "latitude": "29.976560652723332",
      "longitude": "-90.11018097887147"
    }
  },
  {
    "service_request": "2023-1032683",
    "request_type": "Abandoned Vehicles",
    "request_reason": "Abandoned/Junk Vehicles",
    "date_created": "2023-09-06T15:50:13.000",
    "date_modified": "2023-09-06T15:50:13.000",
    "request_status": "Pending",
    "responsible_agency": "Department of Public Works",
    "final_address": "3800 BLK Buchanan St",
    "address_councildis": "D",
    "status": "Pending",
    "rowid": "1032683",
    "final_x": "3677361.0747",
    "final_y": "546252.500787",
    "longitude": "-90.08063097966156",
    "latitude": "29.996130015414007",
    "geocoded_column": {
      "latitude": "29.996130015414007",
      "longitude": "-90.08063097966156"
    }
  },
  {
    "service_request": "2023-1032682",
    "request_type": "Utility Poles",
    "request_reason": "Utility Pole Leaning",
    "date_created": "2023-09-06T15:43:57.000",
    "date_modified": "2023-09-06T15:44:00.000",
    "request_status": "Pending",
    "responsible_agency": "Utility Company Collective",
    "final_address": "2800 BLK Saint Claude Ave",
    "address_councildis": "C",
    "status": "Pending",
    "rowid": "1032682",
    "final_x": "3687879.02972",
    "final_y": "536348.828993",
    "longitude": "-90.04775662484992",
    "latitude": "29.96857806290784",
    "geocoded_column": {
      "latitude": "29.96857806290784",
      "longitude": "-90.04775662484992"
    }
  },
  {
    "service_request": "2023-1032681",
    "request_type": "Trash/Recycling",
    "request_reason": "Request a Large Item Pick Up",
    "date_created": "2023-09-06T15:43:34.000",
    "date_modified": "2023-09-06T15:43:34.000",
    "request_status": "Pending",
    "responsible_agency": "Department of Sanitation",
    "final_address": "6736 Coventry St",
    "address_councildis": "E",
    "status": "Assigned to Contractor",
    "contractor": "Waste Pro",
    "rowid": "1032681",
    "final_x": "3698233.45098",
    "final_y": "559465.776989",
    "longitude": "-90.01421655653228",
    "latitude": "30.031817589486497",
    "geocoded_column": {
      "latitude": "30.031817589486497",
      "longitude": "-90.01421655653228"
    }
  },
  {
    "service_request": "2023-1032680",
    "request_type": "Traffic Signals/Signs/Striping/Streetlights",
    "request_reason": "Street Light Outage/Malfunction",
    "date_created": "2023-09-06T15:38:42.000",
    "date_modified": "2023-09-06T15:38:42.000",
    "request_status": "Pending",
    "responsible_agency": "Department of Public Works",
    "final_address": "4627 S Claiborne Ave",
    "address_councildis": "B",
    "status": "Assigned to Contractor",
    "contractor": "Legacy Professional Services",
    "rowid": "1032680",
    "final_x": "3669366.70708",
    "final_y": "525879.283709",
    "longitude": "-90.1065736974965",
    "latitude": "29.94034837190073",
    "geocoded_column": {
      "latitude": "29.94034837190073",
      "longitude": "-90.1065736974965"
    }
  },
  {
    "service_request": "2023-1032679",
    "request_type": "Trash/Recycling",
    "request_reason": "Missed Trash Pick-Up",
    "date_created": "2023-09-06T15:34:00.000",
    "date_modified": "2023-09-06T15:34:00.000",
    "request_status": "Pending",
    "responsible_agency": "Department of Sanitation",
    "final_address": "200 Cypress Grove Ct",
    "address_councildis": "C",
    "status": "Assigned to Contractor",
    "contractor": "Richards Disposal",
    "rowid": "1032679",
    "final_x": "3704810.49201",
    "final_y": "511960.429936",
    "longitude": "-89.99518603446042",
    "latitude": "29.90098534279596",
    "geocoded_column": {
      "latitude": "29.90098534279596",
      "longitude": "-89.99518603446042"
    }
  },
  {
    "service_request": "2023-1032678",
    "request_type": "Trash/Recycling",
    "request_reason": "Request a Large Item Pick Up",
    "date_created": "2023-09-06T15:33:24.000",
    "date_modified": "2023-09-06T15:33:25.000",
    "request_status": "Pending",
    "responsible_agency": "Department of Sanitation",
    "final_address": "13513 St Marie Dr",
    "address_councildis": "E",
    "status": "Assigned to Contractor",
    "contractor": "Waste Pro",
    "rowid": "1032678",
    "final_x": "3724006.63679",
    "final_y": "569033.871014",
    "longitude": "-89.93240332593814",
    "latitude": "30.057284871593595",
    "geocoded_column": {
      "latitude": "30.057284871593595",
      "longitude": "-89.93240332593814"
    }
  },
  {
    "service_request": "2023-1032677",
    "request_type": "Trash/Recycling",
    "request_reason": "MIssed Recycling Pick-Up",
    "date_created": "2023-09-06T15:30:33.000",
    "date_modified": "2023-09-06T15:30:33.000",
    "request_status": "Pending",
    "responsible_agency": "Department of Sanitation",
    "final_address": "10901 Morrison Rd",
    "address_councildis": "E",
    "status": "Assigned to Contractor",
    "contractor": "Waste Pro",
    "rowid": "1032677",
    "final_x": "3710752.20824",
    "final_y": "564858.67101",
    "longitude": "-89.97445486473423",
    "latitude": "30.046243680097923",
    "geocoded_column": {
      "latitude": "30.046243680097923",
      "longitude": "-89.97445486473423"
    }
  },
  {
    "service_request": "2023-1032676",
    "request_type": "Parks & Parkways",
    "request_reason": "Request Tree Service (Right of Way/Public Property)",
    "date_created": "2023-09-06T15:26:40.000",
    "date_modified": "2023-09-06T15:29:11.000",
    "request_status": "Pending",
    "responsible_agency": "Department of Parks & Parkway",
    "final_address": "1510 Dufossat St",
    "address_councildis": "B",
    "status": "Pending",
    "rowid": "1032676",
    "final_x": "3668056.60557",
    "final_y": "520488.290616",
    "longitude": "-90.11089149314375",
    "latitude": "29.925563366387376",
    "geocoded_column": {
      "latitude": "29.925563366387376",
      "longitude": "-90.11089149314375"
    }
  },
  {
    "service_request": "2023-1032675",
    "request_type": "Traffic Signals/Signs/Striping/Streetlights",
    "request_reason": "Street Light Outage/Malfunction",
    "date_created": "2023-09-06T15:26:28.000",
    "date_modified": "2023-09-06T15:26:29.000",
    "request_status": "Pending",
    "responsible_agency": "Department of Public Works",
    "final_address": "6400 BLK Wales St",
    "address_councildis": "E",
    "status": "Assigned to Contractor",
    "contractor": "Legacy Professional Services",
    "rowid": "1032675",
    "final_x": "3696469.5542",
    "final_y": "559912.318283",
    "longitude": "-90.01977436414809",
    "latitude": "30.033101123588658",
    "geocoded_column": {
      "latitude": "30.033101123588658",
      "longitude": "-90.01977436414809"
    }
  },
  {
    "service_request": "2023-1032674",
    "request_type": "Roads/Drainage",
    "request_reason": "Pothole",
    "date_created": "2023-09-06T15:24:29.000",
    "date_modified": "2023-09-06T15:24:29.000",
    "request_status": "Pending",
    "responsible_agency": "Department of Public Works",
    "final_address": "1421 Constantinople St",
    "address_councildis": "B",
    "status": "Pending",
    "rowid": "1032674",
    "final_x": "3672433.24257",
    "final_y": "520667.657465",
    "longitude": "-90.09706965638372",
    "latitude": "29.925927453713577",
    "geocoded_column": {
      "latitude": "29.925927453713577",
      "longitude": "-90.09706965638372"
    }
  },
  {
    "service_request": "2023-1032673",
    "request_type": "Trash/Recycling",
    "request_reason": "Order Trash Cart",
    "date_created": "2023-09-06T15:24:15.000",
    "date_modified": "2023-09-06T15:24:15.000",
    "request_status": "Pending",
    "responsible_agency": "Department of Sanitation",
    "final_address": "7404 St Charles Ave",
    "address_councildis": "A",
    "status": "Assigned to Contractor",
    "contractor": "Richards Disposal",
    "rowid": "1032673",
    "final_x": "3662391.51763",
    "final_y": "525070.223293",
    "longitude": "-90.1286224570362",
    "latitude": "29.938327208903317",
    "geocoded_column": {
      "latitude": "29.938327208903317",
      "longitude": "-90.1286224570362"
    }
  },
  {
    "service_request": "2023-1032672",
    "request_type": "Trash/Recycling",
    "request_reason": "Request a Large Item Pick Up",
    "date_created": "2023-09-06T15:23:35.000",
    "date_modified": "2023-09-06T15:23:36.000",
    "request_status": "Pending",
    "responsible_agency": "Department of Sanitation",
    "final_address": "5300 Toulon St",
    "address_councildis": "E",
    "status": "Assigned to Contractor",
    "contractor": "Waste Pro",
    "rowid": "1032672",
    "final_x": "3723472.08236",
    "final_y": "562757.60688",
    "longitude": "-89.93433516916612",
    "latitude": "30.040045712362687",
    "geocoded_column": {
      "latitude": "30.040045712362687",
      "longitude": "-89.93433516916612"
    }
  },
  {
    "service_request": "2023-1032669",
    "request_type": "Roads/Drainage",
    "request_reason": "Pothole",
    "date_created": "2023-09-06T15:19:45.000",
    "date_modified": "2023-09-06T15:19:45.000",
    "request_status": "Pending",
    "responsible_agency": "Department of Public Works",
    "final_address": "1312 Milan St",
    "address_councildis": "B",
    "status": "Pending",
    "rowid": "1032669",
    "final_x": "3671625.82823",
    "final_y": "520286.919608",
    "longitude": "-90.09963137110304",
    "latitude": "29.92490447494246",
    "geocoded_column": {
      "latitude": "29.92490447494246",
      "longitude": "-90.09963137110304"
    }
  },
  {
    "service_request": "2023-1032668",
    "request_type": "Trash/Recycling",
    "request_reason": "Missed Trash Pick-Up",
    "date_created": "2023-09-06T15:19:26.000",
    "date_modified": "2023-09-06T15:19:26.000",
    "request_status": "Closed",
    "responsible_agency": "Department of Sanitation",
    "final_address": "4216 Mccoy St",
    "address_councildis": "E",
    "status": "Invalid Request",
    "rowid": "1032668",
    "final_x": "3711967.34981",
    "final_y": "553752.011799",
    "longitude": "-89.97103177127718",
    "latitude": "30.015665096050245",
    "geocoded_column": {
      "latitude": "30.015665096050245",
      "longitude": "-89.97103177127718"
    }
  },
  {
    "service_request": "2023-1032667",
    "request_type": "Abandoned Vehicles",
    "request_reason": "Abandoned/Junk Vehicles",
    "date_created": "2023-09-06T15:18:36.000",
    "date_modified": "2023-09-06T15:18:36.000",
    "request_status": "Pending",
    "responsible_agency": "Department of Public Works",
    "final_address": "1219 St Roch Ave",
    "address_councildis": "C",
    "status": "Pending",
    "rowid": "1032667",
    "final_x": "3686539.18831",
    "final_y": "536960.144968",
    "longitude": "-90.05196631765905",
    "latitude": "29.97030023443292",
    "geocoded_column": {
      "latitude": "29.97030023443292",
      "longitude": "-90.05196631765905"
    }
  },
  {
    "service_request": "2023-1032666",
    "request_type": "Roads/Drainage",
    "request_reason": "Pothole",
    "date_created": "2023-09-06T15:16:23.000",
    "date_modified": "2023-09-06T15:16:23.000",
    "request_status": "Pending",
    "responsible_agency": "Department of Public Works",
    "final_address": "4216 Chestnut St",
    "address_councildis": "B",
    "status": "Pending",
    "rowid": "1032666",
    "final_x": "3671574.31393",
    "final_y": "519539.203703",
    "longitude": "-90.09981939416457",
    "latitude": "29.922850019854593",
    "geocoded_column": {
      "latitude": "29.922850019854593",
      "longitude": "-90.09981939416457"
    }
  },
  {
    "service_request": "2023-1032665",
    "request_type": "Trash/Recycling",
    "request_reason": "Request a Large Item Pick Up",
    "date_created": "2023-09-06T15:14:49.000",
    "date_modified": "2023-09-06T15:14:50.000",
    "request_status": "Pending",
    "responsible_agency": "Department of Sanitation",
    "final_address": "2306 Wirth Pl, New Orleans, Louisiana, 70115",
    "address_councildis": "A",
    "status": "Assigned to Contractor",
    "contractor": "Richards Disposal",
    "rowid": "1032665",
    "final_x": "3667097.89889",
    "final_y": "524583.149948",
    "longitude": "-90.113780268961",
    "latitude": "29.936851015384125",
    "geocoded_column": {
      "latitude": "29.936851015384125",
      "longitude": "-90.113780268961"
    }
  },
  {
    "service_request": "2023-1032664",
    "request_type": "Trash/Recycling",
    "request_reason": "Request a Large Item Pick Up",
    "date_created": "2023-09-06T15:14:15.000",
    "date_modified": "2023-09-06T15:14:15.000",
    "request_status": "Pending",
    "responsible_agency": "Department of Sanitation",
    "final_address": "629 N Hennessey St",
    "address_councildis": "A",
    "status": "Assigned to Contractor",
    "contractor": "Richards Disposal",
    "rowid": "1032664",
    "final_x": "3671498.2555",
    "final_y": "540606.884427",
    "longitude": "-90.09934329650847",
    "latitude": "29.980781450560443",
    "geocoded_column": {
      "latitude": "29.980781450560443",
      "longitude": "-90.09934329650847"
    }
  },
  {
    "service_request": "2023-1032663",
    "request_type": "Roads/Drainage",
    "request_reason": "Catch Basin - Clogged",
    "date_created": "2023-09-06T15:14:00.000",
    "date_modified": "2023-09-06T15:14:00.000",
    "request_status": "Pending",
    "responsible_agency": "Department of Public Works",
    "final_address": "813 Bienville St",
    "address_councildis": "C",
    "status": "Pending",
    "rowid": "1032663",
    "final_x": "3681290.31592",
    "final_y": "531613.338435",
    "longitude": "-90.06872917517202",
    "latitude": "29.95575869670193",
    "geocoded_column": {
      "latitude": "29.95575869670193",
      "longitude": "-90.06872917517202"
    }
  },
  {
    "service_request": "2023-1032662",
    "request_type": "Traffic Signals/Signs/Striping/Streetlights",
    "request_reason": "Street Name Sign Damaged or Missing",
    "date_created": "2023-09-06T15:11:13.000",
    "date_modified": "2023-09-06T15:11:13.000",
    "request_status": "Pending",
    "responsible_agency": "Department of Public Works",
    "final_address": "5601 Hawthorne Pl",
    "address_councildis": "A",
    "status": "Pending",
    "rowid": "1032662",
    "final_x": "3667888.50548",
    "final_y": "544650.536399",
    "longitude": "-90.11060822826232",
    "latitude": "29.99200651567988",
    "geocoded_column": {
      "latitude": "29.99200651567988",
      "longitude": "-90.11060822826232"
    }
  },
  {
    "service_request": "2023-1032659",
    "request_type": "Parks & Parkways",
    "request_reason": "Request Tree Service (Right of Way/Public Property)",
    "date_created": "2023-09-06T15:11:10.000",
    "date_modified": "2023-09-06T15:20:18.000",
    "case_close_date": "2023-09-06T10:20:18.000",
    "request_status": "Closed",
    "responsible_agency": "Department of Parks & Parkway",
    "final_address": "9020 Lake Forest Blvd",
    "address_councildis": "E",
    "status": "Resolved",
    "rowid": "1032659",
    "final_x": "3707565.40203",
    "final_y": "558332.959388",
    "longitude": "-89.98476945526308",
    "latitude": "30.028404087661496",
    "geocoded_column": {
      "latitude": "30.028404087661496",
      "longitude": "-89.98476945526308"
    }
  },
  {
    "service_request": "2023-1032658",
    "request_type": "Roads/Drainage",
    "request_reason": "Pothole",
    "date_created": "2023-09-06T15:10:54.000",
    "date_modified": "2023-09-06T15:10:54.000",
    "request_status": "Pending",
    "responsible_agency": "Department of Public Works",
    "final_address": "1423 General Pershing St",
    "address_councildis": "B",
    "status": "Pending",
    "rowid": "1032658",
    "final_x": "3671330.69185",
    "final_y": "520571.244024",
    "longitude": "-90.1005533659415",
    "latitude": "29.925695010510914",
    "geocoded_column": {
      "latitude": "29.925695010510914",
      "longitude": "-90.1005533659415"
    }
  },
  {
    "service_request": "2023-1032657",
    "request_type": "Trash/Recycling",
    "request_reason": "Request a Large Item Pick Up",
    "date_created": "2023-09-06T15:10:31.000",
    "date_modified": "2023-09-06T15:10:32.000",
    "request_status": "Pending",
    "responsible_agency": "Department of Sanitation",
    "final_address": "6942 Thor Ct",
    "address_councildis": "E",
    "status": "Assigned to Contractor",
    "contractor": "Waste Pro",
    "rowid": "1032657",
    "final_x": "3702578.52266",
    "final_y": "558475.138012",
    "longitude": "-90.00052239656036",
    "latitude": "30.028955460918343",
    "geocoded_column": {
      "latitude": "30.028955460918343",
      "longitude": "-90.00052239656036"
    }
  },
  {
    "service_request": "2023-1032656",
    "request_type": "Roads/Drainage",
    "request_reason": "Alley Way",
    "date_created": "2023-09-06T15:09:26.000",
    "date_modified": "2023-09-06T15:09:26.000",
    "request_status": "Pending",
    "responsible_agency": "Department of Public Works",
    "final_address": "5516 Hawthorne Pl",
    "address_councildis": "A",
    "status": "Pending",
    "rowid": "1032656",
    "final_x": "3667714.02381",
    "final_y": "544393.833743",
    "longitude": "-90.1111680309256",
    "latitude": "29.991305789605686",
    "geocoded_column": {
      "latitude": "29.991305789605686",
      "longitude": "-90.1111680309256"
    }
  },
  {
    "service_request": "2023-1032655",
    "request_type": "Abandoned Vehicles",
    "request_reason": "Abandoned/Junk Vehicles",
    "date_created": "2023-09-06T15:08:58.000",
    "date_modified": "2023-09-06T15:08:58.000",
    "request_status": "Pending",
    "responsible_agency": "Department of Public Works",
    "final_address": "2415 Peniston St",
    "address_councildis": "B",
    "status": "Pending",
    "rowid": "1032655",
    "final_x": "3672262.10036",
    "final_y": "524036.298172",
    "longitude": "-90.09749521269318",
    "latitude": "29.93519520654297",
    "geocoded_column": {
      "latitude": "29.93519520654297",
      "longitude": "-90.09749521269318"
    }
  },
  {
    "service_request": "2023-1032654",
    "request_type": "Abandoned Vehicles",
    "request_reason": "Abandoned/Junk Vehicles",
    "date_created": "2023-09-06T15:05:10.000",
    "date_modified": "2023-09-06T15:05:10.000",
    "request_status": "Pending",
    "responsible_agency": "Department of Public Works",
    "final_address": "1703 Frenchmen St",
    "address_councildis": "D",
    "status": "Pending",
    "rowid": "1032654",
    "final_x": "3684448.15241",
    "final_y": "538527.713993",
    "longitude": "-90.05851494719317",
    "latitude": "29.974674634501245",
    "geocoded_column": {
      "latitude": "29.974674634501245",
      "longitude": "-90.05851494719317"
    }
  },
  {
    "service_request": "2023-1032653",
    "request_type": "Traffic Signals/Signs/Striping/Streetlights",
    "request_reason": "Striping/Road Surface Markings",
    "date_created": "2023-09-06T15:01:54.000",
    "date_modified": "2023-09-06T15:01:54.000",
    "request_status": "Pending",
    "responsible_agency": "Department of Public Works",
    "final_address": "618 Homedale St",
    "address_councildis": "A",
    "status": "Pending",
    "rowid": "1032653",
    "final_x": "3668010.51802",
    "final_y": "544539.588879",
    "longitude": "-90.11022655523534",
    "latitude": "29.991697867400248",
    "geocoded_column": {
      "latitude": "29.991697867400248",
      "longitude": "-90.11022655523534"
    }
  },
  {
    "service_request": "2023-1032652",
    "request_type": "Traffic Signals/Signs/Striping/Streetlights",
    "request_reason": "Street Light Outage/Malfunction",
    "date_created": "2023-09-06T14:52:56.000",
    "date_modified": "2023-09-06T14:52:57.000",
    "request_status": "Pending",
    "responsible_agency": "Department of Public Works",
    "final_address": "5120 St Charles Ave",
    "address_councildis": "B",
    "status": "Assigned to Contractor",
    "contractor": "Legacy Professional Services",
    "rowid": "1032652",
    "final_x": "3668257.95028",
    "final_y": "520882.598329",
    "longitude": "-90.1102426213579",
    "latitude": "29.926641679511686",
    "geocoded_column": {
      "latitude": "29.926641679511686",
      "longitude": "-90.1102426213579"
    }
  },
  {
    "service_request": "2023-1032651",
    "request_type": "Graffiti Removal",
    "request_reason": "Graffiti Removal",
    "date_created": "2023-09-06T14:51:03.000",
    "date_modified": "2023-09-06T14:51:03.000",
    "request_status": "Pending",
    "responsible_agency": "Department of Code Enforcement",
    "final_address": "5606 Canal Blvd",
    "address_councildis": "A",
    "status": "Pending",
    "rowid": "1032651",
    "final_x": "3668091.54477",
    "final_y": "544673.413647",
    "longitude": "-90.1099660949842",
    "latitude": "29.9920634612342",
    "geocoded_column": {
      "latitude": "29.9920634612342",
      "longitude": "-90.1099660949842"
    }
  },
  {
    "service_request": "2023-1032650",
    "request_type": "Traffic Signals/Signs/Striping/Streetlights",
    "request_reason": "Request for Stop Sign",
    "date_created": "2023-09-06T14:50:24.000",
    "date_modified": "2023-09-06T14:50:24.000",
    "request_status": "Pending",
    "responsible_agency": "Department of Public Works",
    "final_address": "GERMAIN ST & VICKSBURG ST",
    "address_councildis": "A",
    "status": "Pending",
    "rowid": "1032650",
    "final_x": "3668930.1",
    "final_y": "547901.58",
    "longitude": "-90.10720814472953",
    "latitude": "30.000915160512857",
    "geocoded_column": {
      "latitude": "30.000915160512857",
      "longitude": "-90.10720814472953"
    }
  },
  {
    "service_request": "2023-1032649",
    "request_type": "Roads/Drainage",
    "request_reason": "Damaged Sidewalk",
    "date_created": "2023-09-06T14:49:07.000",
    "date_modified": "2023-09-06T14:49:07.000",
    "request_status": "Pending",
    "responsible_agency": "Department of Public Works",
    "final_address": "757 French St",
    "address_councildis": "A",
    "status": "Pending",
    "rowid": "1032649",
    "final_x": "3669074.96801",
    "final_y": "548605.633875",
    "longitude": "-90.1067266846821",
    "latitude": "30.002846800744027",
    "geocoded_column": {
      "latitude": "30.002846800744027",
      "longitude": "-90.1067266846821"
    }
  },
  {
    "service_request": "2023-1032648",
    "request_type": "Roads/Drainage",
    "request_reason": "Pothole",
    "date_created": "2023-09-06T14:48:15.000",
    "date_modified": "2023-09-06T14:48:15.000",
    "request_status": "Pending",
    "responsible_agency": "Department of Public Works",
    "final_address": "100 BLK Henry Clay Ave",
    "address_councildis": "A",
    "status": "Pending",
    "rowid": "1032648",
    "final_x": "3662979.62938",
    "final_y": "517557.039477",
    "longitude": "-90.12701544057285",
    "latitude": "29.91765129549873",
    "geocoded_column": {
      "latitude": "29.91765129549873",
      "longitude": "-90.12701544057285"
    }
  },
  {
    "service_request": "2023-1032647",
    "request_type": "Trash/Recycling",
    "request_reason": "MIssed Recycling Pick-Up",
    "date_created": "2023-09-06T14:48:13.000",
    "date_modified": "2023-09-06T14:48:28.000",
    "request_status": "Pending",
    "responsible_agency": "Department of Sanitation",
    "final_address": "77 Marywood Ct",
    "address_councildis": "E",
    "status": "Assigned to Contractor",
    "contractor": "Waste Pro",
    "rowid": "1032647",
    "final_x": "3712377.16382",
    "final_y": "566478.057443",
    "longitude": "-89.96925829530883",
    "latitude": "30.050643249398526",
    "geocoded_column": {
      "latitude": "30.050643249398526",
      "longitude": "-89.96925829530883"
    }
  },
  {
    "service_request": "2023-1032646",
    "request_type": "Safety & Permits",
    "request_reason": "Licenses & Permits",
    "date_created": "2023-09-06T14:47:46.000",
    "date_modified": "2023-09-06T14:50:24.000",
    "request_status": "Pending",
    "responsible_agency": "Safety and Permits",
    "final_address": "3835 Tulane Ave",
    "address_councildis": "B",
    "status": "Pending",
    "rowid": "1032646",
    "final_x": "3670340.02906",
    "final_y": "535875.870535",
    "longitude": "-90.10316191897358",
    "latitude": "29.967807004227936",
    "geocoded_column": {
      "latitude": "29.967807004227936",
      "longitude": "-90.10316191897358"
    }
  },
  {
    "service_request": "2023-1032645",
    "request_type": "Traffic Signals/Signs/Striping/Streetlights",
    "request_reason": "Traffic Sign Missing/Damaged",
    "date_created": "2023-09-06T14:47:29.000",
    "date_modified": "2023-09-06T14:47:29.000",
    "request_status": "Pending",
    "responsible_agency": "Department of Public Works",
    "final_address": "5602 Hawthorne Pl",
    "address_councildis": "A",
    "status": "Pending",
    "rowid": "1032645",
    "final_x": "3667786.68602",
    "final_y": "544677.359247",
    "longitude": "-90.11092895232332",
    "latitude": "29.992083256471517",
    "geocoded_column": {
      "latitude": "29.992083256471517",
      "longitude": "-90.11092895232332"
    }
  },
  {
    "service_request": "2023-1032644",
    "request_type": "Roads/Drainage",
    "request_reason": "Street Subsidence (Sinking)",
    "date_created": "2023-09-06T14:45:31.000",
    "date_modified": "2023-09-06T14:45:31.000",
    "request_status": "Pending",
    "responsible_agency": "Department of Public Works",
    "final_address": "618 Homedale St",
    "address_councildis": "A",
    "status": "Pending",
    "rowid": "1032644",
    "final_x": "3668010.51802",
    "final_y": "544539.588879",
    "longitude": "-90.11022655523534",
    "latitude": "29.991697867400248",
    "geocoded_column": {
      "latitude": "29.991697867400248",
      "longitude": "-90.11022655523534"
    }
  },
  {
    "service_request": "2023-1032643",
    "request_type": "Roads/Drainage",
    "request_reason": "Catch Basin - Clogged",
    "date_created": "2023-09-06T14:43:38.000",
    "date_modified": "2023-09-06T14:43:38.000",
    "request_status": "Pending",
    "responsible_agency": "Department of Public Works",
    "final_address": "5516 Hawthorne Pl",
    "address_councildis": "A",
    "status": "Pending",
    "rowid": "1032643",
    "final_x": "3667714.02381",
    "final_y": "544393.833743",
    "longitude": "-90.1111680309256",
    "latitude": "29.991305789605686",
    "geocoded_column": {
      "latitude": "29.991305789605686",
      "longitude": "-90.1111680309256"
    }
  },
  {
    "service_request": "2023-1032642",
    "request_type": "Parks & Parkways",
    "request_reason": "Request Tree Service (Right of Way/Public Property)",
    "date_created": "2023-09-06T14:41:25.000",
    "date_modified": "2023-09-06T14:41:25.000",
    "request_status": "Pending",
    "responsible_agency": "Department of Parks & Parkway",
    "final_address": "6580 Canal Blvd",
    "address_councildis": "A",
    "status": "Pending",
    "rowid": "1032642",
    "final_x": "3668682.38062",
    "final_y": "551322.961557",
    "longitude": "-90.10787511758963",
    "latitude": "30.010330052785744",
    "geocoded_column": {
      "latitude": "30.010330052785744",
      "longitude": "-90.10787511758963"
    }
  },
  {
    "service_request": "2023-1032641",
    "request_type": "Abandoned Vehicles",
    "request_reason": "Abandoned/Junk Vehicles",
    "date_created": "2023-09-06T14:40:58.000",
    "date_modified": "2023-09-06T14:40:58.000",
    "request_status": "Pending",
    "responsible_agency": "Department of Public Works",
    "final_address": "221 N Prieur St",
    "address_councildis": "B",
    "status": "Pending",
    "rowid": "1032641",
    "final_x": "3677853.54664",
    "final_y": "533979.019397",
    "longitude": "-90.07949954772619",
    "latitude": "29.962367367799168",
    "geocoded_column": {
      "latitude": "29.962367367799168",
      "longitude": "-90.07949954772619"
    }
  },
  {
    "service_request": "2023-1032640",
    "request_type": "Trash/Recycling",
    "request_reason": "Return Trash Cart",
    "date_created": "2023-09-06T14:38:53.000",
    "date_modified": "2023-09-06T14:38:54.000",
    "request_status": "Pending",
    "responsible_agency": "Department of Sanitation",
    "final_address": "23 Olympic Ct",
    "address_councildis": "C",
    "status": "Assigned to Contractor",
    "contractor": "Richards Disposal",
    "rowid": "1032640",
    "final_x": "3699668.48336",
    "final_y": "516118.903028",
    "longitude": "-90.01126225707895",
    "latitude": "29.912583859162773",
    "geocoded_column": {
      "latitude": "29.912583859162773",
      "longitude": "-90.01126225707895"
    }
  },
  {
    "service_request": "2023-1032639",
    "request_type": "Trash/Recycling",
    "request_reason": "Repair Trash Cart",
    "date_created": "2023-09-06T14:38:21.000",
    "date_modified": "2023-09-06T14:38:22.000",
    "request_status": "Pending",
    "responsible_agency": "Department of Sanitation",
    "final_address": "23 Olympic Ct",
    "address_councildis": "C",
    "status": "Assigned to Contractor",
    "contractor": "Richards Disposal",
    "rowid": "1032639",
    "final_x": "3699668.48336",
    "final_y": "516118.903028",
    "longitude": "-90.01126225707895",
    "latitude": "29.912583859162773",
    "geocoded_column": {
      "latitude": "29.912583859162773",
      "longitude": "-90.01126225707895"
    }
  },
  {
    "service_request": "2023-1032638",
    "request_type": "Property Maintenance",
    "request_reason": "Property Maintenance",
    "date_created": "2023-09-06T14:36:17.000",
    "date_modified": "2023-09-06T14:36:18.000",
    "request_status": "Pending",
    "responsible_agency": "Department of Code Enforcement",
    "final_address": "1722 Elysian Fields Ave",
    "address_councildis": "D",
    "status": "Pending",
    "rowid": "1032638",
    "final_x": "3684717.6566",
    "final_y": "538702.917449",
    "longitude": "-90.057657627522",
    "latitude": "29.975148135475365",
    "geocoded_column": {
      "latitude": "29.975148135475365",
      "longitude": "-90.057657627522"
    }
  },
  {
    "service_request": "2023-1032637",
    "request_type": "Traffic Signals/Signs/Striping/Streetlights",
    "request_reason": "Street Light Outage/Malfunction",
    "date_created": "2023-09-06T14:29:45.000",
    "date_modified": "2023-09-06T14:29:46.000",
    "request_status": "Pending",
    "responsible_agency": "Department of Public Works",
    "final_address": "BAILEY ST & WINSTON ST",
    "address_councildis": "C",
    "status": "Assigned to Contractor",
    "contractor": "Legacy Professional Services",
    "rowid": "1032637",
    "final_x": "3711151.3",
    "final_y": "518820.78",
    "longitude": "-89.97491850593985",
    "latitude": "29.919643780480406",
    "geocoded_column": {
      "latitude": "29.919643780480406",
      "longitude": "-89.97491850593985"
    }
  },
  {
    "service_request": "2023-1032636",
    "request_type": "Trash/Recycling",
    "request_reason": "Missed Trash Pick-Up",
    "date_created": "2023-09-06T14:23:11.000",
    "date_modified": "2023-09-06T14:23:12.000",
    "request_status": "Pending",
    "responsible_agency": "Department of Sanitation",
    "final_address": "8540 Grant St",
    "address_councildis": "E",
    "status": "Assigned to Contractor",
    "contractor": "Waste Pro",
    "rowid": "1032636",
    "final_x": "3706987.47665",
    "final_y": "554277.771864",
    "longitude": "-89.98674624516225",
    "latitude": "30.017272588329213",
    "geocoded_column": {
      "latitude": "30.017272588329213",
      "longitude": "-89.98674624516225"
    }
  },
  {
    "service_request": "2023-1032635",
    "request_type": "Parks & Parkways",
    "request_reason": "Request Tree Service (Right of Way/Public Property)",
    "date_created": "2023-09-06T14:22:31.000",
    "date_modified": "2023-09-06T14:29:41.000",
    "case_close_date": "2023-09-06T09:29:41.000",
    "request_status": "Closed",
    "responsible_agency": "Department of Parks & Parkway",
    "final_address": "4329 Dreux Ave",
    "address_councildis": "D",
    "status": "Referred to External Agency",
    "rowid": "1032635",
    "final_x": "3689876.56643",
    "final_y": "552870.263255",
    "longitude": "-90.04085979308722",
    "latitude": "30.013944276827363",
    "geocoded_column": {
      "latitude": "30.013944276827363",
      "longitude": "-90.04085979308722"
    }
  },