[
  {
    "service_request": "2022-953018",
    "request_type": "Health Related Request",
    "request_reason": "Noise Ordinance Complaint",
    "date_created": "2022-12-14T00:55:29.000",
    "date_modified": "2022-12-14T00:55:29.000",
    "request_status": "Pending",
    "responsible_agency": "Health Department",
    "final_address": "2227 Painters St",
    "address_councildis": "D",
    "status": "Pending",
    "rowid": "953018",
    "final_x": "3687252.92201",
    "final_y": "540785.222987",
    "longitude": "-90.04957693506594",
    "latitude": "29.980795887651087",
    "geocoded_column": {
      "latitude": "29.980795887651087",
      "longitude": "-90.04957693506594"
    }
  },
  {
    "service_request": "2022-953017",
    "request_type": "Trash/Recycling",
    "request_reason": "Missed Trash Pick-Up",
    "date_created": "2022-12-13T23:58:51.000",
    "date_modified": "2022-12-13T23:58:52.000",
    "request_status": "Pending",
    "responsible_agency": "Department of Sanitation",
    "final_address": "2329 General Meyer Ave",
    "address_councildis": "C",
    "status": "Assigned to Contractor",
    "contractor": "Richards Disposal",
    "rowid": "953017",
    "final_x": "3692652.05296",
    "final_y": "527621.965631",
    "longitude": "-90.03299598049206",
    "latitude": "29.944434123735533",
    "geocoded_column": {
      "latitude": "29.944434123735533",
      "longitude": "-90.03299598049206"
    }
  },
  {
    "service_request": "2022-953016",
    "request_type": "Trash/Recycling",
    "request_reason": "Request a Large Item Pick Up",
    "date_created": "2022-12-13T23:51:28.000",
    "date_modified": "2022-12-13T23:51:29.000",
    "request_status": "Pending",
    "responsible_agency": "Department of Sanitation",
    "final_address": "1843 Marigny St",
    "address_councildis": "D",
    "status": "Assigned to Contractor",
    "contractor": "IV Waste",
    "rowid": "953016",
    "final_x": "3685217.64853",
    "final_y": "539254.242634",
    "longitude": "-90.05605911542231",
    "latitude": "29.97664877134958",
    "geocoded_column": {
      "latitude": "29.97664877134958",
      "longitude": "-90.05605911542231"
    }
  },
  {
    "service_request": "2022-953015",
    "request_type": "Property Maintenance",
    "request_reason": "Property Maintenance",
    "date_created": "2022-12-13T23:48:09.000",
    "date_modified": "2022-12-13T23:48:09.000",
    "request_status": "Pending",
    "responsible_agency": "Department of Code Enforcement",
    "final_address": "1843 Marigny St",
    "address_councildis": "D",
    "status": "Pending",
    "rowid": "953015",
    "final_x": "3685217.64853",
    "final_y": "539254.242634",
    "longitude": "-90.05605911542231",
    "latitude": "29.97664877134958",
    "geocoded_column": {
      "latitude": "29.97664877134958",
      "longitude": "-90.05605911542231"
    }
  },
  {
    "service_request": "2022-953014",
    "request_type": "Trash/Recycling",
    "request_reason": "Illegal Dumping",
    "date_created": "2022-12-13T23:46:46.000",
    "date_modified": "2022-12-13T23:46:46.000",
    "request_status": "Pending",
    "responsible_agency": "Department of Sanitation",
    "final_address": "1843 Marigny St",
    "address_councildis": "D",
    "status": "Pending",
    "rowid": "953014",
    "final_x": "3685217.64853",
    "final_y": "539254.242634",
    "longitude": "-90.05605911542231",
    "latitude": "29.97664877134958",
    "geocoded_column": {
      "latitude": "29.97664877134958",
      "longitude": "-90.05605911542231"
    }
  },
  {
    "service_request": "2022-953013",
    "request_type": "Trash/Recycling",
    "request_reason": "Illegal Dumping",
    "date_created": "2022-12-13T23:46:45.000",
    "date_modified": "2022-12-13T23:46:45.000",
    "request_status": "Pending",
    "responsible_agency": "Department of Sanitation",
    "final_address": "1843 Marigny St",
    "address_councildis": "D",
    "status": "Pending",
    "rowid": "953013",
    "final_x": "3685217.64853",
    "final_y": "539254.242634",
    "longitude": "-90.05605911542231",
    "latitude": "29.97664877134958",
    "geocoded_column": {
      "latitude": "29.97664877134958",
      "longitude": "-90.05605911542231"
    }
  },
  {
    "service_request": "2022-953012",
    "request_type": "Mosquito, Termite & Rodent Control",
    "request_reason": "Mosquito Complaint",
    "date_created": "2022-12-13T23:44:54.000",
    "date_modified": "2022-12-13T23:44:54.000",
    "request_status": "Pending",
    "responsible_agency": "Mosquito, Termite & Rodent Control Board",
    "final_address": "1843 Marigny St",
    "address_councildis": "D",
    "status": "Pending",
    "rowid": "953012",
    "final_x": "3685217.64853",
    "final_y": "539254.242634",
    "longitude": "-90.05605911542231",
    "latitude": "29.97664877134958",
    "geocoded_column": {
      "latitude": "29.97664877134958",
      "longitude": "-90.05605911542231"
    }
  },
  {
    "service_request": "2022-953011",
    "request_type": "Trash/Recycling",
    "request_reason": "Request a Large Item Pick Up",
    "date_created": "2022-12-13T23:43:04.000",
    "date_modified": "2022-12-13T23:43:05.000",
    "request_status": "Pending",
    "responsible_agency": "Department of Sanitation",
    "final_address": "1234 Egania St",
    "address_councildis": "E",
    "status": "Assigned to Contractor",
    "contractor": "Waste Pro",
    "rowid": "953011",
    "final_x": "3696944.63178",
    "final_y": "534738.725894",
    "longitude": "-90.01918543823872",
    "latitude": "29.963868067328434",
    "geocoded_column": {
      "latitude": "29.963868067328434",
      "longitude": "-90.01918543823872"
    }
  },
  {
    "service_request": "2022-953010",
    "request_type": "Trash/Recycling",
    "request_reason": "Order Recycling Cart",
    "date_created": "2022-12-13T22:41:02.000",
    "date_modified": "2022-12-13T22:41:02.000",
    "request_status": "Pending",
    "responsible_agency": "Department of Sanitation",
    "final_address": "1739 Filmore Ave",
    "address_councildis": "D",
    "status": "Pending",
    "rowid": "953010",
    "final_x": "3680183.43496",
    "final_y": "552064.798166",
    "longitude": "-90.07151316443434",
    "latitude": "30.012026610479175",
    "geocoded_column": {
      "latitude": "30.012026610479175",
      "longitude": "-90.07151316443434"
    }
  },
  {
    "service_request": "2022-953009",
    "request_type": "Property Maintenance",
    "request_reason": "Property Maintenance",
    "date_created": "2022-12-13T22:34:16.000",
    "date_modified": "2022-12-13T22:34:17.000",
    "request_status": "Pending",
    "responsible_agency": "Department of Code Enforcement",
    "final_address": "829 N Rocheblave St",
    "address_councildis": "D",
    "status": "Pending",
    "rowid": "953009",
    "final_x": "3677838.00046",
    "final_y": "536820.659528",
    "longitude": "-90.07945044421399",
    "latitude": "29.970181379144364",
    "geocoded_column": {
      "latitude": "29.970181379144364",
      "longitude": "-90.07945044421399"
    }
  },
  {
    "service_request": "2022-953008",
    "request_type": "Trash/Recycling",
    "request_reason": "MIssed Recycling Pick-Up",
    "date_created": "2022-12-13T22:17:30.000",
    "date_modified": "2022-12-13T22:17:30.000",
    "request_status": "Pending",
    "responsible_agency": "Department of Sanitation",
    "final_address": "4011 DHemecourt St",
    "address_councildis": "A",
    "status": "Assigned to Contractor",
    "contractor": "Richards Disposal",
    "rowid": "953008",
    "final_x": "3670180.48948",
    "final_y": "536661.804807",
    "longitude": "-90.1036391146166",
    "latitude": "29.969972768916328",
    "geocoded_column": {
      "latitude": "29.969972768916328",
      "longitude": "-90.1036391146166"
    }
  },
  {
    "service_request": "2022-953007",
    "request_type": "Abandoned Vehicles",
    "request_reason": "Abandoned/Junk Vehicles",
    "date_created": "2022-12-13T22:14:57.000",
    "date_modified": "2022-12-13T22:14:57.000",
    "request_status": "Pending",
    "responsible_agency": "Department of Public Works",
    "final_address": "5670 Woodlawn Pl",
    "address_councildis": "A",
    "status": "Pending",
    "rowid": "953007",
    "final_x": "3667441.57517",
    "final_y": "545248.704911",
    "longitude": "-90.11199985487272",
    "latitude": "29.99366438030162",
    "geocoded_column": {
      "latitude": "29.99366438030162",
      "longitude": "-90.11199985487272"
    }
  },
  {
    "service_request": "2022-953006",
    "request_type": "Abandoned Vehicles",
    "request_reason": "Abandoned/Junk Vehicles",
    "date_created": "2022-12-13T22:09:06.000",
    "date_modified": "2022-12-13T22:09:06.000",
    "request_status": "Pending",
    "responsible_agency": "Department of Public Works",
    "final_address": "4048 Banks St",
    "address_councildis": "A",
    "status": "Pending",
    "rowid": "953006",
    "final_x": "3670406.44295",
    "final_y": "537280.886984",
    "longitude": "-90.10290453497541",
    "latitude": "29.9716683674005",
    "geocoded_column": {
      "latitude": "29.9716683674005",
      "longitude": "-90.10290453497541"
    }
  },
  {
    "service_request": "2022-953005",
    "request_type": "Trash/Recycling",
    "request_reason": "Missed Trash Pick-Up",
    "date_created": "2022-12-13T21:48:57.000",
    "date_modified": "2022-12-13T21:48:58.000",
    "request_status": "Pending",
    "responsible_agency": "Department of Sanitation",
    "final_address": "4702 Perrier St",
    "address_councildis": "B",
    "status": "Assigned to Contractor",
    "contractor": "Richards Disposal",
    "rowid": "953005",
    "final_x": "3669764.67463",
    "final_y": "519926.11404",
    "longitude": "-90.10551864389504",
    "latitude": "29.923967342927465",
    "geocoded_column": {
      "latitude": "29.923967342927465",
      "longitude": "-90.10551864389504"
    }
  },
  {
    "service_request": "2022-953002",
    "request_type": "Trash/Recycling",
    "request_reason": "Replace Trash Cart",
    "date_created": "2022-12-13T21:22:36.000",
    "date_modified": "2022-12-13T21:22:37.000",
    "request_status": "Pending",
    "responsible_agency": "Department of Sanitation",
    "final_address": "5170 Forest Park Ln",
    "address_councildis": "C",
    "status": "Assigned to Contractor",
    "contractor": "Richards Disposal",
    "rowid": "953002",
    "final_x": "3703530.76727",
    "final_y": "510674.989615",
    "longitude": "-89.99927193884974",
    "latitude": "29.897491848031958",
    "geocoded_column": {
      "latitude": "29.897491848031958",
      "longitude": "-89.99927193884974"
    }
  },
  {
    "service_request": "2022-953001",
    "request_type": "Trash/Recycling",
    "request_reason": "Request a Large Item Pick Up",
    "date_created": "2022-12-13T20:52:16.000",
    "date_modified": "2022-12-13T20:52:16.000",
    "request_status": "Pending",
    "responsible_agency": "Department of Sanitation",
    "final_address": "4674 Cerise Ave",
    "address_councildis": "E",
    "status": "Assigned to Contractor",
    "contractor": "Waste Pro",
    "rowid": "953001",
    "final_x": "3708572.71217",
    "final_y": "555293.995225",
    "longitude": "-89.98169971273872",
    "latitude": "30.02001548804441",
    "geocoded_column": {
      "latitude": "30.02001548804441",
      "longitude": "-89.98169971273872"
    }
  },
  {
    "service_request": "2022-953000",
    "request_type": "Roads/Drainage",
    "request_reason": "Street Subsidence (Sinking)",
    "date_created": "2022-12-13T20:46:58.000",
    "date_modified": "2022-12-13T20:46:58.000",
    "request_status": "Pending",
    "responsible_agency": "Department of Public Works",
    "final_address": "2231 St Claude Ave",
    "address_councildis": "C",
    "status": "Pending",
    "rowid": "953000",
    "final_x": "3685354.44335",
    "final_y": "536432.939143",
    "longitude": "-90.05572642802686",
    "latitude": "29.968886978038647",
    "geocoded_column": {
      "latitude": "29.968886978038647",
      "longitude": "-90.05572642802686"
    }
  },
  {
    "service_request": "2022-952999",
    "request_type": "Trash/Recycling",
    "request_reason": "Missed Trash Pick-Up",
    "date_created": "2022-12-13T20:41:53.000",
    "date_modified": "2022-12-13T20:41:54.000",
    "request_status": "Pending",
    "responsible_agency": "Department of Sanitation",
    "final_address": "5225 Pitt St",
    "address_councildis": "B",
    "status": "Assigned to Contractor",
    "contractor": "Richards Disposal",
    "rowid": "952999",
    "final_x": "3667874.71041",
    "final_y": "520497.486328",
    "longitude": "-90.11146537273761",
    "latitude": "29.925593986319026",
    "geocoded_column": {
      "latitude": "29.925593986319026",
      "longitude": "-90.11146537273761"
    }
  },
  {
    "service_request": "2022-952998",
    "request_type": "Trash/Recycling",
    "request_reason": "Missed Trash Pick-Up",
    "date_created": "2022-12-13T20:38:11.000",
    "date_modified": "2022-12-13T20:38:12.000",
    "request_status": "Pending",
    "responsible_agency": "Department of Sanitation",
    "final_address": "1509 Valmont St",
    "address_councildis": "B",
    "status": "Assigned to Contractor",
    "contractor": "Richards Disposal",
    "rowid": "952998",
    "final_x": "3667781.74388",
    "final_y": "520516.710776",
    "longitude": "-90.11175819366206",
    "latitude": "29.9256495730252",
    "geocoded_column": {
      "latitude": "29.9256495730252",
      "longitude": "-90.11175819366206"
    }
  },
  {
    "service_request": "2022-952997",
    "request_type": "Trash/Recycling",
    "request_reason": "Missed Trash Pick-Up",
    "date_created": "2022-12-13T20:37:57.000",
    "date_modified": "2022-12-13T20:37:58.000",
    "request_status": "Pending",
    "responsible_agency": "Department of Sanitation",
    "final_address": "7025 Louis Xiv St",
    "address_councildis": "A",
    "status": "Assigned to Contractor",
    "contractor": "IV Waste",
    "rowid": "952997",
    "final_x": "3668764.40103",
    "final_y": "554221.99196",
    "longitude": "-90.10751799941796",
    "latitude": "30.018298952021517",
    "geocoded_column": {
      "latitude": "30.018298952021517",
      "longitude": "-90.10751799941796"
    }
  },
  {
    "service_request": "2022-952996",
    "request_type": "Trash/Recycling",
    "request_reason": "Replace Trash Cart",
    "date_created": "2022-12-13T20:27:39.000",
    "date_modified": "2022-12-13T20:27:40.000",
    "request_status": "Pending",
    "responsible_agency": "Department of Sanitation",
    "final_address": "578 Joseph St",
    "address_councildis": "A",
    "status": "Assigned to Contractor",
    "contractor": "Richards Disposal",
    "rowid": "952996",
    "final_x": "3665989.83188",
    "final_y": "518514.817911",
    "longitude": "-90.1174817919517",
    "latitude": "29.920197403725602",
    "geocoded_column": {
      "latitude": "29.920197403725602",
      "longitude": "-90.1174817919517"
    }
  },
  {
    "service_request": "2022-952995",
    "request_type": "Traffic Signals/Signs/Striping/Streetlights",
    "request_reason": "Road Surface Marking Maintenance-Parking Lane",
    "date_created": "2022-12-13T20:14:10.000",
    "date_modified": "2022-12-13T20:14:10.000",
    "request_status": "Pending",
    "responsible_agency": "Department of Public Works",
    "final_address": "3330 Esplanade Ave",
    "address_councildis": "A",
    "status": "Pending",
    "rowid": "952995",
    "final_x": "3675811.21793",
    "final_y": "540715.751947",
    "longitude": "-90.08571730479663",
    "latitude": "29.980952379000865",
    "geocoded_column": {
      "latitude": "29.980952379000865",
      "longitude": "-90.08571730479663"
    }
  },
  {
    "service_request": "2022-952994",
    "request_type": "Trash/Recycling",
    "request_reason": "Missed Trash Pick-Up",
    "date_created": "2022-12-13T20:10:15.000",
    "date_modified": "2022-12-13T20:10:16.000",
    "request_status": "Pending",
    "responsible_agency": "Department of Sanitation",
    "final_address": "10251 Deer Park Blvd",
    "address_councildis": "E",
    "status": "Assigned to Contractor",
    "contractor": "Waste Pro",
    "rowid": "952994",
    "final_x": "3712422.36581",
    "final_y": "560908.68611",
    "longitude": "-89.96932497259989",
    "latitude": "30.03532824168548",
    "geocoded_column": {
      "latitude": "30.03532824168548",
      "longitude": "-89.96932497259989"
    }
  },
  {
    "service_request": "2022-952992",
    "request_type": "Roads/Drainage",
    "request_reason": "Pothole",
    "date_created": "2022-12-13T19:54:28.000",
    "date_modified": "2022-12-13T19:54:28.000",
    "request_status": "Pending",
    "responsible_agency": "Department of Public Works",
    "final_address": "2423 Amelia St, New Orleans",
    "address_councildis": "B",
    "status": "Pending",
    "rowid": "952992",
    "final_x": "3672437.42843",
    "final_y": "524122.174396",
    "longitude": "-90.09693877588825",
    "latitude": "29.93542613757025",
    "geocoded_column": {
      "latitude": "29.93542613757025",
      "longitude": "-90.09693877588825"
    }
  },
  {
    "service_request": "2022-952991",
    "request_type": "Trash/Recycling",
    "request_reason": "Missed Trash Pick-Up",
    "date_created": "2022-12-13T19:53:30.000",
    "date_modified": "2022-12-13T19:53:30.000",
    "request_status": "Pending",
    "responsible_agency": "Department of Sanitation",
    "final_address": "6818 Milne Blvd",
    "address_councildis": "A",
    "status": "Assigned to Contractor",
    "contractor": "IV Waste",
    "rowid": "952991",
    "final_x": "3667470.43175",
    "final_y": "552919.128791",
    "longitude": "-90.11165036616391",
    "latitude": "30.01475453688969",
    "geocoded_column": {
      "latitude": "30.01475453688969",
      "longitude": "-90.11165036616391"
    }
  },
  {
    "service_request": "2022-952990",
    "request_type": "Traffic Signals/Signs/Striping/Streetlights",
    "request_reason": "Street Light Outage/Malfunction",
    "date_created": "2022-12-13T19:46:12.000",
    "date_modified": "2022-12-13T19:46:12.000",
    "request_status": "Pending",
    "responsible_agency": "Department of Public Works",
    "final_address": "528 Leontine St",
    "address_councildis": "B",
    "status": "Pending",
    "contractor": "Legacy Professional Services",
    "rowid": "952990",
    "final_x": "3666965.32077",
    "final_y": "517439.936054",
    "longitude": "-90.11443871930075",
    "latitude": "29.917213317981965",
    "geocoded_column": {
      "latitude": "29.917213317981965",
      "longitude": "-90.11443871930075"
    }
  },
  {
    "service_request": "2022-952989",
    "request_type": "Traffic Signals/Signs/Striping/Streetlights",
    "request_reason": "Street Light Outage/Malfunction",
    "date_created": "2022-12-13T19:43:41.000",
    "date_modified": "2022-12-13T19:43:41.000",
    "request_status": "Pending",
    "responsible_agency": "Department of Public Works",
    "final_address": "917 S Carrollton Ave",
    "address_councildis": "A",
    "status": "Pending",
    "contractor": "Legacy Professional Services",
    "rowid": "952989",
    "final_x": "3661480.68326",
    "final_y": "527593.346111",
    "longitude": "-90.13141450825945",
    "latitude": "29.945291295623804",
    "geocoded_column": {
      "latitude": "29.945291295623804",
      "longitude": "-90.13141450825945"
    }
  },
  {
    "service_request": "2022-952988",
    "request_type": "Trash/Recycling",
    "request_reason": "Request a Large Item Pick Up",
    "date_created": "2022-12-13T19:43:19.000",
    "date_modified": "2022-12-13T19:43:19.000",
    "request_status": "Pending",
    "responsible_agency": "Department of Sanitation",
    "final_address": "2650 Jasmine St, New Orleans, Louisiana, 70122",
    "address_councildis": "D",
    "status": "Assigned to Contractor",
    "contractor": "IV Waste",
    "rowid": "952988",
    "final_x": "3687422.27535",
    "final_y": "548068.25365",
    "longitude": "-90.04878416786629",
    "latitude": "30.00081639538362",
    "geocoded_column": {
      "latitude": "30.00081639538362",
      "longitude": "-90.04878416786629"
    }
  },
  {
    "service_request": "2022-952987",
    "request_type": "Traffic Signals/Signs/Striping/Streetlights",
    "request_reason": "Street Light Outage/Malfunction",
    "date_created": "2022-12-13T19:42:45.000",
    "date_modified": "2022-12-13T19:42:46.000",
    "request_status": "Pending",
    "responsible_agency": "Department of Public Works",
    "final_address": "917 S Carrollton Ave",
    "address_councildis": "A",
    "status": "Pending",
    "contractor": "Legacy Professional Services",
    "rowid": "952987",
    "final_x": "3661480.68326",
    "final_y": "527593.346111",
    "longitude": "-90.13141450825945",
    "latitude": "29.945291295623804",
    "geocoded_column": {
      "latitude": "29.945291295623804",
      "longitude": "-90.13141450825945"
    }
  },
  {
    "service_request": "2022-952986",
    "request_type": "Traffic Signals/Signs/Striping/Streetlights",
    "request_reason": "Street Light Outage/Malfunction",
    "date_created": "2022-12-13T19:41:15.000",
    "date_modified": "2022-12-13T19:41:16.000",
    "request_status": "Pending",
    "responsible_agency": "Department of Public Works",
    "final_address": "917 S Carrollton Ave",
    "address_councildis": "A",
    "status": "Pending",
    "contractor": "Legacy Professional Services",
    "rowid": "952986",
    "final_x": "3661480.68326",
    "final_y": "527593.346111",
    "longitude": "-90.13141450825945",
    "latitude": "29.945291295623804",
    "geocoded_column": {
      "latitude": "29.945291295623804",
      "longitude": "-90.13141450825945"
    }
  },
  {
    "service_request": "2022-952984",
    "request_type": "Trash/Recycling",
    "request_reason": "Order Recycling Cart",
    "date_created": "2022-12-13T19:37:40.000",
    "date_modified": "2022-12-13T19:37:40.000",
    "request_status": "Pending",
    "responsible_agency": "Department of Sanitation",
    "final_address": "4818 Hauck Dr",
    "address_councildis": "E",
    "status": "Pending",
    "rowid": "952984",
    "final_x": "3714459.44005",
    "final_y": "557050.514458",
    "longitude": "-89.9630333557261",
    "latitude": "30.024652974166457",
    "geocoded_column": {
      "latitude": "30.024652974166457",
      "longitude": "-89.9630333557261"
    }
  },
  {
    "service_request": "2022-952983",
    "request_type": "Trash/Recycling",
    "request_reason": "MIssed Recycling Pick-Up",
    "date_created": "2022-12-13T19:36:53.000",
    "date_modified": "2022-12-13T19:36:54.000",
    "request_status": "Pending",
    "responsible_agency": "Department of Sanitation",
    "final_address": "221 S Solomon St",
    "address_councildis": "A",
    "status": "Assigned to Contractor",
    "contractor": "Richards Disposal",
    "rowid": "952983",
    "final_x": "3670188.28474",
    "final_y": "538266.980041",
    "longitude": "-90.10356009003696",
    "latitude": "29.97438623102531",
    "geocoded_column": {
      "latitude": "29.97438623102531",
      "longitude": "-90.10356009003696"
    }
  },
  {
    "service_request": "2022-952982",
    "request_type": "Trash/Recycling",
    "request_reason": "Order Recycling Cart",
    "date_created": "2022-12-13T19:19:34.000",
    "date_modified": "2022-12-13T19:19:34.000",
    "request_status": "Pending",
    "responsible_agency": "Department of Sanitation",
    "final_address": "5661 Hempstead Rd",
    "address_councildis": "E",
    "status": "Pending",
    "rowid": "952982",
    "final_x": "3708093.76875",
    "final_y": "558046.098075",
    "longitude": "-89.98311054027387",
    "latitude": "30.02759822251566",
    "geocoded_column": {
      "latitude": "30.02759822251566",
      "longitude": "-89.98311054027387"
    }
  },
  {
    "service_request": "2022-952981",
    "request_type": "Traffic Signals/Signs/Striping/Streetlights",
    "request_reason": "Street Light Outage/Malfunction",
    "date_created": "2022-12-13T19:17:08.000",
    "date_modified": "2022-12-13T19:17:08.000",
    "request_status": "Pending",
    "responsible_agency": "Department of Public Works",
    "final_address": "6929 Pinebrook Dr",
    "address_councildis": "E",
    "status": "Pending",
    "contractor": "Legacy Professional Services",
    "rowid": "952981",
    "final_x": "3720090.86092",
    "final_y": "569237.99991",
    "longitude": "-89.94477258041451",
    "latitude": "30.057977197362696",
    "geocoded_column": {
      "latitude": "30.057977197362696",
      "longitude": "-89.94477258041451"
    }
  },
  {
    "service_request": "2022-952980",
    "request_type": "Traffic Signals/Signs/Striping/Streetlights",
    "request_reason": "Street Light Outage/Malfunction",
    "date_created": "2022-12-13T19:14:10.000",
    "date_modified": "2022-12-13T19:14:10.000",
    "request_status": "Pending",
    "responsible_agency": "Department of Public Works",
    "final_address": "2228 Reynes St",
    "address_councildis": "E",
    "status": "Pending",
    "contractor": "Legacy Professional Services",
    "rowid": "952980",
    "final_x": "3697151.42429",
    "final_y": "538630.288009",
    "longitude": "-90.01839138304153",
    "latitude": "29.97456194792922",
    "geocoded_column": {
      "latitude": "29.97456194792922",
      "longitude": "-90.01839138304153"
    }
  },
  {
    "service_request": "2022-952979",
    "request_type": "Trash/Recycling",
    "request_reason": "MIssed Recycling Pick-Up",
    "date_created": "2022-12-13T18:58:11.000",
    "date_modified": "2022-12-13T18:58:11.000",
    "request_status": "Pending",
    "responsible_agency": "Department of Sanitation",
    "final_address": "5863 Marcia Ave",
    "address_councildis": "A",
    "status": "Assigned to Contractor",
    "contractor": "IV Waste",
    "rowid": "952979",
    "final_x": "3664879.04589",
    "final_y": "546819.179089",
    "longitude": "-90.12004200074693",
    "latitude": "29.99805750177402",
    "geocoded_column": {
      "latitude": "29.99805750177402",
      "longitude": "-90.12004200074693"
    }
  },
  {
    "service_request": "2022-952978",
    "request_type": "Trash/Recycling",
    "request_reason": "MIssed Recycling Pick-Up",
    "date_created": "2022-12-13T18:50:47.000",
    "date_modified": "2022-12-13T18:50:47.000",
    "request_status": "Pending",
    "responsible_agency": "Department of Sanitation",
    "final_address": "3366 Esplanade Ave",
    "address_councildis": "A",
    "status": "Assigned to Contractor",
    "contractor": "Richards Disposal",
    "rowid": "952978",
    "final_x": "3675588.09761",
    "final_y": "540881.697931",
    "longitude": "-90.08641631529335",
    "latitude": "29.98141535139748",
    "geocoded_column": {
      "latitude": "29.98141535139748",
      "longitude": "-90.08641631529335"
    }
  },
  {
    "service_request": "2022-952977",
    "request_type": "Traffic Signals/Signs/Striping/Streetlights",
    "request_reason": "Street Light Outage/Malfunction",
    "date_created": "2022-12-13T18:49:27.000",
    "date_modified": "2022-12-13T18:49:27.000",
    "request_status": "Pending",
    "responsible_agency": "Department of Public Works",
    "final_address": "2626 N Rocheblave St",
    "address_councildis": "D",
    "status": "Pending",
    "contractor": "Legacy Professional Services",
    "rowid": "952977",
    "final_x": "3686700.98262",
    "final_y": "541221.927436",
    "longitude": "-90.05130476646332",
    "latitude": "29.982013661959687",
    "geocoded_column": {
      "latitude": "29.982013661959687",
      "longitude": "-90.05130476646332"
    }
  },
  {
    "service_request": "2022-952975",
    "request_type": "Roads/Drainage",
    "request_reason": "Pothole",
    "date_created": "2022-12-13T18:40:10.000",
    "date_modified": "2022-12-13T18:40:10.000",
    "request_status": "Pending",
    "responsible_agency": "Department of Public Works",
    "final_address": "7100 Zimple St",
    "address_councildis": "A",
    "status": "Pending",
    "rowid": "952975",
    "final_x": "3664121.18484",
    "final_y": "526038.721598",
    "longitude": "-90.12312941185598",
    "latitude": "29.940940153354806",
    "geocoded_column": {
      "latitude": "29.940940153354806",
      "longitude": "-90.12312941185598"
    }
  },
  {
    "service_request": "2022-952974",
    "request_type": "Trash/Recycling",
    "request_reason": "MIssed Recycling Pick-Up",
    "date_created": "2022-12-13T18:37:24.000",
    "date_modified": "2022-12-13T18:37:24.000",
    "request_status": "Pending",
    "responsible_agency": "Department of Sanitation",
    "final_address": "7523 Zimple St",
    "address_councildis": "A",
    "status": "Assigned to Contractor",
    "contractor": "Richards Disposal",
    "rowid": "952974",
    "final_x": "3663182.41831",
    "final_y": "526841.03091",
    "longitude": "-90.12606659199297",
    "latitude": "29.94317347756813",
    "geocoded_column": {
      "latitude": "29.94317347756813",
      "longitude": "-90.12606659199297"
    }
  },
  {
    "service_request": "2022-952973",
    "request_type": "Traffic Signals/Signs/Striping/Streetlights",
    "request_reason": "Street Light Outage/Malfunction",
    "date_created": "2022-12-13T18:36:28.000",
    "date_modified": "2022-12-13T18:36:29.000",
    "request_status": "Pending",
    "responsible_agency": "Department of Public Works",
    "final_address": "2626 N Rocheblave St",
    "address_councildis": "D",
    "status": "Pending",
    "contractor": "Legacy Professional Services",
    "rowid": "952973",
    "final_x": "3686700.98262",
    "final_y": "541221.927436",
    "longitude": "-90.05130476646332",
    "latitude": "29.982013661959687",
    "geocoded_column": {
      "latitude": "29.982013661959687",
      "longitude": "-90.05130476646332"
    }
  },
  {
    "service_request": "2022-952972",
    "request_type": "Trash/Recycling",
    "request_reason": "Request a Large Item Pick Up",
    "date_created": "2022-12-13T18:32:36.000",
    "date_modified": "2022-12-13T18:32:37.000",
    "request_status": "Pending",
    "responsible_agency": "Department of Sanitation",
    "final_address": "708 Sumner St",
    "address_councildis": "C",
    "status": "Assigned to Contractor",
    "contractor": "Richards Disposal",
    "rowid": "952972",
    "final_x": "3691225.50441",
    "final_y": "528761.689792",
    "longitude": "-90.03745929518097",
    "latitude": "29.947612410463563",
    "geocoded_column": {
      "latitude": "29.947612410463563",
      "longitude": "-90.03745929518097"
    }
  },
  {
    "service_request": "2022-952971",
    "request_type": "Traffic Signals/Signs/Striping/Streetlights",
    "request_reason": "Street Light Outage/Malfunction",
    "date_created": "2022-12-13T18:32:05.000",
    "date_modified": "2022-12-13T18:32:06.000",
    "request_status": "Pending",
    "responsible_agency": "Department of Public Works",
    "final_address": "2600 BLK N Rocheblave St",
    "address_councildis": "D",
    "status": "Pending",
    "contractor": "Legacy Professional Services",
    "rowid": "952971",
    "final_x": "3686645.16768",
    "final_y": "541250.638743",
    "longitude": "-90.05148004190555",
    "latitude": "29.982094324898434",
    "geocoded_column": {
      "latitude": "29.982094324898434",
      "longitude": "-90.05148004190555"
    }
  },
  {
    "service_request": "2022-952970",
    "request_type": "Trash/Recycling",
    "request_reason": "Repair Trash Cart",
    "date_created": "2022-12-13T18:30:58.000",
    "date_modified": "2022-12-13T18:30:58.000",
    "request_status": "Pending",
    "responsible_agency": "Department of Sanitation",
    "final_address": "4525 S Saratoga St",
    "address_councildis": "B",
    "status": "Assigned to Contractor",
    "contractor": "Richards Disposal",
    "rowid": "952970",
    "final_x": "3670041.38663",
    "final_y": "522623.668538",
    "longitude": "-90.10455384483727",
    "latitude": "29.931376600555343",
    "geocoded_column": {
      "latitude": "29.931376600555343",
      "longitude": "-90.10455384483727"
    }
  },
  {
    "service_request": "2022-952969",
    "request_type": "Trash/Recycling",
    "request_reason": "Illegal Dumping",
    "date_created": "2022-12-13T18:27:46.000",
    "date_modified": "2022-12-13T18:27:46.000",
    "request_status": "Pending",
    "responsible_agency": "Department of Sanitation",
    "final_address": "300 BLK Lamarque St",
    "address_councildis": "C",
    "status": "Pending",
    "rowid": "952969",
    "final_x": "3686454.52568",
    "final_y": "526756.665106",
    "longitude": "-90.05259386426907",
    "latitude": "29.94224677351611",
    "geocoded_column": {
      "latitude": "29.94224677351611",
      "longitude": "-90.05259386426907"
    }
  },
  {
    "service_request": "2022-952968",
    "request_type": "Trash/Recycling",
    "request_reason": "Request a Large Item Pick Up",
    "date_created": "2022-12-13T18:27:40.000",
    "date_modified": "2022-12-13T18:27:41.000",
    "request_status": "Pending",
    "responsible_agency": "Department of Sanitation",
    "final_address": "1809 Short St",
    "address_councildis": "A",
    "status": "Assigned to Contractor",
    "contractor": "Richards Disposal",
    "rowid": "952968",
    "final_x": "3663811.80019",
    "final_y": "529673.458817",
    "longitude": "-90.12398508353355",
    "latitude": "29.95094349527792",
    "geocoded_column": {
      "latitude": "29.95094349527792",
      "longitude": "-90.12398508353355"
    }
  },
  {
    "service_request": "2022-952967",
    "request_type": "Trash/Recycling",
    "request_reason": "Illegal Dumping",
    "date_created": "2022-12-13T18:26:42.000",
    "date_modified": "2022-12-13T18:26:42.000",
    "request_status": "Pending",
    "responsible_agency": "Department of Sanitation",
    "final_address": "1200 BLK Brooklyn Ave",
    "address_councildis": "C",
    "status": "Pending",
    "rowid": "952967",
    "final_x": "3686252.03428",
    "final_y": "526936.157858",
    "longitude": "-90.05322684192585",
    "latitude": "29.942746539665986",
    "geocoded_column": {
      "latitude": "29.942746539665986",
      "longitude": "-90.05322684192585"
    }
  },
  {
    "service_request": "2022-952966",
    "request_type": "Abandoned Vehicles",
    "request_reason": "Abandoned/Junk Vehicles",
    "date_created": "2022-12-13T18:26:18.000",
    "date_modified": "2022-12-13T18:26:18.000",
    "request_status": "Pending",
    "responsible_agency": "Department of Public Works",
    "final_address": "S DERBIGNY ST & UPPERLINE ST",
    "address_councildis": "B",
    "status": "Pending",
    "rowid": "952966",
    "final_x": "3669245.9",
    "final_y": "526342.68",
    "longitude": "-90.10693944730332",
    "latitude": "29.94162611761452",
    "geocoded_column": {
      "latitude": "29.94162611761452",
      "longitude": "-90.10693944730332"
    }
  },
  {
    "service_request": "2022-952965",
    "request_type": "Trash/Recycling",
    "request_reason": "Illegal Dumping",
    "date_created": "2022-12-13T18:25:31.000",
    "date_modified": "2022-12-13T18:25:31.000",
    "request_status": "Pending",
    "responsible_agency": "Department of Sanitation",
    "final_address": "1300 BLK Brooklyn Ave",
    "address_councildis": "C",
    "status": "Pending",
    "rowid": "952965",
    "final_x": "3686277.52931",
    "final_y": "526551.507052",
    "longitude": "-90.05315991632953",
    "latitude": "29.941688096797947",
    "geocoded_column": {
      "latitude": "29.941688096797947",
      "longitude": "-90.05315991632953"
    }
  },
  {
    "service_request": "2022-952964",
    "request_type": "Trash/Recycling",
    "request_reason": "Missed Trash Pick-Up",
    "date_created": "2022-12-13T18:20:36.000",
    "date_modified": "2022-12-13T18:20:36.000",
    "request_status": "Pending",
    "responsible_agency": "Department of Sanitation",
    "final_address": "2465 N Galvez St",
    "address_councildis": "D",
    "status": "Assigned to Contractor",
    "contractor": "IV Waste",
    "rowid": "952964",
    "final_x": "3686777.2479",
    "final_y": "540183.626507",
    "longitude": "-90.05110058282597",
    "latitude": "29.97915635485941",
    "geocoded_column": {
      "latitude": "29.97915635485941",
      "longitude": "-90.05110058282597"
    }
  },
  {
    "service_request": "2022-952963",
    "request_type": "Trash/Recycling",
    "request_reason": "Illegal Dumping",
    "date_created": "2022-12-13T18:16:59.000",
    "date_modified": "2022-12-13T18:16:59.000",
    "request_status": "Pending",
    "responsible_agency": "Department of Sanitation",
    "final_address": "ARTS ST & BENEFIT ST",
    "address_councildis": "D",
    "status": "Pending",
    "rowid": "952963",
    "final_x": "3686555.3",
    "final_y": "544581.18",
    "longitude": "-90.05164622076124",
    "latitude": "29.991254892731117",
    "geocoded_column": {
      "latitude": "29.991254892731117",
      "longitude": "-90.05164622076124"
    }
  },
  {
    "service_request": "2022-952962",
    "request_type": "Trash/Recycling",
    "request_reason": "Missed Trash Pick-Up",
    "date_created": "2022-12-13T18:10:46.000",
    "date_modified": "2022-12-13T18:10:47.000",
    "request_status": "Pending",
    "responsible_agency": "Department of Sanitation",
    "final_address": "831 Pacific Ave",
    "address_councildis": "C",
    "status": "Assigned to Contractor",
    "contractor": "Richards Disposal",
    "rowid": "952962",
    "final_x": "3688403.64739",
    "final_y": "528426.378816",
    "longitude": "-90.04638086550617",
    "latitude": "29.94677786941864",
    "geocoded_column": {
      "latitude": "29.94677786941864",
      "longitude": "-90.04638086550617"
    }
  },
  {
    "service_request": "2022-952961",
    "request_type": "Trash/Recycling",
    "request_reason": "Missed Trash Pick-Up",
    "date_created": "2022-12-13T18:00:45.000",
    "date_modified": "2022-12-13T18:00:46.000",
    "request_status": "Pending",
    "responsible_agency": "Department of Sanitation",
    "final_address": "1923 Painters St",
    "address_councildis": "D",
    "status": "Assigned to Contractor",
    "contractor": "IV Waste",
    "rowid": "952961",
    "final_x": "3687347.96079",
    "final_y": "539636.057418",
    "longitude": "-90.04931743400049",
    "latitude": "29.977633160270223",
    "geocoded_column": {
      "latitude": "29.977633160270223",
      "longitude": "-90.04931743400049"
    }
  },
  {
    "service_request": "2022-952960",
    "request_type": "Trash/Recycling",
    "request_reason": "Missed Trash Pick-Up",
    "date_created": "2022-12-13T17:59:51.000",
    "date_modified": "2022-12-13T17:59:52.000",
    "request_status": "Pending",
    "responsible_agency": "Department of Sanitation",
    "final_address": "2462 N Robertson St",
    "address_councildis": "C",
    "status": "Assigned to Contractor",
    "contractor": "IV Waste",
    "rowid": "952960",
    "final_x": "3686950.66345",
    "final_y": "537903.387785",
    "longitude": "-90.05063349107802",
    "latitude": "29.972881163326683",
    "geocoded_column": {
      "latitude": "29.972881163326683",
      "longitude": "-90.05063349107802"
    }
  },
  {
    "service_request": "2022-952959",
    "request_type": "Trash/Recycling",
    "request_reason": "Return Trash Cart",
    "date_created": "2022-12-13T17:59:03.000",
    "date_modified": "2022-12-13T17:59:03.000",
    "request_status": "Pending",
    "responsible_agency": "Department of Sanitation",
    "final_address": "1668 N Gayoso St",
    "address_councildis": "D",
    "status": "Assigned to Contractor",
    "contractor": "IV Waste",
    "rowid": "952959",
    "final_x": "3678610.89486",
    "final_y": "541258.730572",
    "longitude": "-90.07685587039056",
    "latitude": "29.982361265747738",
    "geocoded_column": {
      "latitude": "29.982361265747738",
      "longitude": "-90.07685587039056"
    }
  },
  {
    "service_request": "2022-952958",
    "request_type": "Trash/Recycling",
    "request_reason": "Request a Large Item Pick Up",
    "date_created": "2022-12-13T17:57:38.000",
    "date_modified": "2022-12-13T17:57:39.000",
    "request_status": "Pending",
    "responsible_agency": "Department of Sanitation",
    "final_address": "1740 Congress St",
    "address_councildis": "D",
    "status": "Assigned to Contractor",
    "contractor": "IV Waste",
    "rowid": "952958",
    "final_x": "3691315.85827",
    "final_y": "538159.854217",
    "longitude": "-90.03683826268941",
    "latitude": "29.973451269248866",
    "geocoded_column": {
      "latitude": "29.973451269248866",
      "longitude": "-90.03683826268941"
    }
  },
  {
    "service_request": "2022-952957",
    "request_type": "Traffic Signals/Signs/Striping/Streetlights",
    "request_reason": "Request for Stop Sign",
    "date_created": "2022-12-13T17:51:10.000",
    "date_modified": "2022-12-13T17:51:10.000",
    "request_status": "Pending",
    "responsible_agency": "Department of Public Works",
    "final_address": "4439 Majestic Oaks Dr",
    "address_councildis": "D",
    "status": "Pending",
    "rowid": "952957",
    "final_x": "3697973.81648",
    "final_y": "552878.897175",
    "longitude": "-90.0152764443936",
    "latitude": "30.013714394715645",
    "geocoded_column": {
      "latitude": "30.013714394715645",
      "longitude": "-90.0152764443936"
    }
  },
  {
    "service_request": "2022-952956",
    "request_type": "Trash/Recycling",
    "request_reason": "Order Recycling Cart",
    "date_created": "2022-12-13T17:48:27.000",
    "date_modified": "2022-12-13T17:48:27.000",
    "request_status": "Pending",
    "responsible_agency": "Department of Sanitation",
    "final_address": "199 Audubon Blvd",
    "address_councildis": "A",
    "status": "Pending",
    "rowid": "952956",
    "final_x": "3666329.99124",
    "final_y": "528350.930112",
    "longitude": "-90.11607823664394",
    "latitude": "29.94723365022131",
    "geocoded_column": {
      "latitude": "29.94723365022131",
      "longitude": "-90.11607823664394"
    }
  },
  {
    "service_request": "2022-952955",
    "request_type": "Trash/Recycling",
    "request_reason": "Missed Trash Pick-Up",
    "date_created": "2022-12-13T17:41:03.000",
    "date_modified": "2022-12-13T17:41:04.000",
    "request_status": "Pending",
    "responsible_agency": "Department of Sanitation",
    "final_address": "2421 S Saratoga St",
    "address_councildis": "B",
    "status": "Assigned to Contractor",
    "contractor": "Richards Disposal",
    "rowid": "952955",
    "final_x": "3675797.26101",
    "final_y": "524633.888828",
    "longitude": "-90.08631417538226",
    "latitude": "29.936733071937585",
    "geocoded_column": {
      "latitude": "29.936733071937585",
      "longitude": "-90.08631417538226"
    }
  },
  {
    "service_request": "2022-952954",
    "request_type": "Trash/Recycling",
    "request_reason": "Missed Trash Pick-Up",
    "date_created": "2022-12-13T17:40:30.000",
    "date_modified": "2022-12-13T17:40:31.000",
    "request_status": "Pending",
    "responsible_agency": "Department of Sanitation",
    "final_address": "4436 Perrier St",
    "address_councildis": "B",
    "status": "Assigned to Contractor",
    "contractor": "Richards Disposal",
    "rowid": "952954",
    "final_x": "3670609.85915",
    "final_y": "519987.69612",
    "longitude": "-90.10284860402513",
    "latitude": "29.924111744542767",
    "geocoded_column": {
      "latitude": "29.924111744542767",
      "longitude": "-90.10284860402513"
    }
  },
  {
    "service_request": "2022-952953",
    "request_type": "Trash/Recycling",
    "request_reason": "Missed Trash Pick-Up",
    "date_created": "2022-12-13T17:31:40.000",
    "date_modified": "2022-12-13T17:31:41.000",
    "request_status": "Pending",
    "responsible_agency": "Department of Sanitation",
    "final_address": "14806 Emory Rd",
    "address_councildis": "E",
    "status": "Assigned to Contractor",
    "contractor": "Waste Pro",
    "rowid": "952953",
    "final_x": "3720648.74566",
    "final_y": "573775.73649",
    "longitude": "-89.94283513635618",
    "latitude": "30.070435465617393",
    "geocoded_column": {
      "latitude": "30.070435465617393",
      "longitude": "-89.94283513635618"
    }
  },
  {
    "service_request": "2022-952952",
    "request_type": "Trash/Recycling",
    "request_reason": "Missed Trash Pick-Up",
    "date_created": "2022-12-13T17:30:53.000",
    "date_modified": "2022-12-13T17:30:54.000",
    "request_status": "Pending",
    "responsible_agency": "Department of Sanitation",
    "final_address": "300 BLK S Salcedo St",
    "address_councildis": "B",
    "status": "Assigned to Contractor",
    "contractor": "Richards Disposal",
    "rowid": "952952",
    "final_x": "3673476.6225",
    "final_y": "535281.691363",
    "longitude": "-90.09327675455198",
    "latitude": "29.9660802457543",
    "geocoded_column": {
      "latitude": "29.9660802457543",
      "longitude": "-90.09327675455198"
    }
  },
  {
    "service_request": "2022-952951",
    "request_type": "Trash/Recycling",
    "request_reason": "Missed Trash Pick-Up",
    "date_created": "2022-12-13T17:28:36.000",
    "date_modified": "2022-12-13T17:28:37.000",
    "request_status": "Pending",
    "responsible_agency": "Department of Sanitation",
    "final_address": "315 Bermuda St",
    "address_councildis": "C",
    "status": "Assigned to Contractor",
    "contractor": "Richards Disposal",
    "rowid": "952951",
    "final_x": "3686336.46281",
    "final_y": "530659.154498",
    "longitude": "-90.05282892371683",
    "latitude": "29.952980919859105",
    "geocoded_column": {
      "latitude": "29.952980919859105",
      "longitude": "-90.05282892371683"
    }
  },
  {
    "service_request": "2022-952950",
    "request_type": "Trash/Recycling",
    "request_reason": "Replace Trash Cart",
    "date_created": "2022-12-13T17:26:11.000",
    "date_modified": "2022-12-13T17:26:11.000",
    "request_status": "Pending",
    "responsible_agency": "Department of Sanitation",
    "final_address": "820 Turquoise St",
    "address_councildis": "D",
    "status": "Assigned to Contractor",
    "contractor": "IV Waste",
    "rowid": "952950",
    "final_x": "3670424.79719",
    "final_y": "555082.906009",
    "longitude": "-90.10224252537509",
    "latitude": "30.020617213084925",
    "geocoded_column": {
      "latitude": "30.020617213084925",
      "longitude": "-90.10224252537509"
    }
  },
  {
    "service_request": "2022-952949",
    "request_type": "Trash/Recycling",
    "request_reason": "MIssed Recycling Pick-Up",
    "date_created": "2022-12-13T17:16:06.000",
    "date_modified": "2022-12-13T17:16:07.000",
    "request_status": "Pending",
    "responsible_agency": "Department of Sanitation",
    "final_address": "2030 Valentine Ct",
    "address_councildis": "C",
    "status": "Assigned to Contractor",
    "contractor": "Richards Disposal",
    "rowid": "952949",
    "final_x": "3699798.12752",
    "final_y": "523790.419003",
    "longitude": "-90.01057354602824",
    "latitude": "29.933673784731518",
    "geocoded_column": {
      "latitude": "29.933673784731518",
      "longitude": "-90.01057354602824"
    }
  },
  {
    "service_request": "2022-952948",
    "request_type": "Roads/Drainage",
    "request_reason": "Pothole",
    "date_created": "2022-12-13T17:12:35.000",
    "date_modified": "2022-12-13T17:12:35.000",
    "request_status": "Pending",
    "responsible_agency": "Department of Public Works",
    "final_address": "501 City Park Ave",
    "address_councildis": "A",
    "status": "Pending",
    "rowid": "952948",
    "final_x": "3669315.41806",
    "final_y": "541791.181452",
    "longitude": "-90.10619761914771",
    "latitude": "29.98410232241459",
    "geocoded_column": {
      "latitude": "29.98410232241459",
      "longitude": "-90.10619761914771"
    }
  },
  {
    "service_request": "2022-952946",
    "request_type": "Trash/Recycling",
    "request_reason": "Missed Trash Pick-Up",
    "date_created": "2022-12-13T17:09:00.000",
    "date_modified": "2022-12-13T17:09:01.000",
    "request_status": "Pending",
    "responsible_agency": "Department of Sanitation",
    "final_address": "1800 BLK Bordeaux St",
    "address_councildis": "B",
    "status": "Assigned to Contractor",
    "contractor": "Richards Disposal",
    "rowid": "952946",
    "final_x": "3669291.22404",
    "final_y": "521621.908316",
    "longitude": "-90.1069558699635",
    "latitude": "29.928644178796755",
    "geocoded_column": {
      "latitude": "29.928644178796755",
      "longitude": "-90.1069558699635"
    }
  },
  {
    "service_request": "2022-952945",
    "request_type": "Trash/Recycling",
    "request_reason": "Repair Trash Cart",
    "date_created": "2022-12-13T17:08:00.000",
    "date_modified": "2022-12-13T17:08:00.000",
    "request_status": "Pending",
    "responsible_agency": "Department of Sanitation",
    "final_address": "229 Leboeuf St",
    "address_councildis": "C",
    "status": "Assigned to Contractor",
    "contractor": "Richards Disposal",
    "rowid": "952945",
    "final_x": "3689854.24764",
    "final_y": "530895.21517",
    "longitude": "-90.04171294007759",
    "latitude": "29.953521441427096",
    "geocoded_column": {
      "latitude": "29.953521441427096",
      "longitude": "-90.04171294007759"
    }
  },
  {
    "service_request": "2022-952944",
    "request_type": "Trash/Recycling",
    "request_reason": "Missed Trash Pick-Up",
    "date_created": "2022-12-13T16:57:42.000",
    "date_modified": "2022-12-13T16:57:43.000",
    "request_status": "Pending",
    "responsible_agency": "Department of Sanitation",
    "final_address": "4626 Saint Charles Ave, New Orleans, Louisiana, 70115",
    "status": "Assigned to Contractor",
    "rowid": "952944",
    "longitude": "0.0",
    "latitude": "0.0",
    "geocoded_column": {
      "latitude": "0.0",
      "longitude": "0.0"
    }
  },
  {
    "service_request": "2022-952943",
    "request_type": "Trash/Recycling",
    "request_reason": "Order Trash Cart",
    "date_created": "2022-12-13T16:55:24.000",
    "date_modified": "2022-12-13T16:55:25.000",
    "request_status": "Pending",
    "responsible_agency": "Department of Sanitation",
    "final_address": "2224 Royal St",
    "address_councildis": "C",
    "status": "Assigned to Contractor",
    "contractor": "IV Waste",
    "rowid": "952943",
    "final_x": "3685394.18882",
    "final_y": "534853.095302",
    "longitude": "-90.05565654242851",
    "latitude": "29.96454173662454",
    "geocoded_column": {
      "latitude": "29.96454173662454",
      "longitude": "-90.05565654242851"
    }
  },
  {
    "service_request": "2022-952942",
    "request_type": "Trash/Recycling",
    "request_reason": "Missed Trash Pick-Up",
    "date_created": "2022-12-13T16:55:05.000",
    "date_modified": "2022-12-13T16:57:05.000",
    "request_status": "Pending",
    "responsible_agency": "Department of Sanitation",
    "final_address": "New Orleans,LA",
    "address_councildis": "B",
    "status": "Assigned to Contractor",
    "contractor": "Richards Disposal",
    "rowid": "952942",
    "final_x": "3669886.67777",
    "final_y": "520635.569656",
    "longitude": "-90.10510951736264",
    "latitude": "29.925914524874848",
    "geocoded_column": {
      "latitude": "29.925914524874848",
      "longitude": "-90.10510951736264"
    }
  },
  {
    "service_request": "2022-952941",
    "request_type": "Trash/Recycling",
    "request_reason": "Order Recycling Cart",
    "date_created": "2022-12-13T16:52:17.000",
    "date_modified": "2022-12-13T16:52:17.000",
    "request_status": "Pending",
    "responsible_agency": "Department of Sanitation",
    "final_address": "5320 Dryades St",
    "address_councildis": "B",
    "status": "Pending",
    "rowid": "952941",
    "final_x": "3667705.92263",
    "final_y": "521757.448954",
    "longitude": "-90.11195579077139",
    "latitude": "29.92906343175613",
    "geocoded_column": {
      "latitude": "29.92906343175613",
      "longitude": "-90.11195579077139"
    }
  },
  {
    "service_request": "2022-952940",
    "request_type": "Taxi Issues",
    "request_reason": "Taxi Complaint",
    "date_created": "2022-12-13T16:52:05.000",
    "date_modified": "2022-12-13T16:54:45.000",
    "request_status": "Pending",
    "responsible_agency": "Ground Transportation Bureau",
    "final_address": "New Orleans,LA",
    "rowid": "952940",
    "longitude": "0.0",
    "latitude": "0.0",
    "geocoded_column": {
      "latitude": "0.0",
      "longitude": "0.0"
    }
  },
  {
    "service_request": "2022-952939",
    "request_type": "Trash/Recycling",
    "request_reason": "Missed Trash Pick-Up",
    "date_created": "2022-12-13T16:51:11.000",
    "date_modified": "2022-12-13T16:51:12.000",
    "request_status": "Pending",
    "responsible_agency": "Department of Sanitation",
    "final_address": "1200 N Tonti St",
    "address_councildis": "D",
    "status": "Assigned to Contractor",
    "contractor": "Richards Disposal",
    "rowid": "952939",
    "final_x": "3678972.46914",
    "final_y": "537594.754888",
    "longitude": "-90.0758408443045",
    "latitude": "29.972275691709978",
    "geocoded_column": {
      "latitude": "29.972275691709978",
      "longitude": "-90.0758408443045"
    }
  },
  {
    "service_request": "2022-952938",
    "request_type": "Trash/Recycling",
    "request_reason": "Order Trash Cart",
    "date_created": "2022-12-13T16:47:54.000",
    "date_modified": "2022-12-13T16:47:55.000",
    "request_status": "Pending",
    "responsible_agency": "Department of Sanitation",
    "final_address": "1235 Decatur St",
    "address_councildis": "C",
    "status": "Assigned to Contractor",
    "contractor": "Empire Services",
    "rowid": "952938",
    "final_x": "3684418.16514",
    "final_y": "533686.487685",
    "longitude": "-90.0587797271726",
    "latitude": "29.9613638565018",
    "geocoded_column": {
      "latitude": "29.9613638565018",
      "longitude": "-90.0587797271726"
    }
  },
  {
    "service_request": "2022-952937",
    "request_type": "Trash/Recycling",
    "request_reason": "Return Trash Cart",
    "date_created": "2022-12-13T16:44:34.000",
    "date_modified": "2022-12-13T16:44:35.000",
    "request_status": "Pending",
    "responsible_agency": "Department of Sanitation",
    "final_address": "2334 Royal St",
    "address_councildis": "C",
    "status": "Assigned to Contractor",
    "contractor": "IV Waste",
    "rowid": "952937",
    "final_x": "3685818.03433",
    "final_y": "534894.278342",
    "longitude": "-90.05431662062374",
    "latitude": "29.964641973716496",
    "geocoded_column": {
      "latitude": "29.964641973716496",
      "longitude": "-90.05431662062374"
    }
  },
  {
    "service_request": "2022-952935",
    "request_type": "Traffic Signals/Signs/Striping/Streetlights",
    "request_reason": "Traffic Signal Malfunctioning/Damaged",
    "date_created": "2022-12-13T16:41:01.000",
    "date_modified": "2022-12-13T16:41:01.000",
    "request_status": "Pending",
    "responsible_agency": "Department of Public Works",
    "final_address": "ELK PL & TULANE AVE & LOYOLA AVE",
    "address_councildis": "B",
    "status": "Pending",
    "rowid": "952935",
    "final_x": "3679350.5",
    "final_y": "531214.78",
    "longitude": "-90.07486825326625",
    "latitude": "29.954721519624545",
    "geocoded_column": {
      "latitude": "29.954721519624545",
      "longitude": "-90.07486825326625"
    }
  },
  {
    "service_request": "2022-952934",
    "request_type": "Traffic Signals/Signs/Striping/Streetlights",
    "request_reason": "Traffic Signal Malfunctioning/Damaged",
    "date_created": "2022-12-13T16:39:41.000",
    "date_modified": "2022-12-13T16:39:42.000",
    "request_status": "Pending",
    "responsible_agency": "Department of Public Works",
    "final_address": "TULANE AVE & S RAMPART ST & COMMON ST",
    "address_councildis": "B",
    "status": "Pending",
    "rowid": "952934",
    "final_x": "3679627.79",
    "final_y": "531022.73",
    "longitude": "-90.07399934305039",
    "latitude": "29.954185069998477",
    "geocoded_column": {
      "latitude": "29.954185069998477",
      "longitude": "-90.07399934305039"
    }
  },
  {
    "service_request": "2022-952931",
    "request_type": "Parks & Parkways",
    "request_reason": "Request Tree Service (Right of Way/Public Property)",
    "date_created": "2022-12-13T16:38:58.000",
    "date_modified": "2022-12-13T16:42:40.000",
    "request_status": "Pending",
    "responsible_agency": "Department of Parks & Parkway",
    "final_address": "9548 Palmetto St",
    "address_councildis": "A",
    "status": "Pending",
    "rowid": "952931",
    "final_x": "3664117.4201",
    "final_y": "538631.138185",
    "longitude": "-90.12272125866446",
    "latitude": "29.975565303770072",
    "geocoded_column": {
      "latitude": "29.975565303770072",
      "longitude": "-90.12272125866446"
    }
  },
  {
    "service_request": "2022-952930",
    "request_type": "Trash/Recycling",
    "request_reason": "Repair Trash Cart",
    "date_created": "2022-12-13T16:36:45.000",
    "date_modified": "2022-12-13T16:36:46.000",
    "request_status": "Pending",
    "responsible_agency": "Department of Sanitation",
    "final_address": "5500 S Claiborne Ave",
    "address_councildis": "A",
    "status": "Assigned to Contractor",
    "contractor": "Richards Disposal",
    "rowid": "952930",
    "final_x": "3668041.35585",
    "final_y": "526365.863742",
    "longitude": "-90.11074166711217",
    "latitude": "29.941725259888106",
    "geocoded_column": {
      "latitude": "29.941725259888106",
      "longitude": "-90.11074166711217"
    }
  },
  {
    "service_request": "2022-952929",
    "request_type": "Abandoned Vehicles",
    "request_reason": "Abandoned/Junk Vehicles",
    "date_created": "2022-12-13T16:35:42.000",
    "date_modified": "2022-12-13T16:35:42.000",
    "request_status": "Pending",
    "responsible_agency": "Department of Public Works",
    "final_address": "1201 Desire St",
    "address_councildis": "C",
    "status": "Pending",
    "rowid": "952929",
    "final_x": "3690310.63491",
    "final_y": "536092.376455",
    "longitude": "-90.04008665154068",
    "latitude": "29.967797670037285",
    "geocoded_column": {
      "latitude": "29.967797670037285",
      "longitude": "-90.04008665154068"
    }
  },
  {
    "service_request": "2022-952928",
    "request_type": "Trash/Recycling",
    "request_reason": "Order Recycling Cart",
    "date_created": "2022-12-13T16:35:08.000",
    "date_modified": "2022-12-13T16:35:08.000",
    "request_status": "Pending",
    "responsible_agency": "Department of Sanitation",
    "final_address": "2226 Upperline St",
    "address_councildis": "B",
    "status": "Pending",
    "rowid": "952928",
    "final_x": "3669055.68289",
    "final_y": "523039.677371",
    "longitude": "-90.10765155167162",
    "latitude": "29.932549520376263",
    "geocoded_column": {
      "latitude": "29.932549520376263",
      "longitude": "-90.10765155167162"
    }
  },
  {
    "service_request": "2022-952927",
    "request_type": "Property Maintenance",
    "request_reason": "Property Maintenance",
    "date_created": "2022-12-13T16:35:02.000",
    "date_modified": "2022-12-13T16:35:02.000",
    "request_status": "Pending",
    "responsible_agency": "Department of Code Enforcement",
    "final_address": "1012 Seventh St",
    "address_councildis": "B",
    "status": "Pending",
    "rowid": "952927",
    "final_x": "3676502.47035",
    "final_y": "520093.918008",
    "longitude": "-90.08424403900712",
    "latitude": "29.92422850841469",
    "geocoded_column": {
      "latitude": "29.92422850841469",
      "longitude": "-90.08424403900712"
    }
  },
  {
    "service_request": "2022-952926",
    "request_type": "Trash/Recycling",
    "request_reason": "Order Trash Cart",
    "date_created": "2022-12-13T16:34:24.000",
    "date_modified": "2022-12-13T16:34:25.000",
    "request_status": "Pending",
    "responsible_agency": "Department of Sanitation",
    "final_address": "2226 Upperline St",
    "address_councildis": "B",
    "status": "Assigned to Contractor",
    "contractor": "Richards Disposal",
    "rowid": "952926",
    "final_x": "3669055.68289",
    "final_y": "523039.677371",
    "longitude": "-90.10765155167162",
    "latitude": "29.932549520376263",
    "geocoded_column": {
      "latitude": "29.932549520376263",
      "longitude": "-90.10765155167162"
    }
  },
  {
    "service_request": "2022-952925",
    "request_type": "Abandoned Vehicles",
    "request_reason": "Abandoned/Junk Vehicles",
    "date_created": "2022-12-13T16:29:28.000",
    "date_modified": "2022-12-13T16:29:28.000",
    "request_status": "Pending",
    "responsible_agency": "Department of Public Works",
    "final_address": "6203 S Rocheblave St",
    "address_councildis": "A",
    "status": "Pending",
    "rowid": "952925",
    "final_x": "3667642.84884",
    "final_y": "528734.782912",
    "longitude": "-90.11192011495264",
    "latitude": "29.948250706343114",
    "geocoded_column": {
      "latitude": "29.948250706343114",
      "longitude": "-90.11192011495264"
    }
  },
  {
    "service_request": "2022-952923",
    "request_type": "Abandoned Vehicles",
    "request_reason": "Abandoned/Junk Vehicles",
    "date_created": "2022-12-13T16:22:46.000",
    "date_modified": "2022-12-13T16:22:46.000",
    "request_status": "Pending",
    "responsible_agency": "Department of Public Works",
    "final_address": "1334 St Bernard Ave",
    "address_councildis": "C",
    "status": "Pending",
    "rowid": "952923",
    "final_x": "3682684.29973",
    "final_y": "536788.052296",
    "longitude": "-90.06414648075155",
    "latitude": "29.96994500907147",
    "geocoded_column": {
      "latitude": "29.96994500907147",
      "longitude": "-90.06414648075155"
    }
  },
  {
    "service_request": "2022-952922",
    "request_type": "Traffic Signals/Signs/Striping/Streetlights",
    "request_reason": "Street Light Outage/Malfunction",
    "date_created": "2022-12-13T16:21:49.000",
    "date_modified": "2022-12-13T16:21:49.000",
    "request_status": "Pending",
    "responsible_agency": "Department of Public Works",
    "final_address": "1626 Lakeshore Dr",
    "address_councildis": "D",
    "status": "Pending",
    "contractor": "Legacy Professional Services",
    "rowid": "952922",
    "final_x": "3678064.09006",
    "final_y": "557740.854299",
    "longitude": "-90.07801262233102",
    "latitude": "30.02769770892988",
    "geocoded_column": {
      "latitude": "30.02769770892988",
      "longitude": "-90.07801262233102"
    }
  },
  {
    "service_request": "2022-952921",
    "request_type": "Trash/Recycling",
    "request_reason": "Missed Trash Pick-Up",
    "date_created": "2022-12-13T16:20:09.000",
    "date_modified": "2022-12-13T16:20:09.000",
    "request_status": "Pending",
    "responsible_agency": "Department of Sanitation",
    "final_address": "7810 Branch Dr",
    "address_councildis": "E",
    "status": "Assigned to Contractor",
    "contractor": "Waste Pro",
    "rowid": "952921",
    "final_x": "3714258.05496",
    "final_y": "569248.857574",
    "longitude": "-89.96320879959671",
    "latitude": "30.05820011324703",
    "geocoded_column": {
      "latitude": "30.05820011324703",
      "longitude": "-89.96320879959671"
    }
  },
  {
    "service_request": "2022-952919",
    "request_type": "Trash/Recycling",
    "request_reason": "Request a Large Item Pick Up",
    "date_created": "2022-12-13T16:17:40.000",
    "date_modified": "2022-12-13T16:18:14.000",
    "request_status": "Pending",
    "responsible_agency": "Department of Sanitation",
    "final_address": "32 Park Timbers Dr",
    "address_councildis": "C",
    "status": "Assigned to Contractor",
    "contractor": "Richards Disposal",
    "rowid": "952919",
    "final_x": "3699279.65744",
    "final_y": "517497.80447",
    "longitude": "-90.0124393230512",
    "latitude": "29.91638770036931",
    "geocoded_column": {
      "latitude": "29.91638770036931",
      "longitude": "-90.0124393230512"
    }
  },
  {
    "service_request": "2022-952918",
    "request_type": "Trash/Recycling",
    "request_reason": "Missed Trash Pick-Up",
    "date_created": "2022-12-13T16:14:50.000",
    "date_modified": "2022-12-13T16:14:50.000",
    "request_status": "Pending",
    "responsible_agency": "Department of Sanitation",
    "final_address": "2835 Octavia St",
    "address_councildis": "A",
    "status": "Assigned to Contractor",
    "contractor": "Richards Disposal",
    "rowid": "952918",
    "final_x": "3668052.72289",
    "final_y": "525985.041085",
    "longitude": "-90.11071860788422",
    "latitude": "29.940677786948843",
    "geocoded_column": {
      "latitude": "29.940677786948843",
      "longitude": "-90.11071860788422"
    }
  },
  {
    "service_request": "2022-952917",
    "request_type": "Traffic Signals/Signs/Striping/Streetlights",
    "request_reason": "Street Light Outage/Malfunction",
    "date_created": "2022-12-13T16:08:44.000",
    "date_modified": "2022-12-13T16:08:45.000",
    "request_status": "Pending",
    "responsible_agency": "Department of Public Works",
    "final_address": "LAKESHORE DR & CARLSON DR",
    "address_councildis": "D",
    "status": "Pending",
    "contractor": "Legacy Professional Services",
    "rowid": "952917",
    "final_x": "3678015.8",
    "final_y": "557874.88",
    "longitude": "-90.07816057619343",
    "latitude": "30.028067685114827",
    "geocoded_column": {
      "latitude": "30.028067685114827",
      "longitude": "-90.07816057619343"
    }
  },
  {
    "service_request": "2022-952916",
    "request_type": "Property Maintenance",
    "request_reason": "Property Maintenance",
    "date_created": "2022-12-13T16:01:11.000",
    "date_modified": "2022-12-13T16:01:12.000",
    "request_status": "Pending",
    "responsible_agency": "Department of Code Enforcement",
    "final_address": "7820 Placid St",
    "address_councildis": "E",
    "status": "Pending",
    "rowid": "952916",
    "final_x": "3714089.89061",
    "final_y": "569199.974502",
    "longitude": "-89.96374219009586",
    "latitude": "30.05807123275768",
    "geocoded_column": {
      "latitude": "30.05807123275768",
      "longitude": "-89.96374219009586"
    }
  },
  {
    "service_request": "2022-952915",
    "request_type": "Abandoned Vehicles",
    "request_reason": "Abandoned/Junk Vehicles",
    "date_created": "2022-12-13T16:00:37.000",
    "date_modified": "2022-12-13T16:03:45.000",
    "request_status": "Pending",
    "responsible_agency": "Department of Public Works",
    "final_address": "DHEMECOURT ST & S CLARK ST",
    "address_councildis": "B",
    "status": "Pending",
    "rowid": "952915",
    "final_x": "3671664.7",
    "final_y": "535420.78",
    "longitude": "-90.09899404152804",
    "latitude": "29.966516486774488",
    "geocoded_column": {
      "latitude": "29.966516486774488",
      "longitude": "-90.09899404152804"
    }
  },
  {
    "service_request": "2022-952914",
    "request_type": "Trash/Recycling",
    "request_reason": "Repair Trash Cart",
    "date_created": "2022-12-13T15:59:45.000",
    "date_modified": "2022-12-13T15:59:45.000",
    "request_status": "Pending",
    "responsible_agency": "Department of Sanitation",
    "final_address": "3530 S Tonti St",
    "address_councildis": "B",
    "status": "Assigned to Contractor",
    "contractor": "Richards Disposal",
    "rowid": "952914",
    "final_x": "3670984.10049",
    "final_y": "528196.001152",
    "longitude": "-90.10138867521084",
    "latitude": "29.946670877173187",
    "geocoded_column": {
      "latitude": "29.946670877173187",
      "longitude": "-90.10138867521084"
    }
  },
  {
    "service_request": "2022-952913",
    "request_type": "Property Maintenance",
    "request_reason": "Property Maintenance",
    "date_created": "2022-12-13T15:59:27.000",
    "date_modified": "2022-12-13T15:59:27.000",
    "request_status": "Pending",
    "responsible_agency": "Department of Code Enforcement",
    "final_address": "12451 Curran Rd",
    "address_councildis": "E",
    "status": "Pending",
    "rowid": "952913",
    "final_x": "3714306.5276",
    "final_y": "568809.055973",
    "longitude": "-89.9630722088045",
    "latitude": "30.056989245926395",
    "geocoded_column": {
      "latitude": "30.056989245926395",
      "longitude": "-89.9630722088045"
    }
  },
  {
    "service_request": "2022-952912",
    "request_type": "Trash/Recycling",
    "request_reason": "Missed Trash Pick-Up",
    "date_created": "2022-12-13T15:56:44.000",
    "date_modified": "2022-12-13T15:56:45.000",
    "request_status": "Pending",
    "responsible_agency": "Department of Sanitation",
    "final_address": "7830 Branch Dr",
    "address_councildis": "E",
    "status": "Assigned to Contractor",
    "contractor": "Waste Pro",
    "rowid": "952912",
    "final_x": "3714186.87979",
    "final_y": "569350.087462",
    "longitude": "-89.96342994874716",
    "latitude": "30.05848079369851",
    "geocoded_column": {
      "latitude": "30.05848079369851",
      "longitude": "-89.96342994874716"
    }
  },
  {
    "service_request": "2022-952911",
    "request_type": "Trash/Recycling",
    "request_reason": "Order Trash Cart",
    "date_created": "2022-12-13T15:56:14.000",
    "date_modified": "2022-12-13T15:56:15.000",
    "request_status": "Pending",
    "responsible_agency": "Department of Sanitation",
    "final_address": "2512 Mexico St",
    "address_councildis": "D",
    "status": "Assigned to Contractor",
    "contractor": "IV Waste",
    "rowid": "952911",
    "final_x": "3685766.86377",
    "final_y": "556266.720474",
    "longitude": "-90.05372449452658",
    "latitude": "30.02341010471461",
    "geocoded_column": {
      "latitude": "30.02341010471461",
      "longitude": "-90.05372449452658"
    }
  },
  {
    "service_request": "2022-952910",
    "request_type": "Trash/Recycling",
    "request_reason": "Order Recycling Cart",
    "date_created": "2022-12-13T15:51:37.000",
    "date_modified": "2022-12-13T15:51:38.000",
    "request_status": "Pending",
    "responsible_agency": "Department of Sanitation",
    "final_address": "6223 Brighton Pl",
    "address_councildis": "C",
    "status": "Pending",
    "rowid": "952910",
    "final_x": "3707154.7635",
    "final_y": "519996.8238",
    "longitude": "-89.98748988539167",
    "latitude": "29.923007164329302",
    "geocoded_column": {
      "latitude": "29.923007164329302",
      "longitude": "-89.98748988539167"
    }
  },
  {
    "service_request": "2022-952909",
    "request_type": "Trash/Recycling",
    "request_reason": "Order Recycling Cart",
    "date_created": "2022-12-13T15:48:37.000",
    "date_modified": "2022-12-13T15:48:37.000",
    "request_status": "Pending",
    "responsible_agency": "Department of Sanitation",
    "final_address": "5429 Grand Bayou Dr",
    "address_councildis": "E",
    "status": "Pending",
    "rowid": "952909",
    "final_x": "3725809.296",
    "final_y": "564119.534497",
    "longitude": "-89.92689611282434",
    "latitude": "30.04371177896927",
    "geocoded_column": {
      "latitude": "30.04371177896927",
      "longitude": "-89.92689611282434"
    }
  },
  {
    "service_request": "2022-952908",
    "request_type": "Trash/Recycling",
    "request_reason": "Request a Large Item Pick Up",
    "date_created": "2022-12-13T15:44:42.000",
    "date_modified": "2022-12-13T15:44:43.000",
    "request_status": "Pending",
    "responsible_agency": "Department of Sanitation",
    "final_address": "411 Fairway Dr",
    "address_councildis": "A",
    "status": "Assigned to Contractor",
    "contractor": "IV Waste",
    "rowid": "952908",
    "final_x": "3664344.38279",
    "final_y": "542361.449357",
    "longitude": "-90.1218798850125",
    "latitude": "29.98581581459609",
    "geocoded_column": {
      "latitude": "29.98581581459609",
      "longitude": "-90.1218798850125"
    }
  },
  {
    "service_request": "2022-952907",
    "request_type": "Trash/Recycling",
    "request_reason": "Request a Large Item Pick Up",
    "date_created": "2022-12-13T15:44:38.000",
    "date_modified": "2022-12-13T15:44:38.000",
    "request_status": "Pending",
    "responsible_agency": "Department of Sanitation",
    "final_address": "2129 Cadiz St",
    "address_councildis": "B",
    "status": "Assigned to Contractor",
    "contractor": "Richards Disposal",
    "rowid": "952907",
    "final_x": "3669945.2091",
    "final_y": "522795.948859",
    "longitude": "-90.10485163536771",
    "latitude": "29.931853151836762",
    "geocoded_column": {
      "latitude": "29.931853151836762",
      "longitude": "-90.10485163536771"
    }
  },
  {
    "service_request": "2022-952906",
    "request_type": "Abandoned Vehicles",
    "request_reason": "Vehicle Blocking Your Driveway",
    "date_created": "2022-12-13T15:42:42.000",
    "date_modified": "2022-12-13T15:42:42.000",
    "request_status": "Pending",
    "responsible_agency": "Department of Public Works",
    "final_address": "2600 Lacombe @Hayne ",
    "status": "Pending",
    "rowid": "952906",
    "longitude": "0.0",
    "latitude": "0.0",
    "geocoded_column": {
      "latitude": "0.0",
      "longitude": "0.0"
    }
  },
  {
    "service_request": "2022-952905",
    "request_type": "Trash/Recycling",
    "request_reason": "Missed Trash Pick-Up",
    "date_created": "2022-12-13T15:42:31.000",
    "date_modified": "2022-12-13T15:42:32.000",
    "request_status": "Pending",
    "responsible_agency": "Department of Sanitation",
    "final_address": "7534 Michigan St",
    "address_councildis": "E",
    "status": "Assigned to Contractor",
    "contractor": "Waste Pro",
    "rowid": "952905",
    "final_x": "3712076.83896",
    "final_y": "566003.472099",
    "longitude": "-89.97022535239056",
    "latitude": "30.049348159339065",
    "geocoded_column": {
      "latitude": "30.049348159339065",
      "longitude": "-89.97022535239056"
    }
  },
  {
    "service_request": "2022-952904",
    "request_type": "Trash/Recycling",
    "request_reason": "Repair Trash Cart",
    "date_created": "2022-12-13T15:39:17.000",
    "date_modified": "2022-12-13T15:39:17.000",
    "request_status": "Pending",
    "responsible_agency": "Department of Sanitation",
    "final_address": "2129 Cadiz St",
    "address_councildis": "B",
    "status": "Assigned to Contractor",
    "contractor": "Richards Disposal",
    "rowid": "952904",
    "final_x": "3669945.2091",
    "final_y": "522795.948859",
    "longitude": "-90.10485163536771",
    "latitude": "29.931853151836762",
    "geocoded_column": {
      "latitude": "29.931853151836762",
      "longitude": "-90.10485163536771"
    }
  },
  {
    "service_request": "2022-952903",
    "request_type": "Trash/Recycling",
    "request_reason": "Order Recycling Cart",
    "date_created": "2022-12-13T15:36:41.000",
    "date_modified": "2022-12-13T15:36:42.000",
    "request_status": "Pending",
    "responsible_agency": "Department of Sanitation",
    "final_address": "5651 Paris Ave",
    "address_councildis": "D",
    "status": "Pending",
    "rowid": "952903",
    "final_x": "3679175.83323",
    "final_y": "553366.536407",
    "longitude": "-90.07465143349559",
    "latitude": "30.01563639201733",
    "geocoded_column": {
      "latitude": "30.01563639201733",
      "longitude": "-90.07465143349559"
    }
  },
  {
    "service_request": "2022-952902",
    "request_type": "Trash/Recycling",
    "request_reason": "Replace Trash Cart",
    "date_created": "2022-12-13T15:35:37.000",
    "date_modified": "2022-12-13T15:35:38.000",
    "request_status": "Pending",
    "responsible_agency": "Department of Sanitation",
    "final_address": "6400 Franklin Ave",
    "address_councildis": "D",
    "status": "Assigned to Contractor",
    "contractor": "IV Waste",
    "rowid": "952902",
    "final_x": "3686215.53922",
    "final_y": "556770.911962",
    "longitude": "-90.05228896603563",
    "latitude": "30.02478265928253",
    "geocoded_column": {
      "latitude": "30.02478265928253",
      "longitude": "-90.05228896603563"
    }
  },
  {
    "service_request": "2022-952900",
    "request_type": "Trash/Recycling",
    "request_reason": "MIssed Recycling Pick-Up",
    "date_created": "2022-12-13T15:29:38.000",
    "date_modified": "2022-12-13T15:29:39.000",
    "request_status": "Pending",
    "responsible_agency": "Department of Sanitation",
    "final_address": "2229 Iberville St, New Orleans, Louisiana, 70119",
    "address_councildis": "B",
    "status": "Assigned to Contractor",
    "contractor": "Richards Disposal",
    "rowid": "952900",
    "final_x": "3677039.21243",
    "final_y": "534409.555781",
    "longitude": "-90.08205625390569",
    "latitude": "29.963575673872576",
    "geocoded_column": {
      "latitude": "29.963575673872576",
      "longitude": "-90.08205625390569"
    }
  },
  {
    "service_request": "2022-952899",
    "request_type": "Trash/Recycling",
    "request_reason": "Repair Trash Cart",
    "date_created": "2022-12-13T15:27:47.000",
    "date_modified": "2022-12-13T15:27:47.000",
    "request_status": "Pending",
    "responsible_agency": "Department of Sanitation",
    "final_address": "6970 Edgefield Dr",
    "address_councildis": "E",
    "status": "Assigned to Contractor",
    "contractor": "Waste Pro",
    "rowid": "952899",
    "final_x": "3718973.47506",
    "final_y": "568765.494309",
    "longitude": "-89.94832251764012",
    "latitude": "30.056715187728603",
    "geocoded_column": {
      "latitude": "30.056715187728603",
      "longitude": "-89.94832251764012"
    }
  },
  {
    "service_request": "2022-952898",
    "request_type": "Property Maintenance",
    "request_reason": "Property Maintenance",
    "date_created": "2022-12-13T15:24:32.000",
    "date_modified": "2022-12-13T15:24:32.000",
    "request_status": "Pending",
    "responsible_agency": "Department of Code Enforcement",
    "final_address": "2318 St Philip St",
    "address_councildis": "D",
    "status": "Pending",
    "rowid": "952898",
    "final_x": "3678614.69045",
    "final_y": "536872.525896",
    "longitude": "-90.07699577956191",
    "latitude": "29.970300601016554",
    "geocoded_column": {
      "latitude": "29.970300601016554",
      "longitude": "-90.07699577956191"
    }
  },
  {
    "service_request": "2022-952897",
    "request_type": "Traffic Signals/Signs/Striping/Streetlights",
    "request_reason": "Street Light Outage/Malfunction",
    "date_created": "2022-12-13T15:20:56.000",
    "date_modified": "2022-12-13T15:20:59.000",
    "request_status": "Pending",
    "responsible_agency": "Department of Public Works",
    "final_address": "2200 BLK Odin St",
    "address_councildis": "D",
    "status": "Pending",
    "contractor": "Legacy Professional Services",
    "rowid": "952897",
    "final_x": "3683899.07278",
    "final_y": "553054.456015",
    "longitude": "-90.05973913138578",
    "latitude": "30.01463477759728",
    "geocoded_column": {
      "latitude": "30.01463477759728",
      "longitude": "-90.05973913138578"
    }
  },
  {
    "service_request": "2022-952896",
    "request_type": "Traffic Signals/Signs/Striping/Streetlights",
    "request_reason": "Street Light Outage/Malfunction",
    "date_created": "2022-12-13T15:20:24.000",
    "date_modified": "2022-12-13T15:20:25.000",
    "request_status": "Pending",
    "responsible_agency": "Department of Public Works",
    "final_address": "3102 N Derbigny St",
    "address_councildis": "D",
    "status": "Pending",
    "contractor": "Legacy Professional Services",
    "rowid": "952896",
    "final_x": "3689601.52719",
    "final_y": "538188.597705",
    "longitude": "-90.04225143695656",
    "latitude": "29.973583528182644",
    "geocoded_column": {
      "latitude": "29.973583528182644",
      "longitude": "-90.04225143695656"
    }
  },
  {
    "service_request": "2022-952895",
    "request_type": "Traffic Signals/Signs/Striping/Streetlights",
    "request_reason": "Street Light Outage/Malfunction",
    "date_created": "2022-12-13T15:18:05.000",
    "date_modified": "2022-12-13T15:18:06.000",
    "request_status": "Pending",
    "responsible_agency": "Department of Public Works",
    "final_address": "2336 Odin St",
    "address_councildis": "D",
    "status": "Pending",
    "contractor": "Legacy Professional Services",
    "rowid": "952895",
    "final_x": "3684738.79823",
    "final_y": "553088.226839",
    "longitude": "-90.05708482459463",
    "latitude": "30.014701944550804",
    "geocoded_column": {
      "latitude": "30.014701944550804",
      "longitude": "-90.05708482459463"
    }
  },
  {
    "service_request": "2022-952894",
    "request_type": "Abandoned Vehicles",
    "request_reason": "Abandoned/Junk Vehicles",
    "date_created": "2022-12-13T15:16:20.000",
    "date_modified": "2022-12-13T15:16:20.000",
    "request_status": "Pending",
    "responsible_agency": "Department of Public Works",
    "final_address": "3007 Banks St",
    "address_councildis": "B",
    "status": "Pending",
    "rowid": "952894",
    "final_x": "3673588.54926",
    "final_y": "535004.993798",
    "longitude": "-90.09293275121132",
    "latitude": "29.965316089418454",
    "geocoded_column": {
      "latitude": "29.965316089418454",
      "longitude": "-90.09293275121132"
    }
  },
  {
    "service_request": "2022-952893",
    "request_type": "Trash/Recycling",
    "request_reason": "Missed Trash Pick-Up",
    "date_created": "2022-12-13T15:15:36.000",
    "date_modified": "2022-12-13T15:15:36.000",
    "request_status": "Pending",
    "responsible_agency": "Department of Sanitation",
    "final_address": "7440 Weaver Ave",
    "address_councildis": "E",
    "status": "Assigned to Contractor",
    "contractor": "Waste Pro",
    "rowid": "952893",
    "final_x": "3707618.22174",
    "final_y": "563911.963745",
    "longitude": "-89.98439500844526",
    "latitude": "30.043742434828403",
    "geocoded_column": {
      "latitude": "30.043742434828403",
      "longitude": "-89.98439500844526"
    }
  },
  {
    "service_request": "2022-952892",
    "request_type": "Trash/Recycling",
    "request_reason": "Request a Large Item Pick Up",
    "date_created": "2022-12-13T15:13:17.000",
    "date_modified": "2022-12-13T15:13:18.000",
    "request_status": "Pending",
    "responsible_agency": "Department of Sanitation",
    "final_address": "215 S Olympia St",
    "address_councildis": "A",
    "status": "Assigned to Contractor",
    "contractor": "Richards Disposal",
    "rowid": "952892",
    "final_x": "3669009.0569",
    "final_y": "539236.004106",
    "longitude": "-90.10725163596516",
    "latitude": "29.977085468059922",
    "geocoded_column": {
      "latitude": "29.977085468059922",
      "longitude": "-90.10725163596516"
    }
  },
  {
    "service_request": "2022-952891",
    "request_type": "Trash/Recycling",
    "request_reason": "Repair Trash Cart",
    "date_created": "2022-12-13T15:12:43.000",
    "date_modified": "2022-12-13T15:12:44.000",
    "request_status": "Pending",
    "responsible_agency": "Department of Sanitation",
    "final_address": "3622 Upperline St",
    "address_councildis": "B",
    "status": "Assigned to Contractor",
    "contractor": "Richards Disposal",
    "rowid": "952891",
    "final_x": "3669244.86964",
    "final_y": "528217.076416",
    "longitude": "-90.1068793584479",
    "latitude": "29.94678012944188",
    "geocoded_column": {
      "latitude": "29.94678012944188",
      "longitude": "-90.1068793584479"
    }
  },
  {
    "service_request": "2022-952890",
    "request_type": "Trash/Recycling",
    "request_reason": "Order Trash Cart",
    "date_created": "2022-12-13T15:10:40.000",
    "date_modified": "2022-12-13T15:10:41.000",
    "request_status": "Pending",
    "responsible_agency": "Department of Sanitation",
    "final_address": "9023 Bunker Hill Rd",
    "address_councildis": "E",
    "status": "Assigned to Contractor",
    "contractor": "Waste Pro",
    "rowid": "952890",
    "final_x": "3706262.20145",
    "final_y": "561864.708511",
    "longitude": "-89.98875650960085",
    "latitude": "30.038157118695278",
    "geocoded_column": {
      "latitude": "30.038157118695278",
      "longitude": "-89.98875650960085"
    }
  },
  {
    "service_request": "2022-952889",
    "request_type": "Trash/Recycling",
    "request_reason": "Missed Trash Pick-Up",
    "date_created": "2022-12-13T15:07:48.000",
    "date_modified": "2022-12-13T15:07:48.000",
    "request_status": "Pending",
    "responsible_agency": "Department of Sanitation",
    "final_address": "2500 St Roch Ave",
    "address_councildis": "D",
    "status": "Assigned to Contractor",
    "contractor": "IV Waste",
    "rowid": "952889",
    "final_x": "3685992.71324",
    "final_y": "541626.982604",
    "longitude": "-90.05352752658933",
    "latitude": "29.98314919106274",
    "geocoded_column": {
      "latitude": "29.98314919106274",
      "longitude": "-90.05352752658933"
    }
  },
  {
    "service_request": "2022-952888",
    "request_type": "Trash/Recycling",
    "request_reason": "MIssed Recycling Pick-Up",
    "date_created": "2022-12-13T15:04:34.000",
    "date_modified": "2022-12-13T15:04:35.000",
    "request_status": "Pending",
    "responsible_agency": "Department of Sanitation",
    "final_address": "518 S Solomon St",
    "address_councildis": "A",
    "status": "Assigned to Contractor",
    "contractor": "Richards Disposal",
    "rowid": "952888",
    "final_x": "3669553.6146",
    "final_y": "537293.919112",
    "longitude": "-90.10559746306643",
    "latitude": "29.971729354809867",
    "geocoded_column": {
      "latitude": "29.971729354809867",
      "longitude": "-90.10559746306643"
    }
  },
  {
    "service_request": "2022-952887",
    "request_type": "Property Maintenance",
    "request_reason": "Property Maintenance",
    "date_created": "2022-12-13T15:04:18.000",
    "date_modified": "2022-12-13T15:04:18.000",
    "request_status": "Pending",
    "responsible_agency": "Department of Code Enforcement",
    "final_address": "4908 Dauphine St",
    "address_councildis": "E",
    "status": "Pending",
    "rowid": "952887",
    "final_x": "3695148.96112",
    "final_y": "533229.826756",
    "longitude": "-90.02491037790062",
    "latitude": "29.959775632578378",
    "geocoded_column": {
      "latitude": "29.959775632578378",
      "longitude": "-90.02491037790062"
    }
  },
  {
    "service_request": "2022-952886",
    "request_type": "Property Maintenance",
    "request_reason": "Property Maintenance",
    "date_created": "2022-12-13T15:04:16.000",
    "date_modified": "2022-12-13T15:04:17.000",
    "request_status": "Pending",
    "responsible_agency": "Department of Code Enforcement",
    "final_address": "522 Orange St",
    "address_councildis": "B",
    "status": "Pending",
    "rowid": "952886",
    "final_x": "3682080.42799",
    "final_y": "522968.060859",
    "longitude": "-90.06653608567031",
    "latitude": "29.93196308024548",
    "geocoded_column": {
      "latitude": "29.93196308024548",
      "longitude": "-90.06653608567031"
    }
  },
  {
    "service_request": "2022-952885",
    "request_type": "Trash/Recycling",
    "request_reason": "Request a Large Item Pick Up",
    "date_created": "2022-12-13T15:03:48.000",
    "date_modified": "2022-12-13T15:03:49.000",
    "request_status": "Pending",
    "responsible_agency": "Department of Sanitation",
    "final_address": "1614 Esplanade Ave",
    "address_councildis": "D",
    "status": "Assigned to Contractor",
    "contractor": "Richards Disposal",
    "rowid": "952885",
    "final_x": "3681083.77525",
    "final_y": "536640.191047",
    "longitude": "-90.0692062413409",
    "latitude": "29.96958709083489",
    "geocoded_column": {
      "latitude": "29.96958709083489",
      "longitude": "-90.0692062413409"
    }
  },
  {
    "service_request": "2022-952884",
    "request_type": "Trash/Recycling",
    "request_reason": "Request a Large Item Pick Up",
    "date_created": "2022-12-13T14:56:02.000",
    "date_modified": "2022-12-13T14:56:03.000",
    "request_status": "Pending",
    "responsible_agency": "Department of Sanitation",
    "final_address": "10 Gordon Plaza Dr",
    "address_councildis": "D",
    "status": "Assigned to Contractor",
    "contractor": "IV Waste",
    "rowid": "952884",
    "final_x": "3690005.47856",
    "final_y": "543949.435406",
    "longitude": "-90.04077044079045",
    "latitude": "29.989411256580567",
    "geocoded_column": {
      "latitude": "29.989411256580567",
      "longitude": "-90.04077044079045"
    }
  },
  {
    "service_request": "2022-952883",
    "request_type": "Traffic Signals/Signs/Striping/Streetlights",
    "request_reason": "Street Light Outage/Malfunction",
    "date_created": "2022-12-13T14:54:55.000",
    "date_modified": "2022-12-13T14:54:56.000",
    "request_status": "Pending",
    "responsible_agency": "Department of Public Works",
    "final_address": "3012 St Roch Ave",
    "address_councildis": "D",
    "status": "Pending",
    "contractor": "Legacy Professional Services",
    "rowid": "952883",
    "final_x": "3685778.29052",
    "final_y": "543887.295246",
    "longitude": "-90.054125080802",
    "latitude": "29.989370832147866",
    "geocoded_column": {
      "latitude": "29.989370832147866",
      "longitude": "-90.054125080802"
    }
  },
  {
    "service_request": "2022-952882",
    "request_type": "Trash/Recycling",
    "request_reason": "Replace Trash Cart",
    "date_created": "2022-12-13T14:54:39.000",
    "date_modified": "2022-12-13T14:54:40.000",
    "request_status": "Pending",
    "responsible_agency": "Department of Sanitation",
    "final_address": "537 Verret St",
    "address_councildis": "C",
    "status": "Assigned to Contractor",
    "contractor": "Richards Disposal",
    "rowid": "952882",
    "final_x": "3686983.72239",
    "final_y": "529582.922177",
    "longitude": "-90.05082320331647",
    "latitude": "29.95000174427931",
    "geocoded_column": {
      "latitude": "29.95000174427931",
      "longitude": "-90.05082320331647"
    }
  },
  {
    "service_request": "2022-952881",
    "request_type": "Trash/Recycling",
    "request_reason": "Request a Large Item Pick Up",
    "date_created": "2022-12-13T14:50:47.000",
    "date_modified": "2022-12-13T14:50:47.000",
    "request_status": "Pending",
    "responsible_agency": "Department of Sanitation",
    "final_address": "11220 N Parkwood Ct",
    "address_councildis": "E",
    "status": "Assigned to Contractor",
    "contractor": "Waste Pro",
    "rowid": "952881",
    "final_x": "3716593.71896",
    "final_y": "559158.478172",
    "longitude": "-89.95620942566758",
    "latitude": "30.030378679034335",
    "geocoded_column": {
      "latitude": "30.030378679034335",
      "longitude": "-89.95620942566758"
    }
  },
  {
    "service_request": "2022-952880",
    "request_type": "Trash/Recycling",
    "request_reason": "Replace Recycling Cart",
    "date_created": "2022-12-13T14:46:10.000",
    "date_modified": "2022-12-13T14:46:11.000",
    "request_status": "Pending",
    "responsible_agency": "Department of Sanitation",
    "final_address": "4622 Herschel St",
    "address_councildis": "C",
    "status": "Pending",
    "rowid": "952880",
    "final_x": "3702116.29175",
    "final_y": "520865.460537",
    "longitude": "-90.00336244817544",
    "latitude": "29.92555737715068",
    "geocoded_column": {
      "latitude": "29.92555737715068",
      "longitude": "-90.00336244817544"
    }
  },
  {
    "service_request": "2022-952879",
    "request_type": "Trash/Recycling",
    "request_reason": "Repair Trash Cart",
    "date_created": "2022-12-13T14:44:34.000",
    "date_modified": "2022-12-13T14:44:35.000",
    "request_status": "Pending",
    "responsible_agency": "Department of Sanitation",
    "final_address": "1325 Teche St",
    "address_councildis": "C",
    "status": "Assigned to Contractor",
    "contractor": "Richards Disposal",
    "rowid": "952879",
    "final_x": "3686613.47785",
    "final_y": "526535.07187",
    "longitude": "-90.05209984116915",
    "latitude": "29.941632580910422",
    "geocoded_column": {
      "latitude": "29.941632580910422",
      "longitude": "-90.05209984116915"
    }
  },
  {
    "service_request": "2022-952878",
    "request_type": "Trash/Recycling",
    "request_reason": "Repair Trash Cart",
    "date_created": "2022-12-13T14:44:02.000",
    "date_modified": "2022-12-13T14:44:03.000",
    "request_status": "Pending",
    "responsible_agency": "Department of Sanitation",
    "final_address": "1319 Teche St",
    "address_councildis": "C",
    "status": "Assigned to Contractor",
    "contractor": "Richards Disposal",
    "rowid": "952878",
    "final_x": "3686608.48118",
    "final_y": "526589.460734",
    "longitude": "-90.05211369658181",
    "latitude": "29.94178228551836",
    "geocoded_column": {
      "latitude": "29.94178228551836",
      "longitude": "-90.05211369658181"
    }
  },
  {
    "service_request": "2022-952877",
    "request_type": "Trash/Recycling",
    "request_reason": "Order Trash Cart",
    "date_created": "2022-12-13T14:39:11.000",
    "date_modified": "2022-12-13T14:40:33.000",
    "request_status": "Pending",
    "responsible_agency": "Department of Sanitation",
    "final_address": "N MIRO ST & NEW ORLEANS ST",
    "address_councildis": "D",
    "status": "Assigned to Contractor",
    "contractor": "IV Waste",
    "rowid": "952877",
    "final_x": "3682084.3",
    "final_y": "540151.88",
    "longitude": "-90.06592383271771",
    "latitude": "29.97921262810447",
    "geocoded_column": {
      "latitude": "29.97921262810447",
      "longitude": "-90.06592383271771"
    }
  },
  {
    "service_request": "2022-952876",
    "request_type": "Trash/Recycling",
    "request_reason": "Order Recycling Cart",
    "date_created": "2022-12-13T14:37:44.000",
    "date_modified": "2022-12-13T14:37:44.000",
    "request_status": "Pending",
    "responsible_agency": "Department of Sanitation",
    "final_address": "1958 Benefit St",
    "address_councildis": "D",
    "status": "Pending",
    "rowid": "952876",
    "final_x": "3682642.87842",
    "final_y": "544220.202446",
    "longitude": "-90.06401728590238",
    "latitude": "29.990382083966658",
    "geocoded_column": {
      "latitude": "29.990382083966658",
      "longitude": "-90.06401728590238"
    }
  },
  {
    "service_request": "2022-952875",
    "request_type": "Trash/Recycling",
    "request_reason": "Missed Trash Pick-Up",
    "date_created": "2022-12-13T14:37:21.000",
    "date_modified": "2022-12-13T14:38:53.000",
    "request_status": "Pending",
    "responsible_agency": "Department of Sanitation",
    "final_address": "5800 BLK Tchoupitoulas St",
    "address_councildis": "A",
    "status": "Assigned to Contractor",
    "contractor": "Richards Disposal",
    "rowid": "952875",
    "final_x": "3664990.25988",
    "final_y": "517293.570844",
    "longitude": "-90.12067777454621",
    "latitude": "29.916868481815897",
    "geocoded_column": {
      "latitude": "29.916868481815897",
      "longitude": "-90.12067777454621"
    }
  },
  {
    "service_request": "2022-952874",
    "request_type": "Traffic Signals/Signs/Striping/Streetlights",
    "request_reason": "Additional signage",
    "date_created": "2022-12-13T14:37:02.000",
    "date_modified": "2022-12-13T14:37:03.000",
    "request_status": "Pending",
    "responsible_agency": "Department of Public Works",
    "final_address": "LEONIDAS ST & GREEN ST",
    "address_councildis": "A",
    "status": "Pending",
    "rowid": "952874",
    "final_x": "3661821.8",
    "final_y": "530866.88",
    "longitude": "-90.13022896774498",
    "latitude": "29.9542826204689",
    "geocoded_column": {
      "latitude": "29.9542826204689",
      "longitude": "-90.13022896774498"
    }
  },
  {
    "service_request": "2022-952873",
    "request_type": "Trash/Recycling",
    "request_reason": "MIssed Recycling Pick-Up",
    "date_created": "2022-12-13T14:36:04.000",
    "date_modified": "2022-12-13T14:36:04.000",
    "request_status": "Pending",
    "responsible_agency": "Department of Sanitation",
    "final_address": "220 S Solomon St",
    "address_councildis": "A",
    "status": "Assigned to Contractor",
    "contractor": "Richards Disposal",
    "rowid": "952873",
    "final_x": "3670248.74311",
    "final_y": "538208.997833",
    "longitude": "-90.10337111327594",
    "latitude": "29.974225015194648",
    "geocoded_column": {
      "latitude": "29.974225015194648",
      "longitude": "-90.10337111327594"
    }
  },
  {
    "service_request": "2022-952872",
    "request_type": "Trash/Recycling",
    "request_reason": "Order Trash Cart",
    "date_created": "2022-12-13T14:35:52.000",
    "date_modified": "2022-12-13T14:35:53.000",
    "request_status": "Pending",
    "responsible_agency": "Department of Sanitation",
    "final_address": "1041 Esplanade Ave",
    "address_councildis": "C",
    "status": "Assigned to Contractor",
    "contractor": "IV Waste",
    "rowid": "952872",
    "final_x": "3682957.61864",
    "final_y": "535340.167046",
    "longitude": "-90.06333399431564",
    "latitude": "29.96595549719378",
    "geocoded_column": {
      "latitude": "29.96595549719378",
      "longitude": "-90.06333399431564"
    }
  },
  {
    "service_request": "2022-952871",
    "request_type": "Trash/Recycling",
    "request_reason": "Missed Trash Pick-Up",
    "date_created": "2022-12-13T14:33:39.000",
    "date_modified": "2022-12-13T14:33:40.000",
    "request_status": "Pending",
    "responsible_agency": "Department of Sanitation",
    "final_address": "338 Walnut St, New Orleans, Louisiana, 70118",
    "address_councildis": "A",
    "status": "Assigned to Contractor",
    "contractor": "Richards Disposal",
    "rowid": "952871",
    "final_x": "3661996.68826",
    "final_y": "522274.841146",
    "longitude": "-90.12996166206501",
    "latitude": "29.930652197791854",
    "geocoded_column": {
      "latitude": "29.930652197791854",
      "longitude": "-90.12996166206501"
    }
  },
  {
    "service_request": "2022-952870",
    "request_type": "Trash/Recycling",
    "request_reason": "Missed Trash Pick-Up",
    "date_created": "2022-12-13T14:28:59.000",
    "date_modified": "2022-12-13T14:29:00.000",
    "request_status": "Pending",
    "responsible_agency": "Department of Sanitation",
    "final_address": "4239 S Claiborne Ave",
    "address_councildis": "B",
    "status": "Assigned to Contractor",
    "contractor": "Richards Disposal",
    "rowid": "952870",
    "final_x": "3670772.67252",
    "final_y": "526027.419902",
    "longitude": "-90.10212980214446",
    "latitude": "29.940714233918392",
    "geocoded_column": {
      "latitude": "29.940714233918392",
      "longitude": "-90.10212980214446"
    }
  },
  {
    "service_request": "2022-952869",
    "request_type": "Trash/Recycling",
    "request_reason": "Replace Trash Cart",
    "date_created": "2022-12-13T14:27:25.000",
    "date_modified": "2022-12-13T14:27:25.000",
    "request_status": "Pending",
    "responsible_agency": "Department of Sanitation",
    "final_address": "8404 Palm St",
    "address_councildis": "A",
    "status": "Assigned to Contractor",
    "contractor": "Richards Disposal",
    "rowid": "952869",
    "final_x": "3666851.93895",
    "final_y": "535422.500038",
    "longitude": "-90.1141926844918",
    "latitude": "29.966662894122965",
    "geocoded_column": {
      "latitude": "29.966662894122965",
      "longitude": "-90.1141926844918"
    }
  },