[
  {
    "service_request": "2025-1161007",
    "request_type": "Abandoned Vehicles",
    "request_reason": "Abandoned/Junk Vehicles",
    "date_created": "2025-01-09T23:10:44.000",
    "date_modified": "2025-01-09T23:10:46.000",
    "request_status": "Pending",
    "responsible_agency": "Department of Public Works",
    "final_address": "4314 N Derbigny St",
    "address_councildis": "D",
    "status": "Pending",
    "rowid": "1161007",
    "final_x": "3693395.84131",
    "final_y": "537207.219592",
    "longitude": "-90.03030348545148",
    "latitude": "29.970766986985588",
    "geocoded_column": {
      "latitude": "29.970766986985588",
      "longitude": "-90.03030348545148"
    }
  },
  {
    "service_request": "2025-1161006",
    "request_type": "Property Maintenance",
    "request_reason": "Property Maintenance",
    "date_created": "2025-01-09T23:06:38.000",
    "date_modified": "2025-01-09T23:06:41.000",
    "request_status": "Pending",
    "responsible_agency": "Department of Code Enforcement",
    "final_address": "4314 N Derbigny St",
    "address_councildis": "D",
    "status": "Pending",
    "rowid": "1161006",
    "final_x": "3693395.84131",
    "final_y": "537207.219592",
    "longitude": "-90.03030348545148",
    "latitude": "29.970766986985588",
    "geocoded_column": {
      "latitude": "29.970766986985588",
      "longitude": "-90.03030348545148"
    }
  },
  {
    "service_request": "2025-1161005",
    "request_type": "Abandoned Vehicles",
    "request_reason": "Vehicle Blocking Your Driveway",
    "date_created": "2025-01-09T22:59:39.000",
    "date_modified": "2025-01-09T22:59:42.000",
    "request_status": "Pending",
    "responsible_agency": "Department of Public Works",
    "final_address": "1640 Poland Ave",
    "address_councildis": "D",
    "status": "Pending",
    "rowid": "1161005",
    "final_x": "3693523.33366",
    "final_y": "537223.57908",
    "longitude": "-90.02990026297283",
    "latitude": "29.970807982645884",
    "geocoded_column": {
      "latitude": "29.970807982645884",
      "longitude": "-90.02990026297283"
    }
  },
  {
    "service_request": "2025-1161004",
    "request_type": "Trash/Recycling",
    "request_reason": "Order Recycling Cart",
    "date_created": "2025-01-09T21:58:53.000",
    "date_modified": "2025-01-09T21:58:56.000",
    "request_status": "Pending",
    "responsible_agency": "Department of Sanitation",
    "final_address": "2718 Cambronne St",
    "address_councildis": "A",
    "status": "Pending",
    "rowid": "1161004",
    "final_x": "3664886.38388",
    "final_y": "533245.003524",
    "longitude": "-90.12047270803315",
    "latitude": "29.960732851444195",
    "geocoded_column": {
      "latitude": "29.960732851444195",
      "longitude": "-90.12047270803315"
    }
  },
  {
    "service_request": "2025-1161003",
    "request_type": "Roads and Streets",
    "request_reason": "Street Subsidence (Sinking)",
    "date_created": "2025-01-09T21:40:41.000",
    "date_modified": "2025-01-09T21:40:45.000",
    "request_status": "Pending",
    "responsible_agency": "Department of Public Works",
    "final_address": "2230 Cambronne St",
    "address_councildis": "A",
    "status": "Pending",
    "rowid": "1161003",
    "final_x": "3663693.46381",
    "final_y": "531941.369731",
    "longitude": "-90.12428317228904",
    "latitude": "29.9571829492357",
    "geocoded_column": {
      "latitude": "29.9571829492357",
      "longitude": "-90.12428317228904"
    }
  },
  {
    "service_request": "2025-1161002",
    "request_type": "Parks & Parkways",
    "request_reason": "Request Tree Service (Right of Way/Public Property)",
    "date_created": "2025-01-09T21:22:18.000",
    "date_modified": "2025-01-09T21:22:22.000",
    "request_status": "Pending",
    "responsible_agency": "Department of Parks & Parkway",
    "final_address": "ST BERNARD AVE & FLORIDA AVE",
    "address_councildis": "D",
    "status": "Pending",
    "rowid": "1161002",
    "final_x": "3678757.3",
    "final_y": "544430.88",
    "longitude": "-90.07628353498092",
    "latitude": "29.99107915391023",
    "geocoded_column": {
      "latitude": "29.99107915391023",
      "longitude": "-90.07628353498092"
    }
  },
  {
    "service_request": "2025-1161001",
    "request_type": "Roads and Streets",
    "request_reason": "Pothole",
    "date_created": "2025-01-09T21:15:29.000",
    "date_modified": "2025-01-09T21:15:33.000",
    "request_status": "Pending",
    "responsible_agency": "Department of Public Works",
    "final_address": "ST BERNARD AVE & FLORIDA AVE",
    "address_councildis": "D",
    "status": "Pending",
    "rowid": "1161001",
    "final_x": "3678757.3",
    "final_y": "544430.88",
    "longitude": "-90.07628353498092",
    "latitude": "29.99107915391023",
    "geocoded_column": {
      "latitude": "29.99107915391023",
      "longitude": "-90.07628353498092"
    }
  },
  {
    "service_request": "2025-1161000",
    "request_type": "Christmas Tree Recycle Pick Up",
    "request_reason": "Christmas Tree Recycle Pick Up",
    "date_created": "2025-01-09T20:07:06.000",
    "date_modified": "2025-01-09T20:07:09.000",
    "request_status": "Pending",
    "responsible_agency": "Office of Resilience and Sustainability",
    "final_address": "4751 Lennox Blvd",
    "address_councildis": "C",
    "status": "Pending",
    "contractor": "R&R Recycling",
    "rowid": "1161000",
    "final_x": "3700648.75697",
    "final_y": "513113.321713",
    "longitude": "-90.00827795867319",
    "latitude": "29.904288391246283",
    "geocoded_column": {
      "latitude": "29.904288391246283",
      "longitude": "-90.00827795867319"
    }
  },
  {
    "service_request": "2025-1160999",
    "request_type": "Abandoned Vehicles",
    "request_reason": "Abandoned/Junk Vehicles",
    "date_created": "2025-01-09T19:28:33.000",
    "date_modified": "2025-01-09T19:28:35.000",
    "request_status": "Pending",
    "responsible_agency": "Department of Public Works",
    "final_address": "7000 BLK Magazine St",
    "address_councildis": "A",
    "status": "Pending",
    "rowid": "1160999",
    "final_x": "3661363.28879",
    "final_y": "520870.546629",
    "longitude": "-90.13200770056542",
    "latitude": "29.926809102708074",
    "geocoded_column": {
      "latitude": "29.926809102708074",
      "longitude": "-90.13200770056542"
    }
  },
  {
    "service_request": "2025-1160998",
    "request_type": "Abandoned Vehicles",
    "request_reason": "Abandoned/Junk Vehicles",
    "date_created": "2025-01-09T19:22:12.000",
    "date_modified": "2025-01-09T19:22:15.000",
    "request_status": "Pending",
    "responsible_agency": "Department of Public Works",
    "final_address": "7000 BLK Magazine St",
    "address_councildis": "A",
    "status": "Pending",
    "rowid": "1160998",
    "final_x": "3661363.28879",
    "final_y": "520870.546629",
    "longitude": "-90.13200770056542",
    "latitude": "29.926809102708074",
    "geocoded_column": {
      "latitude": "29.926809102708074",
      "longitude": "-90.13200770056542"
    }
  },
  {
    "service_request": "2025-1160997",
    "request_type": "Trash/Recycling",
    "request_reason": "Repair Recycling Cart",
    "date_created": "2025-01-09T19:10:31.000",
    "date_modified": "2025-01-09T19:10:35.000",
    "request_status": "Pending",
    "responsible_agency": "Department of Sanitation",
    "final_address": "6912 Dorian St",
    "address_councildis": "D",
    "status": "Pending",
    "rowid": "1160997",
    "final_x": "3696252.13066",
    "final_y": "556267.278234",
    "longitude": "-90.02059340441767",
    "latitude": "30.02308550642582",
    "geocoded_column": {
      "latitude": "30.02308550642582",
      "longitude": "-90.02059340441767"
    }
  },
  {
    "service_request": "2025-1160996",
    "request_type": "Trash/Recycling",
    "request_reason": "Repair Trash Cart",
    "date_created": "2025-01-09T19:04:49.000",
    "date_modified": "2025-01-09T19:04:52.000",
    "request_status": "Pending",
    "responsible_agency": "Department of Sanitation",
    "final_address": "4734 Chestnut St",
    "address_councildis": "B",
    "status": "Assigned to Contractor",
    "contractor": "IV Waste",
    "rowid": "1160996",
    "final_x": "3669591.39329",
    "final_y": "519341.982135",
    "longitude": "-90.10608538172208",
    "latitude": "29.922366269954782",
    "geocoded_column": {
      "latitude": "29.922366269954782",
      "longitude": "-90.10608538172208"
    }
  },
  {
    "service_request": "2025-1160995",
    "request_type": "Trash/Recycling",
    "request_reason": "Replace Recycling Cart",
    "date_created": "2025-01-09T19:03:45.000",
    "date_modified": "2025-01-09T19:03:48.000",
    "request_status": "Pending",
    "responsible_agency": "Department of Sanitation",
    "final_address": "6912 Dorian St",
    "address_councildis": "D",
    "status": "Pending",
    "rowid": "1160995",
    "final_x": "3696252.13066",
    "final_y": "556267.278234",
    "longitude": "-90.02059340441767",
    "latitude": "30.02308550642582",
    "geocoded_column": {
      "latitude": "30.02308550642582",
      "longitude": "-90.02059340441767"
    }
  },
  {
    "service_request": "2025-1160994",
    "request_type": "Drainage",
    "request_reason": "Catch Basin Clogged",
    "date_created": "2025-01-09T18:50:05.000",
    "date_modified": "2025-01-09T18:50:10.000",
    "request_status": "Pending",
    "responsible_agency": "Department of Public Works",
    "final_address": "1772 Prytania St",
    "address_councildis": "B",
    "status": "Pending",
    "rowid": "1160994",
    "final_x": "3679043.61973",
    "final_y": "524209.929276",
    "longitude": "-90.07607995594225",
    "latitude": "29.935469777492614",
    "geocoded_column": {
      "latitude": "29.935469777492614",
      "longitude": "-90.07607995594225"
    }
  },
  {
    "service_request": "2025-1160993",
    "request_type": "Christmas Tree Recycle Pick Up",
    "request_reason": "Christmas Tree Recycle Pick Up",
    "date_created": "2025-01-09T18:27:24.000",
    "date_modified": "2025-01-09T18:27:28.000",
    "request_status": "Pending",
    "responsible_agency": "Office of Resilience and Sustainability",
    "final_address": "815 St Maurice Ave",
    "address_councildis": "E",
    "status": "Pending",
    "contractor": "R&R Recycling",
    "rowid": "1160993",
    "final_x": "3699492.49322",
    "final_y": "532203.930819",
    "longitude": "-90.01123194435489",
    "latitude": "29.956817690334372",
    "geocoded_column": {
      "latitude": "29.956817690334372",
      "longitude": "-90.01123194435489"
    }
  },
  {
    "service_request": "2025-1160992",
    "request_type": "Christmas Tree Recycle Pick Up",
    "request_reason": "Christmas Tree Recycle Pick Up",
    "date_created": "2025-01-09T18:23:26.000",
    "date_modified": "2025-01-09T18:23:30.000",
    "request_status": "Pending",
    "responsible_agency": "Office of Resilience and Sustainability",
    "final_address": "815 St Maurice Ave",
    "address_councildis": "E",
    "status": "Pending",
    "contractor": "R&R Recycling",
    "rowid": "1160992",
    "final_x": "3699492.49322",
    "final_y": "532203.930819",
    "longitude": "-90.01123194435489",
    "latitude": "29.956817690334372",
    "geocoded_column": {
      "latitude": "29.956817690334372",
      "longitude": "-90.01123194435489"
    }
  },
  {
    "service_request": "2025-1160991",
    "request_type": "Property Maintenance",
    "request_reason": "Property Maintenance",
    "date_created": "2025-01-09T17:53:55.000",
    "date_modified": "2025-01-09T17:53:58.000",
    "request_status": "Pending",
    "responsible_agency": "Department of Code Enforcement",
    "final_address": "735 Elysian Fields Ave",
    "address_councildis": "C",
    "status": "Pending",
    "rowid": "1160991",
    "final_x": "3685285.41103",
    "final_y": "535168.82535",
    "longitude": "-90.055988939224",
    "latitude": "29.96541321973812",
    "geocoded_column": {
      "latitude": "29.96541321973812",
      "longitude": "-90.055988939224"
    }
  },
  {
    "service_request": "2025-1160990",
    "request_type": "Streetlights",
    "request_reason": "Streetlight Outage/Malfunction",
    "date_created": "2025-01-09T17:36:08.000",
    "date_modified": "2025-01-09T17:36:09.000",
    "request_status": "Pending",
    "responsible_agency": "Department of Public Works",
    "final_address": "7037 Walmsley Ave",
    "address_councildis": "B",
    "status": "Pending",
    "contractor": "Legacy Professional Services",
    "rowid": "1160990",
    "final_x": "3667684.06036",
    "final_y": "531082.994242",
    "longitude": "-90.11171094650865",
    "latitude": "29.954706313557086",
    "geocoded_column": {
      "latitude": "29.954706313557086",
      "longitude": "-90.11171094650865"
    }
  },
  {
    "service_request": "2025-1160989",
    "request_type": "General Services",
    "request_reason": "General Service Request",
    "date_created": "2025-01-09T17:28:18.000",
    "date_modified": "2025-01-09T17:28:20.000",
    "request_status": "Pending",
    "responsible_agency": "Orleans Parish Communication District",
    "final_address": "5048 St Bernard Ave",
    "address_councildis": "D",
    "status": "Pending",
    "rowid": "1160989",
    "final_x": "3676552.25659",
    "final_y": "550867.086037",
    "longitude": "-90.08302691702467",
    "latitude": "30.008842780630893",
    "geocoded_column": {
      "latitude": "30.008842780630893",
      "longitude": "-90.08302691702467"
    }
  },
  {
    "service_request": "2025-1160988",
    "request_type": "Property Maintenance",
    "request_reason": "Property Maintenance",
    "date_created": "2025-01-09T17:27:17.000",
    "date_modified": "2025-01-09T17:27:20.000",
    "request_status": "Pending",
    "responsible_agency": "Department of Code Enforcement",
    "final_address": "735 Elysian Fields Ave",
    "address_councildis": "C",
    "status": "Pending",
    "rowid": "1160988",
    "final_x": "3685285.41103",
    "final_y": "535168.82535",
    "longitude": "-90.055988939224",
    "latitude": "29.96541321973812",
    "geocoded_column": {
      "latitude": "29.96541321973812",
      "longitude": "-90.055988939224"
    }
  },
  {
    "service_request": "2025-1160987",
    "request_type": "Abandoned Vehicles",
    "request_reason": "Abandoned/Junk Vehicles",
    "date_created": "2025-01-09T17:23:53.000",
    "date_modified": "2025-01-09T17:23:55.000",
    "request_status": "Pending",
    "responsible_agency": "Department of Public Works",
    "final_address": "2118 Marais St",
    "address_councildis": "C",
    "status": "Pending",
    "rowid": "1160987",
    "final_x": "3684730.34063",
    "final_y": "536612.213447",
    "longitude": "-90.05769107789219",
    "latitude": "29.96939903946583",
    "geocoded_column": {
      "latitude": "29.96939903946583",
      "longitude": "-90.05769107789219"
    }
  },
  {
    "service_request": "2025-1160986",
    "request_type": "Trash/Recycling",
    "request_reason": "Return Trash Cart",
    "date_created": "2025-01-09T17:22:13.000",
    "date_modified": "2025-01-09T17:22:15.000",
    "request_status": "Pending",
    "responsible_agency": "Department of Sanitation",
    "final_address": "8 Yosemite Dr",
    "address_councildis": "C",
    "status": "Assigned to Contractor",
    "rowid": "1160986",
    "final_x": "3699487.83287",
    "final_y": "517836.860918",
    "longitude": "-90.01176989844953",
    "latitude": "29.917313389952753",
    "geocoded_column": {
      "latitude": "29.917313389952753",
      "longitude": "-90.01176989844953"
    }
  },
  {
    "service_request": "2025-1160985",
    "request_type": "Abandoned Vehicles",
    "request_reason": "Abandoned/Junk Vehicles",
    "date_created": "2025-01-09T17:20:48.000",
    "date_modified": "2025-01-09T17:20:50.000",
    "request_status": "Pending",
    "responsible_agency": "Department of Public Works",
    "final_address": "1139 Touro St",
    "address_councildis": "C",
    "status": "Pending",
    "rowid": "1160985",
    "final_x": "3684231.43042",
    "final_y": "536564.875975",
    "longitude": "-90.05926833602331",
    "latitude": "29.96928414073789",
    "geocoded_column": {
      "latitude": "29.96928414073789",
      "longitude": "-90.05926833602331"
    }
  },
  {
    "service_request": "2025-1160984",
    "request_type": "Abandoned Vehicles",
    "request_reason": "Abandoned/Junk Vehicles",
    "date_created": "2025-01-09T17:19:04.000",
    "date_modified": "2025-01-09T17:19:06.000",
    "request_status": "Pending",
    "responsible_agency": "Department of Public Works",
    "final_address": "1139 Touro St",
    "address_councildis": "C",
    "status": "Pending",
    "rowid": "1160984",
    "final_x": "3684231.43042",
    "final_y": "536564.875975",
    "longitude": "-90.05926833602331",
    "latitude": "29.96928414073789",
    "geocoded_column": {
      "latitude": "29.96928414073789",
      "longitude": "-90.05926833602331"
    }
  },
  {
    "service_request": "2025-1160983",
    "request_type": "Abandoned Vehicles",
    "request_reason": "Abandoned/Junk Vehicles",
    "date_created": "2025-01-09T17:14:40.000",
    "date_modified": "2025-01-09T17:14:43.000",
    "request_status": "Pending",
    "responsible_agency": "Department of Public Works",
    "final_address": "1923 Marais St",
    "address_councildis": "C",
    "status": "Pending",
    "rowid": "1160983",
    "final_x": "3684035.68841",
    "final_y": "536623.193863",
    "longitude": "-90.0598844564768",
    "latitude": "29.969450477791874",
    "geocoded_column": {
      "latitude": "29.969450477791874",
      "longitude": "-90.0598844564768"
    }
  },
  {
    "service_request": "2025-1160982",
    "request_type": "Property Maintenance",
    "request_reason": "Property Maintenance",
    "date_created": "2025-01-09T17:10:50.000",
    "date_modified": "2025-01-09T17:10:52.000",
    "request_status": "Pending",
    "responsible_agency": "Department of Code Enforcement",
    "final_address": "1114 Frenchmen St",
    "address_councildis": "C",
    "status": "Pending",
    "rowid": "1160982",
    "final_x": "3684538.75618",
    "final_y": "536423.625927",
    "longitude": "-90.05830274313993",
    "latitude": "29.96888635249126",
    "geocoded_column": {
      "latitude": "29.96888635249126",
      "longitude": "-90.05830274313993"
    }
  },
  {
    "service_request": "2025-1160981",
    "request_type": "Property Maintenance",
    "request_reason": "Property Maintenance",
    "date_created": "2025-01-09T17:06:40.000",
    "date_modified": "2025-01-09T17:06:45.000",
    "request_status": "Pending",
    "responsible_agency": "Department of Code Enforcement",
    "final_address": "2118 Marais St",
    "address_councildis": "C",
    "status": "Pending",
    "rowid": "1160981",
    "final_x": "3684730.34063",
    "final_y": "536612.213447",
    "longitude": "-90.05769107789219",
    "latitude": "29.96939903946583",
    "geocoded_column": {
      "latitude": "29.96939903946583",
      "longitude": "-90.05769107789219"
    }
  },
  {
    "service_request": "2025-1160980",
    "request_type": "Property Maintenance",
    "request_reason": "Property Maintenance",
    "date_created": "2025-01-09T17:04:29.000",
    "date_modified": "2025-01-09T17:04:33.000",
    "request_status": "Pending",
    "responsible_agency": "Department of Code Enforcement",
    "final_address": "1200 Frenchmen St",
    "address_councildis": "C",
    "status": "Pending",
    "rowid": "1160980",
    "final_x": "3684498.6285",
    "final_y": "536673.452167",
    "longitude": "-90.05842069031115",
    "latitude": "29.969574515689832",
    "geocoded_column": {
      "latitude": "29.969574515689832",
      "longitude": "-90.05842069031115"
    }
  },
  {
    "service_request": "2025-1160979",
    "request_type": "Property Maintenance",
    "request_reason": "Property Maintenance",
    "date_created": "2025-01-09T17:01:46.000",
    "date_modified": "2025-01-09T17:01:49.000",
    "request_status": "Pending",
    "responsible_agency": "Department of Code Enforcement",
    "final_address": "1242 Frenchmen St",
    "address_councildis": "C",
    "status": "Pending",
    "rowid": "1160979",
    "final_x": "3684503.75113",
    "final_y": "536971.994888",
    "longitude": "-90.058394022151",
    "latitude": "29.97039524778264",
    "geocoded_column": {
      "latitude": "29.97039524778264",
      "longitude": "-90.058394022151"
    }
  },
  {
    "service_request": "2025-1160978",
    "request_type": "Trash/Recycling",
    "request_reason": "Request a Large Item Pick Up",
    "date_created": "2025-01-09T16:54:33.000",
    "date_modified": "2025-01-09T16:54:36.000",
    "request_status": "Pending",
    "responsible_agency": "Department of Sanitation",
    "final_address": "831 Cherokee St",
    "address_councildis": "A",
    "status": "Assigned to Contractor",
    "contractor": "IV Waste",
    "rowid": "1160978",
    "final_x": "3662785.35091",
    "final_y": "526066.89779",
    "longitude": "-90.12734596348916",
    "latitude": "29.94105635560923",
    "geocoded_column": {
      "latitude": "29.94105635560923",
      "longitude": "-90.12734596348916"
    }
  },
  {
    "service_request": "2025-1160977",
    "request_type": "Trash/Recycling",
    "request_reason": "Order Recycling Cart",
    "date_created": "2025-01-09T16:53:22.000",
    "date_modified": "2025-01-09T16:53:26.000",
    "request_status": "Pending",
    "responsible_agency": "Department of Sanitation",
    "final_address": "2836 Palmyra St",
    "address_councildis": "B",
    "status": "Pending",
    "rowid": "1160977",
    "final_x": "3674133.47867",
    "final_y": "534959.23239",
    "longitude": "-90.09121345494623",
    "latitude": "29.965174029470326",
    "geocoded_column": {
      "latitude": "29.965174029470326",
      "longitude": "-90.09121345494623"
    }
  },
  {
    "service_request": "2025-1160976",
    "request_type": "Trash/Recycling",
    "request_reason": "Request a Large Item Pick Up",
    "date_created": "2025-01-09T16:48:07.000",
    "date_modified": "2025-01-09T16:48:10.000",
    "request_status": "Pending",
    "responsible_agency": "Department of Sanitation",
    "final_address": "8511 Curran Rd",
    "address_councildis": "E",
    "status": "Assigned to Contractor",
    "contractor": "Waste Pro",
    "rowid": "1160976",
    "final_x": "3703770.91543",
    "final_y": "562431.983967",
    "longitude": "-89.99660864089365",
    "latitude": "30.039797049637276",
    "geocoded_column": {
      "latitude": "30.039797049637276",
      "longitude": "-89.99660864089365"
    }
  },
  {
    "service_request": "2025-1160975",
    "request_type": "Trash/Recycling",
    "request_reason": "Request a Large Item Pick Up",
    "date_created": "2025-01-09T16:47:27.000",
    "date_modified": "2025-01-09T16:47:30.000",
    "request_status": "Pending",
    "responsible_agency": "Department of Sanitation",
    "final_address": "8513 Curran Rd",
    "address_councildis": "E",
    "status": "Assigned to Contractor",
    "contractor": "Waste Pro",
    "rowid": "1160975",
    "final_x": "3703798.69316",
    "final_y": "562446.220063",
    "longitude": "-89.99652033045531",
    "latitude": "30.039835302248925",
    "geocoded_column": {
      "latitude": "30.039835302248925",
      "longitude": "-89.99652033045531"
    }
  },
  {
    "service_request": "2025-1160974",
    "request_type": "Trash/Recycling",
    "request_reason": "Repair Trash Cart",
    "date_created": "2025-01-09T16:47:02.000",
    "date_modified": "2025-01-09T16:47:08.000",
    "request_status": "Pending",
    "responsible_agency": "Department of Sanitation",
    "final_address": "4725 Banks St",
    "address_councildis": "A",
    "status": "Assigned to Contractor",
    "contractor": "IV Waste",
    "rowid": "1160974",
    "final_x": "3668252.12263",
    "final_y": "539075.558474",
    "longitude": "-90.10964769849264",
    "latitude": "29.9766665454641",
    "geocoded_column": {
      "latitude": "29.9766665454641",
      "longitude": "-90.10964769849264"
    }
  },
  {
    "service_request": "2025-1160973",
    "request_type": "Trash/Recycling",
    "request_reason": "Request a Large Item Pick Up",
    "date_created": "2025-01-09T16:44:43.000",
    "date_modified": "2025-01-09T16:44:46.000",
    "request_status": "Pending",
    "responsible_agency": "Department of Sanitation",
    "final_address": "4801 Babylon St",
    "address_councildis": "D",
    "status": "Assigned to Contractor",
    "contractor": "Waste Pro",
    "rowid": "1160973",
    "final_x": "3696671.89968",
    "final_y": "554428.677208",
    "longitude": "-90.01933365537964",
    "latitude": "30.018016820004192",
    "geocoded_column": {
      "latitude": "30.018016820004192",
      "longitude": "-90.01933365537964"
    }
  },
  {
    "service_request": "2025-1160972",
    "request_type": "Streetlights",
    "request_reason": "Streetlight Outage/Malfunction",
    "date_created": "2025-01-09T16:42:50.000",
    "date_modified": "2025-01-09T16:42:50.000",
    "request_status": "Pending",
    "responsible_agency": "Department of Public Works",
    "final_address": "4010 Royal St",
    "address_councildis": "C",
    "status": "Pending",
    "contractor": "Legacy Professional Services",
    "rowid": "1160972",
    "final_x": "3691531.04169",
    "final_y": "533744.778373",
    "longitude": "-90.03631650495889",
    "latitude": "29.961304669175572",
    "geocoded_column": {
      "latitude": "29.961304669175572",
      "longitude": "-90.03631650495889"
    }
  },
  {
    "service_request": "2025-1160971",
    "request_type": "Trash/Recycling",
    "request_reason": "Request a Large Item Pick Up",
    "date_created": "2025-01-09T16:40:59.000",
    "date_modified": "2025-01-09T16:41:03.000",
    "request_status": "Pending",
    "responsible_agency": "Department of Sanitation",
    "final_address": "2417 Chelsea Dr",
    "address_councildis": "C",
    "status": "Assigned to Contractor",
    "rowid": "1160971",
    "final_x": "3704715.27524",
    "final_y": "522591.334714",
    "longitude": "-89.99509469257933",
    "latitude": "29.930219726167703",
    "geocoded_column": {
      "latitude": "29.930219726167703",
      "longitude": "-89.99509469257933"
    }
  },
  {
    "service_request": "2025-1160970",
    "request_type": "Trash/Recycling",
    "request_reason": "Request a Large Item Pick Up",
    "date_created": "2025-01-09T16:35:42.000",
    "date_modified": "2025-01-09T16:36:32.000",
    "request_status": "Pending",
    "responsible_agency": "Department of Sanitation",
    "final_address": "2325 Esplanade Ave",
    "address_councildis": "D",
    "status": "Assigned to Contractor",
    "contractor": "IV Waste",
    "rowid": "1160970",
    "final_x": "3679171.06427",
    "final_y": "538261.594889",
    "longitude": "-90.07519052292756",
    "latitude": "29.974103278013565",
    "geocoded_column": {
      "latitude": "29.974103278013565",
      "longitude": "-90.07519052292756"
    }
  },
  {
    "service_request": "2025-1160969",
    "request_type": "Trash/Recycling",
    "request_reason": "Illegal Dumping",
    "date_created": "2025-01-09T16:30:03.000",
    "date_modified": "2025-01-09T16:30:06.000",
    "request_status": "Pending",
    "responsible_agency": "Department of Sanitation",
    "final_address": "1800 BLK Florida Ave",
    "address_councildis": "D",
    "status": "Pending",
    "rowid": "1160969",
    "final_x": "3682350.96433",
    "final_y": "543213.96126",
    "longitude": "-90.06497455006547",
    "latitude": "29.98762416434642",
    "geocoded_column": {
      "latitude": "29.98762416434642",
      "longitude": "-90.06497455006547"
    }
  },
  {
    "service_request": "2025-1160968",
    "request_type": "Abandoned Vehicles",
    "request_reason": "Abandoned/Junk Vehicles",
    "date_created": "2025-01-09T16:25:50.000",
    "date_modified": "2025-01-09T16:25:53.000",
    "request_status": "Pending",
    "responsible_agency": "Department of Public Works",
    "final_address": "2372 Industry St",
    "address_councildis": "D",
    "status": "Pending",
    "rowid": "1160968",
    "final_x": "3685873.18249",
    "final_y": "543009.453581",
    "longitude": "-90.0538563073726",
    "latitude": "29.986954166616623",
    "geocoded_column": {
      "latitude": "29.986954166616623",
      "longitude": "-90.0538563073726"
    }
  },
  {
    "service_request": "2025-1160967",
    "request_type": "Parks & Parkways",
    "request_reason": "Request Tree Service (Right of Way/Public Property)",
    "date_created": "2025-01-09T16:22:27.000",
    "date_modified": "2025-01-09T16:22:30.000",
    "request_status": "Pending",
    "responsible_agency": "Department of Parks & Parkway",
    "final_address": "7420 Seven Oaks Rd",
    "address_councildis": "E",
    "status": "Pending",
    "rowid": "1160967",
    "final_x": "3712473.28018",
    "final_y": "565316.895586",
    "longitude": "-89.96899820635286",
    "latitude": "30.047447378716654",
    "geocoded_column": {
      "latitude": "30.047447378716654",
      "longitude": "-89.96899820635286"
    }
  },
  {
    "service_request": "2025-1160966",
    "request_type": "Trash/Recycling",
    "request_reason": "Request a Large Item Pick Up",
    "date_created": "2025-01-09T16:10:49.000",
    "date_modified": "2025-01-09T16:43:26.000",
    "case_close_date": "2025-01-09T10:43:25.000",
    "request_status": "Closed",
    "responsible_agency": "Department of Sanitation",
    "final_address": "721 Flood St",
    "address_councildis": "E",
    "status": "Assigned to Contractor",
    "contractor": "Waste Pro",
    "contractor_action": "Completed",
    "rowid": "1160966",
    "final_x": "3697380.84643",
    "final_y": "532499.95002",
    "longitude": "-90.0178890844462",
    "latitude": "29.95769846429614",
    "geocoded_column": {
      "latitude": "29.95769846429614",
      "longitude": "-90.0178890844462"
    }
  },
  {
    "service_request": "2025-1160965",
    "request_type": "Trash/Recycling",
    "request_reason": "Request a Large Item Pick Up",
    "date_created": "2025-01-09T16:07:01.000",
    "date_modified": "2025-01-09T16:07:04.000",
    "request_status": "Pending",
    "responsible_agency": "Department of Sanitation",
    "final_address": "1117 Dufossat St",
    "address_councildis": "B",
    "status": "Assigned to Contractor",
    "contractor": "IV Waste",
    "rowid": "1160965",
    "final_x": "3668112.93217",
    "final_y": "519508.052087",
    "longitude": "-90.11074670243336",
    "latitude": "29.92286636821553",
    "geocoded_column": {
      "latitude": "29.92286636821553",
      "longitude": "-90.11074670243336"
    }
  },
  {
    "service_request": "2025-1160964",
    "request_type": "Roads and Streets",
    "request_reason": "Pothole",
    "date_created": "2025-01-09T16:04:27.000",
    "date_modified": "2025-01-09T16:04:30.000",
    "request_status": "Pending",
    "responsible_agency": "Department of Public Works",
    "final_address": "5700 BLK Wisner Blvd",
    "address_councildis": "A",
    "status": "Pending",
    "rowid": "1160964",
    "final_x": "3675800.61326",
    "final_y": "553408.620661",
    "longitude": "-90.08531415214203",
    "latitude": "30.01585362259482",
    "geocoded_column": {
      "latitude": "30.01585362259482",
      "longitude": "-90.08531415214203"
    }
  },
  {
    "service_request": "2025-1160963",
    "request_type": "Trash/Recycling",
    "request_reason": "Request a Large Item Pick Up",
    "date_created": "2025-01-09T15:59:01.000",
    "date_modified": "2025-01-09T15:59:03.000",
    "request_status": "Pending",
    "responsible_agency": "Department of Sanitation",
    "final_address": "6239 Wadsworth Dr",
    "address_councildis": "D",
    "status": "Assigned to Contractor",
    "contractor": "IV Waste",
    "rowid": "1160963",
    "final_x": "3681659.81948",
    "final_y": "556127.878874",
    "longitude": "-90.06670673299463",
    "latitude": "30.023153814055455",
    "geocoded_column": {
      "latitude": "30.023153814055455",
      "longitude": "-90.06670673299463"
    }
  },
  {
    "service_request": "2025-1160962",
    "request_type": "Trash/Recycling",
    "request_reason": "Repair Recycling Cart",
    "date_created": "2025-01-09T15:56:17.000",
    "date_modified": "2025-01-09T15:56:19.000",
    "request_status": "Pending",
    "responsible_agency": "Department of Sanitation",
    "final_address": "936 Gallier St",
    "address_councildis": "C",
    "status": "Pending",
    "rowid": "1160962",
    "final_x": "3690300.03203",
    "final_y": "535114.56711",
    "longitude": "-90.04015498573743",
    "latitude": "29.965109366376115",
    "geocoded_column": {
      "latitude": "29.965109366376115",
      "longitude": "-90.04015498573743"
    }
  },
  {
    "service_request": "2025-1160961",
    "request_type": "Trash/Recycling",
    "request_reason": "Order Recycling Cart",
    "date_created": "2025-01-09T15:55:30.000",
    "date_modified": "2025-01-09T15:55:33.000",
    "request_status": "Pending",
    "responsible_agency": "Department of Sanitation",
    "final_address": "1309 Dauphine St",
    "address_councildis": "C",
    "status": "Pending",
    "rowid": "1160961",
    "final_x": "3683328.33058",
    "final_y": "534727.719174",
    "longitude": "-90.0621847542875",
    "latitude": "29.964260173408874",
    "geocoded_column": {
      "latitude": "29.964260173408874",
      "longitude": "-90.0621847542875"
    }
  },
  {
    "service_request": "2025-1160960",
    "request_type": "Trash/Recycling",
    "request_reason": "Request a Large Item Pick Up",
    "date_created": "2025-01-09T15:53:04.000",
    "date_modified": "2025-01-09T15:53:06.000",
    "request_status": "Pending",
    "responsible_agency": "Department of Sanitation",
    "final_address": "13020 Dwyer Blvd",
    "address_councildis": "E",
    "status": "Assigned to Contractor",
    "contractor": "Waste Pro",
    "rowid": "1160960",
    "final_x": "3723916.45196",
    "final_y": "561135.879902",
    "longitude": "-89.93299347505851",
    "latitude": "30.035571704118507",
    "geocoded_column": {
      "latitude": "30.035571704118507",
      "longitude": "-89.93299347505851"
    }
  },
  {
    "service_request": "2025-1160959",
    "request_type": "Trash/Recycling",
    "request_reason": "Replace Trash Cart",
    "date_created": "2025-01-09T15:50:46.000",
    "date_modified": "2025-01-09T15:50:49.000",
    "request_status": "Pending",
    "responsible_agency": "Department of Sanitation",
    "final_address": "1527 Clouet St",
    "address_councildis": "D",
    "status": "Assigned to Contractor",
    "contractor": "IV Waste",
    "rowid": "1160959",
    "final_x": "3689466.367",
    "final_y": "537703.674888",
    "longitude": "-90.04269555037558",
    "latitude": "29.972254348252353",
    "geocoded_column": {
      "latitude": "29.972254348252353",
      "longitude": "-90.04269555037558"
    }
  },
  {
    "service_request": "2025-1160958",
    "request_type": "Trash/Recycling",
    "request_reason": "Illegal Dumping",
    "date_created": "2025-01-09T15:47:20.000",
    "date_modified": "2025-01-09T15:47:23.000",
    "request_status": "Pending",
    "responsible_agency": "Department of Sanitation",
    "final_address": "3400 BLK Momus Ct",
    "address_councildis": "B",
    "status": "Pending",
    "rowid": "1160958",
    "final_x": "3672447.89654",
    "final_y": "528074.238259",
    "longitude": "-90.09677108260328",
    "latitude": "29.946292713916236",
    "geocoded_column": {
      "latitude": "29.946292713916236",
      "longitude": "-90.09677108260328"
    }
  },
  {
    "service_request": "2025-1160957",
    "request_type": "Trash/Recycling",
    "request_reason": "Missed Trash Pick-Up",
    "date_created": "2025-01-09T15:47:04.000",
    "date_modified": "2025-01-09T15:47:06.000",
    "request_status": "Pending",
    "responsible_agency": "Department of Sanitation",
    "final_address": "1516 Shirley Dr",
    "address_councildis": "C",
    "status": "Assigned to Contractor",
    "rowid": "1160957",
    "final_x": "3693145.17456",
    "final_y": "525228.900349",
    "longitude": "-90.03152489960893",
    "latitude": "29.93783861972278",
    "geocoded_column": {
      "latitude": "29.93783861972278",
      "longitude": "-90.03152489960893"
    }
  },
  {
    "service_request": "2025-1160956",
    "request_type": "Trash/Recycling",
    "request_reason": "Request a Large Item Pick Up",
    "date_created": "2025-01-09T15:45:59.000",
    "date_modified": "2025-01-09T15:46:01.000",
    "request_status": "Pending",
    "responsible_agency": "Department of Sanitation",
    "final_address": "4929 Dodt Ave",
    "address_councildis": "E",
    "status": "Assigned to Contractor",
    "contractor": "Waste Pro",
    "rowid": "1160956",
    "final_x": "3705393.99396",
    "final_y": "556332.101786",
    "longitude": "-89.99170496596625",
    "latitude": "30.022972596965968",
    "geocoded_column": {
      "latitude": "30.022972596965968",
      "longitude": "-89.99170496596625"
    }
  },
  {
    "service_request": "2025-1160955",
    "request_type": "Trash/Recycling",
    "request_reason": "Missed Trash Pick-Up",
    "date_created": "2025-01-09T15:41:53.000",
    "date_modified": "2025-01-09T15:47:41.000",
    "case_close_date": "2025-01-09T09:47:40.000",
    "request_status": "Closed",
    "responsible_agency": "Department of Sanitation",
    "final_address": "1919 Pine St",
    "address_councildis": "A",
    "status": "Invalid Request",
    "contractor": "IV Waste",
    "contractor_action": "Invalid",
    "rowid": "1160955",
    "final_x": "3665427.50752",
    "final_y": "528818.69728",
    "longitude": "-90.1189120778431",
    "latitude": "29.94854618991804",
    "geocoded_column": {
      "latitude": "29.94854618991804",
      "longitude": "-90.1189120778431"
    }
  },
  {
    "service_request": "2025-1160954",
    "request_type": "Christmas Tree Recycle Pick Up",
    "request_reason": "Christmas Tree Recycle Pick Up",
    "date_created": "2025-01-09T15:41:31.000",
    "date_modified": "2025-01-09T15:41:34.000",
    "request_status": "Pending",
    "responsible_agency": "Office of Resilience and Sustainability",
    "final_address": "4608 Chantilly Dr",
    "address_councildis": "E",
    "status": "Pending",
    "contractor": "R&R Recycling",
    "rowid": "1160954",
    "final_x": "3700873.68477",
    "final_y": "553404.496087",
    "longitude": "-90.00609518626248",
    "latitude": "30.0150675535703",
    "geocoded_column": {
      "latitude": "30.0150675535703",
      "longitude": "-90.00609518626248"
    }
  },
  {
    "service_request": "2025-1160953",
    "request_type": "Roads and Streets",
    "request_reason": "Pothole",
    "date_created": "2025-01-09T15:41:20.000",
    "date_modified": "2025-01-09T15:41:57.000",
    "case_close_date": "2025-01-09T09:41:56.000",
    "request_status": "Closed",
    "responsible_agency": "Department of Public Works",
    "final_address": "1800 BLK E Poland Ave",
    "address_councildis": "D",
    "status": "Resolved",
    "rowid": "1160953",
    "final_x": "3693706.82548",
    "final_y": "537682.314843",
    "longitude": "-90.02930428807498",
    "latitude": "29.97206360225712",
    "geocoded_column": {
      "latitude": "29.97206360225712",
      "longitude": "-90.02930428807498"
    }
  },
  {
    "service_request": "2025-1160952",
    "request_type": "Abandoned Vehicles",
    "request_reason": "Abandoned/Junk Vehicles",
    "date_created": "2025-01-09T15:34:55.000",
    "date_modified": "2025-01-09T15:34:58.000",
    "request_status": "Pending",
    "responsible_agency": "Department of Public Works",
    "final_address": "1768 Duels St",
    "address_councildis": "D",
    "status": "Pending",
    "rowid": "1160952",
    "final_x": "3681314.31548",
    "final_y": "542275.302093",
    "longitude": "-90.06828169957737",
    "latitude": "29.9850746925316",
    "geocoded_column": {
      "latitude": "29.9850746925316",
      "longitude": "-90.06828169957737"
    }
  },
  {
    "service_request": "2025-1160951",
    "request_type": "Trash/Recycling",
    "request_reason": "Request a Large Item Pick Up",
    "date_created": "2025-01-09T15:34:22.000",
    "date_modified": "2025-01-09T15:34:25.000",
    "request_status": "Pending",
    "responsible_agency": "Department of Sanitation",
    "final_address": "814 Voisin St",
    "address_councildis": "A",
    "status": "Assigned to Contractor",
    "contractor": "IV Waste",
    "rowid": "1160951",
    "final_x": "3668765.95854",
    "final_y": "543160.844685",
    "longitude": "-90.10788685031893",
    "latitude": "29.98788459839696",
    "geocoded_column": {
      "latitude": "29.98788459839696",
      "longitude": "-90.10788685031893"
    }
  },
  {
    "service_request": "2025-1160950",
    "request_type": "Trash/Recycling",
    "request_reason": "Replace Trash Cart",
    "date_created": "2025-01-09T15:32:51.000",
    "date_modified": "2025-01-09T15:32:54.000",
    "request_status": "Pending",
    "responsible_agency": "Department of Sanitation",
    "final_address": "4649 Franklin Ave",
    "address_councildis": "D",
    "status": "Assigned to Contractor",
    "contractor": "IV Waste",
    "rowid": "1160950",
    "final_x": "3686933.53206",
    "final_y": "550084.647572",
    "longitude": "-90.0502568121593",
    "latitude": "30.006375803014585",
    "geocoded_column": {
      "latitude": "30.006375803014585",
      "longitude": "-90.0502568121593"
    }
  },
  {
    "service_request": "2025-1160949",
    "request_type": "Christmas Tree Recycle Pick Up",
    "request_reason": "Christmas Tree Recycle Pick Up",
    "date_created": "2025-01-09T15:26:50.000",
    "date_modified": "2025-01-09T15:26:59.000",
    "request_status": "Pending",
    "responsible_agency": "Office of Resilience and Sustainability",
    "final_address": "3102 Spain St",
    "address_councildis": "D",
    "status": "Pending",
    "contractor": "R&R Recycling",
    "rowid": "1160949",
    "final_x": "3685427.99138",
    "final_y": "544172.154382",
    "longitude": "-90.05522153628344",
    "latitude": "29.99016484179469",
    "geocoded_column": {
      "latitude": "29.99016484179469",
      "longitude": "-90.05522153628344"
    }
  },
  {
    "service_request": "2025-1160948",
    "request_type": "Trash/Recycling",
    "request_reason": "Repair Recycling Cart",
    "date_created": "2025-01-09T15:26:15.000",
    "date_modified": "2025-01-09T15:26:18.000",
    "request_status": "Pending",
    "responsible_agency": "Department of Sanitation",
    "final_address": "7511 Onyx St",
    "address_councildis": "D",
    "status": "Pending",
    "rowid": "1160948",
    "final_x": "3669049.89588",
    "final_y": "556465.618138",
    "longitude": "-90.10654004039422",
    "latitude": "30.024459724459277",
    "geocoded_column": {
      "latitude": "30.024459724459277",
      "longitude": "-90.10654004039422"
    }
  },
  {
    "service_request": "2025-1160947",
    "request_type": "Trash/Recycling",
    "request_reason": "Repair Trash Cart",
    "date_created": "2025-01-09T15:24:38.000",
    "date_modified": "2025-01-09T15:24:42.000",
    "request_status": "Pending",
    "responsible_agency": "Department of Sanitation",
    "final_address": "7511 Onyx St",
    "address_councildis": "D",
    "status": "Assigned to Contractor",
    "contractor": "IV Waste",
    "rowid": "1160947",
    "final_x": "3669049.89588",
    "final_y": "556465.618138",
    "longitude": "-90.10654004039422",
    "latitude": "30.024459724459277",
    "geocoded_column": {
      "latitude": "30.024459724459277",
      "longitude": "-90.10654004039422"
    }
  },
  {
    "service_request": "2025-1160946",
    "request_type": "Trash/Recycling",
    "request_reason": "Repair Trash Cart",
    "date_created": "2025-01-09T15:18:55.000",
    "date_modified": "2025-01-09T15:21:47.000",
    "request_status": "Pending",
    "responsible_agency": "Department of Sanitation",
    "final_address": "8600 Nelson St",
    "address_councildis": "A",
    "contractor": "IV Waste",
    "rowid": "1160946",
    "final_x": "3663750.23699",
    "final_y": "533034.330948",
    "longitude": "-90.12406747640622",
    "latitude": "29.960186589203",
    "geocoded_column": {
      "latitude": "29.960186589203",
      "longitude": "-90.12406747640622"
    }
  },
  {
    "service_request": "2025-1160945",
    "request_type": "Trash/Recycling",
    "request_reason": "Request a Large Item Pick Up",
    "date_created": "2025-01-09T15:18:02.000",
    "date_modified": "2025-01-09T15:18:05.000",
    "request_status": "Pending",
    "responsible_agency": "Department of Sanitation",
    "final_address": "4646 Rhodes Dr",
    "address_councildis": "E",
    "status": "Assigned to Contractor",
    "contractor": "Waste Pro",
    "rowid": "1160945",
    "final_x": "3702511.65969",
    "final_y": "553879.678871",
    "longitude": "-90.00090254129736",
    "latitude": "30.016321854842197",
    "geocoded_column": {
      "latitude": "30.016321854842197",
      "longitude": "-90.00090254129736"
    }
  },
  {
    "service_request": "2025-1160944",
    "request_type": "Abandoned Vehicles",
    "request_reason": "Abandoned/Junk Vehicles",
    "date_created": "2025-01-09T15:16:45.000",
    "date_modified": "2025-01-09T15:16:47.000",
    "request_status": "Pending",
    "responsible_agency": "Department of Public Works",
    "final_address": "1826 Louisiana Ave A",
    "address_councildis": "B",
    "status": "Pending",
    "rowid": "1160944",
    "final_x": "3673753.04225",
    "final_y": "522397.983034",
    "longitude": "-90.09284429873534",
    "latitude": "29.930646070925878",
    "geocoded_column": {
      "latitude": "29.930646070925878",
      "longitude": "-90.09284429873534"
    }
  },
  {
    "service_request": "2025-1160943",
    "request_type": "Abandoned Vehicles",
    "request_reason": "Abandoned/Junk Vehicles",
    "date_created": "2025-01-09T15:10:18.000",
    "date_modified": "2025-01-09T15:10:21.000",
    "request_status": "Pending",
    "responsible_agency": "Department of Public Works",
    "final_address": "2620 Castiglione St",
    "address_councildis": "D",
    "status": "Pending",
    "rowid": "1160943",
    "final_x": "3680012.92719",
    "final_y": "541739.672396",
    "longitude": "-90.0724108499706",
    "latitude": "29.983641340251378",
    "geocoded_column": {
      "latitude": "29.983641340251378",
      "longitude": "-90.0724108499706"
    }
  },
  {
    "service_request": "2025-1160942",
    "request_type": "Trash/Recycling",
    "request_reason": "Illegal Dumping",
    "date_created": "2025-01-09T15:09:49.000",
    "date_modified": "2025-01-09T15:09:52.000",
    "request_status": "Pending",
    "responsible_agency": "Department of Sanitation",
    "final_address": "4615 Earhart Blvd",
    "address_councildis": "B",
    "status": "Pending",
    "rowid": "1160942",
    "final_x": "3669413.62055",
    "final_y": "531978.024835",
    "longitude": "-90.10621937924948",
    "latitude": "29.957116537254553",
    "geocoded_column": {
      "latitude": "29.957116537254553",
      "longitude": "-90.10621937924948"
    }
  },
  {
    "service_request": "2025-1160940",
    "request_type": "Trash/Recycling",
    "request_reason": "Replace Trash Cart",
    "date_created": "2025-01-09T15:07:20.000",
    "date_modified": "2025-01-09T15:07:23.000",
    "request_status": "Pending",
    "responsible_agency": "Department of Sanitation",
    "final_address": "1000 Broadway St",
    "address_councildis": "A",
    "status": "Assigned to Contractor",
    "contractor": "IV Waste",
    "rowid": "1160940",
    "final_x": "3663748.49779",
    "final_y": "525959.537853",
    "longitude": "-90.12430869496454",
    "latitude": "29.940733241356003",
    "geocoded_column": {
      "latitude": "29.940733241356003",
      "longitude": "-90.12430869496454"
    }
  },
  {
    "service_request": "2025-1160941",
    "request_type": "Trash/Recycling",
    "request_reason": "Request a Large Item Pick Up",
    "date_created": "2025-01-09T15:07:20.000",
    "date_modified": "2025-01-09T15:07:22.000",
    "request_status": "Pending",
    "responsible_agency": "Department of Sanitation",
    "final_address": "1410 Eighth St",
    "address_councildis": "B",
    "status": "Assigned to Contractor",
    "contractor": "IV Waste",
    "rowid": "1160941",
    "final_x": "3675448.38209",
    "final_y": "521126.241657",
    "longitude": "-90.08753600183209",
    "latitude": "29.92709861859927",
    "geocoded_column": {
      "latitude": "29.92709861859927",
      "longitude": "-90.08753600183209"
    }
  },
  {
    "service_request": "2025-1160939",
    "request_type": "Utility Poles",
    "request_reason": "Utility Pole Down",
    "date_created": "2025-01-09T14:59:10.000",
    "date_modified": "2025-01-09T14:59:15.000",
    "request_status": "Pending",
    "responsible_agency": "Utility Company Collective",
    "final_address": "5941 Dover Pl",
    "address_councildis": "C",
    "status": "Pending",
    "rowid": "1160939",
    "final_x": "3705883.89745",
    "final_y": "519042.671735",
    "longitude": "-89.99153675288943",
    "latitude": "29.920424560729938",
    "geocoded_column": {
      "latitude": "29.920424560729938",
      "longitude": "-89.99153675288943"
    }
  },
  {
    "service_request": "2025-1160938",
    "request_type": "Trash/Recycling",
    "request_reason": "Request a Large Item Pick Up",
    "date_created": "2025-01-09T14:59:07.000",
    "date_modified": "2025-01-09T14:59:10.000",
    "request_status": "Pending",
    "responsible_agency": "Department of Sanitation",
    "final_address": "208 Bourbon St",
    "address_councildis": "C",
    "status": "Assigned to Contractor",
    "contractor": "IV Waste",
    "rowid": "1160938",
    "final_x": "3681243.03464",
    "final_y": "531295.560642",
    "longitude": "-90.0688895456601",
    "latitude": "29.95488635017495",
    "geocoded_column": {
      "latitude": "29.95488635017495",
      "longitude": "-90.0688895456601"
    }
  },
  {
    "service_request": "2025-1160937",
    "request_type": "Streetlights",
    "request_reason": "Streetlight Knocked Down/Leaning",
    "date_created": "2025-01-09T14:56:07.000",
    "date_modified": "2025-01-09T14:56:08.000",
    "request_status": "Pending",
    "responsible_agency": "Department of Public Works",
    "final_address": "1549 Verna St",
    "address_councildis": "A",
    "status": "Pending",
    "contractor": "Legacy Professional Services",
    "rowid": "1160937",
    "final_x": "3675937.4436",
    "final_y": "541789.369228",
    "longitude": "-90.08528169306148",
    "latitude": "29.983900676384817",
    "geocoded_column": {
      "latitude": "29.983900676384817",
      "longitude": "-90.08528169306148"
    }
  },
  {
    "service_request": "2025-1160936",
    "request_type": "Trash/Recycling",
    "request_reason": "Repair Trash Cart",
    "date_created": "2025-01-09T14:53:39.000",
    "date_modified": "2025-01-09T14:53:42.000",
    "request_status": "Pending",
    "responsible_agency": "Department of Sanitation",
    "final_address": "940 Fats Domino Ave",
    "address_councildis": "E",
    "status": "Assigned to Contractor",
    "contractor": "Waste Pro",
    "rowid": "1160936",
    "final_x": "3697827.9576",
    "final_y": "533296.204164",
    "longitude": "-90.01644834875762",
    "latitude": "29.9598737597701",
    "geocoded_column": {
      "latitude": "29.9598737597701",
      "longitude": "-90.01644834875762"
    }
  },
  {
    "service_request": "2025-1160935",
    "request_type": "Trash/Recycling",
    "request_reason": "Request a Large Item Pick Up",
    "date_created": "2025-01-09T14:47:53.000",
    "date_modified": "2025-01-09T14:47:55.000",
    "request_status": "Pending",
    "responsible_agency": "Department of Sanitation",
    "final_address": "7411 Sheffield St",
    "address_councildis": "E",
    "status": "Assigned to Contractor",
    "contractor": "Waste Pro",
    "rowid": "1160935",
    "final_x": "3699518.33642",
    "final_y": "559648.509213",
    "longitude": "-90.01014960320985",
    "latitude": "30.032279297770074",
    "geocoded_column": {
      "latitude": "30.032279297770074",
      "longitude": "-90.01014960320985"
    }
  },
  {
    "service_request": "2025-1160934",
    "request_type": "Trash/Recycling",
    "request_reason": "Request a Large Item Pick Up",
    "date_created": "2025-01-09T14:44:57.000",
    "date_modified": "2025-01-09T14:45:00.000",
    "request_status": "Pending",
    "responsible_agency": "Department of Sanitation",
    "final_address": "4729 Coliseum St",
    "address_councildis": "B",
    "status": "Assigned to Contractor",
    "contractor": "IV Waste",
    "rowid": "1160934",
    "final_x": "3669597.48551",
    "final_y": "519724.649528",
    "longitude": "-90.10605321323122",
    "latitude": "29.923418304473458",
    "geocoded_column": {
      "latitude": "29.923418304473458",
      "longitude": "-90.10605321323122"
    }
  },
  {
    "service_request": "2025-1160933",
    "request_type": "Trash/Recycling",
    "request_reason": "Request a Large Item Pick Up",
    "date_created": "2025-01-09T14:44:40.000",
    "date_modified": "2025-01-09T14:44:44.000",
    "request_status": "Pending",
    "responsible_agency": "Department of Sanitation",
    "final_address": "206 Finland Pl",
    "address_councildis": "C",
    "status": "Assigned to Contractor",
    "rowid": "1160933",
    "final_x": "3706374.22782",
    "final_y": "520806.366137",
    "longitude": "-89.98992375281266",
    "latitude": "29.925258308491145",
    "geocoded_column": {
      "latitude": "29.925258308491145",
      "longitude": "-89.98992375281266"
    }
  },
  {
    "service_request": "2025-1160932",
    "request_type": "Trash/Recycling",
    "request_reason": "Request a Large Item Pick Up",
    "date_created": "2025-01-09T14:42:48.000",
    "date_modified": "2025-01-09T14:42:51.000",
    "request_status": "Pending",
    "responsible_agency": "Department of Sanitation",
    "final_address": "813 Poland Ave",
    "address_councildis": "C",
    "status": "Assigned to Contractor",
    "contractor": "IV Waste",
    "rowid": "1160932",
    "final_x": "3692845.34576",
    "final_y": "533976.440709",
    "longitude": "-90.03215787462972",
    "latitude": "29.96190068699409",
    "geocoded_column": {
      "latitude": "29.96190068699409",
      "longitude": "-90.03215787462972"
    }
  },
  {
    "service_request": "2025-1160931",
    "request_type": "Abandoned Vehicles",
    "request_reason": "Abandoned/Junk Vehicles",
    "date_created": "2025-01-09T14:41:39.000",
    "date_modified": "2025-01-09T14:41:41.000",
    "request_status": "Pending",
    "responsible_agency": "Department of Public Works",
    "final_address": "1830 Louisiana Ave",
    "address_councildis": "B",
    "status": "Pending",
    "rowid": "1160931",
    "final_x": "3673755.95028",
    "final_y": "522434.51129",
    "longitude": "-90.09283387008806",
    "latitude": "29.93074642524924",
    "geocoded_column": {
      "latitude": "29.93074642524924",
      "longitude": "-90.09283387008806"
    }
  },
  {
    "service_request": "2025-1160930",
    "request_type": "Trash/Recycling",
    "request_reason": "Repair Trash Cart",
    "date_created": "2025-01-09T14:41:13.000",
    "date_modified": "2025-01-09T14:41:17.000",
    "request_status": "Pending",
    "responsible_agency": "Department of Sanitation",
    "final_address": "4200 Vendome Pl",
    "address_councildis": "B",
    "status": "Assigned to Contractor",
    "contractor": "IV Waste",
    "rowid": "1160930",
    "final_x": "3668890.16442",
    "final_y": "531139.474178",
    "longitude": "-90.10790061529472",
    "latitude": "29.954826202543426",
    "geocoded_column": {
      "latitude": "29.954826202543426",
      "longitude": "-90.10790061529472"
    }
  },
  {
    "service_request": "2025-1160929",
    "request_type": "Trash/Recycling",
    "request_reason": "Repair Trash Cart",
    "date_created": "2025-01-09T14:39:01.000",
    "date_modified": "2025-01-09T15:26:36.000",
    "request_status": "Pending",
    "responsible_agency": "Department of Sanitation",
    "final_address": "7511 Onyx St",
    "address_councildis": "D",
    "contractor": "IV Waste",
    "rowid": "1160929",
    "final_x": "3669049.89588",
    "final_y": "556465.618138",
    "longitude": "-90.10654004039422",
    "latitude": "30.024459724459277",
    "geocoded_column": {
      "latitude": "30.024459724459277",
      "longitude": "-90.10654004039422"
    }
  },
  {
    "service_request": "2025-1160927",
    "request_type": "Street and Traffic Signs",
    "request_reason": "Street Name Sign Damaged or Missing",
    "date_created": "2025-01-09T14:36:53.000",
    "date_modified": "2025-01-09T14:36:56.000",
    "request_status": "Pending",
    "responsible_agency": "Department of Public Works",
    "final_address": "0 BLK Pointe Coupee Pl",
    "address_councildis": "E",
    "status": "Pending",
    "rowid": "1160927",
    "final_x": "3725397.83427",
    "final_y": "564379.721422",
    "longitude": "-89.92818640717589",
    "latitude": "30.04444106521481",
    "geocoded_column": {
      "latitude": "30.04444106521481",
      "longitude": "-89.92818640717589"
    }
  },
  {
    "service_request": "2025-1160926",
    "request_type": "Trash/Recycling",
    "request_reason": "Repair Trash Cart",
    "date_created": "2025-01-09T14:34:44.000",
    "date_modified": "2025-01-09T14:34:47.000",
    "request_status": "Pending",
    "responsible_agency": "Department of Sanitation",
    "final_address": "3329 General Taylor St",
    "address_councildis": "B",
    "status": "Assigned to Contractor",
    "contractor": "IV Waste",
    "rowid": "1160926",
    "final_x": "3671224.58478",
    "final_y": "527248.804863",
    "longitude": "-90.10066155047119",
    "latitude": "29.944059285269983",
    "geocoded_column": {
      "latitude": "29.944059285269983",
      "longitude": "-90.10066155047119"
    }
  },
  {
    "service_request": "2025-1160925",
    "request_type": "Trash/Recycling",
    "request_reason": "Damaged Caused By Contractor",
    "date_created": "2025-01-09T14:33:13.000",
    "date_modified": "2025-01-09T14:33:15.000",
    "request_status": "Pending",
    "responsible_agency": "Department of Sanitation",
    "final_address": "1710 Audubon St",
    "address_councildis": "A",
    "status": "Assigned to Contractor",
    "contractor": "IV Waste",
    "rowid": "1160925",
    "final_x": "3665445.21402",
    "final_y": "527933.777983",
    "longitude": "-90.11888578435753",
    "latitude": "29.946112431495944",
    "geocoded_column": {
      "latitude": "29.946112431495944",
      "longitude": "-90.11888578435753"
    }
  },
  {
    "service_request": "2025-1160924",
    "request_type": "Trash/Recycling",
    "request_reason": "Order Recycling Cart",
    "date_created": "2025-01-09T14:33:06.000",
    "date_modified": "2025-01-09T14:33:08.000",
    "request_status": "Pending",
    "responsible_agency": "Department of Sanitation",
    "final_address": "3329 General Taylor St",
    "address_councildis": "B",
    "status": "Pending",
    "rowid": "1160924",
    "final_x": "3671224.58478",
    "final_y": "527248.804863",
    "longitude": "-90.10066155047119",
    "latitude": "29.944059285269983",
    "geocoded_column": {
      "latitude": "29.944059285269983",
      "longitude": "-90.10066155047119"
    }
  },
  {
    "service_request": "2025-1160923",
    "request_type": "Abandoned Vehicles",
    "request_reason": "Abandoned/Junk Vehicles",
    "date_created": "2025-01-09T14:32:07.000",
    "date_modified": "2025-01-09T14:32:11.000",
    "request_status": "Pending",
    "responsible_agency": "Department of Public Works",
    "final_address": "2620 Jasmine St",
    "address_councildis": "D",
    "status": "Pending",
    "rowid": "1160923",
    "final_x": "3687189.34338",
    "final_y": "548066.48949",
    "longitude": "-90.0495200779705",
    "latitude": "30.000818722649065",
    "geocoded_column": {
      "latitude": "30.000818722649065",
      "longitude": "-90.0495200779705"
    }
  },
  {
    "service_request": "2025-1160922",
    "request_type": "Trash/Recycling",
    "request_reason": "Repair Recycling Cart",
    "date_created": "2025-01-09T14:29:28.000",
    "date_modified": "2025-01-09T14:29:29.000",
    "request_status": "Pending",
    "responsible_agency": "Department of Sanitation",
    "final_address": "2146 N Dorgenois St",
    "address_councildis": "D",
    "status": "Pending",
    "contractor": "IV Waste",
    "rowid": "1160922",
    "final_x": "3683984.67458",
    "final_y": "541384.32846",
    "longitude": "-90.05987845570898",
    "latitude": "29.982543494128834",
    "geocoded_column": {
      "latitude": "29.982543494128834",
      "longitude": "-90.05987845570898"
    }
  },
  {
    "service_request": "2025-1160921",
    "request_type": "Roads and Streets",
    "request_reason": "Curb Damage",
    "date_created": "2025-01-09T14:28:29.000",
    "date_modified": "2025-01-09T14:28:31.000",
    "request_status": "Pending",
    "responsible_agency": "Department of Public Works",
    "final_address": "MARTIN LUTHER KING JR BLVD & S CLAIBORNE AVE",
    "address_councildis": "B",
    "status": "Pending",
    "rowid": "1160921",
    "final_x": "3675047.7",
    "final_y": "528193.58",
    "longitude": "-90.08855849278287",
    "latitude": "29.946543462384728",
    "geocoded_column": {
      "latitude": "29.946543462384728",
      "longitude": "-90.08855849278287"
    }
  },
  {
    "service_request": "2025-1160920",
    "request_type": "Trash/Recycling",
    "request_reason": "Request a Large Item Pick Up",
    "date_created": "2025-01-09T14:26:19.000",
    "date_modified": "2025-01-09T14:26:21.000",
    "request_status": "Pending",
    "responsible_agency": "Department of Sanitation",
    "final_address": "8910 Lake Forest Blvd",
    "address_councildis": "E",
    "status": "Assigned to Contractor",
    "contractor": "Waste Pro",
    "rowid": "1160920",
    "final_x": "3707235.28331",
    "final_y": "558268.572252",
    "longitude": "-89.98581499694734",
    "latitude": "30.02823772705595",
    "geocoded_column": {
      "latitude": "30.02823772705595",
      "longitude": "-89.98581499694734"
    }
  },
  {
    "service_request": "2025-1160919",
    "request_type": "Trash/Recycling",
    "request_reason": "Request a Large Item Pick Up",
    "date_created": "2025-01-09T14:21:12.000",
    "date_modified": "2025-01-09T14:21:14.000",
    "request_status": "Pending",
    "responsible_agency": "Department of Sanitation",
    "final_address": "1032 State St",
    "address_councildis": "A",
    "status": "Assigned to Contractor",
    "contractor": "IV Waste",
    "rowid": "1160919",
    "final_x": "3664940.30266",
    "final_y": "520163.182328",
    "longitude": "-90.12073960727646",
    "latitude": "29.924760469631025",
    "geocoded_column": {
      "latitude": "29.924760469631025",
      "longitude": "-90.12073960727646"
    }
  },
  {
    "service_request": "2025-1160918",
    "request_type": "Trash/Recycling",
    "request_reason": "Request a Large Item Pick Up",
    "date_created": "2025-01-09T14:20:50.000",
    "date_modified": "2025-01-09T14:20:52.000",
    "request_status": "Pending",
    "responsible_agency": "Department of Sanitation",
    "final_address": "121 E Greenbrier Dr",
    "address_councildis": "E",
    "status": "Assigned to Contractor",
    "contractor": "Waste Pro",
    "rowid": "1160918",
    "final_x": "3717435.36671",
    "final_y": "565014.463458",
    "longitude": "-89.95332697582977",
    "latitude": "30.046452425442155",
    "geocoded_column": {
      "latitude": "30.046452425442155",
      "longitude": "-89.95332697582977"
    }
  },
  {
    "service_request": "2025-1160917",
    "request_type": "Trash/Recycling",
    "request_reason": "Request a Large Item Pick Up",
    "date_created": "2025-01-09T14:20:24.000",
    "date_modified": "2025-01-09T14:20:28.000",
    "request_status": "Pending",
    "responsible_agency": "Department of Sanitation",
    "final_address": "1123 Marais St",
    "address_councildis": "C",
    "status": "Assigned to Contractor",
    "contractor": "IV Waste",
    "rowid": "1160917",
    "final_x": "3681553.89218",
    "final_y": "535351.395206",
    "longitude": "-90.06776652683195",
    "latitude": "29.966029076090564",
    "geocoded_column": {
      "latitude": "29.966029076090564",
      "longitude": "-90.06776652683195"
    }
  },
  {
    "service_request": "2025-1160916",
    "request_type": "Drainage",
    "request_reason": "Catch Basin Clogged",
    "date_created": "2025-01-09T14:11:26.000",
    "date_modified": "2025-01-09T14:13:01.000",
    "request_status": "Pending",
    "responsible_agency": "Department of Public Works",
    "final_address": "OLEANDER ST & S CARROLLTON AVE",
    "address_councildis": "A",
    "status": "Inspected",
    "rowid": "1160916",
    "final_x": "3666813.3",
    "final_y": "533628.48",
    "longitude": "-90.11437497684159",
    "latitude": "29.961731062080478",
    "geocoded_column": {
      "latitude": "29.961731062080478",
      "longitude": "-90.11437497684159"
    }
  },
  {
    "service_request": "2025-1160915",
    "request_type": "Traffic Signals",
    "request_reason": "Traffic Signal Malfunctioning or Damaged",
    "date_created": "2025-01-09T14:10:59.000",
    "date_modified": "2025-01-09T14:11:01.000",
    "request_status": "Pending",
    "responsible_agency": "Department of Public Works",
    "final_address": "CANAL ST & N CLAIBORNE AVE & S CLAIBORNE AVE",
    "address_councildis": "B",
    "status": "Pending",
    "rowid": "1160915",
    "final_x": "3678370.6",
    "final_y": "532873.28",
    "longitude": "-90.07790502374995",
    "latitude": "29.959311391496197",
    "geocoded_column": {
      "latitude": "29.959311391496197",
      "longitude": "-90.07790502374995"
    }
  },
  {
    "service_request": "2025-1160914",
    "request_type": "Trash/Recycling",
    "request_reason": "Request a Large Item Pick Up",
    "date_created": "2025-01-09T14:10:47.000",
    "date_modified": "2025-01-09T14:10:50.000",
    "request_status": "Pending",
    "responsible_agency": "Department of Sanitation",
    "final_address": "4829 Crowder Blvd",
    "address_councildis": "E",
    "status": "Assigned to Contractor",
    "contractor": "Waste Pro",
    "rowid": "1160914",
    "final_x": "3706441.79524",
    "final_y": "556276.941082",
    "longitude": "-89.98839622226133",
    "latitude": "30.022787151370807",
    "geocoded_column": {
      "latitude": "30.022787151370807",
      "longitude": "-89.98839622226133"
    }
  },
  {
    "service_request": "2025-1160913",
    "request_type": "Trash/Recycling",
    "request_reason": "Request a Large Item Pick Up",
    "date_created": "2025-01-09T14:10:22.000",
    "date_modified": "2025-01-09T14:10:26.000",
    "request_status": "Pending",
    "responsible_agency": "Department of Sanitation",
    "final_address": "7911 Freret St",
    "address_councildis": "A",
    "status": "Assigned to Contractor",
    "contractor": "IV Waste",
    "rowid": "1160913",
    "final_x": "3662007.33453",
    "final_y": "527446.227391",
    "longitude": "-90.1297565738208",
    "latitude": "29.9448715657",
    "geocoded_column": {
      "latitude": "29.9448715657",
      "longitude": "-90.1297565738208"
    }
  },
  {
    "service_request": "2025-1160912",
    "request_type": "Trash/Recycling",
    "request_reason": "Illegal Dumping",
    "date_created": "2025-01-09T14:06:42.000",
    "date_modified": "2025-01-09T14:06:45.000",
    "request_status": "Pending",
    "responsible_agency": "Department of Sanitation",
    "final_address": "2070 Florida Ave",
    "address_councildis": "D",
    "status": "Pending",
    "rowid": "1160912",
    "final_x": "3683566.72418",
    "final_y": "542687.707405",
    "longitude": "-90.06115284236782",
    "latitude": "29.98614009260832",
    "geocoded_column": {
      "latitude": "29.98614009260832",
      "longitude": "-90.06115284236782"
    }
  },
  {
    "service_request": "2025-1160911",
    "request_type": "Trash/Recycling",
    "request_reason": "Repair Trash Cart",
    "date_created": "2025-01-09T14:05:53.000",
    "date_modified": "2025-01-09T14:05:57.000",
    "request_status": "Pending",
    "responsible_agency": "Department of Sanitation",
    "final_address": "4434 Spain St",
    "address_councildis": "D",
    "status": "Assigned to Contractor",
    "contractor": "IV Waste",
    "rowid": "1160911",
    "final_x": "3685013.83541",
    "final_y": "549084.081107",
    "longitude": "-90.05635683233402",
    "latitude": "30.00368357454322",
    "geocoded_column": {
      "latitude": "30.00368357454322",
      "longitude": "-90.05635683233402"
    }
  },
  {
    "service_request": "2025-1160910",
    "request_type": "Property Maintenance",
    "request_reason": "Property Maintenance",
    "date_created": "2025-01-09T14:04:57.000",
    "date_modified": "2025-01-09T15:01:53.000",
    "case_close_date": "2025-01-09T09:01:47.000",
    "request_status": "Closed",
    "responsible_agency": "Department of Code Enforcement",
    "final_address": "920 Julia St",
    "address_councildis": "B",
    "status": "Referred to Code Enforcement",
    "rowid": "1160910",
    "final_x": "3679380.44117",
    "final_y": "528239.164224",
    "longitude": "-90.07487690353898",
    "latitude": "29.94653867020513",
    "geocoded_column": {
      "latitude": "29.94653867020513",
      "longitude": "-90.07487690353898"
    }
  },
  {
    "service_request": "2025-1160909",
    "request_type": "Trash/Recycling",
    "request_reason": "Illegal Dumping",
    "date_created": "2025-01-09T14:04:45.000",
    "date_modified": "2025-01-09T14:04:48.000",
    "request_status": "Pending",
    "responsible_agency": "Department of Sanitation",
    "final_address": "2740 Frenchmen St",
    "address_councildis": "D",
    "status": "Pending",
    "rowid": "1160909",
    "final_x": "3684053.57935",
    "final_y": "542478.465613",
    "longitude": "-90.05962240579127",
    "latitude": "29.98554987977406",
    "geocoded_column": {
      "latitude": "29.98554987977406",
      "longitude": "-90.05962240579127"
    }
  },
  {
    "service_request": "2025-1160908",
    "request_type": "Trash/Recycling",
    "request_reason": "Request a Large Item Pick Up",
    "date_created": "2025-01-09T14:04:41.000",
    "date_modified": "2025-01-09T14:04:44.000",
    "request_status": "Pending",
    "responsible_agency": "Department of Sanitation",
    "final_address": "2802 Calhoun St",
    "address_councildis": "A",
    "status": "Assigned to Contractor",
    "contractor": "IV Waste",
    "rowid": "1160908",
    "final_x": "3666554.49466",
    "final_y": "527001.419454",
    "longitude": "-90.11541468121021",
    "latitude": "29.943516372019065",
    "geocoded_column": {
      "latitude": "29.943516372019065",
      "longitude": "-90.11541468121021"
    }
  },
  {
    "service_request": "2025-1160907",
    "request_type": "Trash/Recycling",
    "request_reason": "Illegal Dumping",
    "date_created": "2025-01-09T14:03:30.000",
    "date_modified": "2025-01-09T14:03:32.000",
    "request_status": "Pending",
    "responsible_agency": "Department of Sanitation",
    "final_address": "2164 Florida Ave",
    "address_councildis": "D",
    "status": "Pending",
    "rowid": "1160907",
    "final_x": "3684358.35573",
    "final_y": "542374.478221",
    "longitude": "-90.05866339715226",
    "latitude": "29.985254632183466",
    "geocoded_column": {
      "latitude": "29.985254632183466",
      "longitude": "-90.05866339715226"
    }
  },
  {
    "service_request": "2025-1160906",
    "request_type": "Trash/Recycling",
    "request_reason": "Request a Large Item Pick Up",
    "date_created": "2025-01-09T14:03:21.000",
    "date_modified": "2025-01-09T14:03:23.000",
    "request_status": "Pending",
    "responsible_agency": "Department of Sanitation",
    "final_address": "507 Seguin St",
    "address_councildis": "C",
    "status": "Assigned to Contractor",
    "rowid": "1160906",
    "final_x": "3686439.49366",
    "final_y": "529877.952769",
    "longitude": "-90.05253117057342",
    "latitude": "29.950829715824838",
    "geocoded_column": {
      "latitude": "29.950829715824838",
      "longitude": "-90.05253117057342"
    }
  },
  {
    "service_request": "2025-1160905",
    "request_type": "Trash/Recycling",
    "request_reason": "Illegal Dumping",
    "date_created": "2025-01-09T14:02:05.000",
    "date_modified": "2025-01-09T14:02:07.000",
    "request_status": "Pending",
    "responsible_agency": "Department of Sanitation",
    "final_address": "2132 Florida Ave",
    "address_councildis": "D",
    "status": "Pending",
    "rowid": "1160905",
    "final_x": "3683890.12009",
    "final_y": "542557.871629",
    "longitude": "-90.06013591914494",
    "latitude": "29.985773213401107",
    "geocoded_column": {
      "latitude": "29.985773213401107",
      "longitude": "-90.06013591914494"
    }
  },
  {
    "service_request": "2025-1160904",
    "request_type": "Trash/Recycling",
    "request_reason": "Illegal Dumping",
    "date_created": "2025-01-09T14:01:26.000",
    "date_modified": "2025-01-09T14:01:29.000",
    "request_status": "Pending",
    "responsible_agency": "Department of Sanitation",
    "final_address": "N ROBERTSON ST & ST FERDINAND ST",
    "address_councildis": "C",
    "status": "Pending",
    "rowid": "1160904",
    "final_x": "3688098.2",
    "final_y": "537805.21",
    "longitude": "-90.04701284315217",
    "latitude": "29.972575837004666",
    "geocoded_column": {
      "latitude": "29.972575837004666",
      "longitude": "-90.04701284315217"
    }
  },
  {
    "service_request": "2025-1160903",
    "request_type": "Trash/Recycling",
    "request_reason": "Request a Large Item Pick Up",
    "date_created": "2025-01-09T14:00:58.000",
    "date_modified": "2025-01-09T14:01:01.000",
    "request_status": "Pending",
    "responsible_agency": "Department of Sanitation",
    "final_address": "2412 Audubon St",
    "address_councildis": "A",
    "status": "Assigned to Contractor",
    "contractor": "IV Waste",
    "rowid": "1160903",
    "final_x": "3666880.68026",
    "final_y": "530067.337601",
    "longitude": "-90.1142818404694",
    "latitude": "29.951937115941544",
    "geocoded_column": {
      "latitude": "29.951937115941544",
      "longitude": "-90.1142818404694"
    }
  },
  {
    "service_request": "2025-1160902",
    "request_type": "Trash/Recycling",
    "request_reason": "Illegal Dumping",
    "date_created": "2025-01-09T14:00:42.000",
    "date_modified": "2025-01-09T14:00:48.000",
    "request_status": "Pending",
    "responsible_agency": "Department of Sanitation",
    "final_address": "2132 Florida Ave",
    "address_councildis": "D",
    "status": "Pending",
    "rowid": "1160902",
    "final_x": "3683890.12009",
    "final_y": "542557.871629",
    "longitude": "-90.06013591914494",
    "latitude": "29.985773213401107",
    "geocoded_column": {
      "latitude": "29.985773213401107",
      "longitude": "-90.06013591914494"
    }
  },
  {
    "service_request": "2025-1160901",
    "request_type": "Trash/Recycling",
    "request_reason": "Request a Large Item Pick Up",
    "date_created": "2025-01-09T14:00:32.000",
    "date_modified": "2025-01-09T14:00:37.000",
    "request_status": "Pending",
    "responsible_agency": "Department of Sanitation",
    "final_address": "4725 Congress Dr",
    "address_councildis": "D",
    "status": "Assigned to Contractor",
    "contractor": "IV Waste",
    "rowid": "1160901",
    "final_x": "3692414.15811",
    "final_y": "551665.386645",
    "longitude": "-90.03288553356197",
    "latitude": "30.010552366012657",
    "geocoded_column": {
      "latitude": "30.010552366012657",
      "longitude": "-90.03288553356197"
    }
  },
  {
    "service_request": "2025-1160900",
    "request_type": "Trash/Recycling",
    "request_reason": "Illegal Dumping",
    "date_created": "2025-01-09T13:59:08.000",
    "date_modified": "2025-01-09T13:59:11.000",
    "request_status": "Pending",
    "responsible_agency": "Department of Sanitation",
    "final_address": "2132 Florida Ave",
    "address_councildis": "D",
    "status": "Pending",
    "rowid": "1160900",
    "final_x": "3683890.12009",
    "final_y": "542557.871629",
    "longitude": "-90.06013591914494",
    "latitude": "29.985773213401107",
    "geocoded_column": {
      "latitude": "29.985773213401107",
      "longitude": "-90.06013591914494"
    }
  },
  {
    "service_request": "2025-1160899",
    "request_type": "Abandoned Vehicles",
    "request_reason": "Abandoned/Junk Vehicles",
    "date_created": "2025-01-09T13:57:32.000",
    "date_modified": "2025-01-09T13:57:34.000",
    "request_status": "Pending",
    "responsible_agency": "Department of Public Works",
    "final_address": "1500 BLK Constantinople St",
    "address_councildis": "B",
    "status": "Pending",
    "rowid": "1160899",
    "final_x": "3672328.00373",
    "final_y": "520842.210728",
    "longitude": "-90.09739592160561",
    "latitude": "29.9264105408849",
    "geocoded_column": {
      "latitude": "29.9264105408849",
      "longitude": "-90.09739592160561"
    }
  },
  {
    "service_request": "2025-1160898",
    "request_type": "Trash/Recycling",
    "request_reason": "Request a Large Item Pick Up",
    "date_created": "2025-01-09T13:56:16.000",
    "date_modified": "2025-01-09T13:56:19.000",
    "request_status": "Pending",
    "responsible_agency": "Department of Sanitation",
    "final_address": "7501 Briarwood Dr",
    "address_councildis": "E",
    "status": "Assigned to Contractor",
    "contractor": "Waste Pro",
    "rowid": "1160898",
    "final_x": "3718028.91161",
    "final_y": "570334.094311",
    "longitude": "-89.9512482970548",
    "latitude": "30.061059545423795",
    "geocoded_column": {
      "latitude": "30.061059545423795",
      "longitude": "-89.9512482970548"
    }
  },
  {
    "service_request": "2025-1160897",
    "request_type": "Abandoned Vehicles",
    "request_reason": "Abandoned/Junk Vehicles",
    "date_created": "2025-01-09T13:53:17.000",
    "date_modified": "2025-01-09T13:53:18.000",
    "request_status": "Pending",
    "responsible_agency": "Department of Public Works",
    "final_address": "4651 Gabriel Dr",
    "address_councildis": "E",
    "status": "Pending",
    "rowid": "1160897",
    "final_x": "3709005.96715",
    "final_y": "555173.864281",
    "longitude": "-89.98033525927221",
    "latitude": "30.0196711151423",
    "geocoded_column": {
      "latitude": "30.0196711151423",
      "longitude": "-89.98033525927221"
    }
  },
  {
    "service_request": "2025-1160896",
    "request_type": "Abandoned Vehicles",
    "request_reason": "Vehicle Blocking Your Driveway",
    "date_created": "2025-01-09T13:52:11.000",
    "date_modified": "2025-01-09T13:54:08.000",
    "request_status": "Pending",
    "responsible_agency": "Department of Public Works",
    "final_address": "2510 St Thomas St",
    "address_councildis": "B",
    "rowid": "1160896",
    "final_x": "3678743.30254",
    "final_y": "519707.874232",
    "longitude": "-90.07718387228466",
    "latitude": "29.923099655685863",
    "geocoded_column": {
      "latitude": "29.923099655685863",
      "longitude": "-90.07718387228466"
    }
  },
  {
    "service_request": "2025-1160895",
    "request_type": "Roads and Streets",
    "request_reason": "Pothole",
    "date_created": "2025-01-09T13:51:24.000",
    "date_modified": "2025-01-09T13:51:33.000",
    "request_status": "Pending",
    "responsible_agency": "Department of Public Works",
    "final_address": "829 Baronne St",
    "address_councildis": "B",
    "status": "Pending",
    "rowid": "1160895",
    "final_x": "3679506.13525",
    "final_y": "527990.896575",
    "longitude": "-90.07448865430842",
    "latitude": "29.945852220617617",
    "geocoded_column": {
      "latitude": "29.945852220617617",
      "longitude": "-90.07448865430842"
    }
  },
  {
    "service_request": "2025-1160894",
    "request_type": "Property Maintenance",
    "request_reason": "Property Maintenance",
    "date_created": "2025-01-09T13:48:11.000",
    "date_modified": "2025-01-09T13:48:13.000",
    "request_status": "Pending",
    "responsible_agency": "Department of Code Enforcement",
    "final_address": "DECATUR ST & FRANKLIN AVE",
    "address_councildis": "C",
    "status": "Pending",
    "rowid": "1160894",
    "final_x": "3686556.4",
    "final_y": "534269.28",
    "longitude": "-90.05200698997285",
    "latitude": "29.962900761999617",
    "geocoded_column": {
      "latitude": "29.962900761999617",
      "longitude": "-90.05200698997285"
    }
  },
  {
    "service_request": "2025-1160893",
    "request_type": "Street and Traffic Signs",
    "request_reason": "Additional Signage Request",
    "date_created": "2025-01-09T13:45:01.000",
    "date_modified": "2025-01-09T13:45:04.000",
    "request_status": "Pending",
    "responsible_agency": "Department of Public Works",
    "final_address": "2100 BLK General Meyer Ave",
    "address_councildis": "C",
    "status": "Pending",
    "rowid": "1160893",
    "final_x": "3691997.16223",
    "final_y": "527801.647268",
    "longitude": "-90.03505722450238",
    "latitude": "29.944948605462773",
    "geocoded_column": {
      "latitude": "29.944948605462773",
      "longitude": "-90.03505722450238"
    }
  },
  {
    "service_request": "2025-1160892",
    "request_type": "Streetlights",
    "request_reason": "Streetlight Outage/Malfunction",
    "date_created": "2025-01-09T13:40:14.000",
    "date_modified": "2025-01-09T13:40:15.000",
    "request_status": "Pending",
    "responsible_agency": "Department of Public Works",
    "final_address": "1838 Napoleon Ave",
    "address_councildis": "B",
    "status": "Pending",
    "contractor": "Legacy Professional Services",
    "rowid": "1160892",
    "final_x": "3670664.88283",
    "final_y": "521896.164666",
    "longitude": "-90.10261020678146",
    "latitude": "29.9293577984954",
    "geocoded_column": {
      "latitude": "29.9293577984954",
      "longitude": "-90.10261020678146"
    }
  },
  {
    "service_request": "2025-1160891",
    "request_type": "Abandoned Vehicles",
    "request_reason": "Abandoned/Junk Vehicles",
    "date_created": "2025-01-09T13:39:50.000",
    "date_modified": "2025-01-09T13:39:53.000",
    "request_status": "Pending",
    "responsible_agency": "Department of Public Works",
    "final_address": "6143 West End Blvd",
    "address_councildis": "A",
    "status": "Pending",
    "rowid": "1160891",
    "final_x": "3666621.65927",
    "final_y": "548674.629011",
    "longitude": "-90.11447473817974",
    "latitude": "30.003108497510457",
    "geocoded_column": {
      "latitude": "30.003108497510457",
      "longitude": "-90.11447473817974"
    }
  },
  {
    "service_request": "2025-1160890",
    "request_type": "Trash/Recycling",
    "request_reason": "Repair Trash Cart",
    "date_created": "2025-01-09T13:37:24.000",
    "date_modified": "2025-01-09T13:37:25.000",
    "request_status": "Pending",
    "responsible_agency": "Department of Sanitation",
    "final_address": "1815 Halsey Ave",
    "address_councildis": "C",
    "status": "Assigned to Contractor",
    "rowid": "1160890",
    "final_x": "3697735.07389",
    "final_y": "524213.158844",
    "longitude": "-90.01707113440321",
    "latitude": "29.934901498035615",
    "geocoded_column": {
      "latitude": "29.934901498035615",
      "longitude": "-90.01707113440321"
    }
  },
  {
    "service_request": "2025-1160889",
    "request_type": "Trash/Recycling",
    "request_reason": "Request a Large Item Pick Up",
    "date_created": "2025-01-09T13:37:23.000",
    "date_modified": "2025-01-09T13:37:25.000",
    "request_status": "Pending",
    "responsible_agency": "Department of Sanitation",
    "final_address": "3557 Inwood Ave",
    "address_councildis": "C",
    "status": "Assigned to Contractor",
    "rowid": "1160889",
    "final_x": "3703641.80503",
    "final_y": "515158.824115",
    "longitude": "-89.99875672001963",
    "latitude": "29.909817316056756",
    "geocoded_column": {
      "latitude": "29.909817316056756",
      "longitude": "-89.99875672001963"
    }
  },
  {
    "service_request": "2025-1160888",
    "request_type": "Drainage",
    "request_reason": "Catch Basin Clogged",
    "date_created": "2025-01-09T13:35:49.000",
    "date_modified": "2025-01-09T14:11:41.000",
    "request_status": "Pending",
    "responsible_agency": "Department of Public Works",
    "final_address": "1534 De Battista Pl",
    "address_councildis": "C",
    "status": "Scheduled",
    "rowid": "1160888",
    "final_x": "3699819.59197",
    "final_y": "525522.628477",
    "longitude": "-90.01044264974989",
    "latitude": "29.938436077558315",
    "geocoded_column": {
      "latitude": "29.938436077558315",
      "longitude": "-90.01044264974989"
    }
  },
  {
    "service_request": "2025-1160887",
    "request_type": "Trash/Recycling",
    "request_reason": "Repair Recycling Cart",
    "date_created": "2025-01-09T13:31:57.000",
    "date_modified": "2025-01-09T13:31:59.000",
    "request_status": "Pending",
    "responsible_agency": "Department of Sanitation",
    "final_address": "16 Muirfield Pl",
    "address_councildis": "C",
    "status": "Pending",
    "rowid": "1160887",
    "final_x": "3720380.45388",
    "final_y": "514063.729522",
    "longitude": "-89.94596881393922",
    "latitude": "29.906259516787046",
    "geocoded_column": {
      "latitude": "29.906259516787046",
      "longitude": "-89.94596881393922"
    }
  },
  {
    "service_request": "2025-1160886",
    "request_type": "Roads and Streets",
    "request_reason": "Sidewalk Damaged or Missing",
    "date_created": "2025-01-09T13:31:42.000",
    "date_modified": "2025-01-09T13:33:14.000",
    "request_status": "Pending",
    "responsible_agency": "Department of Public Works",
    "final_address": "1562 De Battista Pl",
    "address_councildis": "C",
    "status": "Inspected",
    "rowid": "1160886",
    "final_x": "3699814.68304",
    "final_y": "525292.962301",
    "longitude": "-90.01046651861732",
    "latitude": "29.937804731383093",
    "geocoded_column": {
      "latitude": "29.937804731383093",
      "longitude": "-90.01046651861732"
    }
  },
  {
    "service_request": "2025-1160885",
    "request_type": "Roads and Streets",
    "request_reason": "Debris in Driving Lanes",
    "date_created": "2025-01-09T13:30:27.000",
    "date_modified": "2025-01-09T13:30:30.000",
    "request_status": "Pending",
    "responsible_agency": "Department of Public Works",
    "final_address": "7700 BLK Mayo Rd",
    "address_councildis": "E",
    "status": "Pending",
    "rowid": "1160885",
    "final_x": "3700591.67654",
    "final_y": "561238.246077",
    "longitude": "-90.00669963131948",
    "latitude": "30.036616332541257",
    "geocoded_column": {
      "latitude": "30.036616332541257",
      "longitude": "-90.00669963131948"
    }
  },
  {
    "service_request": "2025-1160884",
    "request_type": "Roads and Streets",
    "request_reason": "Sidewalk Damaged or Missing",
    "date_created": "2025-01-09T13:26:35.000",
    "date_modified": "2025-01-09T13:29:48.000",
    "request_status": "Pending",
    "responsible_agency": "Department of Public Works",
    "final_address": "1539 De Battista Pl",
    "address_councildis": "C",
    "status": "Inspected",
    "rowid": "1160884",
    "final_x": "3699712.20906",
    "final_y": "525478.878525",
    "longitude": "-90.01078326043796",
    "latitude": "29.938319188890205",
    "geocoded_column": {
      "latitude": "29.938319188890205",
      "longitude": "-90.01078326043796"
    }
  },
  {
    "service_request": "2025-1160883",
    "request_type": "Trash/Recycling",
    "request_reason": "Request a Large Item Pick Up",
    "date_created": "2025-01-09T13:24:52.000",
    "date_modified": "2025-01-09T13:24:57.000",
    "request_status": "Pending",
    "responsible_agency": "Department of Sanitation",
    "final_address": "4316 Touro St",
    "address_councildis": "D",
    "status": "Assigned to Contractor",
    "contractor": "IV Waste",
    "rowid": "1160883",
    "final_x": "3683192.55317",
    "final_y": "548535.100946",
    "longitude": "-90.06212979778228",
    "latitude": "30.002229760828083",
    "geocoded_column": {
      "latitude": "30.002229760828083",
      "longitude": "-90.06212979778228"
    }
  },
  {
    "service_request": "2025-1160882",
    "request_type": "Trash/Recycling",
    "request_reason": "Request a Large Item Pick Up",
    "date_created": "2025-01-09T13:22:10.000",
    "date_modified": "2025-01-09T13:22:13.000",
    "request_status": "Pending",
    "responsible_agency": "Department of Sanitation",
    "final_address": "8225 Sycamore St",
    "address_councildis": "A",
    "status": "Assigned to Contractor",
    "contractor": "IV Waste",
    "rowid": "1160882",
    "final_x": "3663921.48589",
    "final_y": "531390.538307",
    "longitude": "-90.12358150898284",
    "latitude": "29.95566172417758",
    "geocoded_column": {
      "latitude": "29.95566172417758",
      "longitude": "-90.12358150898284"
    }
  },
  {
    "service_request": "2025-1160881",
    "request_type": "Safety & Permits",
    "request_reason": "Licenses & Permits",
    "date_created": "2025-01-09T13:20:54.000",
    "date_modified": "2025-01-09T13:20:58.000",
    "request_status": "Pending",
    "responsible_agency": "Safety and Permits",
    "final_address": "0 BLK Canal St",
    "address_councildis": "C",
    "status": "Pending",
    "rowid": "1160881",
    "final_x": "3682776.12982",
    "final_y": "529518.218638",
    "longitude": "-90.06411078271097",
    "latitude": "29.949952654776755",
    "geocoded_column": {
      "latitude": "29.949952654776755",
      "longitude": "-90.06411078271097"
    }
  },
  {
    "service_request": "2025-1160880",
    "request_type": "Trash/Recycling",
    "request_reason": "MIssed Recycling Pick-Up",
    "date_created": "2025-01-09T13:19:23.000",
    "date_modified": "2025-01-09T13:19:25.000",
    "request_status": "Pending",
    "responsible_agency": "Department of Sanitation",
    "final_address": "10100 Deerfield Dr",
    "address_councildis": "E",
    "status": "Assigned to Contractor",
    "contractor": "Waste Pro",
    "rowid": "1160880",
    "final_x": "3709624.79589",
    "final_y": "563172.488736",
    "longitude": "-89.97808106443804",
    "latitude": "30.041644069298027",
    "geocoded_column": {
      "latitude": "30.041644069298027",
      "longitude": "-89.97808106443804"
    }
  },
  {
    "service_request": "2025-1160879",
    "request_type": "Street and Traffic Signs",
    "request_reason": "Street Name Sign Damaged or Missing",
    "date_created": "2025-01-09T13:12:36.000",
    "date_modified": "2025-01-09T13:12:39.000",
    "request_status": "Pending",
    "responsible_agency": "Department of Public Works",
    "final_address": "BIENVILLE ST & N ALEXANDER ST",
    "address_councildis": "A",
    "status": "Pending",
    "rowid": "1160879",
    "final_x": "3670461.98",
    "final_y": "539792.16",
    "longitude": "-90.10264395735041",
    "latitude": "29.978571880327262",
    "geocoded_column": {
      "latitude": "29.978571880327262",
      "longitude": "-90.10264395735041"
    }
  },
  {
    "service_request": "2025-1160878",
    "request_type": "Trash/Recycling",
    "request_reason": "Request a Large Item Pick Up",
    "date_created": "2025-01-09T13:10:17.000",
    "date_modified": "2025-01-09T13:10:19.000",
    "request_status": "Pending",
    "responsible_agency": "Department of Sanitation",
    "final_address": "5419 Press Dr",
    "address_councildis": "D",
    "status": "Assigned to Contractor",
    "contractor": "IV Waste",
    "rowid": "1160878",
    "final_x": "3689407.23171",
    "final_y": "553273.450967",
    "longitude": "-90.04232829446875",
    "latitude": "30.015067442012434",
    "geocoded_column": {
      "latitude": "30.015067442012434",
      "longitude": "-90.04232829446875"
    }
  },
  {
    "service_request": "2025-1160877",
    "request_type": "Abandoned Vehicles",
    "request_reason": "Abandoned/Junk Vehicles",
    "date_created": "2025-01-09T13:05:55.000",
    "date_modified": "2025-01-09T13:05:57.000",
    "request_status": "Pending",
    "responsible_agency": "Department of Public Works",
    "final_address": "2423 Royal St",
    "address_councildis": "C",
    "status": "Pending",
    "rowid": "1160877",
    "final_x": "3686071.47074",
    "final_y": "534977.18695",
    "longitude": "-90.0535133636992",
    "latitude": "29.964862162657926",
    "geocoded_column": {
      "latitude": "29.964862162657926",
      "longitude": "-90.0535133636992"
    }
  },
  {
    "service_request": "2025-1160876",
    "request_type": "Trash/Recycling",
    "request_reason": "Request a Large Item Pick Up",
    "date_created": "2025-01-09T13:05:24.000",
    "date_modified": "2025-01-09T13:05:26.000",
    "request_status": "Pending",
    "responsible_agency": "Department of Sanitation",
    "final_address": "2442 N Rampart St",
    "address_councildis": "C",
    "status": "Assigned to Contractor",
    "contractor": "IV Waste",
    "rowid": "1160876",
    "final_x": "3686195.91145",
    "final_y": "536006.700039",
    "longitude": "-90.0530840637307",
    "latitude": "29.967689143823375",
    "geocoded_column": {
      "latitude": "29.967689143823375",
      "longitude": "-90.0530840637307"
    }
  },
  {
    "service_request": "2025-1160875",
    "request_type": "Trash/Recycling",
    "request_reason": "Return Trash Cart",
    "date_created": "2025-01-09T13:02:31.000",
    "date_modified": "2025-01-09T13:02:58.000",
    "request_status": "Pending",
    "responsible_agency": "Department of Sanitation",
    "final_address": "3801 LaSalle St",
    "address_councildis": "B",
    "status": "Assigned to Contractor",
    "contractor": "IV Waste",
    "rowid": "1160875",
    "final_x": "3672148.77275",
    "final_y": "523907.806076",
    "longitude": "-90.09785736227678",
    "latitude": "29.934845255271412",
    "geocoded_column": {
      "latitude": "29.934845255271412",
      "longitude": "-90.09785736227678"
    }
  },
  {
    "service_request": "2025-1160874",
    "request_type": "Trash/Recycling",
    "request_reason": "Order Trash Cart",
    "date_created": "2025-01-09T12:57:19.000",
    "date_modified": "2025-01-09T12:57:20.000",
    "request_status": "Pending",
    "responsible_agency": "Department of Sanitation",
    "final_address": "4901 General De Gaulle Dr",
    "address_councildis": "C",
    "status": "Assigned to Contractor",
    "rowid": "1160874",
    "final_x": "3701390.457",
    "final_y": "516919.037941",
    "longitude": "-90.00579799989453",
    "latitude": "29.91472921431419",
    "geocoded_column": {
      "latitude": "29.91472921431419",
      "longitude": "-90.00579799989453"
    }
  },
  {
    "service_request": "2025-1160873",
    "request_type": "Property Maintenance",
    "request_reason": "Property Maintenance",
    "date_created": "2025-01-09T12:56:57.000",
    "date_modified": "2025-01-09T12:56:59.000",
    "request_status": "Pending",
    "responsible_agency": "Department of Code Enforcement",
    "final_address": "1830 St Philip St",
    "address_councildis": "D",
    "status": "Pending",
    "rowid": "1160873",
    "final_x": "3679913.7732",
    "final_y": "535845.678471",
    "longitude": "-90.07292880754487",
    "latitude": "29.967437893860325",
    "geocoded_column": {
      "latitude": "29.967437893860325",
      "longitude": "-90.07292880754487"
    }
  },
  {
    "service_request": "2025-1160872",
    "request_type": "Trash/Recycling",
    "request_reason": "Request a Large Item Pick Up",
    "date_created": "2025-01-09T12:56:48.000",
    "date_modified": "2025-01-09T12:56:51.000",
    "request_status": "Pending",
    "responsible_agency": "Department of Sanitation",
    "final_address": "5920 Kensington Blvd",
    "address_councildis": "E",
    "status": "Assigned to Contractor",
    "contractor": "Waste Pro",
    "rowid": "1160872",
    "final_x": "3713106.97515",
    "final_y": "561414.67075",
    "longitude": "-89.96714245045624",
    "latitude": "30.036697070908236",
    "geocoded_column": {
      "latitude": "30.036697070908236",
      "longitude": "-89.96714245045624"
    }
  },
  {
    "service_request": "2025-1160871",
    "request_type": "Trash/Recycling",
    "request_reason": "Replace Trash Cart",
    "date_created": "2025-01-09T12:55:07.000",
    "date_modified": "2025-01-09T12:55:10.000",
    "request_status": "Pending",
    "responsible_agency": "Department of Sanitation",
    "final_address": "2122 N Galvez St",
    "address_councildis": "D",
    "status": "Assigned to Contractor",
    "contractor": "IV Waste",
    "rowid": "1160871",
    "final_x": "3684470.40597",
    "final_y": "539913.303818",
    "longitude": "-90.05839597445943",
    "latitude": "29.978483840988005",
    "geocoded_column": {
      "latitude": "29.978483840988005",
      "longitude": "-90.05839597445943"
    }
  },
  {
    "service_request": "2025-1160870",
    "request_type": "Trash/Recycling",
    "request_reason": "Repair Trash Cart",
    "date_created": "2025-01-09T12:51:17.000",
    "date_modified": "2025-01-09T12:51:20.000",
    "request_status": "Pending",
    "responsible_agency": "Department of Sanitation",
    "final_address": "316 Audubon St",
    "address_councildis": "A",
    "status": "Assigned to Contractor",
    "contractor": "IV Waste",
    "rowid": "1160870",
    "final_x": "3661630.14003",
    "final_y": "522241.809658",
    "longitude": "-90.13111990139335",
    "latitude": "29.930571951409235",
    "geocoded_column": {
      "latitude": "29.930571951409235",
      "longitude": "-90.13111990139335"
    }
  },
  {
    "service_request": "2025-1160869",
    "request_type": "Abandoned Vehicles",
    "request_reason": "Abandoned/Junk Vehicles",
    "date_created": "2025-01-09T12:45:48.000",
    "date_modified": "2025-01-09T12:50:32.000",
    "request_status": "Pending",
    "responsible_agency": "Department of Public Works",
    "final_address": "8400 Apple St",
    "address_councildis": "A",
    "status": "Inspected",
    "rowid": "1160869",
    "final_x": "3664492.92909",
    "final_y": "532845.87002",
    "longitude": "-90.12172849447671",
    "latitude": "29.95964681041632",
    "geocoded_column": {
      "latitude": "29.95964681041632",
      "longitude": "-90.12172849447671"
    }
  },
  {
    "service_request": "2025-1160868",
    "request_type": "Trash/Recycling",
    "request_reason": "Illegal Dumping",
    "date_created": "2025-01-09T12:45:13.000",
    "date_modified": "2025-01-09T12:45:17.000",
    "request_status": "Pending",
    "responsible_agency": "Department of Sanitation",
    "final_address": "FLORIDA AVE & ALLEN ST",
    "address_councildis": "D",
    "status": "Pending",
    "rowid": "1160868",
    "final_x": "3682213.4",
    "final_y": "543260.28",
    "longitude": "-90.06540744924361",
    "latitude": "29.98775571082112",
    "geocoded_column": {
      "latitude": "29.98775571082112",
      "longitude": "-90.06540744924361"
    }
  },