[
  {
    "service_request": "2026-1287027",
    "request_type": "Trash/Recycling",
    "request_reason": "Replace Trash Cart",
    "date_created": "2026-06-02T23:10:36.000",
    "date_modified": "2026-06-02T23:10:38.000",
    "request_status": "Pending",
    "responsible_agency": "Department of Sanitation",
    "final_address": "920 Delaronde St",
    "address_councildis": "C",
    "status": "Assigned to Contractor",
    "contractor": "Richards Disposal",
    "rowid": "1287027",
    "final_x": "3688458.71177",
    "final_y": "531207.732354",
    "longitude": "-90.04610835460215",
    "latitude": "29.954423936731256",
    "geocoded_column": {
      "latitude": "29.954423936731256",
      "longitude": "-90.04610835460215"
    }
  },
  {
    "service_request": "2026-1287026",
    "request_type": "Property Maintenance",
    "request_reason": "Property Maintenance",
    "date_created": "2026-06-02T22:57:02.000",
    "date_modified": "2026-06-02T22:57:04.000",
    "request_status": "Pending",
    "responsible_agency": "Department of Code Enforcement",
    "final_address": "1226 Frenchmen St",
    "address_councildis": "C",
    "status": "Pending",
    "rowid": "1287026",
    "final_x": "3684511.08732",
    "final_y": "536858.736264",
    "longitude": "-90.05837483356689",
    "latitude": "29.97008360145811",
    "geocoded_column": {
      "latitude": "29.97008360145811",
      "longitude": "-90.05837483356689"
    }
  },
  {
    "service_request": "2026-1287025",
    "request_type": "Trash/Recycling",
    "request_reason": "Illegal Dumping",
    "date_created": "2026-06-02T22:48:25.000",
    "date_modified": "2026-06-02T22:48:28.000",
    "request_status": "Pending",
    "responsible_agency": "Department of Sanitation",
    "final_address": "3007 St Claude Ave",
    "address_councildis": "C",
    "status": "Pending",
    "rowid": "1287025",
    "final_x": "3688551.57257",
    "final_y": "536317.070983",
    "longitude": "-90.04563383146048",
    "latitude": "29.968469974560218",
    "geocoded_column": {
      "latitude": "29.968469974560218",
      "longitude": "-90.04563383146048"
    }
  },
  {
    "service_request": "2026-1287024",
    "request_type": "Abandoned Vehicles",
    "request_reason": "Abandoned/Junk Vehicles",
    "date_created": "2026-06-02T22:35:45.000",
    "date_modified": "2026-06-02T22:35:47.000",
    "request_status": "Pending",
    "responsible_agency": "Department of Public Works",
    "final_address": "0 BLK Bienville St",
    "address_councildis": "C",
    "status": "Pending",
    "rowid": "1287024",
    "final_x": "3682796.7971",
    "final_y": "530442.12099",
    "longitude": "-90.06401321104035",
    "latitude": "29.95249244398008",
    "geocoded_column": {
      "latitude": "29.95249244398008",
      "longitude": "-90.06401321104035"
    }
  },
  {
    "service_request": "2026-1287023",
    "request_type": "Trash/Recycling",
    "request_reason": "Order Trash Cart",
    "date_created": "2026-06-02T22:30:29.000",
    "date_modified": "2026-06-02T22:30:31.000",
    "request_status": "Pending",
    "responsible_agency": "Department of Sanitation",
    "final_address": "917 Dumaine St",
    "address_councildis": "C",
    "status": "Assigned to Contractor",
    "contractor": "IV Waste",
    "rowid": "1287023",
    "final_x": "3682339.55554",
    "final_y": "533590.571653",
    "longitude": "-90.06534695924431",
    "latitude": "29.961163531429314",
    "geocoded_column": {
      "latitude": "29.961163531429314",
      "longitude": "-90.06534695924431"
    }
  },
  {
    "service_request": "2026-1287022",
    "request_type": "Streetlights",
    "request_reason": "Streetlight Outage/Malfunction",
    "date_created": "2026-06-02T22:02:17.000",
    "date_modified": "2026-06-02T22:02:18.000",
    "request_status": "Pending",
    "responsible_agency": "Department of Public Works",
    "final_address": "5950 Chef Menteur Hwy",
    "address_councildis": "E",
    "status": "Pending",
    "rowid": "1287022",
    "final_x": "3696520.0312",
    "final_y": "551430.003349",
    "longitude": "-90.0199221019063",
    "latitude": "30.00977638133447",
    "geocoded_column": {
      "latitude": "30.00977638133447",
      "longitude": "-90.0199221019063"
    }
  },
  {
    "service_request": "2026-1287021",
    "request_type": "Roads and Streets",
    "request_reason": "Sidewalk Damaged or Missing",
    "date_created": "2026-06-02T21:52:18.000",
    "date_modified": "2026-06-02T21:52:20.000",
    "request_status": "Pending",
    "responsible_agency": "Department of Public Works",
    "final_address": "2323 Filmore Ave",
    "address_councildis": "D",
    "status": "Pending",
    "rowid": "1287021",
    "final_x": "3684630.42613",
    "final_y": "552543.253782",
    "longitude": "-90.0574463999321",
    "latitude": "30.01320678639251",
    "geocoded_column": {
      "latitude": "30.01320678639251",
      "longitude": "-90.0574463999321"
    }
  },
  {
    "service_request": "2026-1287020",
    "request_type": "Streetlights",
    "request_reason": "Streetlight Outage/Malfunction",
    "date_created": "2026-06-02T21:40:44.000",
    "date_modified": "2026-06-02T21:40:47.000",
    "request_status": "Pending",
    "responsible_agency": "Department of Public Works",
    "final_address": "3427 Timber Ridge Ct",
    "address_councildis": "C",
    "status": "Pending",
    "rowid": "1287020",
    "final_x": "3704293.90346",
    "final_y": "511571.15416",
    "longitude": "-89.99683066120143",
    "latitude": "29.899931544671418",
    "geocoded_column": {
      "latitude": "29.899931544671418",
      "longitude": "-89.99683066120143"
    }
  },
  {
    "service_request": "2026-1287019",
    "request_type": "Roads and Streets",
    "request_reason": "Street Subsidence (Sinking)",
    "date_created": "2026-06-02T21:19:06.000",
    "date_modified": "2026-06-02T21:19:08.000",
    "request_status": "Pending",
    "responsible_agency": "Sewerage & Water Board",
    "final_address": "4122 Cleveland Ave",
    "address_councildis": "A",
    "status": "Pending",
    "rowid": "1287019",
    "final_x": "3670615.50587",
    "final_y": "538125.373513",
    "longitude": "-90.10221562578894",
    "latitude": "29.97398424633949",
    "geocoded_column": {
      "latitude": "29.97398424633949",
      "longitude": "-90.10221562578894"
    }
  },
  {
    "service_request": "2026-1287018",
    "request_type": "Trash/Recycling",
    "request_reason": "Request a Large Item Pick Up",
    "date_created": "2026-06-02T21:11:08.000",
    "date_modified": "2026-06-02T21:11:10.000",
    "request_status": "Pending",
    "responsible_agency": "Department of Sanitation",
    "final_address": "316 N Anthony St",
    "address_councildis": "A",
    "status": "Assigned to Contractor",
    "contractor": "IV Waste",
    "rowid": "1287018",
    "final_x": "3669199.76846",
    "final_y": "541007.362059",
    "longitude": "-90.10658941007893",
    "latitude": "29.981950490504868",
    "geocoded_column": {
      "latitude": "29.981950490504868",
      "longitude": "-90.10658941007893"
    }
  },
  {
    "service_request": "2026-1287017",
    "request_type": "Trash/Recycling",
    "request_reason": "Order Trash Cart",
    "date_created": "2026-06-02T21:07:01.000",
    "date_modified": "2026-06-02T21:07:03.000",
    "request_status": "Pending",
    "responsible_agency": "Department of Sanitation",
    "final_address": "0 BLK Saint Bernard Ave",
    "address_councildis": "D",
    "status": "Assigned to Contractor",
    "contractor": "IV Waste",
    "rowid": "1287017",
    "final_x": "3676861.2719",
    "final_y": "555137.490234",
    "longitude": "-90.08190328667466",
    "latitude": "30.02057558234927",
    "geocoded_column": {
      "latitude": "30.02057558234927",
      "longitude": "-90.08190328667466"
    }
  },
  {
    "service_request": "2026-1287016",
    "request_type": "Streetlights",
    "request_reason": "Streetlight Outage/Malfunction",
    "date_created": "2026-06-02T20:56:56.000",
    "date_modified": "2026-06-02T20:56:59.000",
    "request_status": "Pending",
    "responsible_agency": "Department of Public Works",
    "final_address": "0 BLK Saint Bernard Ave",
    "address_councildis": "D",
    "status": "Pending",
    "rowid": "1287016",
    "final_x": "3676861.2719",
    "final_y": "555137.490234",
    "longitude": "-90.08190328667466",
    "latitude": "30.02057558234927",
    "geocoded_column": {
      "latitude": "30.02057558234927",
      "longitude": "-90.08190328667466"
    }
  },
  {
    "service_request": "2026-1287015",
    "request_type": "Trash/Recycling",
    "request_reason": "Request a Large Item Pick Up",
    "date_created": "2026-06-02T20:41:24.000",
    "date_modified": "2026-06-02T20:41:26.000",
    "request_status": "Pending",
    "responsible_agency": "Department of Sanitation",
    "final_address": "7010 Pritchard Pl",
    "address_councildis": "B",
    "status": "Assigned to Contractor",
    "contractor": "IV Waste",
    "rowid": "1287015",
    "final_x": "3667912.05901",
    "final_y": "531120.029058",
    "longitude": "-90.110989764648",
    "latitude": "29.95480146137309",
    "geocoded_column": {
      "latitude": "29.95480146137309",
      "longitude": "-90.110989764648"
    }
  },
  {
    "service_request": "2026-1287014",
    "request_type": "Trash/Recycling",
    "request_reason": "Request a Large Item Pick Up",
    "date_created": "2026-06-02T20:39:03.000",
    "date_modified": "2026-06-02T20:39:04.000",
    "request_status": "Pending",
    "responsible_agency": "Department of Sanitation",
    "final_address": "4734 Knight Dr",
    "address_councildis": "E",
    "status": "Assigned to Contractor",
    "contractor": "Waste Pro",
    "rowid": "1287014",
    "final_x": "3708066.25566",
    "final_y": "555496.059737",
    "longitude": "-89.98329241774074",
    "latitude": "30.0205875039124",
    "geocoded_column": {
      "latitude": "30.0205875039124",
      "longitude": "-89.98329241774074"
    }
  },
  {
    "service_request": "2026-1287013",
    "request_type": "Property Maintenance",
    "request_reason": "Property Maintenance",
    "date_created": "2026-06-02T20:31:11.000",
    "date_modified": "2026-06-02T20:31:14.000",
    "request_status": "Pending",
    "responsible_agency": "Department of Code Enforcement",
    "final_address": "7025 Louisville St",
    "address_councildis": "A",
    "status": "Pending",
    "rowid": "1287013",
    "final_x": "3668472.8219",
    "final_y": "554255.635288",
    "longitude": "-90.10843814770679",
    "latitude": "30.018400032993522",
    "geocoded_column": {
      "latitude": "30.018400032993522",
      "longitude": "-90.10843814770679"
    }
  },
  {
    "service_request": "2026-1287012",
    "request_type": "Tree Service",
    "request_reason": "Tree Trim",
    "date_created": "2026-06-02T20:20:14.000",
    "date_modified": "2026-06-02T20:20:18.000",
    "request_status": "Pending",
    "responsible_agency": "Department of Parks & Parkways",
    "final_address": "5521 Norgate Dr, New Orleans, Louisiana, 70127",
    "address_councildis": "E",
    "status": "Pending",
    "rowid": "1287012",
    "final_x": "3707233.3628",
    "final_y": "558000.624091",
    "longitude": "-89.98583102272653",
    "latitude": "30.02750103655683",
    "geocoded_column": {
      "latitude": "30.02750103655683",
      "longitude": "-89.98583102272653"
    }
  },
  {
    "service_request": "2026-1287011",
    "request_type": "Trash/Recycling",
    "request_reason": "Request a Large Item Pick Up",
    "date_created": "2026-06-02T20:10:21.000",
    "date_modified": "2026-06-02T20:10:22.000",
    "request_status": "Pending",
    "responsible_agency": "Department of Sanitation",
    "final_address": "2568 Gladiolus St",
    "address_councildis": "D",
    "status": "Assigned to Contractor",
    "contractor": "IV Waste",
    "rowid": "1287011",
    "final_x": "3686862.16175",
    "final_y": "547458.797201",
    "longitude": "-90.05057515810041",
    "latitude": "29.999157864060315",
    "geocoded_column": {
      "latitude": "29.999157864060315",
      "longitude": "-90.05057515810041"
    }
  },
  {
    "service_request": "2026-1287010",
    "request_type": "Roads and Streets",
    "request_reason": "Debris in Driving Lanes",
    "date_created": "2026-06-02T20:08:47.000",
    "date_modified": "2026-06-02T20:08:49.000",
    "request_status": "Pending",
    "responsible_agency": "Department of Public Works",
    "final_address": "6560 Argonne Blvd",
    "address_councildis": "A",
    "status": "Pending",
    "rowid": "1287010",
    "final_x": "3670456.51067",
    "final_y": "551112.412501",
    "longitude": "-90.10227710595206",
    "latitude": "30.009698825857654",
    "geocoded_column": {
      "latitude": "30.009698825857654",
      "longitude": "-90.10227710595206"
    }
  },
  {
    "service_request": "2026-1287009",
    "request_type": "Trash/Recycling",
    "request_reason": "Request a Large Item Pick Up",
    "date_created": "2026-06-02T19:55:10.000",
    "date_modified": "2026-06-02T19:55:13.000",
    "request_status": "Pending",
    "responsible_agency": "Department of Sanitation",
    "final_address": "4651 Redwood St",
    "address_councildis": "E",
    "status": "Assigned to Contractor",
    "contractor": "Waste Pro",
    "rowid": "1287009",
    "final_x": "3712618.44146",
    "final_y": "555639.332505",
    "longitude": "-89.96890363358371",
    "latitude": "30.02083318774883",
    "geocoded_column": {
      "latitude": "30.02083318774883",
      "longitude": "-89.96890363358371"
    }
  },
  {
    "service_request": "2026-1287008",
    "request_type": "Roads and Streets",
    "request_reason": "Road Shoulder Damage",
    "date_created": "2026-06-02T19:44:23.000",
    "date_modified": "2026-06-02T19:44:25.000",
    "request_status": "Pending",
    "responsible_agency": "Department of Public Works",
    "final_address": "6800 BLK Argonne Blvd",
    "address_councildis": "A",
    "status": "Pending",
    "rowid": "1287008",
    "final_x": "3670654.3496",
    "final_y": "552850.915739",
    "longitude": "-90.1015930176261",
    "latitude": "30.014473249893832",
    "geocoded_column": {
      "latitude": "30.014473249893832",
      "longitude": "-90.1015930176261"
    }
  },
  {
    "service_request": "2026-1287007",
    "request_type": "Trash/Recycling",
    "request_reason": "Request a Large Item Pick Up",
    "date_created": "2026-06-02T19:43:17.000",
    "date_modified": "2026-06-02T19:43:19.000",
    "request_status": "Pending",
    "responsible_agency": "Department of Sanitation",
    "final_address": "2819 Calhoun St",
    "address_councildis": "A",
    "status": "Assigned to Contractor",
    "contractor": "IV Waste",
    "rowid": "1287007",
    "final_x": "3666710.54029",
    "final_y": "527068.195006",
    "longitude": "-90.11491976079849",
    "latitude": "29.943695421686844",
    "geocoded_column": {
      "latitude": "29.943695421686844",
      "longitude": "-90.11491976079849"
    }
  },
  {
    "service_request": "2026-1287006",
    "request_type": "Trash/Recycling",
    "request_reason": "Repair Trash Cart",
    "date_created": "2026-06-02T19:41:03.000",
    "date_modified": "2026-06-02T19:41:04.000",
    "request_status": "Pending",
    "responsible_agency": "Department of Sanitation",
    "final_address": "3419 Milan St",
    "address_councildis": "B",
    "status": "Assigned to Contractor",
    "contractor": "IV Waste",
    "rowid": "1287006",
    "final_x": "3670991.63291",
    "final_y": "527465.237375",
    "longitude": "-90.10138969924257",
    "latitude": "29.94466129282899",
    "geocoded_column": {
      "latitude": "29.94466129282899",
      "longitude": "-90.10138969924257"
    }
  },
  {
    "service_request": "2026-1287005",
    "request_type": "Tree Service",
    "request_reason": "Blocking Stop Sign or Traffic Signal",
    "date_created": "2026-06-02T19:38:51.000",
    "date_modified": "2026-06-02T19:38:55.000",
    "request_status": "Pending",
    "responsible_agency": "Department of Parks & Parkways",
    "final_address": "1500 BLK Burbank Dr",
    "address_councildis": "D",
    "status": "Pending",
    "rowid": "1287005",
    "final_x": "3678634.94027",
    "final_y": "554345.850742",
    "longitude": "-90.07632646511024",
    "latitude": "30.018345478222933",
    "geocoded_column": {
      "latitude": "30.018345478222933",
      "longitude": "-90.07632646511024"
    }
  },
  {
    "service_request": "2026-1287004",
    "request_type": "Mosquito, Termite & Rodent Control",
    "request_reason": "Mosquito Complaint",
    "date_created": "2026-06-02T19:30:31.000",
    "date_modified": "2026-06-02T19:30:33.000",
    "request_status": "Pending",
    "responsible_agency": "Mosquito, Termite & Rodent Control Board",
    "final_address": "5948 Orleans Ave",
    "address_councildis": "A",
    "status": "Pending",
    "rowid": "1287004",
    "final_x": "3670812.84833",
    "final_y": "546813.638097",
    "longitude": "-90.10129733587083",
    "latitude": "29.997868168193477",
    "geocoded_column": {
      "latitude": "29.997868168193477",
      "longitude": "-90.10129733587083"
    }
  },
  {
    "service_request": "2026-1287003",
    "request_type": "Trash/Recycling",
    "request_reason": "Request a Large Item Pick Up",
    "date_created": "2026-06-02T19:27:25.000",
    "date_modified": "2026-06-02T19:27:27.000",
    "request_status": "Pending",
    "responsible_agency": "Department of Sanitation",
    "final_address": "2126 Fourth St",
    "address_councildis": "B",
    "status": "Assigned to Contractor",
    "contractor": "IV Waste",
    "rowid": "1287003",
    "final_x": "3675056.74901",
    "final_y": "524359.417212",
    "longitude": "-90.08866142159812",
    "latitude": "29.936000503447055",
    "geocoded_column": {
      "latitude": "29.936000503447055",
      "longitude": "-90.08866142159812"
    }
  },
  {
    "service_request": "2026-1287002",
    "request_type": "Street and Traffic Signs",
    "request_reason": "Street Name Sign Damaged or Missing",
    "date_created": "2026-06-02T19:19:41.000",
    "date_modified": "2026-06-02T19:19:42.000",
    "request_status": "Pending",
    "responsible_agency": "Department of Public Works",
    "final_address": "MUSIC ST & GENTILLY BLVD",
    "address_councildis": "D",
    "status": "Pending",
    "rowid": "1287002",
    "final_x": "3685773.98",
    "final_y": "548782.85",
    "longitude": "-90.05396604003333",
    "latitude": "30.002831982821473",
    "geocoded_column": {
      "latitude": "30.002831982821473",
      "longitude": "-90.05396604003333"
    }
  },
  {
    "service_request": "2026-1287001",
    "request_type": "Abandoned Vehicles",
    "request_reason": "Abandoned/Junk Vehicles",
    "date_created": "2026-06-02T19:16:40.000",
    "date_modified": "2026-06-02T19:16:42.000",
    "request_status": "Pending",
    "responsible_agency": "Department of Public Works",
    "final_address": "7640 Wave Dr",
    "address_councildis": "E",
    "status": "Pending",
    "rowid": "1287001",
    "final_x": "3714859.86168",
    "final_y": "568791.393189",
    "longitude": "-89.96132388849547",
    "latitude": "30.056922474530406",
    "geocoded_column": {
      "latitude": "30.056922474530406",
      "longitude": "-89.96132388849547"
    }
  },
  {
    "service_request": "2026-1287000",
    "request_type": "Trash/Recycling",
    "request_reason": "Replace Trash Cart",
    "date_created": "2026-06-02T19:13:07.000",
    "date_modified": "2026-06-02T19:13:09.000",
    "request_status": "Pending",
    "responsible_agency": "Department of Sanitation",
    "final_address": "1731 Frenchmen St",
    "address_councildis": "C",
    "status": "Assigned to Contractor",
    "contractor": "IV Waste",
    "rowid": "1287000",
    "final_x": "3684427.32687",
    "final_y": "538747.106761",
    "longitude": "-90.05857301073762",
    "latitude": "29.97527852507879",
    "geocoded_column": {
      "latitude": "29.97527852507879",
      "longitude": "-90.05857301073762"
    }
  },
  {
    "service_request": "2026-1286999",
    "request_type": "Trash/Recycling",
    "request_reason": "Request a Large Item Pick Up",
    "date_created": "2026-06-02T19:11:06.000",
    "date_modified": "2026-06-02T19:11:09.000",
    "request_status": "Pending",
    "responsible_agency": "Department of Sanitation",
    "final_address": "7670 Wave Dr",
    "address_councildis": "E",
    "status": "Assigned to Contractor",
    "contractor": "Waste Pro",
    "rowid": "1286999",
    "final_x": "3714751.31736",
    "final_y": "568938.468069",
    "longitude": "-89.96166141218586",
    "latitude": "30.057330443136838",
    "geocoded_column": {
      "latitude": "30.057330443136838",
      "longitude": "-89.96166141218586"
    }
  },
  {
    "service_request": "2026-1286998",
    "request_type": "Trash/Recycling",
    "request_reason": "Dead Animal Pick Up",
    "date_created": "2026-06-02T18:59:46.000",
    "date_modified": "2026-06-02T18:59:47.000",
    "request_status": "Pending",
    "responsible_agency": "Department of Sanitation",
    "final_address": "2539 Ramsey Dr",
    "address_councildis": "C",
    "status": "Assigned to Contractor",
    "contractor": "Richards Disposal",
    "rowid": "1286998",
    "final_x": "3703076.97431",
    "final_y": "521602.270457",
    "longitude": "-90.00030283247571",
    "latitude": "29.927552653485606",
    "geocoded_column": {
      "latitude": "29.927552653485606",
      "longitude": "-90.00030283247571"
    }
  },
  {
    "service_request": "2026-1286997",
    "request_type": "Property Maintenance",
    "request_reason": "Property Maintenance",
    "date_created": "2026-06-02T18:54:52.000",
    "date_modified": "2026-06-02T18:54:54.000",
    "request_status": "Pending",
    "responsible_agency": "Department of Code Enforcement",
    "final_address": "1600 Piety St",
    "address_councildis": "D",
    "status": "Pending",
    "rowid": "1286997",
    "final_x": "3690295.15081",
    "final_y": "537788.488136",
    "longitude": "-90.04007509575763",
    "latitude": "29.972461860272034",
    "geocoded_column": {
      "latitude": "29.972461860272034",
      "longitude": "-90.04007509575763"
    }
  },
  {
    "service_request": "2026-1286996",
    "request_type": "Tree Service",
    "request_reason": "Tree Trim",
    "date_created": "2026-06-02T18:54:36.000",
    "date_modified": "2026-06-02T18:54:37.000",
    "request_status": "Pending",
    "responsible_agency": "Department of Parks & Parkways",
    "final_address": "2536 Myrtle St",
    "address_councildis": "D",
    "status": "Pending",
    "rowid": "1286996",
    "final_x": "3686862.30185",
    "final_y": "546001.839376",
    "longitude": "-90.05062623870147",
    "latitude": "29.995151750668743",
    "geocoded_column": {
      "latitude": "29.995151750668743",
      "longitude": "-90.05062623870147"
    }
  },
  {
    "service_request": "2026-1286995",
    "request_type": "Abandoned Vehicles",
    "request_reason": "Abandoned/Junk Vehicles",
    "date_created": "2026-06-02T18:53:45.000",
    "date_modified": "2026-06-02T18:53:46.000",
    "request_status": "Pending",
    "responsible_agency": "Department of Public Works",
    "final_address": "605 Ninth St",
    "address_councildis": "B",
    "status": "Pending",
    "rowid": "1286995",
    "final_x": "3676853.92104",
    "final_y": "518612.842807",
    "longitude": "-90.08318563939218",
    "latitude": "29.920145490672436",
    "geocoded_column": {
      "latitude": "29.920145490672436",
      "longitude": "-90.08318563939218"
    }
  },
  {
    "service_request": "2026-1286994",
    "request_type": "Property Maintenance",
    "request_reason": "Property Maintenance",
    "date_created": "2026-06-02T18:53:23.000",
    "date_modified": "2026-06-02T18:53:24.000",
    "request_status": "Pending",
    "responsible_agency": "Department of Code Enforcement",
    "final_address": "3229 N Claiborne Ave",
    "address_councildis": "D",
    "status": "Pending",
    "rowid": "1286994",
    "final_x": "3690229.63696",
    "final_y": "537714.372744",
    "longitude": "-90.04028464078587",
    "latitude": "29.97226010211065",
    "geocoded_column": {
      "latitude": "29.97226010211065",
      "longitude": "-90.04028464078587"
    }
  },
  {
    "service_request": "2026-1286993",
    "request_type": "Parks & Grass Service",
    "request_reason": "Request Grass Cutting Service (City Owned Property)",
    "date_created": "2026-06-02T18:53:02.000",
    "date_modified": "2026-06-02T18:53:03.000",
    "request_status": "Pending",
    "responsible_agency": "Department of Parks & Parkways",
    "final_address": "4937 Kendall Dr",
    "address_councildis": "D",
    "status": "Pending",
    "rowid": "1286993",
    "final_x": "3690332.32912",
    "final_y": "551729.736853",
    "longitude": "-90.03946051032673",
    "latitude": "30.010794107509035",
    "geocoded_column": {
      "latitude": "30.010794107509035",
      "longitude": "-90.03946051032673"
    }
  },
  {
    "service_request": "2026-1286992",
    "request_type": "Property Maintenance",
    "request_reason": "Property Maintenance",
    "date_created": "2026-06-02T18:51:43.000",
    "date_modified": "2026-06-02T18:51:44.000",
    "request_status": "Pending",
    "responsible_agency": "Department of Code Enforcement",
    "final_address": "1540 Piety St",
    "address_councildis": "D",
    "status": "Pending",
    "rowid": "1286992",
    "final_x": "3690253.92284",
    "final_y": "537621.487304",
    "longitude": "-90.04021125263198",
    "latitude": "29.972003946347012",
    "geocoded_column": {
      "latitude": "29.972003946347012",
      "longitude": "-90.04021125263198"
    }
  },
  {
    "service_request": "2026-1286991",
    "request_type": "Parks & Grass Service",
    "request_reason": "Request Grass Cutting Service (City Owned Property)",
    "date_created": "2026-06-02T18:48:23.000",
    "date_modified": "2026-06-02T18:48:24.000",
    "request_status": "Pending",
    "responsible_agency": "Department of Parks & Parkways",
    "final_address": "5142 Piety Dr",
    "address_councildis": "D",
    "status": "Pending",
    "rowid": "1286991",
    "final_x": "3691082.45475",
    "final_y": "552926.712855",
    "longitude": "-90.03704779677597",
    "latitude": "30.014062036450692",
    "geocoded_column": {
      "latitude": "30.014062036450692",
      "longitude": "-90.03704779677597"
    }
  },
  {
    "service_request": "2026-1286990",
    "request_type": "Roads and Streets",
    "request_reason": "Pothole",
    "date_created": "2026-06-02T18:47:50.000",
    "date_modified": "2026-06-02T18:47:51.000",
    "request_status": "Pending",
    "responsible_agency": "Department of Public Works",
    "final_address": "4963 Kendall Dr",
    "address_councildis": "D",
    "status": "Pending",
    "rowid": "1286990",
    "final_x": "3690302.31318",
    "final_y": "551917.096662",
    "longitude": "-90.03954865837888",
    "latitude": "30.011310209744813",
    "geocoded_column": {
      "latitude": "30.011310209744813",
      "longitude": "-90.03954865837888"
    }
  },
  {
    "service_request": "2026-1286989",
    "request_type": "Property Maintenance",
    "request_reason": "Property Maintenance",
    "date_created": "2026-06-02T18:45:29.000",
    "date_modified": "2026-06-02T18:45:31.000",
    "request_status": "Pending",
    "responsible_agency": "Department of Code Enforcement",
    "final_address": "1534 Piety St",
    "address_councildis": "D",
    "status": "Pending",
    "rowid": "1286989",
    "final_x": "3690246.77187",
    "final_y": "537568.877704",
    "longitude": "-90.04023571150044",
    "latitude": "29.971859510411257",
    "geocoded_column": {
      "latitude": "29.971859510411257",
      "longitude": "-90.04023571150044"
    }
  },
  {
    "service_request": "2026-1286988",
    "request_type": "Trash/Recycling",
    "request_reason": "Return Trash Cart",
    "date_created": "2026-06-02T18:42:09.000",
    "date_modified": "2026-06-02T18:42:11.000",
    "request_status": "Pending",
    "responsible_agency": "Department of Sanitation",
    "final_address": "3926 Camp St",
    "address_councildis": "B",
    "status": "Assigned to Contractor",
    "contractor": "IV Waste",
    "rowid": "1286988",
    "final_x": "3672778.66593",
    "final_y": "519275.726647",
    "longitude": "-90.09602670135911",
    "latitude": "29.922089837612127",
    "geocoded_column": {
      "latitude": "29.922089837612127",
      "longitude": "-90.09602670135911"
    }
  },
  {
    "service_request": "2026-1286987",
    "request_type": "Trash/Recycling",
    "request_reason": "Request a Large Item Pick Up",
    "date_created": "2026-06-02T18:40:33.000",
    "date_modified": "2026-06-02T18:40:35.000",
    "request_status": "Pending",
    "responsible_agency": "Department of Sanitation",
    "final_address": "3550 Rue Denise",
    "address_councildis": "C",
    "status": "Assigned to Contractor",
    "contractor": "Richards Disposal",
    "rowid": "1286987",
    "final_x": "3704326.07697",
    "final_y": "517483.896182",
    "longitude": "-89.996511426371",
    "latitude": "29.916188534216356",
    "geocoded_column": {
      "latitude": "29.916188534216356",
      "longitude": "-89.996511426371"
    }
  },
  {
    "service_request": "2026-1286986",
    "request_type": "Trash/Recycling",
    "request_reason": "MIssed Recycling Pick-Up",
    "date_created": "2026-06-02T18:37:24.000",
    "date_modified": "2026-06-02T18:37:26.000",
    "request_status": "Pending",
    "responsible_agency": "Department of Sanitation",
    "final_address": "1128 City Park Ave",
    "address_councildis": "A",
    "status": "Assigned to Contractor",
    "contractor": "IV Waste",
    "rowid": "1286986",
    "final_x": "3673266.73947",
    "final_y": "541458.925324",
    "longitude": "-90.09372852236545",
    "latitude": "29.983071784436344",
    "geocoded_column": {
      "latitude": "29.983071784436344",
      "longitude": "-90.09372852236545"
    }
  },
  {
    "service_request": "2026-1286985",
    "request_type": "General Services",
    "request_reason": "General Service Request",
    "date_created": "2026-06-02T18:36:37.000",
    "date_modified": "2026-06-02T18:36:39.000",
    "request_status": "Pending",
    "responsible_agency": "Orleans Parish Communication District",
    "final_address": "2114 Josephine St",
    "address_councildis": "B",
    "status": "Pending",
    "rowid": "1286985",
    "final_x": "3676652.72891",
    "final_y": "525533.816253",
    "longitude": "-90.08358243391223",
    "latitude": "29.9391819494385",
    "geocoded_column": {
      "latitude": "29.9391819494385",
      "longitude": "-90.08358243391223"
    }
  },
  {
    "service_request": "2026-1286984",
    "request_type": "Property Maintenance",
    "request_reason": "Property Maintenance",
    "date_created": "2026-06-02T18:35:43.000",
    "date_modified": "2026-06-02T18:35:44.000",
    "request_status": "Pending",
    "responsible_agency": "Department of Code Enforcement",
    "final_address": "4221 N Claiborne Ave",
    "address_councildis": "D",
    "status": "Pending",
    "rowid": "1286984",
    "final_x": "3693040.39005",
    "final_y": "537019.36276",
    "longitude": "-90.03143278029604",
    "latitude": "29.970261557003475",
    "geocoded_column": {
      "latitude": "29.970261557003475",
      "longitude": "-90.03143278029604"
    }
  },
  {
    "service_request": "2026-1286983",
    "request_type": "Trash/Recycling",
    "request_reason": "Illegal Dumping",
    "date_created": "2026-06-02T18:31:33.000",
    "date_modified": "2026-06-02T18:31:36.000",
    "request_status": "Pending",
    "responsible_agency": "Department of Sanitation",
    "final_address": "4221 N Claiborne Ave",
    "address_councildis": "D",
    "status": "Pending",
    "rowid": "1286983",
    "final_x": "3693040.39005",
    "final_y": "537019.36276",
    "longitude": "-90.03143278029604",
    "latitude": "29.970261557003475",
    "geocoded_column": {
      "latitude": "29.970261557003475",
      "longitude": "-90.03143278029604"
    }
  },
  {
    "service_request": "2026-1286982",
    "request_type": "Abandoned Vehicles",
    "request_reason": "Abandoned/Junk Vehicles",
    "date_created": "2026-06-02T18:21:52.000",
    "date_modified": "2026-06-02T18:21:54.000",
    "request_status": "Pending",
    "responsible_agency": "Department of Public Works",
    "final_address": "2600 Third St",
    "address_councildis": "B",
    "status": "Pending",
    "rowid": "1286982",
    "final_x": "3674396.17211",
    "final_y": "525903.985533",
    "longitude": "-90.09069399940769",
    "latitude": "29.94026727559292",
    "geocoded_column": {
      "latitude": "29.94026727559292",
      "longitude": "-90.09069399940769"
    }
  },
  {
    "service_request": "2026-1286981",
    "request_type": "Trash/Recycling",
    "request_reason": "Request a Large Item Pick Up",
    "date_created": "2026-06-02T18:20:52.000",
    "date_modified": "2026-06-02T18:20:53.000",
    "request_status": "Pending",
    "responsible_agency": "Department of Sanitation",
    "final_address": "7531 Kingsport Blvd",
    "address_councildis": "E",
    "status": "Assigned to Contractor",
    "contractor": "Waste Pro",
    "rowid": "1286981",
    "final_x": "3720521.72044",
    "final_y": "572729.495145",
    "longitude": "-89.94327681721313",
    "latitude": "30.067562981599405",
    "geocoded_column": {
      "latitude": "30.067562981599405",
      "longitude": "-89.94327681721313"
    }
  },
  {
    "service_request": "2026-1286980",
    "request_type": "Trash/Recycling",
    "request_reason": "Request a Large Item Pick Up",
    "date_created": "2026-06-02T18:20:12.000",
    "date_modified": "2026-06-02T18:20:13.000",
    "request_status": "Pending",
    "responsible_agency": "Department of Sanitation",
    "final_address": "1105 First St",
    "address_councildis": "B",
    "status": "Assigned to Contractor",
    "contractor": "IV Waste",
    "rowid": "1286980",
    "final_x": "3678053.0763",
    "final_y": "521598.855545",
    "longitude": "-90.07929732435387",
    "latitude": "29.9283200274214",
    "geocoded_column": {
      "latitude": "29.9283200274214",
      "longitude": "-90.07929732435387"
    }
  },
  {
    "service_request": "2026-1286979",
    "request_type": "General Services",
    "request_reason": "General Service Request",
    "date_created": "2026-06-02T18:17:09.000",
    "date_modified": "2026-06-02T18:17:11.000",
    "request_status": "Pending",
    "responsible_agency": "Orleans Parish Communication District",
    "final_address": "62 Dove St",
    "address_councildis": "D",
    "status": "Pending",
    "rowid": "1286979",
    "final_x": "3673571.53998",
    "final_y": "555285.781657",
    "longitude": "-90.09229279688535",
    "latitude": "30.021081711403827",
    "geocoded_column": {
      "latitude": "30.021081711403827",
      "longitude": "-90.09229279688535"
    }
  },
  {
    "service_request": "2026-1286978",
    "request_type": "Trash/Recycling",
    "request_reason": "Replace Trash Cart",
    "date_created": "2026-06-02T18:09:06.000",
    "date_modified": "2026-06-02T18:09:08.000",
    "request_status": "Pending",
    "responsible_agency": "Department of Sanitation",
    "final_address": "4619 DHemecourt St",
    "address_councildis": "A",
    "status": "Assigned to Contractor",
    "contractor": "IV Waste",
    "rowid": "1286978",
    "final_x": "3668109.22439",
    "final_y": "538191.011081",
    "longitude": "-90.11012883991127",
    "latitude": "29.974238532609714",
    "geocoded_column": {
      "latitude": "29.974238532609714",
      "longitude": "-90.11012883991127"
    }
  },
  {
    "service_request": "2026-1286977",
    "request_type": "Trash/Recycling",
    "request_reason": "Request a Large Item Pick Up",
    "date_created": "2026-06-02T18:08:34.000",
    "date_modified": "2026-06-02T18:08:36.000",
    "request_status": "Pending",
    "responsible_agency": "Department of Sanitation",
    "final_address": "5230 Arts St",
    "address_councildis": "D",
    "status": "Assigned to Contractor",
    "contractor": "IV Waste",
    "rowid": "1286977",
    "final_x": "3685732.52662",
    "final_y": "552395.478678",
    "longitude": "-90.05396956969606",
    "latitude": "30.012766669827588",
    "geocoded_column": {
      "latitude": "30.012766669827588",
      "longitude": "-90.05396956969606"
    }
  },
  {
    "service_request": "2026-1286976",
    "request_type": "Mosquito, Termite & Rodent Control",
    "request_reason": "Mosquito Complaint",
    "date_created": "2026-06-02T18:05:05.000",
    "date_modified": "2026-06-02T18:05:06.000",
    "request_status": "Pending",
    "responsible_agency": "Mosquito, Termite & Rodent Control Board",
    "final_address": "431 Red Allen Way",
    "address_councildis": "C",
    "status": "Pending",
    "rowid": "1286976",
    "final_x": "3686787.38178",
    "final_y": "528658.614784",
    "longitude": "-90.05147578973634",
    "latitude": "29.94746625527619",
    "geocoded_column": {
      "latitude": "29.94746625527619",
      "longitude": "-90.05147578973634"
    }
  },
  {
    "service_request": "2026-1286975",
    "request_type": "Roads and Streets",
    "request_reason": "Sidewalk Damaged or Missing",
    "date_created": "2026-06-02T18:03:55.000",
    "date_modified": "2026-06-02T18:03:56.000",
    "request_status": "Pending",
    "responsible_agency": "Department of Public Works",
    "final_address": "9781 W Rockton Cir",
    "address_councildis": "E",
    "status": "Pending",
    "rowid": "1286975",
    "final_x": "3708225.08574",
    "final_y": "562794.716768",
    "longitude": "-89.98251869808557",
    "latitude": "30.040650792953492",
    "geocoded_column": {
      "latitude": "30.040650792953492",
      "longitude": "-89.98251869808557"
    }
  },
  {
    "service_request": "2026-1286974",
    "request_type": "Trash/Recycling",
    "request_reason": "Start Trash Service",
    "date_created": "2026-06-02T17:59:44.000",
    "date_modified": "2026-06-02T17:59:46.000",
    "request_status": "Pending",
    "responsible_agency": "Department of Sanitation",
    "final_address": "1428 Leonidas St",
    "address_councildis": "A",
    "status": "Assigned to Contractor",
    "contractor": "IV Waste",
    "rowid": "1286974",
    "final_x": "3661248.4585",
    "final_y": "530291.896705",
    "longitude": "-90.13205839542024",
    "latitude": "29.95271814183638",
    "geocoded_column": {
      "latitude": "29.95271814183638",
      "longitude": "-90.13205839542024"
    }
  },
  {
    "service_request": "2026-1286973",
    "request_type": "Streetlights",
    "request_reason": "Streetlight Outage/Malfunction",
    "date_created": "2026-06-02T17:55:37.000",
    "date_modified": "2026-06-02T17:55:38.000",
    "request_status": "Pending",
    "responsible_agency": "Department of Public Works",
    "final_address": "3629 Monroe St",
    "address_councildis": "A",
    "status": "Pending",
    "rowid": "1286973",
    "final_x": "3666351.77217",
    "final_y": "536276.566919",
    "longitude": "-90.11574355358185",
    "latitude": "29.969025918170598",
    "geocoded_column": {
      "latitude": "29.969025918170598",
      "longitude": "-90.11574355358185"
    }
  },
  {
    "service_request": "2026-1286972",
    "request_type": "Trash/Recycling",
    "request_reason": "Repair Trash Cart",
    "date_created": "2026-06-02T17:47:56.000",
    "date_modified": "2026-06-02T17:47:57.000",
    "request_status": "Pending",
    "responsible_agency": "Department of Sanitation",
    "final_address": "7510 Sardonyx St",
    "address_councildis": "D",
    "status": "Assigned to Contractor",
    "contractor": "IV Waste",
    "rowid": "1286972",
    "final_x": "3669579.63975",
    "final_y": "556418.730138",
    "longitude": "-90.10486772684513",
    "latitude": "30.024315193473782",
    "geocoded_column": {
      "latitude": "30.024315193473782",
      "longitude": "-90.10486772684513"
    }
  },
  {
    "service_request": "2026-1286971",
    "request_type": "Trash/Recycling",
    "request_reason": "Order Trash Cart",
    "date_created": "2026-06-02T17:39:46.000",
    "date_modified": "2026-06-02T17:39:48.000",
    "request_status": "Pending",
    "responsible_agency": "Department of Sanitation",
    "final_address": "7 Eagle Point Ln",
    "address_councildis": "C",
    "status": "Assigned to Contractor",
    "contractor": "Richards Disposal",
    "rowid": "1286971",
    "final_x": "3715295.73189",
    "final_y": "515031.745587",
    "longitude": "-89.96197987040412",
    "latitude": "29.909089525256693",
    "geocoded_column": {
      "latitude": "29.909089525256693",
      "longitude": "-89.96197987040412"
    }
  },
  {
    "service_request": "2026-1286970",
    "request_type": "Trash/Recycling",
    "request_reason": "Illegal Dumping",
    "date_created": "2026-06-02T17:37:01.000",
    "date_modified": "2026-06-02T17:37:03.000",
    "request_status": "Pending",
    "responsible_agency": "Department of Sanitation",
    "final_address": "1121 Kerlerec St",
    "address_councildis": "C",
    "status": "Pending",
    "rowid": "1286970",
    "final_x": "3682993.18076",
    "final_y": "535713.559879",
    "longitude": "-90.06320861968643",
    "latitude": "29.96698111497834",
    "geocoded_column": {
      "latitude": "29.96698111497834",
      "longitude": "-90.06320861968643"
    }
  },
  {
    "service_request": "2026-1286969",
    "request_type": "Drainage",
    "request_reason": "Catch Basin Not Draining",
    "date_created": "2026-06-02T17:32:47.000",
    "date_modified": "2026-06-02T17:32:49.000",
    "request_status": "Pending",
    "responsible_agency": "Sewerage & Water Board",
    "final_address": "1937 Cambronne St",
    "address_councildis": "A",
    "status": "Pending",
    "rowid": "1286969",
    "final_x": "3663056.25587",
    "final_y": "531113.905794",
    "longitude": "-90.12632281285",
    "latitude": "29.9549261639417",
    "geocoded_column": {
      "latitude": "29.9549261639417",
      "longitude": "-90.12632281285"
    }
  },
  {
    "service_request": "2026-1286968",
    "request_type": "Trash/Recycling",
    "request_reason": "Request a Large Item Pick Up",
    "date_created": "2026-06-02T17:29:23.000",
    "date_modified": "2026-06-02T17:29:25.000",
    "request_status": "Pending",
    "responsible_agency": "Department of Sanitation",
    "final_address": "1115 N Dupre St",
    "address_councildis": "A",
    "status": "Assigned to Contractor",
    "contractor": "IV Waste",
    "rowid": "1286968",
    "final_x": "3676839.22945",
    "final_y": "538995.914762",
    "longitude": "-90.0825296800699",
    "latitude": "29.976192601313173",
    "geocoded_column": {
      "latitude": "29.976192601313173",
      "longitude": "-90.0825296800699"
    }
  },
  {
    "service_request": "2026-1286966",
    "request_type": "Trash/Recycling",
    "request_reason": "Request a Large Item Pick Up",
    "date_created": "2026-06-02T17:26:29.000",
    "date_modified": "2026-06-02T17:26:31.000",
    "request_status": "Pending",
    "responsible_agency": "Department of Sanitation",
    "final_address": "6232 Waldo Dr",
    "address_councildis": "D",
    "status": "Assigned to Contractor",
    "contractor": "IV Waste",
    "rowid": "1286966",
    "final_x": "3681020.32571",
    "final_y": "555989.799449",
    "longitude": "-90.06873220808932",
    "latitude": "30.02279356802418",
    "geocoded_column": {
      "latitude": "30.02279356802418",
      "longitude": "-90.06873220808932"
    }
  },
  {
    "service_request": "2026-1286965",
    "request_type": "Roads and Streets",
    "request_reason": "Street Subsidence (Sinking)",
    "date_created": "2026-06-02T17:20:33.000",
    "date_modified": "2026-06-02T17:20:36.000",
    "request_status": "Pending",
    "responsible_agency": "Sewerage & Water Board",
    "final_address": "6113 Memphis St",
    "address_councildis": "A",
    "status": "Pending",
    "rowid": "1286965",
    "final_x": "3669311.34324",
    "final_y": "547994.896082",
    "longitude": "-90.10600060656694",
    "latitude": "30.00116052447728",
    "geocoded_column": {
      "latitude": "30.00116052447728",
      "longitude": "-90.10600060656694"
    }
  },
  {
    "service_request": "2026-1286964",
    "request_type": "City-Owned Cemeteries",
    "request_reason": "Property Maintenance",
    "date_created": "2026-06-02T17:20:04.000",
    "date_modified": "2026-06-02T17:20:05.000",
    "request_status": "Pending",
    "responsible_agency": "Department of Property Management",
    "final_address": "2100 BLK Washington Ave",
    "address_councildis": "B",
    "status": "Pending",
    "rowid": "1286964",
    "final_x": "3674836.65948",
    "final_y": "524168.359259",
    "longitude": "-90.0893627985647",
    "latitude": "29.93548172827004",
    "geocoded_column": {
      "latitude": "29.93548172827004",
      "longitude": "-90.0893627985647"
    }
  },
  {
    "service_request": "2026-1286963",
    "request_type": "Drainage",
    "request_reason": "Illegal Dumping (Sewer Odor)",
    "date_created": "2026-06-02T17:12:16.000",
    "date_modified": "2026-06-02T17:12:18.000",
    "request_status": "Pending",
    "responsible_agency": "Sewerage & Water Board",
    "final_address": "725 N Rendon St",
    "address_councildis": "A",
    "status": "Pending",
    "rowid": "1286963",
    "final_x": "3675053.2875",
    "final_y": "538429.177097",
    "longitude": "-90.08818966898437",
    "latitude": "29.974687751093512",
    "geocoded_column": {
      "latitude": "29.974687751093512",
      "longitude": "-90.08818966898437"
    }
  },
  {
    "service_request": "2026-1286962",
    "request_type": "Trash/Recycling",
    "request_reason": "Replace Trash Cart",
    "date_created": "2026-06-02T17:04:54.000",
    "date_modified": "2026-06-02T17:04:55.000",
    "request_status": "Pending",
    "responsible_agency": "Department of Sanitation",
    "final_address": "4758 Francis Dr",
    "address_councildis": "D",
    "status": "Assigned to Contractor",
    "contractor": "Waste Pro",
    "rowid": "1286962",
    "final_x": "3698183.4264",
    "final_y": "554517.313688",
    "longitude": "-90.01455461110969",
    "latitude": "30.018212789295934",
    "geocoded_column": {
      "latitude": "30.018212789295934",
      "longitude": "-90.01455461110969"
    }
  },
  {
    "service_request": "2026-1286961",
    "request_type": "Trash/Recycling",
    "request_reason": "Missed Trash Pick-Up",
    "date_created": "2026-06-02T17:01:11.000",
    "date_modified": "2026-06-02T17:01:13.000",
    "request_status": "Pending",
    "responsible_agency": "Department of Sanitation",
    "final_address": "8703 Dinkins St, New Orleans, Louisiana, 70127",
    "address_councildis": "E",
    "status": "Assigned to Contractor",
    "contractor": "Waste Pro",
    "rowid": "1286961",
    "final_x": "3704119.28836",
    "final_y": "563202.37904",
    "longitude": "-89.99547925645759",
    "latitude": "30.04190415300239",
    "geocoded_column": {
      "latitude": "30.04190415300239",
      "longitude": "-89.99547925645759"
    }
  },
  {
    "service_request": "2026-1286960",
    "request_type": "Trash/Recycling",
    "request_reason": "Request a Large Item Pick Up",
    "date_created": "2026-06-02T16:55:49.000",
    "date_modified": "2026-06-02T16:55:53.000",
    "request_status": "Pending",
    "responsible_agency": "Department of Sanitation",
    "final_address": "3040 Grand-Route St John St",
    "address_councildis": "D",
    "status": "Assigned to Contractor",
    "contractor": "IV Waste",
    "rowid": "1286960",
    "final_x": "3676844.49825",
    "final_y": "540252.861067",
    "longitude": "-90.08246970298514",
    "latitude": "29.9796486131005",
    "geocoded_column": {
      "latitude": "29.9796486131005",
      "longitude": "-90.08246970298514"
    }
  },
  {
    "service_request": "2026-1286959",
    "request_type": "Tree Service",
    "request_reason": "Tree Trim",
    "date_created": "2026-06-02T16:54:26.000",
    "date_modified": "2026-06-02T16:54:28.000",
    "request_status": "Pending",
    "responsible_agency": "Department of Parks & Parkways",
    "final_address": "6100 BLK N Robertson St",
    "address_councildis": "E",
    "status": "Pending",
    "rowid": "1286959",
    "final_x": "3700231.74812",
    "final_y": "534646.91573",
    "longitude": "-90.00880845682023",
    "latitude": "29.963511552384702",
    "geocoded_column": {
      "latitude": "29.963511552384702",
      "longitude": "-90.00880845682023"
    }
  },
  {
    "service_request": "2026-1286958",
    "request_type": "Parks & Grass Service",
    "request_reason": "Request Grass Cutting Service (City Owned Property)",
    "date_created": "2026-06-02T16:51:40.000",
    "date_modified": "2026-06-02T16:51:41.000",
    "request_status": "Pending",
    "responsible_agency": "Department of Parks & Parkways",
    "final_address": "4414 Ray Ave",
    "address_councildis": "E",
    "status": "Pending",
    "rowid": "1286958",
    "final_x": "3698860.92138",
    "final_y": "552609.319702",
    "longitude": "-90.01248348667475",
    "latitude": "30.01294507039856",
    "geocoded_column": {
      "latitude": "30.01294507039856",
      "longitude": "-90.01248348667475"
    }
  },
  {
    "service_request": "2026-1286957",
    "request_type": "Trash/Recycling",
    "request_reason": "Request a Large Item Pick Up",
    "date_created": "2026-06-02T16:49:57.000",
    "date_modified": "2026-06-02T16:50:00.000",
    "request_status": "Pending",
    "responsible_agency": "Department of Sanitation",
    "final_address": "11301 N Parkwood Ct",
    "address_councildis": "E",
    "status": "Assigned to Contractor",
    "contractor": "Waste Pro",
    "rowid": "1286957",
    "final_x": "3716721.29413",
    "final_y": "559448.085149",
    "longitude": "-89.95579528942235",
    "latitude": "30.031170765557768",
    "geocoded_column": {
      "latitude": "30.031170765557768",
      "longitude": "-89.95579528942235"
    }
  },
  {
    "service_request": "2026-1286956",
    "request_type": "Streetlights",
    "request_reason": "Streetlight Outage/Malfunction",
    "date_created": "2026-06-02T16:45:52.000",
    "date_modified": "2026-06-02T16:45:54.000",
    "request_status": "Pending",
    "responsible_agency": "Department of Public Works",
    "final_address": "N ROBERTSON ST & GALLIER ST",
    "address_councildis": "D",
    "status": "Pending",
    "rowid": "1286956",
    "final_x": "3690832.8",
    "final_y": "537131.18",
    "longitude": "-90.03840057060617",
    "latitude": "29.970637798680798",
    "geocoded_column": {
      "latitude": "29.970637798680798",
      "longitude": "-90.03840057060617"
    }
  },
  {
    "service_request": "2026-1286955",
    "request_type": "Trash/Recycling",
    "request_reason": "Order Recycling Cart",
    "date_created": "2026-06-02T16:43:26.000",
    "date_modified": "2026-06-02T16:43:28.000",
    "request_status": "Pending",
    "responsible_agency": "Department of Sanitation",
    "final_address": "2337 Magazine St",
    "address_councildis": "B",
    "status": "Pending",
    "rowid": "1286955",
    "final_x": "3678266.31278",
    "final_y": "521679.762105",
    "longitude": "-90.07862138673686",
    "latitude": "29.928536075390934",
    "geocoded_column": {
      "latitude": "29.928536075390934",
      "longitude": "-90.07862138673686"
    }
  },
  {
    "service_request": "2026-1286954",
    "request_type": "Traffic Safety",
    "request_reason": "Request for Traffic Calming due to Speeding",
    "date_created": "2026-06-02T16:37:32.000",
    "date_modified": "2026-06-02T16:37:34.000",
    "request_status": "Pending",
    "responsible_agency": "Department of Public Works",
    "final_address": "1227 Ursulines Ave",
    "address_councildis": "C",
    "status": "Pending",
    "rowid": "1286954",
    "final_x": "3681776.99106",
    "final_y": "534964.976518",
    "longitude": "-90.06707547251082",
    "latitude": "29.964959779993883",
    "geocoded_column": {
      "latitude": "29.964959779993883",
      "longitude": "-90.06707547251082"
    }
  },
  {
    "service_request": "2026-1286953",
    "request_type": "Roads and Streets",
    "request_reason": "Sidewalk Damaged or Missing",
    "date_created": "2026-06-02T16:27:28.000",
    "date_modified": "2026-06-02T16:27:30.000",
    "request_status": "Pending",
    "responsible_agency": "Department of Public Works",
    "final_address": "1719 N Claiborne Ave",
    "address_councildis": "C",
    "status": "Pending",
    "rowid": "1286953",
    "final_x": "3683180.66652",
    "final_y": "538045.392521",
    "longitude": "-90.06253486979291",
    "latitude": "29.973387131725676",
    "geocoded_column": {
      "latitude": "29.973387131725676",
      "longitude": "-90.06253486979291"
    }
  },
  {
    "service_request": "2026-1286952",
    "request_type": "Property Maintenance",
    "request_reason": "Property Maintenance",
    "date_created": "2026-06-02T16:24:49.000",
    "date_modified": "2026-06-02T16:24:50.000",
    "request_status": "Pending",
    "responsible_agency": "Department of Code Enforcement",
    "final_address": "2220 Forstall St",
    "address_councildis": "E",
    "status": "Pending",
    "rowid": "1286952",
    "final_x": "3697395.58967",
    "final_y": "538481.788873",
    "longitude": "-90.01762563893595",
    "latitude": "29.974145922018423",
    "geocoded_column": {
      "latitude": "29.974145922018423",
      "longitude": "-90.01762563893595"
    }
  },
  {
    "service_request": "2026-1286951",
    "request_type": "Trash/Recycling",
    "request_reason": "Request a Large Item Pick Up",
    "date_created": "2026-06-02T16:21:26.000",
    "date_modified": "2026-06-02T16:21:28.000",
    "request_status": "Pending",
    "responsible_agency": "Department of Sanitation",
    "final_address": "5800 W Deer Park Blvd",
    "address_councildis": "E",
    "status": "Assigned to Contractor",
    "contractor": "Waste Pro",
    "rowid": "1286951",
    "final_x": "3712323.7411",
    "final_y": "560773.631774",
    "longitude": "-89.96964171935002",
    "latitude": "30.034960123925604",
    "geocoded_column": {
      "latitude": "30.034960123925604",
      "longitude": "-89.96964171935002"
    }
  },
  {
    "service_request": "2026-1286950",
    "request_type": "Trash/Recycling",
    "request_reason": "Request a Large Item Pick Up",
    "date_created": "2026-06-02T16:17:17.000",
    "date_modified": "2026-06-02T16:17:18.000",
    "request_status": "Pending",
    "responsible_agency": "Department of Sanitation",
    "final_address": "90 Marywood Ct",
    "address_councildis": "E",
    "status": "Assigned to Contractor",
    "contractor": "Waste Pro",
    "rowid": "1286950",
    "final_x": "3712623.74437",
    "final_y": "566235.007267",
    "longitude": "-89.96848809808797",
    "latitude": "30.049966886542016",
    "geocoded_column": {
      "latitude": "30.049966886542016",
      "longitude": "-89.96848809808797"
    }
  },
  {
    "service_request": "2026-1286949",
    "request_type": "Roads and Streets",
    "request_reason": "Pothole",
    "date_created": "2026-06-02T16:16:14.000",
    "date_modified": "2026-06-02T16:16:16.000",
    "request_status": "Pending",
    "responsible_agency": "Department of Public Works",
    "final_address": "8016 Lady Gray St",
    "address_councildis": "E",
    "status": "Pending",
    "rowid": "1286949",
    "final_x": "3709128.64901",
    "final_y": "566575.663395",
    "longitude": "-89.97952198306058",
    "latitude": "30.051017559832406",
    "geocoded_column": {
      "latitude": "30.051017559832406",
      "longitude": "-89.97952198306058"
    }
  },
  {
    "service_request": "2026-1286948",
    "request_type": "Drainage",
    "request_reason": "Catch Basin Not Draining",
    "date_created": "2026-06-02T16:16:08.000",
    "date_modified": "2026-06-02T16:16:09.000",
    "request_status": "Pending",
    "responsible_agency": "Sewerage & Water Board",
    "final_address": "5061 St Ferdinand Dr",
    "address_councildis": "D",
    "status": "Pending",
    "rowid": "1286948",
    "final_x": "3689211.05801",
    "final_y": "551797.68911",
    "longitude": "-90.04300061524005",
    "latitude": "30.0110157175076",
    "geocoded_column": {
      "latitude": "30.0110157175076",
      "longitude": "-90.04300061524005"
    }
  },
  {
    "service_request": "2026-1286947",
    "request_type": "Streetlights",
    "request_reason": "Streetlight Outage/Malfunction",
    "date_created": "2026-06-02T16:14:58.000",
    "date_modified": "2026-06-02T16:14:59.000",
    "request_status": "Pending",
    "responsible_agency": "Department of Public Works",
    "final_address": "229 Roselyn Park Pl",
    "address_councildis": "C",
    "status": "Pending",
    "rowid": "1286947",
    "final_x": "3702579.99242",
    "final_y": "523361.064123",
    "longitude": "-90.00180715368867",
    "latitude": "29.93240461300605",
    "geocoded_column": {
      "latitude": "29.93240461300605",
      "longitude": "-90.00180715368867"
    }
  },
  {
    "service_request": "2026-1286946",
    "request_type": "Trash/Recycling",
    "request_reason": "Replace Trash Cart",
    "date_created": "2026-06-02T16:14:08.000",
    "date_modified": "2026-06-02T16:14:10.000",
    "request_status": "Pending",
    "responsible_agency": "Department of Sanitation",
    "final_address": "1208 Pine St",
    "address_councildis": "A",
    "status": "Assigned to Contractor",
    "contractor": "IV Waste",
    "rowid": "1286946",
    "final_x": "3663940.73946",
    "final_y": "526750.412222",
    "longitude": "-90.1236753920606",
    "latitude": "29.94290231424788",
    "geocoded_column": {
      "latitude": "29.94290231424788",
      "longitude": "-90.1236753920606"
    }
  },
  {
    "service_request": "2026-1286945",
    "request_type": "Trash/Recycling",
    "request_reason": "Request a Large Item Pick Up",
    "date_created": "2026-06-02T16:13:06.000",
    "date_modified": "2026-06-02T16:13:08.000",
    "request_status": "Pending",
    "responsible_agency": "Department of Sanitation",
    "final_address": "6262 Kuebel Dr",
    "address_councildis": "E",
    "status": "Assigned to Contractor",
    "contractor": "Waste Pro",
    "rowid": "1286945",
    "final_x": "3695973.75318",
    "final_y": "559963.297373",
    "longitude": "-90.02133929091868",
    "latitude": "30.03325691531223",
    "geocoded_column": {
      "latitude": "30.03325691531223",
      "longitude": "-90.02133929091868"
    }
  },
  {
    "service_request": "2026-1286944",
    "request_type": "Drainage",
    "request_reason": "Catch Basin Not Draining",
    "date_created": "2026-06-02T16:11:28.000",
    "date_modified": "2026-06-02T16:11:30.000",
    "request_status": "Pending",
    "responsible_agency": "Sewerage & Water Board",
    "final_address": "2438 Mistletoe St",
    "address_councildis": "A",
    "status": "Pending",
    "rowid": "1286944",
    "final_x": "3662198.73952",
    "final_y": "534452.080325",
    "longitude": "-90.12891974353794",
    "latitude": "29.96412986913469",
    "geocoded_column": {
      "latitude": "29.96412986913469",
      "longitude": "-90.12891974353794"
    }
  },
  {
    "service_request": "2026-1286943",
    "request_type": "Trash/Recycling",
    "request_reason": "Request a Large Item Pick Up",
    "date_created": "2026-06-02T16:11:04.000",
    "date_modified": "2026-06-02T16:11:10.000",
    "request_status": "Pending",
    "responsible_agency": "Department of Sanitation",
    "final_address": "6501 Avenue B",
    "address_councildis": "A",
    "status": "Assigned to Contractor",
    "contractor": "IV Waste",
    "rowid": "1286943",
    "final_x": "3665738.85447",
    "final_y": "551382.581205",
    "longitude": "-90.11717286121029",
    "latitude": "30.010580217888066",
    "geocoded_column": {
      "latitude": "30.010580217888066",
      "longitude": "-90.11717286121029"
    }
  },
  {
    "service_request": "2026-1286942",
    "request_type": "Trash/Recycling",
    "request_reason": "Request a Large Item Pick Up",
    "date_created": "2026-06-02T16:09:46.000",
    "date_modified": "2026-06-02T17:08:36.000",
    "request_status": "Pending",
    "responsible_agency": "Department of Sanitation",
    "final_address": "5611 Congress Dr",
    "address_councildis": "D",
    "status": "Assigned to Contractor",
    "contractor": "IV Waste",
    "rowid": "1286942",
    "final_x": "3691550.39836",
    "final_y": "554554.208344",
    "longitude": "-90.03551109645166",
    "latitude": "30.018522478462405",
    "geocoded_column": {
      "latitude": "30.018522478462405",
      "longitude": "-90.03551109645166"
    }
  },
  {
    "service_request": "2026-1286941",
    "request_type": "Roads and Streets",
    "request_reason": "Pothole",
    "date_created": "2026-06-02T16:08:01.000",
    "date_modified": "2026-06-02T16:08:03.000",
    "request_status": "Pending",
    "responsible_agency": "Department of Public Works",
    "final_address": "2500 BLK Filmore Ave",
    "address_councildis": "D",
    "status": "Pending",
    "rowid": "1286941",
    "final_x": "3686189.73749",
    "final_y": "552547.050861",
    "longitude": "-90.05251968354762",
    "latitude": "30.013169393263706",
    "geocoded_column": {
      "latitude": "30.013169393263706",
      "longitude": "-90.05251968354762"
    }
  },
  {
    "service_request": "2026-1286940",
    "request_type": "Trash/Recycling",
    "request_reason": "Request a Large Item Pick Up",
    "date_created": "2026-06-02T16:04:41.000",
    "date_modified": "2026-06-02T16:04:42.000",
    "request_status": "Pending",
    "responsible_agency": "Department of Sanitation",
    "final_address": "6555 Memphis St",
    "address_councildis": "A",
    "status": "Assigned to Contractor",
    "contractor": "IV Waste",
    "rowid": "1286940",
    "final_x": "3669624.07943",
    "final_y": "551028.283669",
    "longitude": "-90.10490990952725",
    "latitude": "30.009492065982442",
    "geocoded_column": {
      "latitude": "30.009492065982442",
      "longitude": "-90.10490990952725"
    }
  },
  {
    "service_request": "2026-1286939",
    "request_type": "Trash/Recycling",
    "request_reason": "Start Trash Service",
    "date_created": "2026-06-02T16:04:01.000",
    "date_modified": "2026-06-02T16:04:05.000",
    "request_status": "Pending",
    "responsible_agency": "Department of Sanitation",
    "final_address": "7610 Cohn St",
    "address_councildis": "A",
    "status": "Assigned to Contractor",
    "contractor": "IV Waste",
    "rowid": "1286939",
    "final_x": "3664827.25709",
    "final_y": "528982.55264",
    "longitude": "-90.12080185393899",
    "latitude": "29.949014218356442",
    "geocoded_column": {
      "latitude": "29.949014218356442",
      "longitude": "-90.12080185393899"
    }
  },
  {
    "service_request": "2026-1286938",
    "request_type": "Parks & Grass Service",
    "request_reason": "Request Grass Cutting Service (City Owned Property)",
    "date_created": "2026-06-02T16:03:21.000",
    "date_modified": "2026-06-02T16:03:23.000",
    "request_status": "Pending",
    "responsible_agency": "Department of Parks & Parkways",
    "final_address": "1450 Josephine St",
    "address_councildis": "B",
    "status": "Pending",
    "rowid": "1286938",
    "final_x": "3678247.27253",
    "final_y": "523444.999739",
    "longitude": "-90.07862047326248",
    "latitude": "29.933390474531205",
    "geocoded_column": {
      "latitude": "29.933390474531205",
      "longitude": "-90.07862047326248"
    }
  },
  {
    "service_request": "2026-1286937",
    "request_type": "Property Maintenance",
    "request_reason": "Property Maintenance",
    "date_created": "2026-06-02T16:02:04.000",
    "date_modified": "2026-06-02T16:02:06.000",
    "request_status": "Pending",
    "responsible_agency": "Department of Code Enforcement",
    "final_address": "9111 Pritchard Pl",
    "address_councildis": "A",
    "status": "Pending",
    "rowid": "1286937",
    "final_x": "3663387.45107",
    "final_y": "535374.857734",
    "longitude": "-90.12513515172417",
    "latitude": "29.966632794321214",
    "geocoded_column": {
      "latitude": "29.966632794321214",
      "longitude": "-90.12513515172417"
    }
  },
  {
    "service_request": "2026-1286936",
    "request_type": "Roads and Streets",
    "request_reason": "Pothole",
    "date_created": "2026-06-02T16:00:52.000",
    "date_modified": "2026-06-02T16:00:54.000",
    "request_status": "Pending",
    "responsible_agency": "Department of Public Works",
    "final_address": "4036 DHemecourt St",
    "address_councildis": "A",
    "status": "Pending",
    "rowid": "1286936",
    "final_x": "3669929.4281",
    "final_y": "536695.837959",
    "longitude": "-90.1044308405548",
    "latitude": "29.970073754814724",
    "geocoded_column": {
      "latitude": "29.970073754814724",
      "longitude": "-90.1044308405548"
    }
  },
  {
    "service_request": "2026-1286935",
    "request_type": "Trash/Recycling",
    "request_reason": "Illegal Dumping",
    "date_created": "2026-06-02T15:58:49.000",
    "date_modified": "2026-06-02T16:00:09.000",
    "request_status": "Pending",
    "responsible_agency": "Department of Sanitation",
    "final_address": "907 Bordeaux St",
    "address_councildis": "B",
    "status": "Pending",
    "rowid": "1286935",
    "final_x": "3669616.32782",
    "final_y": "518740.128503",
    "longitude": "-90.1060270221467",
    "latitude": "29.920710628758275",
    "geocoded_column": {
      "latitude": "29.920710628758275",
      "longitude": "-90.1060270221467"
    }
  },
  {
    "service_request": "2026-1286934",
    "request_type": "Trash/Recycling",
    "request_reason": "Request a Large Item Pick Up",
    "date_created": "2026-06-02T15:58:16.000",
    "date_modified": "2026-06-02T15:58:17.000",
    "request_status": "Pending",
    "responsible_agency": "Department of Sanitation",
    "final_address": "11026 Vienna St",
    "address_councildis": "E",
    "status": "Assigned to Contractor",
    "contractor": "Waste Pro",
    "rowid": "1286934",
    "final_x": "3715902.57036",
    "final_y": "557810.302939",
    "longitude": "-89.95844455583878",
    "latitude": "30.02669455732732",
    "geocoded_column": {
      "latitude": "30.02669455732732",
      "longitude": "-89.95844455583878"
    }
  },
  {
    "service_request": "2026-1286933",
    "request_type": "Tree Service",
    "request_reason": "Tree Trim",
    "date_created": "2026-06-02T15:56:26.000",
    "date_modified": "2026-06-02T15:56:28.000",
    "request_status": "Pending",
    "responsible_agency": "Department of Parks & Parkways",
    "final_address": "6055 Perlita St",
    "address_councildis": "D",
    "status": "Pending",
    "rowid": "1286933",
    "final_x": "3678371.47912",
    "final_y": "554786.58524",
    "longitude": "-90.07714363834808",
    "latitude": "30.019565282742303",
    "geocoded_column": {
      "latitude": "30.019565282742303",
      "longitude": "-90.07714363834808"
    }
  },
  {
    "service_request": "2026-1286932",
    "request_type": "Streetlights",
    "request_reason": "Streetlight Outage/Malfunction",
    "date_created": "2026-06-02T15:52:57.000",
    "date_modified": "2026-06-02T15:52:58.000",
    "request_status": "Pending",
    "responsible_agency": "Department of Public Works",
    "final_address": "8706 Heaton St",
    "address_councildis": "A",
    "status": "Pending",
    "rowid": "1286932",
    "final_x": "3667648.26401",
    "final_y": "537960.718345",
    "longitude": "-90.11159242020747",
    "latitude": "29.9736188272654",
    "geocoded_column": {
      "latitude": "29.9736188272654",
      "longitude": "-90.11159242020747"
    }
  },
  {
    "service_request": "2026-1286931",
    "request_type": "Property Maintenance",
    "request_reason": "Property Maintenance",
    "date_created": "2026-06-02T15:52:23.000",
    "date_modified": "2026-06-02T15:54:01.000",
    "request_status": "Pending",
    "responsible_agency": "Department of Code Enforcement",
    "final_address": "4348 Reynes St",
    "address_councildis": "E",
    "status": "Pending",
    "rowid": "1286931",
    "final_x": "3699565.63044",
    "final_y": "552990.458583",
    "longitude": "-90.01024309691803",
    "latitude": "30.013970702913642",
    "geocoded_column": {
      "latitude": "30.013970702913642",
      "longitude": "-90.01024309691803"
    }
  },
  {
    "service_request": "2026-1286930",
    "request_type": "Trash/Recycling",
    "request_reason": "Replace Trash Cart",
    "date_created": "2026-06-02T15:51:18.000",
    "date_modified": "2026-06-02T15:51:21.000",
    "request_status": "Pending",
    "responsible_agency": "Department of Sanitation",
    "final_address": "5231 Chamberlain Dr",
    "address_councildis": "D",
    "status": "Assigned to Contractor",
    "contractor": "IV Waste",
    "rowid": "1286930",
    "final_x": "3679619.33627",
    "final_y": "551597.927765",
    "longitude": "-90.07331161462626",
    "latitude": "30.010759953646385",
    "geocoded_column": {
      "latitude": "30.010759953646385",
      "longitude": "-90.07331161462626"
    }
  },
  {
    "service_request": "2026-1286929",
    "request_type": "Trash/Recycling",
    "request_reason": "Illegal Dumping",
    "date_created": "2026-06-02T15:51:04.000",
    "date_modified": "2026-06-02T15:51:06.000",
    "request_status": "Pending",
    "responsible_agency": "Department of Sanitation",
    "final_address": "5100 BLK General De Gaulle Dr",
    "address_councildis": "C",
    "status": "Pending",
    "rowid": "1286929",
    "final_x": "3702985.22818",
    "final_y": "516230.73898",
    "longitude": "-90.00078964523841",
    "latitude": "29.912785727058367",
    "geocoded_column": {
      "latitude": "29.912785727058367",
      "longitude": "-90.00078964523841"
    }
  },
  {
    "service_request": "2026-1286928",
    "request_type": "Property Maintenance",
    "request_reason": "Property Maintenance",
    "date_created": "2026-06-02T15:49:18.000",
    "date_modified": "2026-06-02T15:49:19.000",
    "request_status": "Pending",
    "responsible_agency": "Department of Code Enforcement",
    "final_address": "6116 Kuebel Dr",
    "address_councildis": "E",
    "status": "Pending",
    "rowid": "1286928",
    "final_x": "3695605.46653",
    "final_y": "559835.294429",
    "longitude": "-90.02250773594419",
    "latitude": "30.032916546055546",
    "geocoded_column": {
      "latitude": "30.032916546055546",
      "longitude": "-90.02250773594419"
    }
  },
  {
    "service_request": "2026-1286927",
    "request_type": "Trash/Recycling",
    "request_reason": "Illegal Dumping",
    "date_created": "2026-06-02T15:47:42.000",
    "date_modified": "2026-06-02T15:49:24.000",
    "request_status": "Pending",
    "responsible_agency": "Department of Sanitation",
    "final_address": "CHARMES CT & LOURDES ST",
    "address_councildis": "E",
    "status": "Pending",
    "rowid": "1286927",
    "final_x": "3726449.6",
    "final_y": "561125.58",
    "longitude": "-89.92498880378588",
    "latitude": "30.035458018310614",
    "geocoded_column": {
      "latitude": "30.035458018310614",
      "longitude": "-89.92498880378588"
    }
  },
  {
    "service_request": "2026-1286926",
    "request_type": "Traffic Safety",
    "request_reason": "Request for Traffic Calming due to Speeding",
    "date_created": "2026-06-02T15:45:27.000",
    "date_modified": "2026-06-02T15:45:28.000",
    "request_status": "Pending",
    "responsible_agency": "Department of Public Works",
    "final_address": "1227 Ursulines Ave",
    "address_councildis": "C",
    "status": "Pending",
    "rowid": "1286926",
    "final_x": "3681776.99106",
    "final_y": "534964.976518",
    "longitude": "-90.06707547251082",
    "latitude": "29.964959779993883",
    "geocoded_column": {
      "latitude": "29.964959779993883",
      "longitude": "-90.06707547251082"
    }
  },
  {
    "service_request": "2026-1286925",
    "request_type": "Trash/Recycling",
    "request_reason": "Request a Large Item Pick Up",
    "date_created": "2026-06-02T15:45:25.000",
    "date_modified": "2026-06-02T16:03:43.000",
    "request_status": "Pending",
    "responsible_agency": "Department of Sanitation",
    "final_address": "7721 Spruce St",
    "address_councildis": "A",
    "status": "Assigned to Contractor",
    "contractor": "IV Waste",
    "rowid": "1286925",
    "final_x": "3664802.64589",
    "final_y": "529635.172225",
    "longitude": "-90.12085775814072",
    "latitude": "29.950809427330256",
    "geocoded_column": {
      "latitude": "29.950809427330256",
      "longitude": "-90.12085775814072"
    }
  },
  {
    "service_request": "2026-1286924",
    "request_type": "Trash/Recycling",
    "request_reason": "Repair Recycling Cart",
    "date_created": "2026-06-02T15:44:47.000",
    "date_modified": "2026-06-02T16:27:35.000",
    "case_close_date": "2026-06-02T11:27:34.000",
    "request_status": "Closed",
    "responsible_agency": "Department of Sanitation",
    "final_address": "325 Pine St",
    "address_councildis": "A",
    "status": "Duplicate Request",
    "rowid": "1286924",
    "final_x": "3661746.2375",
    "final_y": "523370.447163",
    "longitude": "-90.13071600210618",
    "latitude": "29.933672000015914",
    "geocoded_column": {
      "latitude": "29.933672000015914",
      "longitude": "-90.13071600210618"
    }
  },
  {
    "service_request": "2026-1286923",
    "request_type": "Street and Traffic Signs",
    "request_reason": "Traffic or Parking Sign Damaged or Missing",
    "date_created": "2026-06-02T15:41:35.000",
    "date_modified": "2026-06-02T15:41:37.000",
    "request_status": "Pending",
    "responsible_agency": "Department of Public Works",
    "final_address": "5909 General Meyer Ave",
    "address_councildis": "C",
    "status": "Pending",
    "rowid": "1286923",
    "final_x": "3705922.29137",
    "final_y": "521199.712249",
    "longitude": "-89.99133581893898",
    "latitude": "29.926354434636036",
    "geocoded_column": {
      "latitude": "29.926354434636036",
      "longitude": "-89.99133581893898"
    }
  },
  {
    "service_request": "2026-1286922",
    "request_type": "Trash/Recycling",
    "request_reason": "Request a Large Item Pick Up",
    "date_created": "2026-06-02T15:41:30.000",
    "date_modified": "2026-06-02T15:41:31.000",
    "request_status": "Pending",
    "responsible_agency": "Department of Sanitation",
    "final_address": "7142 Bundy Rd",
    "address_councildis": "E",
    "status": "Assigned to Contractor",
    "contractor": "Waste Pro",
    "rowid": "1286922",
    "final_x": "3706593.60862",
    "final_y": "561435.217758",
    "longitude": "-89.98772512588032",
    "latitude": "30.036965491716817",
    "geocoded_column": {
      "latitude": "30.036965491716817",
      "longitude": "-89.98772512588032"
    }
  },
  {
    "service_request": "2026-1286921",
    "request_type": "Trash/Recycling",
    "request_reason": "Replace Recycling Cart",
    "date_created": "2026-06-02T15:40:56.000",
    "date_modified": "2026-06-02T15:40:57.000",
    "request_status": "Pending",
    "responsible_agency": "Department of Sanitation",
    "final_address": "834 Allen Toussaint Blvd",
    "address_councildis": "A",
    "status": "Pending",
    "rowid": "1286921",
    "final_x": "3670272.46068",
    "final_y": "554460.466328",
    "longitude": "-90.10274498647756",
    "latitude": "30.01891022512268",
    "geocoded_column": {
      "latitude": "30.01891022512268",
      "longitude": "-90.10274498647756"
    }
  },
  {
    "service_request": "2026-1286920",
    "request_type": "Trash/Recycling",
    "request_reason": "Illegal Dumping",
    "date_created": "2026-06-02T15:38:47.000",
    "date_modified": "2026-06-02T15:54:33.000",
    "request_status": "Pending",
    "responsible_agency": "Department of Sanitation",
    "final_address": "MICHOUD BLVD & MICHOUD BLVD EXIT & I 10 E ONRAMP",
    "address_councildis": "E",
    "status": "Pending",
    "rowid": "1286920",
    "final_x": "3727970.5",
    "final_y": "575216.68",
    "longitude": "-89.91963317648764",
    "latitude": "30.074151102028708",
    "geocoded_column": {
      "latitude": "30.074151102028708",
      "longitude": "-89.91963317648764"
    }
  },
  {
    "service_request": "2026-1286919",
    "request_type": "Trash/Recycling",
    "request_reason": "Request a Large Item Pick Up",
    "date_created": "2026-06-02T15:37:53.000",
    "date_modified": "2026-06-02T15:37:55.000",
    "request_status": "Pending",
    "responsible_agency": "Department of Sanitation",
    "final_address": "5863 W Deer Park Blvd",
    "address_councildis": "E",
    "status": "Assigned to Contractor",
    "contractor": "Waste Pro",
    "rowid": "1286919",
    "final_x": "3712158.8709",
    "final_y": "561075.370206",
    "longitude": "-89.97015138549567",
    "latitude": "30.035795178363028",
    "geocoded_column": {
      "latitude": "30.035795178363028",
      "longitude": "-89.97015138549567"
    }
  },
  {
    "service_request": "2026-1286918",
    "request_type": "Drainage",
    "request_reason": "Catch Basin Not Draining",
    "date_created": "2026-06-02T15:37:31.000",
    "date_modified": "2026-06-02T15:54:44.000",
    "request_status": "Pending",
    "responsible_agency": "Sewerage & Water Board",
    "final_address": "13000 BLK Michoud Blvd",
    "address_councildis": "E",
    "status": "Pending",
    "rowid": "1286918",
    "final_x": "3724993.10181",
    "final_y": "570277.696502",
    "longitude": "-89.92923711345162",
    "latitude": "30.060671667985027",
    "geocoded_column": {
      "latitude": "30.060671667985027",
      "longitude": "-89.92923711345162"
    }
  },
  {
    "service_request": "2026-1286917",
    "request_type": "Trash/Recycling",
    "request_reason": "Request a Large Item Pick Up",
    "date_created": "2026-06-02T15:37:22.000",
    "date_modified": "2026-06-02T16:03:20.000",
    "request_status": "Pending",
    "responsible_agency": "Department of Sanitation",
    "final_address": "5306 Wilton Dr",
    "address_councildis": "D",
    "status": "Assigned to Contractor",
    "contractor": "IV Waste",
    "rowid": "1286917",
    "final_x": "3681890.10197",
    "final_y": "552312.072726",
    "longitude": "-90.06611243447817",
    "latitude": "30.012654738390403",
    "geocoded_column": {
      "latitude": "30.012654738390403",
      "longitude": "-90.06611243447817"
    }
  },
  {
    "service_request": "2026-1286916",
    "request_type": "Trash/Recycling",
    "request_reason": "Replace Trash Cart",
    "date_created": "2026-06-02T15:36:12.000",
    "date_modified": "2026-06-02T15:36:14.000",
    "request_status": "Pending",
    "responsible_agency": "Department of Sanitation",
    "final_address": "3326 Lancaster St",
    "address_councildis": "C",
    "status": "Assigned to Contractor",
    "contractor": "Richards Disposal",
    "rowid": "1286916",
    "final_x": "3709981.27973",
    "final_y": "518408.350134",
    "longitude": "-89.97862703749254",
    "latitude": "29.91854783109217",
    "geocoded_column": {
      "latitude": "29.91854783109217",
      "longitude": "-89.97862703749254"
    }
  },
  {
    "service_request": "2026-1286915",
    "request_type": "General Services",
    "request_reason": "General Service Request",
    "date_created": "2026-06-02T15:35:04.000",
    "date_modified": "2026-06-02T16:25:31.000",
    "case_close_date": "2026-06-02T11:25:30.000",
    "request_status": "Closed",
    "responsible_agency": "Orleans Parish Communication District",
    "final_address": "325 Pine St",
    "address_councildis": "A",
    "status": "Duplicate Request",
    "rowid": "1286915",
    "final_x": "3661746.2375",
    "final_y": "523370.447163",
    "longitude": "-90.13071600210618",
    "latitude": "29.933672000015914",
    "geocoded_column": {
      "latitude": "29.933672000015914",
      "longitude": "-90.13071600210618"
    }
  },
  {
    "service_request": "2026-1286914",
    "request_type": "Roads and Streets",
    "request_reason": "Sidewalk Damaged or Missing",
    "date_created": "2026-06-02T15:35:01.000",
    "date_modified": "2026-06-02T15:35:24.000",
    "request_status": "Pending",
    "responsible_agency": "Department of Public Works",
    "final_address": "7915 Redfish St",
    "address_councildis": "E",
    "status": "Pending",
    "rowid": "1286914",
    "final_x": "3698653.99229",
    "final_y": "560925.39555",
    "longitude": "-90.01283447480422",
    "latitude": "30.035817657944083",
    "geocoded_column": {
      "latitude": "30.035817657944083",
      "longitude": "-90.01283447480422"
    }
  },
  {
    "service_request": "2026-1286913",
    "request_type": "Trash/Recycling",
    "request_reason": "Request a Large Item Pick Up",
    "date_created": "2026-06-02T15:34:26.000",
    "date_modified": "2026-06-02T15:34:27.000",
    "request_status": "Pending",
    "responsible_agency": "Department of Sanitation",
    "final_address": "7915 Redfish St",
    "address_councildis": "E",
    "status": "Assigned to Contractor",
    "contractor": "Waste Pro",
    "rowid": "1286913",
    "final_x": "3698653.99229",
    "final_y": "560925.39555",
    "longitude": "-90.01283447480422",
    "latitude": "30.035817657944083",
    "geocoded_column": {
      "latitude": "30.035817657944083",
      "longitude": "-90.01283447480422"
    }
  },
  {
    "service_request": "2026-1286912",
    "request_type": "Trash/Recycling",
    "request_reason": "Request a Large Item Pick Up",
    "date_created": "2026-06-02T15:33:52.000",
    "date_modified": "2026-06-02T15:33:54.000",
    "request_status": "Pending",
    "responsible_agency": "Department of Sanitation",
    "final_address": "1724 S Carrollton Ave",
    "address_councildis": "A",
    "status": "Assigned to Contractor",
    "contractor": "IV Waste",
    "rowid": "1286912",
    "final_x": "3663253.17645",
    "final_y": "529812.529217",
    "longitude": "-90.12574431624303",
    "latitude": "29.95134209384637",
    "geocoded_column": {
      "latitude": "29.95134209384637",
      "longitude": "-90.12574431624303"
    }
  },
  {
    "service_request": "2026-1286911",
    "request_type": "Trash/Recycling",
    "request_reason": "Request a Large Item Pick Up",
    "date_created": "2026-06-02T15:31:03.000",
    "date_modified": "2026-06-02T15:31:04.000",
    "request_status": "Pending",
    "responsible_agency": "Department of Sanitation",
    "final_address": "7513 Downman Rd",
    "address_councildis": "D",
    "status": "Assigned to Contractor",
    "contractor": "Waste Pro",
    "rowid": "1286911",
    "final_x": "3694842.47888",
    "final_y": "558120.286939",
    "longitude": "-90.02498071728354",
    "latitude": "30.02822490786878",
    "geocoded_column": {
      "latitude": "30.02822490786878",
      "longitude": "-90.02498071728354"
    }
  },
  {
    "service_request": "2026-1286910",
    "request_type": "Trash/Recycling",
    "request_reason": "Request a Large Item Pick Up",
    "date_created": "2026-06-02T15:30:26.000",
    "date_modified": "2026-06-02T15:30:28.000",
    "request_status": "Pending",
    "responsible_agency": "Department of Sanitation",
    "final_address": "3326 Lancaster St",
    "address_councildis": "C",
    "status": "Assigned to Contractor",
    "contractor": "Richards Disposal",
    "rowid": "1286910",
    "final_x": "3709981.27973",
    "final_y": "518408.350134",
    "longitude": "-89.97862703749254",
    "latitude": "29.91854783109217",
    "geocoded_column": {
      "latitude": "29.91854783109217",
      "longitude": "-89.97862703749254"
    }
  },
  {
    "service_request": "2026-1286909",
    "request_type": "Drainage",
    "request_reason": "Catch Basin Not Draining",
    "date_created": "2026-06-02T15:30:09.000",
    "date_modified": "2026-06-02T15:30:12.000",
    "request_status": "Pending",
    "responsible_agency": "Sewerage & Water Board",
    "final_address": "5534 Willow St Apt A",
    "address_councildis": "A",
    "status": "Pending",
    "rowid": "1286909",
    "final_x": "3667590.57492",
    "final_y": "525393.193277",
    "longitude": "-90.11219760669947",
    "latitude": "29.93906394681158",
    "geocoded_column": {
      "latitude": "29.93906394681158",
      "longitude": "-90.11219760669947"
    }
  },
  {
    "service_request": "2026-1286908",
    "request_type": "Trash/Recycling",
    "request_reason": "Request a Large Item Pick Up",
    "date_created": "2026-06-02T15:28:26.000",
    "date_modified": "2026-06-02T15:31:15.000",
    "request_status": "Pending",
    "responsible_agency": "Department of Sanitation",
    "final_address": "175 Westpark Ct",
    "address_councildis": "C",
    "status": "Assigned to Contractor",
    "contractor": "Richards Disposal",
    "rowid": "1286908",
    "final_x": "3695807.36976",
    "final_y": "522280.299002",
    "longitude": "-90.02322661067073",
    "latitude": "29.929647543862384",
    "geocoded_column": {
      "latitude": "29.929647543862384",
      "longitude": "-90.02322661067073"
    }
  },
  {
    "service_request": "2026-1286907",
    "request_type": "Trash/Recycling",
    "request_reason": "Request a Large Item Pick Up",
    "date_created": "2026-06-02T15:28:13.000",
    "date_modified": "2026-06-02T15:28:14.000",
    "request_status": "Pending",
    "responsible_agency": "Department of Sanitation",
    "final_address": "5819 St Bernard Ave",
    "address_councildis": "D",
    "status": "Assigned to Contractor",
    "contractor": "IV Waste",
    "rowid": "1286907",
    "final_x": "3676978.85602",
    "final_y": "553884.988887",
    "longitude": "-90.08157498934337",
    "latitude": "30.01712812455908",
    "geocoded_column": {
      "latitude": "30.01712812455908",
      "longitude": "-90.08157498934337"
    }
  },
  {
    "service_request": "2026-1286906",
    "request_type": "Trash/Recycling",
    "request_reason": "Order Trash Cart",
    "date_created": "2026-06-02T15:24:54.000",
    "date_modified": "2026-06-02T15:24:56.000",
    "request_status": "Pending",
    "responsible_agency": "Department of Sanitation",
    "final_address": "2819 General Meyer Ave",
    "address_councildis": "C",
    "status": "Assigned to Contractor",
    "contractor": "Richards Disposal",
    "rowid": "1286906",
    "final_x": "3694658.80214",
    "final_y": "526760.403646",
    "longitude": "-90.02669114102325",
    "latitude": "29.94200235473749",
    "geocoded_column": {
      "latitude": "29.94200235473749",
      "longitude": "-90.02669114102325"
    }
  },
  {
    "service_request": "2026-1286905",
    "request_type": "General Services",
    "request_reason": "General Service Request",
    "date_created": "2026-06-02T15:23:15.000",
    "date_modified": "2026-06-02T16:24:40.000",
    "case_close_date": "2026-06-02T11:24:39.000",
    "request_status": "Closed",
    "responsible_agency": "Orleans Parish Communication District",
    "final_address": "325 Pine St",
    "address_councildis": "A",
    "status": "Duplicate Request",
    "rowid": "1286905",
    "final_x": "3661746.2375",
    "final_y": "523370.447163",
    "longitude": "-90.13071600210618",
    "latitude": "29.933672000015914",
    "geocoded_column": {
      "latitude": "29.933672000015914",
      "longitude": "-90.13071600210618"
    }
  },
  {
    "service_request": "2026-1286904",
    "request_type": "Abandoned Vehicles",
    "request_reason": "Abandoned/Junk Vehicles",
    "date_created": "2026-06-02T15:23:01.000",
    "date_modified": "2026-06-02T15:23:03.000",
    "request_status": "Pending",
    "responsible_agency": "Department of Public Works",
    "final_address": "1617 General Ogden St",
    "address_councildis": "A",
    "status": "Pending",
    "rowid": "1286904",
    "final_x": "3660946.7305",
    "final_y": "531405.203203",
    "longitude": "-90.13297429654254",
    "latitude": "29.95578807083508",
    "geocoded_column": {
      "latitude": "29.95578807083508",
      "longitude": "-90.13297429654254"
    }
  },
  {
    "service_request": "2026-1286903",
    "request_type": "Trash/Recycling",
    "request_reason": "Replace Trash Cart",
    "date_created": "2026-06-02T15:22:23.000",
    "date_modified": "2026-06-02T15:22:26.000",
    "request_status": "Pending",
    "responsible_agency": "Department of Sanitation",
    "final_address": "7633 Anne Marie Ct",
    "address_councildis": "E",
    "status": "Assigned to Contractor",
    "contractor": "Waste Pro",
    "rowid": "1286903",
    "final_x": "3717960.59244",
    "final_y": "571266.733544",
    "longitude": "-89.95142869620074",
    "latitude": "30.063626180223842",
    "geocoded_column": {
      "latitude": "30.063626180223842",
      "longitude": "-89.95142869620074"
    }
  },
  {
    "service_request": "2026-1286902",
    "request_type": "Trash/Recycling",
    "request_reason": "Request a Large Item Pick Up",
    "date_created": "2026-06-02T15:21:37.000",
    "date_modified": "2026-06-02T15:21:39.000",
    "request_status": "Pending",
    "responsible_agency": "Department of Sanitation",
    "final_address": "1635 Jefferson Ave",
    "address_councildis": "B",
    "status": "Assigned to Contractor",
    "contractor": "IV Waste",
    "rowid": "1286902",
    "final_x": "3667507.45914",
    "final_y": "521865.698106",
    "longitude": "-90.11257866261771",
    "latitude": "29.929366897880595",
    "geocoded_column": {
      "latitude": "29.929366897880595",
      "longitude": "-90.11257866261771"
    }
  },
  {
    "service_request": "2026-1286901",
    "request_type": "Trash/Recycling",
    "request_reason": "Start Trash Service",
    "date_created": "2026-06-02T15:21:18.000",
    "date_modified": "2026-06-02T15:21:19.000",
    "request_status": "Pending",
    "responsible_agency": "Department of Sanitation",
    "final_address": "79 Flamingo St",
    "address_councildis": "D",
    "status": "Assigned to Contractor",
    "contractor": "IV Waste",
    "rowid": "1286901",
    "final_x": "3674388.75534",
    "final_y": "555770.687641",
    "longitude": "-90.08969399490917",
    "latitude": "30.02239066540233",
    "geocoded_column": {
      "latitude": "30.02239066540233",
      "longitude": "-90.08969399490917"
    }
  },
  {
    "service_request": "2026-1286900",
    "request_type": "Trash/Recycling",
    "request_reason": "Order Second Trash Cart",
    "date_created": "2026-06-02T15:20:32.000",
    "date_modified": "2026-06-02T15:20:34.000",
    "request_status": "Pending",
    "responsible_agency": "Department of Sanitation",
    "final_address": "5367 Canal Blvd",
    "address_councildis": "A",
    "status": "Assigned to Contractor",
    "contractor": "IV Waste",
    "rowid": "1286900",
    "final_x": "3668224.83661",
    "final_y": "543184.932046",
    "longitude": "-90.1095952662912",
    "latitude": "29.987966732003773",
    "geocoded_column": {
      "latitude": "29.987966732003773",
      "longitude": "-90.1095952662912"
    }
  },
  {
    "service_request": "2026-1286899",
    "request_type": "Trash/Recycling",
    "request_reason": "Request a Large Item Pick Up",
    "date_created": "2026-06-02T15:20:24.000",
    "date_modified": "2026-06-02T15:20:26.000",
    "request_status": "Pending",
    "responsible_agency": "Department of Sanitation",
    "final_address": "3400 Lancaster St",
    "address_councildis": "C",
    "status": "Assigned to Contractor",
    "contractor": "Richards Disposal",
    "rowid": "1286899",
    "final_x": "3709958.96024",
    "final_y": "518230.068406",
    "longitude": "-89.97870414042681",
    "latitude": "29.918058344309244",
    "geocoded_column": {
      "latitude": "29.918058344309244",
      "longitude": "-89.97870414042681"
    }
  },
  {
    "service_request": "2026-1286898",
    "request_type": "Trash/Recycling",
    "request_reason": "Order Second Trash Cart",
    "date_created": "2026-06-02T15:20:00.000",
    "date_modified": "2026-06-02T15:20:03.000",
    "request_status": "Pending",
    "responsible_agency": "Department of Sanitation",
    "final_address": "79 Flamingo St",
    "address_councildis": "D",
    "status": "Assigned to Contractor",
    "contractor": "IV Waste",
    "rowid": "1286898",
    "final_x": "3674388.75534",
    "final_y": "555770.687641",
    "longitude": "-90.08969399490917",
    "latitude": "30.02239066540233",
    "geocoded_column": {
      "latitude": "30.02239066540233",
      "longitude": "-90.08969399490917"
    }
  },
  {
    "service_request": "2026-1286897",
    "request_type": "Trash/Recycling",
    "request_reason": "Request a Large Item Pick Up",
    "date_created": "2026-06-02T15:19:42.000",
    "date_modified": "2026-06-02T16:02:43.000",
    "request_status": "Pending",
    "responsible_agency": "Department of Sanitation",
    "final_address": "2748 Wisteria St",
    "address_councildis": "D",
    "status": "Assigned to Contractor",
    "contractor": "IV Waste",
    "rowid": "1286897",
    "final_x": "3688117.12867",
    "final_y": "548431.433746",
    "longitude": "-90.04657619632039",
    "latitude": "30.001793571636597",
    "geocoded_column": {
      "latitude": "30.001793571636597",
      "longitude": "-90.04657619632039"
    }
  },
  {
    "service_request": "2026-1286896",
    "request_type": "Trash/Recycling",
    "request_reason": "Repair Recycling Cart",
    "date_created": "2026-06-02T15:17:12.000",
    "date_modified": "2026-06-02T15:18:11.000",
    "request_status": "Pending",
    "responsible_agency": "Department of Sanitation",
    "final_address": "325 Pine St",
    "address_councildis": "A",
    "status": "Pending",
    "rowid": "1286896",
    "final_x": "3661746.2375",
    "final_y": "523370.447163",
    "longitude": "-90.13071600210618",
    "latitude": "29.933672000015914",
    "geocoded_column": {
      "latitude": "29.933672000015914",
      "longitude": "-90.13071600210618"
    }
  },
  {
    "service_request": "2026-1286895",
    "request_type": "Trash/Recycling",
    "request_reason": "Request a Large Item Pick Up",
    "date_created": "2026-06-02T15:14:00.000",
    "date_modified": "2026-06-02T15:14:01.000",
    "request_status": "Pending",
    "responsible_agency": "Department of Sanitation",
    "final_address": "4925 Nottingham Dr",
    "address_councildis": "E",
    "status": "Assigned to Contractor",
    "contractor": "Waste Pro",
    "rowid": "1286895",
    "final_x": "3716389.60024",
    "final_y": "557726.900059",
    "longitude": "-89.95690877680543",
    "latitude": "30.026449155306402",
    "geocoded_column": {
      "latitude": "30.026449155306402",
      "longitude": "-89.95690877680543"
    }
  },
  {
    "service_request": "2026-1286894",
    "request_type": "Abandoned Vehicles",
    "request_reason": "Abandoned/Junk Vehicles",
    "date_created": "2026-06-02T15:13:17.000",
    "date_modified": "2026-06-02T15:13:19.000",
    "request_status": "Pending",
    "responsible_agency": "Department of Public Works",
    "final_address": "8800 BLK Fig St",
    "address_councildis": "A",
    "status": "Pending",
    "rowid": "1286894",
    "final_x": "3664338.28579",
    "final_y": "534925.644503",
    "longitude": "-90.12214740486033",
    "latitude": "29.96537000394238",
    "geocoded_column": {
      "latitude": "29.96537000394238",
      "longitude": "-90.12214740486033"
    }
  },
  {
    "service_request": "2026-1286893",
    "request_type": "Abandoned Vehicles",
    "request_reason": "Abandoned/Junk Vehicles",
    "date_created": "2026-06-02T15:11:51.000",
    "date_modified": "2026-06-02T15:11:53.000",
    "request_status": "Pending",
    "responsible_agency": "Department of Public Works",
    "final_address": "8000 Cohn St",
    "address_councildis": "A",
    "status": "Pending",
    "rowid": "1286893",
    "final_x": "3663895.59271",
    "final_y": "529874.842497",
    "longitude": "-90.12371379517127",
    "latitude": "29.95149480336025",
    "geocoded_column": {
      "latitude": "29.95149480336025",
      "longitude": "-90.12371379517127"
    }
  },
  {
    "service_request": "2026-1286892",
    "request_type": "Trash/Recycling",
    "request_reason": "Request a Large Item Pick Up",
    "date_created": "2026-06-02T15:06:44.000",
    "date_modified": "2026-06-02T15:15:32.000",
    "request_status": "Pending",
    "responsible_agency": "Department of Sanitation",
    "final_address": "3114 Nashville Ave",
    "address_councildis": "B",
    "status": "Assigned to Contractor",
    "contractor": "IV Waste",
    "rowid": "1286892",
    "final_x": "3667726.03713",
    "final_y": "527299.566847",
    "longitude": "-90.11170576740327",
    "latitude": "29.944301889017364",
    "geocoded_column": {
      "latitude": "29.944301889017364",
      "longitude": "-90.11170576740327"
    }
  },
  {
    "service_request": "2026-1286891",
    "request_type": "Trash/Recycling",
    "request_reason": "Request a Large Item Pick Up",
    "date_created": "2026-06-02T15:06:00.000",
    "date_modified": "2026-06-02T15:06:02.000",
    "request_status": "Pending",
    "responsible_agency": "Department of Sanitation",
    "final_address": "1726 St Ann St",
    "address_councildis": "C",
    "status": "Assigned to Contractor",
    "contractor": "IV Waste",
    "rowid": "1286891",
    "final_x": "3679719.4013",
    "final_y": "535025.071686",
    "longitude": "-90.07357112879214",
    "latitude": "29.965187383171163",
    "geocoded_column": {
      "latitude": "29.965187383171163",
      "longitude": "-90.07357112879214"
    }
  },
  {
    "service_request": "2026-1286890",
    "request_type": "Trash/Recycling",
    "request_reason": "Request a Large Item Pick Up",
    "date_created": "2026-06-02T15:05:32.000",
    "date_modified": "2026-06-02T15:05:33.000",
    "request_status": "Pending",
    "responsible_agency": "Department of Sanitation",
    "final_address": "4818 Bundy Rd",
    "address_councildis": "E",
    "status": "Assigned to Contractor",
    "contractor": "Waste Pro",
    "rowid": "1286890",
    "final_x": "3709221.91281",
    "final_y": "556241.933402",
    "longitude": "-89.97961307843724",
    "latitude": "30.022600875638933",
    "geocoded_column": {
      "latitude": "30.022600875638933",
      "longitude": "-89.97961307843724"
    }
  },
  {
    "service_request": "2026-1286889",
    "request_type": "Trash/Recycling",
    "request_reason": "Request a Large Item Pick Up",
    "date_created": "2026-06-02T15:05:24.000",
    "date_modified": "2026-06-02T15:05:25.000",
    "request_status": "Pending",
    "responsible_agency": "Department of Sanitation",
    "final_address": "6927 W Laverne St",
    "address_councildis": "D",
    "status": "Assigned to Contractor",
    "contractor": "Waste Pro",
    "rowid": "1286889",
    "final_x": "3696048.20528",
    "final_y": "556328.575386",
    "longitude": "-90.02123554251047",
    "latitude": "30.023260472683763",
    "geocoded_column": {
      "latitude": "30.023260472683763",
      "longitude": "-90.02123554251047"
    }
  },
  {
    "service_request": "2026-1286888",
    "request_type": "Trash/Recycling",
    "request_reason": "Repair Recycling Cart",
    "date_created": "2026-06-02T15:02:32.000",
    "date_modified": "2026-06-02T15:02:34.000",
    "request_status": "Pending",
    "responsible_agency": "Department of Sanitation",
    "final_address": "126 Spencer Ave",
    "address_councildis": "A",
    "status": "Pending",
    "rowid": "1286888",
    "final_x": "3666161.16877",
    "final_y": "553553.443095",
    "longitude": "-90.11576572378968",
    "latitude": "30.016536996429164",
    "geocoded_column": {
      "latitude": "30.016536996429164",
      "longitude": "-90.11576572378968"
    }
  },