[
  {
    "service_request": "2024-1157205",
    "request_type": "Trash/Recycling",
    "request_reason": "Request a Large Item Pick Up",
    "date_created": "2024-12-24T22:48:21.000",
    "date_modified": "2024-12-24T22:48:22.000",
    "request_status": "Pending",
    "responsible_agency": "Department of Sanitation",
    "final_address": "4603 Arts St",
    "address_councildis": "D",
    "status": "Assigned to Contractor",
    "contractor": "IV Waste",
    "rowid": "1157205",
    "final_x": "3686075.61398",
    "final_y": "549639.599188",
    "longitude": "-90.05298289541811",
    "latitude": "30.00517846870325",
    "geocoded_column": {
      "latitude": "30.00517846870325",
      "longitude": "-90.05298289541811"
    }
  },
  {
    "service_request": "2024-1157204",
    "request_type": "Property Maintenance",
    "request_reason": "Property Maintenance",
    "date_created": "2024-12-24T22:38:44.000",
    "date_modified": "2024-12-24T22:38:44.000",
    "request_status": "Pending",
    "responsible_agency": "Department of Code Enforcement",
    "final_address": "0 BLK Maryland Dr",
    "address_councildis": "A",
    "status": "Pending",
    "rowid": "1157204",
    "final_x": "3663649.89051",
    "final_y": "541207.182793",
    "longitude": "-90.12411199354628",
    "latitude": "29.982662140534117",
    "geocoded_column": {
      "latitude": "29.982662140534117",
      "longitude": "-90.12411199354628"
    }
  },
  {
    "service_request": "2024-1157203",
    "request_type": "Trash/Recycling",
    "request_reason": "Request a Large Item Pick Up",
    "date_created": "2024-12-24T19:20:41.000",
    "date_modified": "2024-12-24T19:20:42.000",
    "request_status": "Pending",
    "responsible_agency": "Department of Sanitation",
    "final_address": "228 S Scott St",
    "address_councildis": "A",
    "status": "Assigned to Contractor",
    "contractor": "IV Waste",
    "rowid": "1157203",
    "final_x": "3671403.54267",
    "final_y": "537257.894728",
    "longitude": "-90.09975631715963",
    "latitude": "29.971575667962984",
    "geocoded_column": {
      "latitude": "29.971575667962984",
      "longitude": "-90.09975631715963"
    }
  },
  {
    "service_request": "2024-1157202",
    "request_type": "Trash/Recycling",
    "request_reason": "Replace Trash Cart",
    "date_created": "2024-12-24T19:20:28.000",
    "date_modified": "2024-12-24T19:20:29.000",
    "request_status": "Pending",
    "responsible_agency": "Department of Sanitation",
    "final_address": "109 Brunswick Ct",
    "address_councildis": "C",
    "status": "Assigned to Contractor",
    "contractor": "Richards Disposal",
    "rowid": "1157202",
    "final_x": "3705877.62679",
    "final_y": "516973.832373",
    "longitude": "-89.99163301199972",
    "latitude": "29.91473617054154",
    "geocoded_column": {
      "latitude": "29.91473617054154",
      "longitude": "-89.99163301199972"
    }
  },
  {
    "service_request": "2024-1157201",
    "request_type": "Trash/Recycling",
    "request_reason": "Change Size of Trash Cart",
    "date_created": "2024-12-24T17:58:26.000",
    "date_modified": "2024-12-24T17:58:27.000",
    "request_status": "Pending",
    "responsible_agency": "Department of Sanitation",
    "final_address": "4813 Raymond Joseph Dr",
    "address_councildis": "E",
    "status": "Assigned to Contractor",
    "contractor": "Waste Pro",
    "rowid": "1157201",
    "final_x": "3703705.40151",
    "final_y": "555706.936537",
    "longitude": "-89.99706353642048",
    "latitude": "30.021307888941134",
    "geocoded_column": {
      "latitude": "30.021307888941134",
      "longitude": "-89.99706353642048"
    }
  },
  {
    "service_request": "2024-1157200",
    "request_type": "Streetlights",
    "request_reason": "Streetlight Outage/Malfunction",
    "date_created": "2024-12-24T17:52:25.000",
    "date_modified": "2024-12-24T17:52:26.000",
    "request_status": "Pending",
    "responsible_agency": "Department of Public Works",
    "final_address": "600 Bordeaux St",
    "address_councildis": "B",
    "status": "Pending",
    "contractor": "Legacy Professional Services",
    "rowid": "1157200",
    "final_x": "3669637.2939",
    "final_y": "517807.35647",
    "longitude": "-90.10599237926515",
    "latitude": "29.91814518295108",
    "geocoded_column": {
      "latitude": "29.91814518295108",
      "longitude": "-90.10599237926515"
    }
  },
  {
    "service_request": "2024-1157199",
    "request_type": "Trash/Recycling",
    "request_reason": "Replace Recycling Cart",
    "date_created": "2024-12-24T17:52:01.000",
    "date_modified": "2024-12-24T17:52:01.000",
    "request_status": "Pending",
    "responsible_agency": "Department of Sanitation",
    "final_address": "41 Thrasher St",
    "address_councildis": "D",
    "status": "Pending",
    "rowid": "1157199",
    "final_x": "3672452.85332",
    "final_y": "556238.454874",
    "longitude": "-90.09579502599075",
    "latitude": "30.02373448863519",
    "geocoded_column": {
      "latitude": "30.02373448863519",
      "longitude": "-90.09579502599075"
    }
  },
  {
    "service_request": "2024-1157198",
    "request_type": "Trash/Recycling",
    "request_reason": "Repair Recycling Cart",
    "date_created": "2024-12-24T17:39:03.000",
    "date_modified": "2024-12-24T17:39:03.000",
    "request_status": "Pending",
    "responsible_agency": "Department of Sanitation",
    "final_address": "41 Thrasher St",
    "address_councildis": "D",
    "status": "Pending",
    "rowid": "1157198",
    "final_x": "3672452.85332",
    "final_y": "556238.454874",
    "longitude": "-90.09579502599075",
    "latitude": "30.02373448863519",
    "geocoded_column": {
      "latitude": "30.02373448863519",
      "longitude": "-90.09579502599075"
    }
  },
  {
    "service_request": "2024-1157197",
    "request_type": "Streetlights",
    "request_reason": "Streetlight Outage/Malfunction",
    "date_created": "2024-12-24T16:45:26.000",
    "date_modified": "2024-12-24T16:45:27.000",
    "request_status": "Pending",
    "responsible_agency": "Department of Public Works",
    "final_address": "5700 BLK Argonne Blvd",
    "address_councildis": "A",
    "status": "Pending",
    "contractor": "Legacy Professional Services",
    "rowid": "1157197",
    "final_x": "3670005.20785",
    "final_y": "545512.486519",
    "longitude": "-90.10389276603526",
    "latitude": "29.994314304442696",
    "geocoded_column": {
      "latitude": "29.994314304442696",
      "longitude": "-90.10389276603526"
    }
  },
  {
    "service_request": "2024-1157196",
    "request_type": "Streetlights",
    "request_reason": "Streetlight Outage/Malfunction",
    "date_created": "2024-12-24T16:44:12.000",
    "date_modified": "2024-12-24T16:44:13.000",
    "request_status": "Pending",
    "responsible_agency": "Department of Public Works",
    "final_address": "6600 BLK Argonne Blvd",
    "address_councildis": "A",
    "status": "Pending",
    "contractor": "Legacy Professional Services",
    "rowid": "1157196",
    "final_x": "3670577.38519",
    "final_y": "551532.092918",
    "longitude": "-90.10188096946216",
    "latitude": "30.010849227797767",
    "geocoded_column": {
      "latitude": "30.010849227797767",
      "longitude": "-90.10188096946216"
    }
  },
  {
    "service_request": "2024-1157195",
    "request_type": "General Services",
    "request_reason": "General Service Request",
    "date_created": "2024-12-24T16:43:35.000",
    "date_modified": "2024-12-24T16:43:35.000",
    "request_status": "Pending",
    "responsible_agency": "Orleans Parish Communication District",
    "final_address": "400 BLK N Claiborne Ave",
    "address_councildis": "B",
    "status": "Pending",
    "rowid": "1157195",
    "final_x": "3679146.42415",
    "final_y": "533883.176772",
    "longitude": "-90.07542014750857",
    "latitude": "29.962064869567975",
    "geocoded_column": {
      "latitude": "29.962064869567975",
      "longitude": "-90.07542014750857"
    }
  },
  {
    "service_request": "2024-1157194",
    "request_type": "Trash/Recycling",
    "request_reason": "Illegal Dumping",
    "date_created": "2024-12-24T16:39:10.000",
    "date_modified": "2024-12-24T16:39:10.000",
    "request_status": "Pending",
    "responsible_agency": "Department of Sanitation",
    "final_address": "3728 Laurel St",
    "address_councildis": "B",
    "status": "Pending",
    "rowid": "1157194",
    "final_x": "3673610.84187",
    "final_y": "518305.289014",
    "longitude": "-90.09343301156437",
    "latitude": "29.919396709470647",
    "geocoded_column": {
      "latitude": "29.919396709470647",
      "longitude": "-90.09343301156437"
    }
  },
  {
    "service_request": "2024-1157193",
    "request_type": "Abandoned Vehicles",
    "request_reason": "Abandoned/Junk Vehicles",
    "date_created": "2024-12-24T14:00:46.000",
    "date_modified": "2024-12-24T14:00:46.000",
    "request_status": "Pending",
    "responsible_agency": "Department of Public Works",
    "final_address": "2401 St Ann St",
    "address_councildis": "D",
    "status": "Pending",
    "rowid": "1157193",
    "final_x": "3678006.47618",
    "final_y": "536449.586183",
    "longitude": "-90.07893120924889",
    "latitude": "29.969155983851625",
    "geocoded_column": {
      "latitude": "29.969155983851625",
      "longitude": "-90.07893120924889"
    }
  },
  {
    "service_request": "2024-1157192",
    "request_type": "Streetlights",
    "request_reason": "Streetlight Outage/Malfunction",
    "date_created": "2024-12-24T13:56:51.000",
    "date_modified": "2024-12-24T13:56:52.000",
    "request_status": "Pending",
    "responsible_agency": "Department of Public Works",
    "final_address": "1703 S Dupre St",
    "address_councildis": "B",
    "status": "Pending",
    "contractor": "Legacy Professional Services",
    "rowid": "1157192",
    "final_x": "3670708.49697",
    "final_y": "530112.890177",
    "longitude": "-90.10219382850525",
    "latitude": "29.951949838361482",
    "geocoded_column": {
      "latitude": "29.951949838361482",
      "longitude": "-90.10219382850525"
    }
  },
  {
    "service_request": "2024-1157191",
    "request_type": "Trash/Recycling",
    "request_reason": "Request a Large Item Pick Up",
    "date_created": "2024-12-24T13:54:07.000",
    "date_modified": "2024-12-24T13:54:08.000",
    "request_status": "Pending",
    "responsible_agency": "Department of Sanitation",
    "final_address": "4747 Donna Dr",
    "address_councildis": "E",
    "status": "Assigned to Contractor",
    "contractor": "Waste Pro",
    "rowid": "1157191",
    "final_x": "3711057.16587",
    "final_y": "555845.840857",
    "longitude": "-89.97382901824699",
    "latitude": "30.021452031168323",
    "geocoded_column": {
      "latitude": "30.021452031168323",
      "longitude": "-89.97382901824699"
    }
  },
  {
    "service_request": "2024-1157190",
    "request_type": "Streetlights",
    "request_reason": "Streetlight Outage/Malfunction",
    "date_created": "2024-12-24T13:50:46.000",
    "date_modified": "2024-12-24T13:50:46.000",
    "request_status": "Pending",
    "responsible_agency": "Department of Public Works",
    "final_address": "1701 S Dupre St",
    "address_councildis": "B",
    "status": "Pending",
    "contractor": "Legacy Professional Services",
    "rowid": "1157190",
    "final_x": "3670715.78868",
    "final_y": "530125.390145",
    "longitude": "-90.10217038059034",
    "latitude": "29.951983993737848",
    "geocoded_column": {
      "latitude": "29.951983993737848",
      "longitude": "-90.10217038059034"
    }
  },
  {
    "service_request": "2024-1157189",
    "request_type": "Abandoned Vehicles",
    "request_reason": "Vehicle Blocking Your Driveway",
    "date_created": "2024-12-24T13:43:03.000",
    "date_modified": "2024-12-24T13:43:03.000",
    "request_status": "Pending",
    "responsible_agency": "Department of Public Works",
    "final_address": "8605 Nelson St",
    "address_councildis": "A",
    "status": "Pending",
    "rowid": "1157189",
    "final_x": "3663779.44301",
    "final_y": "533115.0169",
    "longitude": "-90.12397256041537",
    "latitude": "29.960407601680668",
    "geocoded_column": {
      "latitude": "29.960407601680668",
      "longitude": "-90.12397256041537"
    }
  },
  {
    "service_request": "2024-1157188",
    "request_type": "Trash/Recycling",
    "request_reason": "Missed Trash Pick-Up",
    "date_created": "2024-12-24T13:12:54.000",
    "date_modified": "2024-12-24T13:13:19.000",
    "request_status": "Pending",
    "responsible_agency": "Department of Sanitation",
    "final_address": "7301 Dartmoor Dr",
    "address_councildis": "E",
    "status": "Assigned to Contractor",
    "contractor": "Waste Pro",
    "rowid": "1157188",
    "final_x": "3705209.99089",
    "final_y": "561731.059551",
    "longitude": "-89.99208668286276",
    "latitude": "30.0378235445142",
    "geocoded_column": {
      "latitude": "30.0378235445142",
      "longitude": "-89.99208668286276"
    }
  },
  {
    "service_request": "2024-1157187",
    "request_type": "Trash/Recycling",
    "request_reason": "Missed Trash Pick-Up",
    "date_created": "2024-12-24T13:11:53.000",
    "date_modified": "2024-12-24T13:11:54.000",
    "request_status": "Pending",
    "responsible_agency": "Department of Sanitation",
    "final_address": "7301 Dartmoor Dr",
    "address_councildis": "E",
    "status": "Assigned to Contractor",
    "contractor": "Waste Pro",
    "rowid": "1157187",
    "final_x": "3705209.99089",
    "final_y": "561731.059551",
    "longitude": "-89.99208668286276",
    "latitude": "30.0378235445142",
    "geocoded_column": {
      "latitude": "30.0378235445142",
      "longitude": "-89.99208668286276"
    }
  },
  {
    "service_request": "2024-1157186",
    "request_type": "Street and Traffic Signs",
    "request_reason": "Disabled Parking Sign Missing or Damaged",
    "date_created": "2024-12-24T12:51:27.000",
    "date_modified": "2024-12-24T12:51:27.000",
    "request_status": "Pending",
    "responsible_agency": "Department of Public Works",
    "final_address": "517 Dumaine St",
    "address_councildis": "C",
    "status": "Pending",
    "rowid": "1157186",
    "final_x": "3683496.66537",
    "final_y": "532696.095108",
    "longitude": "-90.06172436654981",
    "latitude": "29.95866876830608",
    "geocoded_column": {
      "latitude": "29.95866876830608",
      "longitude": "-90.06172436654981"
    }
  },
  {
    "service_request": "2024-1157185",
    "request_type": "Drainage",
    "request_reason": "Ditch and Culvert Maintenance",
    "date_created": "2024-12-24T12:30:46.000",
    "date_modified": "2024-12-24T12:30:46.000",
    "request_status": "Pending",
    "responsible_agency": "Department of Public Works",
    "final_address": "2833 S Derbigny St",
    "address_councildis": "B",
    "status": "Pending",
    "rowid": "1157185",
    "final_x": "3672649.99118",
    "final_y": "526922.755262",
    "longitude": "-90.0961722519577",
    "latitude": "29.943120514535345",
    "geocoded_column": {
      "latitude": "29.943120514535345",
      "longitude": "-90.0961722519577"
    }
  },
  {
    "service_request": "2024-1157184",
    "request_type": "Trash/Recycling",
    "request_reason": "Request a Large Item Pick Up",
    "date_created": "2024-12-24T12:23:42.000",
    "date_modified": "2024-12-24T13:17:27.000",
    "case_close_date": "2024-12-24T07:17:27.000",
    "request_status": "Closed",
    "responsible_agency": "Department of Sanitation",
    "final_address": "9830 Morrison Rd",
    "address_councildis": "E",
    "status": "Duplicate Request",
    "contractor": "Waste Pro",
    "contractor_action": "Duplicate",
    "rowid": "1157184",
    "final_x": "3707910.13188",
    "final_y": "562926.344224",
    "longitude": "-89.98350914893025",
    "latitude": "30.041022921529713",
    "geocoded_column": {
      "latitude": "30.041022921529713",
      "longitude": "-89.98350914893025"
    }
  },
  {
    "service_request": "2024-1157183",
    "request_type": "General Services",
    "request_reason": "General Service Request",
    "date_created": "2024-12-24T12:06:28.000",
    "date_modified": "2024-12-24T12:06:28.000",
    "request_status": "Pending",
    "responsible_agency": "Orleans Parish Communication District",
    "final_address": "6068 Canal Blvd, New Orleans, Louisiana, 70124",
    "address_councildis": "A",
    "status": "Pending",
    "rowid": "1157183",
    "final_x": "3668403.33185",
    "final_y": "547897.583826",
    "longitude": "-90.10887238651094",
    "latitude": "30.000919661027034",
    "geocoded_column": {
      "latitude": "30.000919661027034",
      "longitude": "-90.10887238651094"
    }
  },
  {
    "service_request": "2024-1157182",
    "request_type": "New Orleans Recreation Development Commission (NORDC)",
    "request_reason": "Facilities and Parks Maintenance/Clean Up",
    "date_created": "2024-12-24T11:20:05.000",
    "date_modified": "2024-12-24T11:20:05.000",
    "request_status": "Pending",
    "responsible_agency": "New Orleans Recreation Development Commission",
    "final_address": "2529 General Meyer Ave",
    "address_councildis": "C",
    "status": "Pending",
    "rowid": "1157182",
    "final_x": "3693595.48861",
    "final_y": "526700.070718",
    "longitude": "-90.03005040003065",
    "latitude": "29.941869757726295",
    "geocoded_column": {
      "latitude": "29.941869757726295",
      "longitude": "-90.03005040003065"
    }
  },
  {
    "service_request": "2024-1157181",
    "request_type": "Trash/Recycling",
    "request_reason": "Repair Recycling Cart",
    "date_created": "2024-12-24T11:09:21.000",
    "date_modified": "2024-12-24T11:09:21.000",
    "request_status": "Pending",
    "responsible_agency": "Department of Sanitation",
    "final_address": "830 Solomon Pl",
    "address_councildis": "A",
    "status": "Pending",
    "rowid": "1157181",
    "final_x": "3672554.48161",
    "final_y": "540850.139211",
    "longitude": "-90.09599896632494",
    "latitude": "29.981418998984747",
    "geocoded_column": {
      "latitude": "29.981418998984747",
      "longitude": "-90.09599896632494"
    }
  },
  {
    "service_request": "2024-1157180",
    "request_type": "Trash/Recycling",
    "request_reason": "Repair Recycling Cart",
    "date_created": "2024-12-24T11:05:09.000",
    "date_modified": "2024-12-24T11:05:09.000",
    "request_status": "Pending",
    "responsible_agency": "Department of Sanitation",
    "final_address": "5512 Canal Blvd",
    "address_councildis": "A",
    "status": "Pending",
    "rowid": "1157180",
    "final_x": "3668052.44135",
    "final_y": "543982.261838",
    "longitude": "-90.11011292163404",
    "latitude": "29.990164178165227",
    "geocoded_column": {
      "latitude": "29.990164178165227",
      "longitude": "-90.11011292163404"
    }
  },
  {
    "service_request": "2024-1157179",
    "request_type": "Trash/Recycling",
    "request_reason": "Order Second Trash Cart",
    "date_created": "2024-12-24T11:00:47.000",
    "date_modified": "2024-12-24T11:00:48.000",
    "request_status": "Pending",
    "responsible_agency": "Department of Sanitation",
    "final_address": "11416 Prentiss Ave",
    "address_councildis": "E",
    "status": "Assigned to Contractor",
    "contractor": "Waste Pro",
    "rowid": "1157179",
    "final_x": "3717610.81989",
    "final_y": "556577.075034",
    "longitude": "-89.9530936737989",
    "latitude": "30.023247202853163",
    "geocoded_column": {
      "latitude": "30.023247202853163",
      "longitude": "-89.9530936737989"
    }
  },
  {
    "service_request": "2024-1157178",
    "request_type": "Trash/Recycling",
    "request_reason": "Request a Large Item Pick Up",
    "date_created": "2024-12-24T10:58:09.000",
    "date_modified": "2024-12-24T10:58:10.000",
    "request_status": "Pending",
    "responsible_agency": "Department of Sanitation",
    "final_address": "7401 Crestmont Rd",
    "address_councildis": "E",
    "status": "Assigned to Contractor",
    "contractor": "Waste Pro",
    "rowid": "1157178",
    "final_x": "3700001.74794",
    "final_y": "559634.687453",
    "longitude": "-90.00862250317479",
    "latitude": "30.03222593518999",
    "geocoded_column": {
      "latitude": "30.03222593518999",
      "longitude": "-90.00862250317479"
    }
  },
  {
    "service_request": "2024-1157177",
    "request_type": "Trash/Recycling",
    "request_reason": "Order Recycling Cart",
    "date_created": "2024-12-24T10:52:33.000",
    "date_modified": "2024-12-24T10:52:33.000",
    "request_status": "Pending",
    "responsible_agency": "Department of Sanitation",
    "final_address": "9326 Colapissa St",
    "address_councildis": "A",
    "status": "Pending",
    "rowid": "1157177",
    "final_x": "3663252.83194",
    "final_y": "536343.203911",
    "longitude": "-90.12552804584254",
    "latitude": "29.969299330048532",
    "geocoded_column": {
      "latitude": "29.969299330048532",
      "longitude": "-90.12552804584254"
    }
  },
  {
    "service_request": "2024-1157176",
    "request_type": "Trash/Recycling",
    "request_reason": "Replace Trash Cart",
    "date_created": "2024-12-24T10:50:56.000",
    "date_modified": "2024-12-24T10:50:57.000",
    "request_status": "Pending",
    "responsible_agency": "Department of Sanitation",
    "final_address": "9326 Colapissa St",
    "address_councildis": "A",
    "status": "Assigned to Contractor",
    "contractor": "IV Waste",
    "rowid": "1157176",
    "final_x": "3663252.83194",
    "final_y": "536343.203911",
    "longitude": "-90.12552804584254",
    "latitude": "29.969299330048532",
    "geocoded_column": {
      "latitude": "29.969299330048532",
      "longitude": "-90.12552804584254"
    }
  },
  {
    "service_request": "2024-1157175",
    "request_type": "Trash/Recycling",
    "request_reason": "Start Trash Service",
    "date_created": "2024-12-24T10:44:38.000",
    "date_modified": "2024-12-24T10:44:39.000",
    "request_status": "Pending",
    "responsible_agency": "Department of Sanitation",
    "final_address": "4439 annunciation street ",
    "address_councildis": "B",
    "status": "Assigned to Contractor",
    "contractor": "IV Waste",
    "rowid": "1157175",
    "final_x": "3670790.94785",
    "final_y": "517751.635318",
    "longitude": "-90.10235279874362",
    "latitude": "29.917957938949204",
    "geocoded_column": {
      "latitude": "29.917957938949204",
      "longitude": "-90.10235279874362"
    }
  },
  {
    "service_request": "2024-1157174",
    "request_type": "Trash/Recycling",
    "request_reason": "Replace Trash Cart",
    "date_created": "2024-12-24T10:24:40.000",
    "date_modified": "2024-12-24T10:24:41.000",
    "request_status": "Pending",
    "responsible_agency": "Department of Sanitation",
    "final_address": "919 Thalia St",
    "address_councildis": "B",
    "status": "Assigned to Contractor",
    "contractor": "IV Waste",
    "rowid": "1157174",
    "final_x": "3681165.95676",
    "final_y": "525120.409341",
    "longitude": "-90.06934802075943",
    "latitude": "29.937909093528585",
    "geocoded_column": {
      "latitude": "29.937909093528585",
      "longitude": "-90.06934802075943"
    }
  },
  {
    "service_request": "2024-1157173",
    "request_type": "Trash/Recycling",
    "request_reason": "Replace Trash Cart",
    "date_created": "2024-12-24T10:00:58.000",
    "date_modified": "2024-12-24T10:00:59.000",
    "request_status": "Pending",
    "responsible_agency": "Department of Sanitation",
    "final_address": "429 36Th St",
    "address_councildis": "A",
    "status": "Assigned to Contractor",
    "contractor": "IV Waste",
    "rowid": "1157173",
    "final_x": "3664701.56756",
    "final_y": "551989.836374",
    "longitude": "-90.12042975437568",
    "latitude": "30.01228018952433",
    "geocoded_column": {
      "latitude": "30.01228018952433",
      "longitude": "-90.12042975437568"
    }
  },
  {
    "service_request": "2024-1157172",
    "request_type": "Abandoned Vehicles",
    "request_reason": "Vehicle Blocking Your Driveway",
    "date_created": "2024-12-24T09:54:30.000",
    "date_modified": "2024-12-24T09:54:30.000",
    "request_status": "Pending",
    "responsible_agency": "Department of Public Works",
    "final_address": "1423 Jackson Ave",
    "address_councildis": "B",
    "status": "Pending",
    "rowid": "1157172",
    "final_x": "3678172.36232",
    "final_y": "523074.648123",
    "longitude": "-90.07886976055788",
    "latitude": "29.93237438429335",
    "geocoded_column": {
      "latitude": "29.93237438429335",
      "longitude": "-90.07886976055788"
    }
  },
  {
    "service_request": "2024-1157171",
    "request_type": "Trash/Recycling",
    "request_reason": "Missed Trash Pick-Up",
    "date_created": "2024-12-24T09:38:42.000",
    "date_modified": "2024-12-24T10:04:01.000",
    "case_close_date": "2024-12-24T04:04:01.000",
    "request_status": "Closed",
    "responsible_agency": "Department of Sanitation",
    "final_address": "6172 Bellaire Dr",
    "address_councildis": "A",
    "status": "Duplicate Request",
    "contractor": "IV Waste",
    "contractor_action": "Duplicate",
    "rowid": "1157171",
    "final_x": "3664273.50324",
    "final_y": "548764.635283",
    "longitude": "-90.12188993529587",
    "latitude": "30.00342445522383",
    "geocoded_column": {
      "latitude": "30.00342445522383",
      "longitude": "-90.12188993529587"
    }
  },
  {
    "service_request": "2024-1157170",
    "request_type": "Trash/Recycling",
    "request_reason": "Missed Trash Pick-Up",
    "date_created": "2024-12-24T09:37:40.000",
    "date_modified": "2024-12-24T11:11:06.000",
    "case_close_date": "2024-12-24T05:11:06.000",
    "request_status": "Closed",
    "responsible_agency": "Department of Sanitation",
    "final_address": "6172 Bellaire Dr",
    "address_councildis": "A",
    "status": "Invalid Request",
    "contractor": "IV Waste",
    "contractor_action": "Invalid",
    "rowid": "1157170",
    "final_x": "3664273.50324",
    "final_y": "548764.635283",
    "longitude": "-90.12188993529587",
    "latitude": "30.00342445522383",
    "geocoded_column": {
      "latitude": "30.00342445522383",
      "longitude": "-90.12188993529587"
    }
  },
  {
    "service_request": "2024-1157169",
    "request_type": "Abandoned Vehicles",
    "request_reason": "Vehicle Blocking Your Driveway",
    "date_created": "2024-12-24T09:31:34.000",
    "date_modified": "2024-12-24T09:31:34.000",
    "request_status": "Pending",
    "responsible_agency": "Department of Public Works",
    "final_address": "1423 Jackson Ave",
    "address_councildis": "B",
    "status": "Pending",
    "rowid": "1157169",
    "final_x": "3678172.36232",
    "final_y": "523074.648123",
    "longitude": "-90.07886976055788",
    "latitude": "29.93237438429335",
    "geocoded_column": {
      "latitude": "29.93237438429335",
      "longitude": "-90.07886976055788"
    }
  },
  {
    "service_request": "2024-1157168",
    "request_type": "Trash/Recycling",
    "request_reason": "Damaged Caused By Contractor",
    "date_created": "2024-12-24T09:24:36.000",
    "date_modified": "2024-12-24T09:24:37.000",
    "request_status": "Pending",
    "responsible_agency": "Department of Sanitation",
    "final_address": "277 Abalon Ct",
    "address_councildis": "C",
    "status": "Assigned to Contractor",
    "contractor": "Richards Disposal",
    "rowid": "1157168",
    "final_x": "3689346.88259",
    "final_y": "530768.006594",
    "longitude": "-90.04331950163318",
    "latitude": "29.953187377678606",
    "geocoded_column": {
      "latitude": "29.953187377678606",
      "longitude": "-90.04331950163318"
    }
  },
  {
    "service_request": "2024-1157167",
    "request_type": "Drainage",
    "request_reason": "Catch Basin Clogged",
    "date_created": "2024-12-24T09:22:47.000",
    "date_modified": "2024-12-24T09:22:47.000",
    "request_status": "Pending",
    "responsible_agency": "Department of Public Works",
    "final_address": "2132 St Roch Ave",
    "address_councildis": "D",
    "status": "Pending",
    "rowid": "1157167",
    "final_x": "3686101.57538",
    "final_y": "540392.865867",
    "longitude": "-90.05322723184386",
    "latitude": "29.97975246216862",
    "geocoded_column": {
      "latitude": "29.97975246216862",
      "longitude": "-90.05322723184386"
    }
  },
  {
    "service_request": "2024-1157166",
    "request_type": "Trash/Recycling",
    "request_reason": "Request a Large Item Pick Up",
    "date_created": "2024-12-24T09:14:58.000",
    "date_modified": "2024-12-24T09:14:59.000",
    "request_status": "Pending",
    "responsible_agency": "Department of Sanitation",
    "final_address": "2510 Robert St",
    "address_councildis": "B",
    "status": "Assigned to Contractor",
    "contractor": "IV Waste",
    "rowid": "1157166",
    "final_x": "3668793.24417",
    "final_y": "524713.363452",
    "longitude": "-90.10842356779854",
    "latitude": "29.937159336446907",
    "geocoded_column": {
      "latitude": "29.937159336446907",
      "longitude": "-90.10842356779854"
    }
  },
  {
    "service_request": "2024-1157165",
    "request_type": "Trash/Recycling",
    "request_reason": "Request a Large Item Pick Up",
    "date_created": "2024-12-24T08:58:01.000",
    "date_modified": "2024-12-24T08:58:02.000",
    "request_status": "Pending",
    "responsible_agency": "Department of Sanitation",
    "final_address": "400 BLK Girod St",
    "address_councildis": "B",
    "status": "Assigned to Contractor",
    "rowid": "1157165",
    "final_x": "3681643.91063",
    "final_y": "528270.081699",
    "longitude": "-90.06772925056771",
    "latitude": "29.946555134059206",
    "geocoded_column": {
      "latitude": "29.946555134059206",
      "longitude": "-90.06772925056771"
    }
  },
  {
    "service_request": "2024-1157164",
    "request_type": "Abandoned Vehicles",
    "request_reason": "Abandoned/Junk Vehicles",
    "date_created": "2024-12-24T08:31:15.000",
    "date_modified": "2024-12-24T08:31:15.000",
    "request_status": "Pending",
    "responsible_agency": "Department of Public Works",
    "final_address": "1901 Delachaise St",
    "address_councildis": "B",
    "status": "Pending",
    "rowid": "1157164",
    "final_x": "3673409.4459",
    "final_y": "522459.790522",
    "longitude": "-90.09392687357536",
    "latitude": "29.93082624525498",
    "geocoded_column": {
      "latitude": "29.93082624525498",
      "longitude": "-90.09392687357536"
    }
  },
  {
    "service_request": "2024-1157163",
    "request_type": "Trash/Recycling",
    "request_reason": "Missed Trash Pick-Up",
    "date_created": "2024-12-24T08:28:34.000",
    "date_modified": "2024-12-24T08:52:55.000",
    "case_close_date": "2024-12-24T02:52:55.000",
    "request_status": "Closed",
    "responsible_agency": "Department of Sanitation",
    "final_address": "1762 N Dorgenois St",
    "address_councildis": "D",
    "status": "Invalid Request",
    "contractor": "IV Waste",
    "contractor_action": "Invalid",
    "rowid": "1157163",
    "final_x": "3680337.55739",
    "final_y": "540754.809355",
    "longitude": "-90.07141975420535",
    "latitude": "29.980923483594108",
    "geocoded_column": {
      "latitude": "29.980923483594108",
      "longitude": "-90.07141975420535"
    }
  },
  {
    "service_request": "2024-1157162",
    "request_type": "Trash/Recycling",
    "request_reason": "Request a Large Item Pick Up",
    "date_created": "2024-12-24T08:28:21.000",
    "date_modified": "2024-12-24T08:28:22.000",
    "request_status": "Pending",
    "responsible_agency": "Department of Sanitation",
    "final_address": "4958 Eastern St",
    "address_councildis": "D",
    "status": "Assigned to Contractor",
    "contractor": "IV Waste",
    "rowid": "1157162",
    "final_x": "3687897.8895",
    "final_y": "551486.054549",
    "longitude": "-90.04716047723198",
    "latitude": "30.010199432005862",
    "geocoded_column": {
      "latitude": "30.010199432005862",
      "longitude": "-90.04716047723198"
    }
  },
  {
    "service_request": "2024-1157161",
    "request_type": "Trash/Recycling",
    "request_reason": "Order Recycling Cart",
    "date_created": "2024-12-24T08:18:11.000",
    "date_modified": "2024-12-24T08:18:11.000",
    "request_status": "Pending",
    "responsible_agency": "Department of Sanitation",
    "final_address": "1226 Columbus St",
    "address_councildis": "C",
    "status": "Pending",
    "rowid": "1157161",
    "final_x": "3682805.52328",
    "final_y": "536162.977159",
    "longitude": "-90.06378551711688",
    "latitude": "29.968222575783102",
    "geocoded_column": {
      "latitude": "29.968222575783102",
      "longitude": "-90.06378551711688"
    }
  },
  {
    "service_request": "2024-1157160",
    "request_type": "Trash/Recycling",
    "request_reason": "Request a Large Item Pick Up",
    "date_created": "2024-12-24T08:05:42.000",
    "date_modified": "2024-12-24T11:00:47.000",
    "case_close_date": "2024-12-24T05:00:47.000",
    "request_status": "Closed",
    "responsible_agency": "Department of Sanitation",
    "final_address": "9830 Morrison Rd",
    "address_councildis": "E",
    "status": "Duplicate Request",
    "contractor": "Waste Pro",
    "contractor_action": "Duplicate",
    "rowid": "1157160",
    "final_x": "3707910.13188",
    "final_y": "562926.344224",
    "longitude": "-89.98350914893025",
    "latitude": "30.041022921529713",
    "geocoded_column": {
      "latitude": "30.041022921529713",
      "longitude": "-89.98350914893025"
    }
  },
  {
    "service_request": "2024-1157159",
    "request_type": "Trash/Recycling",
    "request_reason": "Request a Large Item Pick Up",
    "date_created": "2024-12-24T08:04:51.000",
    "date_modified": "2024-12-24T08:04:52.000",
    "request_status": "Pending",
    "responsible_agency": "Department of Sanitation",
    "final_address": "9830 Morrison Rd",
    "address_councildis": "E",
    "status": "Assigned to Contractor",
    "contractor": "Waste Pro",
    "rowid": "1157159",
    "final_x": "3707910.13188",
    "final_y": "562926.344224",
    "longitude": "-89.98350914893025",
    "latitude": "30.041022921529713",
    "geocoded_column": {
      "latitude": "30.041022921529713",
      "longitude": "-89.98350914893025"
    }
  },
  {
    "service_request": "2024-1157158",
    "request_type": "Trash/Recycling",
    "request_reason": "Order Recycling Cart",
    "date_created": "2024-12-24T07:53:46.000",
    "date_modified": "2024-12-24T07:53:46.000",
    "request_status": "Pending",
    "responsible_agency": "Department of Sanitation",
    "final_address": "2128 St Andrew St",
    "address_councildis": "B",
    "status": "Pending",
    "rowid": "1157158",
    "final_x": "3676851.91688",
    "final_y": "525814.340861",
    "longitude": "-90.08294390778713",
    "latitude": "29.939947324561064",
    "geocoded_column": {
      "latitude": "29.939947324561064",
      "longitude": "-90.08294390778713"
    }
  },
  {
    "service_request": "2024-1157157",
    "request_type": "Trash/Recycling",
    "request_reason": "Repair Trash Cart",
    "date_created": "2024-12-24T07:28:53.000",
    "date_modified": "2024-12-24T10:35:55.000",
    "case_close_date": "2024-12-24T04:35:55.000",
    "request_status": "Closed",
    "responsible_agency": "Department of Sanitation",
    "final_address": "3817 Havana Pl",
    "address_councildis": "D",
    "status": "Assigned to Contractor",
    "contractor": "IV Waste",
    "contractor_action": "Completed",
    "rowid": "1157157",
    "final_x": "3680630.78191",
    "final_y": "546186.488464",
    "longitude": "-90.07030451906861",
    "latitude": "29.995849809682447",
    "geocoded_column": {
      "latitude": "29.995849809682447",
      "longitude": "-90.07030451906861"
    }
  },
  {
    "service_request": "2024-1157156",
    "request_type": "Safety & Permits",
    "request_reason": "Licenses & Permits",
    "date_created": "2024-12-24T07:21:07.000",
    "date_modified": "2024-12-24T07:21:07.000",
    "request_status": "Pending",
    "responsible_agency": "Safety and Permits",
    "final_address": "1572 N Broad St",
    "address_councildis": "D",
    "status": "Pending",
    "rowid": "1157156",
    "final_x": "3679097.06331",
    "final_y": "540027.466187",
    "longitude": "-90.07536300706293",
    "latitude": "29.978961048272343",
    "geocoded_column": {
      "latitude": "29.978961048272343",
      "longitude": "-90.07536300706293"
    }
  },
  {
    "service_request": "2024-1157155",
    "request_type": "Trash/Recycling",
    "request_reason": "Request a Large Item Pick Up",
    "date_created": "2024-12-24T06:41:54.000",
    "date_modified": "2024-12-24T06:41:55.000",
    "request_status": "Pending",
    "responsible_agency": "Department of Sanitation",
    "final_address": "6038 St Roch Ave",
    "address_councildis": "D",
    "status": "Assigned to Contractor",
    "contractor": "IV Waste",
    "rowid": "1157155",
    "final_x": "3684849.52105",
    "final_y": "555387.567513",
    "longitude": "-90.05665405152598",
    "latitude": "30.02102089510698",
    "geocoded_column": {
      "latitude": "30.02102089510698",
      "longitude": "-90.05665405152598"
    }
  },
  {
    "service_request": "2024-1157154",
    "request_type": "Trash/Recycling",
    "request_reason": "Missed Trash Pick-Up",
    "date_created": "2024-12-24T06:40:49.000",
    "date_modified": "2024-12-24T07:48:11.000",
    "case_close_date": "2024-12-24T01:48:11.000",
    "request_status": "Closed",
    "responsible_agency": "Department of Sanitation",
    "final_address": "8036 Read Blvd",
    "address_councildis": "E",
    "status": "Invalid Request",
    "contractor": "Waste Pro",
    "contractor_action": "Invalid Request",
    "rowid": "1157154",
    "final_x": "3707699.87761",
    "final_y": "565823.164643",
    "longitude": "-89.98406581714222",
    "latitude": "30.0489948292551",
    "geocoded_column": {
      "latitude": "30.0489948292551",
      "longitude": "-89.98406581714222"
    }
  },
  {
    "service_request": "2024-1157153",
    "request_type": "Trash/Recycling",
    "request_reason": "Request a Large Item Pick Up",
    "date_created": "2024-12-24T06:26:53.000",
    "date_modified": "2024-12-24T06:26:54.000",
    "request_status": "Pending",
    "responsible_agency": "Department of Sanitation",
    "final_address": "7336 Strathmore Dr",
    "address_councildis": "E",
    "status": "Assigned to Contractor",
    "contractor": "Waste Pro",
    "rowid": "1157153",
    "final_x": "3714362.74571",
    "final_y": "566563.412131",
    "longitude": "-89.96297940270516",
    "latitude": "30.05081279642302",
    "geocoded_column": {
      "latitude": "30.05081279642302",
      "longitude": "-89.96297940270516"
    }
  },
  {
    "service_request": "2024-1157152",
    "request_type": "Health Related Request",
    "request_reason": "Noise Ordinance Complaint",
    "date_created": "2024-12-24T00:40:39.000",
    "date_modified": "2024-12-24T00:40:39.000",
    "request_status": "Pending",
    "responsible_agency": "Health Department",
    "final_address": "530 Lyons St",
    "address_councildis": "B",
    "status": "Pending",
    "rowid": "1157152",
    "final_x": "3669312.65748",
    "final_y": "517527.298038",
    "longitude": "-90.10702654441026",
    "latitude": "29.91738466791682",
    "geocoded_column": {
      "latitude": "29.91738466791682",
      "longitude": "-90.10702654441026"
    }
  },
  {
    "service_request": "2024-1157151",
    "request_type": "General Services",
    "request_reason": "General Service Request",
    "date_created": "2024-12-24T00:30:40.000",
    "date_modified": "2024-12-24T00:30:40.000",
    "request_status": "Pending",
    "responsible_agency": "Orleans Parish Communication District",
    "final_address": "3100 Gravier St Apt C",
    "address_councildis": "B",
    "status": "Pending",
    "rowid": "1157151",
    "final_x": "3672491.35649",
    "final_y": "534053.976005",
    "longitude": "-90.09643005830235",
    "latitude": "29.962733722172917",
    "geocoded_column": {
      "latitude": "29.962733722172917",
      "longitude": "-90.09643005830235"
    }
  },
  {
    "service_request": "2024-1157150",
    "request_type": "Parks & Parkways",
    "request_reason": "Request Tree Service (Right of Way/Public Property)",
    "date_created": "2024-12-23T22:56:11.000",
    "date_modified": "2024-12-23T22:56:11.000",
    "request_status": "Pending",
    "responsible_agency": "Department of Parks & Parkway",
    "final_address": "4661 Baccich St",
    "address_councildis": "D",
    "status": "Pending",
    "rowid": "1157150",
    "final_x": "3687800.88585",
    "final_y": "550227.804052",
    "longitude": "-90.04751155618321",
    "latitude": "30.006742697068326",
    "geocoded_column": {
      "latitude": "30.006742697068326",
      "longitude": "-90.04751155618321"
    }
  },
  {
    "service_request": "2024-1157149",
    "request_type": "Streetlights",
    "request_reason": "Streetlight Outage/Malfunction",
    "date_created": "2024-12-23T20:53:27.000",
    "date_modified": "2024-12-23T20:53:29.000",
    "request_status": "Pending",
    "responsible_agency": "Department of Public Works",
    "final_address": "1216 Gordon St",
    "address_councildis": "E",
    "status": "Pending",
    "contractor": "Legacy Professional Services",
    "rowid": "1157149",
    "final_x": "3699307.63888",
    "final_y": "533918.476869",
    "longitude": "-90.01175320856913",
    "latitude": "29.961537945495248",
    "geocoded_column": {
      "latitude": "29.961537945495248",
      "longitude": "-90.01175320856913"
    }
  },
  {
    "service_request": "2024-1157148",
    "request_type": "Streetlights",
    "request_reason": "Streetlight Outage/Malfunction",
    "date_created": "2024-12-23T20:36:12.000",
    "date_modified": "2024-12-23T20:36:13.000",
    "request_status": "Pending",
    "responsible_agency": "Department of Public Works",
    "final_address": "1216 Gordon St",
    "address_councildis": "E",
    "status": "Pending",
    "contractor": "Legacy Professional Services",
    "rowid": "1157148",
    "final_x": "3699307.63888",
    "final_y": "533918.476869",
    "longitude": "-90.01175320856913",
    "latitude": "29.961537945495248",
    "geocoded_column": {
      "latitude": "29.961537945495248",
      "longitude": "-90.01175320856913"
    }
  },
  {
    "service_request": "2024-1157147",
    "request_type": "Trash/Recycling",
    "request_reason": "Request a Large Item Pick Up",
    "date_created": "2024-12-23T20:35:01.000",
    "date_modified": "2024-12-23T20:35:02.000",
    "request_status": "Pending",
    "responsible_agency": "Department of Sanitation",
    "final_address": "908 N Hennessey St",
    "address_councildis": "A",
    "status": "Assigned to Contractor",
    "contractor": "IV Waste",
    "rowid": "1157147",
    "final_x": "3672187.03406",
    "final_y": "541387.804236",
    "longitude": "-90.09714121628043",
    "latitude": "29.982908299153753",
    "geocoded_column": {
      "latitude": "29.982908299153753",
      "longitude": "-90.09714121628043"
    }
  },
  {
    "service_request": "2024-1157146",
    "request_type": "Trash/Recycling",
    "request_reason": "Replace Trash Cart",
    "date_created": "2024-12-23T20:05:23.000",
    "date_modified": "2024-12-23T20:05:24.000",
    "request_status": "Pending",
    "responsible_agency": "Department of Sanitation",
    "final_address": "8030 Lacombe St Apt D",
    "address_councildis": "E",
    "status": "Assigned to Contractor",
    "contractor": "Waste Pro",
    "rowid": "1157146",
    "final_x": "3708977.91563",
    "final_y": "566212.434595",
    "longitude": "-89.98001195556009",
    "latitude": "30.050023723029607",
    "geocoded_column": {
      "latitude": "30.050023723029607",
      "longitude": "-89.98001195556009"
    }
  },
  {
    "service_request": "2024-1157145",
    "request_type": "Trash/Recycling",
    "request_reason": "Illegal Dumping",
    "date_created": "2024-12-23T19:42:53.000",
    "date_modified": "2024-12-23T19:42:53.000",
    "request_status": "Pending",
    "responsible_agency": "Department of Sanitation",
    "final_address": "7132 Bundy Rd",
    "address_councildis": "E",
    "status": "Pending",
    "rowid": "1157145",
    "final_x": "3706618.17655",
    "final_y": "561377.080542",
    "longitude": "-89.9876496441787",
    "latitude": "30.036804844003793",
    "geocoded_column": {
      "latitude": "30.036804844003793",
      "longitude": "-89.9876496441787"
    }
  },
  {
    "service_request": "2024-1157144",
    "request_type": "Trash/Recycling",
    "request_reason": "Missed Trash Pick-Up",
    "date_created": "2024-12-23T19:34:02.000",
    "date_modified": "2024-12-24T07:49:17.000",
    "case_close_date": "2024-12-24T01:49:17.000",
    "request_status": "Closed",
    "responsible_agency": "Department of Sanitation",
    "final_address": "7040 Lake Barrington Dr",
    "address_councildis": "E",
    "status": "Invalid Request",
    "contractor": "Waste Pro",
    "contractor_action": "Invalid Request",
    "rowid": "1157144",
    "final_x": "3712507.37707",
    "final_y": "563837.295905",
    "longitude": "-89.96894612504661",
    "latitude": "30.04337796091714",
    "geocoded_column": {
      "latitude": "30.04337796091714",
      "longitude": "-89.96894612504661"
    }
  },
  {
    "service_request": "2024-1157143",
    "request_type": "Abandoned Vehicles",
    "request_reason": "Abandoned/Junk Vehicles",
    "date_created": "2024-12-23T19:08:14.000",
    "date_modified": "2024-12-23T19:08:14.000",
    "request_status": "Pending",
    "responsible_agency": "Department of Public Works",
    "final_address": "2510 General Ogden St",
    "address_councildis": "A",
    "status": "Pending",
    "rowid": "1157143",
    "final_x": "3663058.44544",
    "final_y": "533842.249669",
    "longitude": "-90.12622514160051",
    "latitude": "29.962428158839753",
    "geocoded_column": {
      "latitude": "29.962428158839753",
      "longitude": "-90.12622514160051"
    }
  },
  {
    "service_request": "2024-1157142",
    "request_type": "Property Maintenance",
    "request_reason": "Property Maintenance",
    "date_created": "2024-12-23T18:58:13.000",
    "date_modified": "2024-12-23T18:58:13.000",
    "request_status": "Pending",
    "responsible_agency": "Department of Code Enforcement",
    "final_address": "2720 Second St",
    "address_councildis": "B",
    "status": "Pending",
    "rowid": "1157142",
    "final_x": "3674381.80987",
    "final_y": "526474.95923",
    "longitude": "-90.09071979433534",
    "latitude": "29.941837694401286",
    "geocoded_column": {
      "latitude": "29.941837694401286",
      "longitude": "-90.09071979433534"
    }
  },
  {
    "service_request": "2024-1157141",
    "request_type": "Health Related Request",
    "request_reason": "Homeless Encampment Complaint",
    "date_created": "2024-12-23T18:54:10.000",
    "date_modified": "2024-12-23T18:54:10.000",
    "request_status": "Pending",
    "responsible_agency": "Health Department",
    "final_address": "2720 Second St",
    "address_councildis": "B",
    "status": "Pending",
    "rowid": "1157141",
    "final_x": "3674381.80987",
    "final_y": "526474.95923",
    "longitude": "-90.09071979433534",
    "latitude": "29.941837694401286",
    "geocoded_column": {
      "latitude": "29.941837694401286",
      "longitude": "-90.09071979433534"
    }
  },
  {
    "service_request": "2024-1157140",
    "request_type": "Roads and Streets",
    "request_reason": "Pothole",
    "date_created": "2024-12-23T18:49:44.000",
    "date_modified": "2024-12-23T18:49:44.000",
    "request_status": "Pending",
    "responsible_agency": "Department of Public Works",
    "final_address": "MEMORIAL PARK DR & DELAWARE ST",
    "address_councildis": "C",
    "status": "Pending",
    "rowid": "1157140",
    "final_x": "3692358.3",
    "final_y": "521557.18",
    "longitude": "-90.034140549501",
    "latitude": "29.92776719450738",
    "geocoded_column": {
      "latitude": "29.92776719450738",
      "longitude": "-90.034140549501"
    }
  },
  {
    "service_request": "2024-1157139",
    "request_type": "Roads and Streets",
    "request_reason": "Pothole",
    "date_created": "2024-12-23T18:47:34.000",
    "date_modified": "2024-12-23T18:47:34.000",
    "request_status": "Pending",
    "responsible_agency": "Department of Public Works",
    "final_address": "MEMORIAL PARK DR & ARIZONA ST",
    "address_councildis": "C",
    "status": "Pending",
    "rowid": "1157139",
    "final_x": "3692083.8",
    "final_y": "521803.08",
    "longitude": "-90.03499828191553",
    "latitude": "29.92845189157066",
    "geocoded_column": {
      "latitude": "29.92845189157066",
      "longitude": "-90.03499828191553"
    }
  },
  {
    "service_request": "2024-1157138",
    "request_type": "Trash/Recycling",
    "request_reason": "MIssed Recycling Pick-Up",
    "date_created": "2024-12-23T18:44:03.000",
    "date_modified": "2024-12-24T08:31:13.000",
    "case_close_date": "2024-12-24T02:31:13.000",
    "request_status": "Closed",
    "responsible_agency": "Department of Sanitation",
    "final_address": "3555 River Oaks Dr",
    "address_councildis": "C",
    "status": "Resolved",
    "contractor": "Richards Disposal",
    "contractor_action": "Completed",
    "rowid": "1157138",
    "final_x": "3701292.21905",
    "final_y": "517822.050422",
    "longitude": "-90.0060750563269",
    "latitude": "29.917215319398668",
    "geocoded_column": {
      "latitude": "29.917215319398668",
      "longitude": "-90.0060750563269"
    }
  },
  {
    "service_request": "2024-1157137",
    "request_type": "Trash/Recycling",
    "request_reason": "Replace Trash Cart",
    "date_created": "2024-12-23T18:34:06.000",
    "date_modified": "2024-12-23T18:34:07.000",
    "request_status": "Pending",
    "responsible_agency": "Department of Sanitation",
    "final_address": "5139 Music St",
    "address_councildis": "D",
    "status": "Assigned to Contractor",
    "contractor": "IV Waste",
    "rowid": "1157137",
    "final_x": "3685619.27548",
    "final_y": "551743.062421",
    "longitude": "-90.05435038855951",
    "latitude": "30.01097623995478",
    "geocoded_column": {
      "latitude": "30.01097623995478",
      "longitude": "-90.05435038855951"
    }
  },
  {
    "service_request": "2024-1157136",
    "request_type": "Trash/Recycling",
    "request_reason": "Request a Large Item Pick Up",
    "date_created": "2024-12-23T17:59:47.000",
    "date_modified": "2024-12-23T17:59:48.000",
    "request_status": "Pending",
    "responsible_agency": "Department of Sanitation",
    "final_address": "4037 Hollygrove St",
    "address_councildis": "A",
    "status": "Assigned to Contractor",
    "contractor": "IV Waste",
    "rowid": "1157136",
    "final_x": "3666546.1858",
    "final_y": "538075.496969",
    "longitude": "-90.11506917747242",
    "latitude": "29.973966694815136",
    "geocoded_column": {
      "latitude": "29.973966694815136",
      "longitude": "-90.11506917747242"
    }
  },
  {
    "service_request": "2024-1157135",
    "request_type": "Drainage",
    "request_reason": "Drainage Manhole Cover Missing or Damaged",
    "date_created": "2024-12-23T17:48:39.000",
    "date_modified": "2024-12-23T17:48:39.000",
    "request_status": "Pending",
    "responsible_agency": "Department of Public Works",
    "final_address": "2425 Chartres St",
    "address_councildis": "C",
    "status": "Pending",
    "rowid": "1157135",
    "final_x": "3686130.22671",
    "final_y": "534620.938694",
    "longitude": "-90.05334038370131",
    "latitude": "29.963880798738845",
    "geocoded_column": {
      "latitude": "29.963880798738845",
      "longitude": "-90.05334038370131"
    }
  },
  {
    "service_request": "2024-1157134",
    "request_type": "General Services",
    "request_reason": "General Service Request",
    "date_created": "2024-12-23T17:20:27.000",
    "date_modified": "2024-12-23T17:20:27.000",
    "request_status": "Pending",
    "responsible_agency": "Orleans Parish Communication District",
    "final_address": "3523 Republic St",
    "address_councildis": "D",
    "status": "Pending",
    "rowid": "1157134",
    "final_x": "3680516.05794",
    "final_y": "545411.520016",
    "longitude": "-90.07069389844756",
    "latitude": "29.99372239738798",
    "geocoded_column": {
      "latitude": "29.99372239738798",
      "longitude": "-90.07069389844756"
    }
  },
  {
    "service_request": "2024-1157133",
    "request_type": "Streetlights",
    "request_reason": "Streetlight Outage/Malfunction",
    "date_created": "2024-12-23T17:18:34.000",
    "date_modified": "2024-12-23T17:18:34.000",
    "request_status": "Pending",
    "responsible_agency": "Department of Public Works",
    "final_address": "3500 BLK Republic St",
    "address_councildis": "D",
    "status": "Pending",
    "contractor": "Legacy Professional Services",
    "rowid": "1157133",
    "final_x": "3680472.21612",
    "final_y": "545389.606187",
    "longitude": "-90.0708331508246",
    "latitude": "29.99366347040658",
    "geocoded_column": {
      "latitude": "29.99366347040658",
      "longitude": "-90.0708331508246"
    }
  },
  {
    "service_request": "2024-1157132",
    "request_type": "General Services",
    "request_reason": "General Service Request",
    "date_created": "2024-12-23T17:13:05.000",
    "date_modified": "2024-12-23T17:13:05.000",
    "request_status": "Pending",
    "responsible_agency": "Orleans Parish Communication District",
    "final_address": "3500 BLK Republic St",
    "address_councildis": "D",
    "status": "Pending",
    "rowid": "1157132",
    "final_x": "3680472.21612",
    "final_y": "545389.606187",
    "longitude": "-90.0708331508246",
    "latitude": "29.99366347040658",
    "geocoded_column": {
      "latitude": "29.99366347040658",
      "longitude": "-90.0708331508246"
    }
  },
  {
    "service_request": "2024-1157131",
    "request_type": "Trash/Recycling",
    "request_reason": "Order Recycling Cart",
    "date_created": "2024-12-23T16:52:19.000",
    "date_modified": "2024-12-23T16:52:19.000",
    "request_status": "Pending",
    "responsible_agency": "Department of Sanitation",
    "final_address": "3131 Royal St",
    "address_councildis": "C",
    "status": "Pending",
    "rowid": "1157131",
    "final_x": "3688878.20963",
    "final_y": "534468.565701",
    "longitude": "-90.0446679513037",
    "latitude": "29.96337713345516",
    "geocoded_column": {
      "latitude": "29.96337713345516",
      "longitude": "-90.0446679513037"
    }
  },
  {
    "service_request": "2024-1157130",
    "request_type": "Trash/Recycling",
    "request_reason": "Request a Large Item Pick Up",
    "date_created": "2024-12-23T16:47:45.000",
    "date_modified": "2024-12-23T16:47:46.000",
    "request_status": "Pending",
    "responsible_agency": "Department of Sanitation",
    "final_address": "4807 St Claude Ave",
    "address_councildis": "E",
    "status": "Assigned to Contractor",
    "contractor": "Waste Pro",
    "rowid": "1157130",
    "final_x": "3695153.97546",
    "final_y": "534632.945286",
    "longitude": "-90.02484394726747",
    "latitude": "29.96363355565473",
    "geocoded_column": {
      "latitude": "29.96363355565473",
      "longitude": "-90.02484394726747"
    }
  },
  {
    "service_request": "2024-1157129",
    "request_type": "Parks & Parkways",
    "request_reason": "Tree Stump (removal, grind)",
    "date_created": "2024-12-23T16:45:24.000",
    "date_modified": "2024-12-23T16:45:24.000",
    "request_status": "Pending",
    "responsible_agency": "Department of Parks & Parkway",
    "final_address": "3331 Louisiana Avenue Prkwy",
    "address_councildis": "B",
    "status": "Pending",
    "rowid": "1157129",
    "final_x": "3671827.18324",
    "final_y": "527513.486911",
    "longitude": "-90.09874997138813",
    "latitude": "29.944769235532743",
    "geocoded_column": {
      "latitude": "29.944769235532743",
      "longitude": "-90.09874997138813"
    }
  },
  {
    "service_request": "2024-1157128",
    "request_type": "Trash/Recycling",
    "request_reason": "Repair Trash Cart",
    "date_created": "2024-12-23T16:39:18.000",
    "date_modified": "2024-12-23T19:54:05.000",
    "case_close_date": "2024-12-23T13:54:05.000",
    "request_status": "Closed",
    "responsible_agency": "Department of Sanitation",
    "final_address": "14101 Knightway Dr",
    "address_councildis": "E",
    "status": "Assigned to Contractor",
    "contractor": "Waste Pro",
    "contractor_action": "Completed",
    "rowid": "1157128",
    "final_x": "3718517.71852",
    "final_y": "570444.554279",
    "longitude": "-89.949698989532",
    "latitude": "30.061347043913674",
    "geocoded_column": {
      "latitude": "30.061347043913674",
      "longitude": "-89.949698989532"
    }
  },
  {
    "service_request": "2024-1157127",
    "request_type": "Abandoned Vehicles",
    "request_reason": "Abandoned/Junk Vehicles",
    "date_created": "2024-12-23T16:33:37.000",
    "date_modified": "2024-12-23T16:33:38.000",
    "request_status": "Pending",
    "responsible_agency": "Department of Public Works",
    "final_address": "7441 Weaver Ave",
    "address_councildis": "E",
    "status": "Pending",
    "rowid": "1157127",
    "final_x": "3707692.45841",
    "final_y": "563956.272929",
    "longitude": "-89.98415874154384",
    "latitude": "30.043861864173923",
    "geocoded_column": {
      "latitude": "30.043861864173923",
      "longitude": "-89.98415874154384"
    }
  },
  {
    "service_request": "2024-1157126",
    "request_type": "Abandoned Vehicles",
    "request_reason": "Abandoned/Junk Vehicles",
    "date_created": "2024-12-23T16:32:50.000",
    "date_modified": "2024-12-23T16:32:50.000",
    "request_status": "Pending",
    "responsible_agency": "Department of Public Works",
    "final_address": "5500 BLK Rosemary Pl",
    "address_councildis": "A",
    "status": "Pending",
    "rowid": "1157126",
    "final_x": "3667096.71006",
    "final_y": "544284.815746",
    "longitude": "-90.11312165935534",
    "latitude": "29.991024117516528",
    "geocoded_column": {
      "latitude": "29.991024117516528",
      "longitude": "-90.11312165935534"
    }
  },
  {
    "service_request": "2024-1157125",
    "request_type": "Trash/Recycling",
    "request_reason": "Request a Large Item Pick Up",
    "date_created": "2024-12-23T16:29:18.000",
    "date_modified": "2024-12-23T16:29:19.000",
    "request_status": "Pending",
    "responsible_agency": "Department of Sanitation",
    "final_address": "4626 Galahad Dr",
    "address_councildis": "E",
    "status": "Assigned to Contractor",
    "contractor": "Waste Pro",
    "rowid": "1157125",
    "final_x": "3707223.49451",
    "final_y": "554619.242264",
    "longitude": "-89.98598784428097",
    "latitude": "30.018203871162424",
    "geocoded_column": {
      "latitude": "30.018203871162424",
      "longitude": "-89.98598784428097"
    }
  },
  {
    "service_request": "2024-1157124",
    "request_type": "Trash/Recycling",
    "request_reason": "Order Recycling Cart",
    "date_created": "2024-12-23T16:22:42.000",
    "date_modified": "2024-12-23T16:22:43.000",
    "request_status": "Pending",
    "responsible_agency": "Department of Sanitation",
    "final_address": "110 S Pierce St",
    "address_councildis": "A",
    "status": "Pending",
    "rowid": "1157124",
    "final_x": "3671439.03937",
    "final_y": "537945.165321",
    "longitude": "-90.0996208434817",
    "latitude": "29.97346437937986",
    "geocoded_column": {
      "latitude": "29.97346437937986",
      "longitude": "-90.0996208434817"
    }
  },
  {
    "service_request": "2024-1157123",
    "request_type": "Trash/Recycling",
    "request_reason": "Request a Large Item Pick Up",
    "date_created": "2024-12-23T16:16:20.000",
    "date_modified": "2024-12-23T16:16:21.000",
    "request_status": "Pending",
    "responsible_agency": "Department of Sanitation",
    "final_address": "6996 Pinebrook Dr",
    "address_councildis": "E",
    "status": "Assigned to Contractor",
    "contractor": "Waste Pro",
    "rowid": "1157123",
    "final_x": "3719702.37042",
    "final_y": "569458.386598",
    "longitude": "-89.94599210436107",
    "latitude": "30.058596107938545",
    "geocoded_column": {
      "latitude": "30.058596107938545",
      "longitude": "-89.94599210436107"
    }
  },
  {
    "service_request": "2024-1157122",
    "request_type": "Trash/Recycling",
    "request_reason": "Request a Large Item Pick Up",
    "date_created": "2024-12-23T16:13:42.000",
    "date_modified": "2024-12-23T16:47:33.000",
    "case_close_date": "2024-12-23T10:47:33.000",
    "request_status": "Closed",
    "responsible_agency": "Department of Sanitation",
    "final_address": "2125 Forstall St",
    "address_councildis": "E",
    "status": "Assigned to Contractor",
    "contractor": "Waste Pro",
    "contractor_action": "Invalid Request",
    "rowid": "1157122",
    "final_x": "3697441.99376",
    "final_y": "538131.746121",
    "longitude": "-90.01749178028349",
    "latitude": "29.97318196520593",
    "geocoded_column": {
      "latitude": "29.97318196520593",
      "longitude": "-90.01749178028349"
    }
  },
  {
    "service_request": "2024-1157121",
    "request_type": "Trash/Recycling",
    "request_reason": "Order Recycling Cart",
    "date_created": "2024-12-23T16:13:03.000",
    "date_modified": "2024-12-23T16:13:04.000",
    "request_status": "Pending",
    "responsible_agency": "Department of Sanitation",
    "final_address": "7767 Scottwood Dr",
    "address_councildis": "E",
    "status": "Pending",
    "rowid": "1157121",
    "final_x": "3716792.82738",
    "final_y": "571531.341416",
    "longitude": "-89.95510997266844",
    "latitude": "30.06439241389713",
    "geocoded_column": {
      "latitude": "30.06439241389713",
      "longitude": "-89.95510997266844"
    }
  },
  {
    "service_request": "2024-1157120",
    "request_type": "Trash/Recycling",
    "request_reason": "Replace Trash Cart",
    "date_created": "2024-12-23T16:12:53.000",
    "date_modified": "2024-12-23T16:12:54.000",
    "request_status": "Pending",
    "responsible_agency": "Department of Sanitation",
    "final_address": "1209 Decatur St",
    "address_councildis": "C",
    "status": "Assigned to Contractor",
    "rowid": "1157120",
    "final_x": "3684308.84796",
    "final_y": "533552.958405",
    "longitude": "-90.05912962021254",
    "latitude": "29.961000039913422",
    "geocoded_column": {
      "latitude": "29.961000039913422",
      "longitude": "-90.05912962021254"
    }
  },
  {
    "service_request": "2024-1157119",
    "request_type": "Trash/Recycling",
    "request_reason": "Request a Large Item Pick Up",
    "date_created": "2024-12-23T16:10:54.000",
    "date_modified": "2024-12-24T14:12:46.000",
    "case_close_date": "2024-12-24T08:12:46.000",
    "request_status": "Closed",
    "responsible_agency": "Department of Sanitation",
    "final_address": "6985 Whitmore Pl",
    "address_councildis": "E",
    "status": "Assigned to Contractor",
    "contractor": "Waste Pro",
    "contractor_action": "Completed",
    "rowid": "1157119",
    "final_x": "3719212.33253",
    "final_y": "569050.288614",
    "longitude": "-89.94755664876841",
    "latitude": "30.057490313075075",
    "geocoded_column": {
      "latitude": "30.057490313075075",
      "longitude": "-89.94755664876841"
    }
  },
  {
    "service_request": "2024-1157118",
    "request_type": "Trash/Recycling",
    "request_reason": "Repair Trash Cart",
    "date_created": "2024-12-23T16:03:48.000",
    "date_modified": "2024-12-23T16:03:49.000",
    "request_status": "Pending",
    "responsible_agency": "Department of Sanitation",
    "final_address": "3801 S Robertson St",
    "address_councildis": "B",
    "status": "Assigned to Contractor",
    "contractor": "IV Waste",
    "rowid": "1157118",
    "final_x": "3672210.0811",
    "final_y": "524644.717756",
    "longitude": "-90.09763872368487",
    "latitude": "29.936869705810558",
    "geocoded_column": {
      "latitude": "29.936869705810558",
      "longitude": "-90.09763872368487"
    }
  },
  {
    "service_request": "2024-1157117",
    "request_type": "Trash/Recycling",
    "request_reason": "Repair Recycling Cart",
    "date_created": "2024-12-23T15:57:03.000",
    "date_modified": "2024-12-23T15:57:04.000",
    "request_status": "Pending",
    "responsible_agency": "Department of Sanitation",
    "final_address": "421 33Rd St",
    "address_councildis": "A",
    "status": "Pending",
    "rowid": "1157117",
    "final_x": "3664700.38669",
    "final_y": "551026.612565",
    "longitude": "-90.12046569795956",
    "latitude": "30.009631693479587",
    "geocoded_column": {
      "latitude": "30.009631693479587",
      "longitude": "-90.12046569795956"
    }
  },
  {
    "service_request": "2024-1157116",
    "request_type": "Roads and Streets",
    "request_reason": "ADA Ramps Damaged or Missing",
    "date_created": "2024-12-23T15:46:03.000",
    "date_modified": "2024-12-23T15:46:03.000",
    "request_status": "Pending",
    "responsible_agency": "Department of Public Works",
    "final_address": "4335 Sybil St",
    "address_councildis": "D",
    "status": "Pending",
    "rowid": "1157116",
    "final_x": "3679178.14331",
    "final_y": "548378.976658",
    "longitude": "-90.07481721480715",
    "latitude": "30.00192232228966",
    "geocoded_column": {
      "latitude": "30.00192232228966",
      "longitude": "-90.07481721480715"
    }
  },
  {
    "service_request": "2024-1157115",
    "request_type": "Trash/Recycling",
    "request_reason": "Request a Large Item Pick Up",
    "date_created": "2024-12-23T15:40:45.000",
    "date_modified": "2024-12-24T14:09:50.000",
    "case_close_date": "2024-12-24T08:09:50.000",
    "request_status": "Closed",
    "responsible_agency": "Department of Sanitation",
    "final_address": "10940 Harrow Rd",
    "address_councildis": "E",
    "status": "Assigned to Contractor",
    "contractor": "Waste Pro",
    "contractor_action": "Completed",
    "rowid": "1157115",
    "final_x": "3711778.88235",
    "final_y": "563817.623201",
    "longitude": "-89.97124919197346",
    "latitude": "30.043347700071017",
    "geocoded_column": {
      "latitude": "30.043347700071017",
      "longitude": "-89.97124919197346"
    }
  },
  {
    "service_request": "2024-1157114",
    "request_type": "Roads and Streets",
    "request_reason": "Pothole",
    "date_created": "2024-12-23T15:39:47.000",
    "date_modified": "2024-12-23T15:39:47.000",
    "request_status": "Pending",
    "responsible_agency": "Department of Public Works",
    "final_address": "811 Allen Toussaint Blvd",
    "address_councildis": "D",
    "status": "Pending",
    "rowid": "1157114",
    "final_x": "3670029.2082",
    "final_y": "554732.34204",
    "longitude": "-90.10350436074465",
    "latitude": "30.01966496762357",
    "geocoded_column": {
      "latitude": "30.01966496762357",
      "longitude": "-90.10350436074465"
    }
  },
  {
    "service_request": "2024-1157113",
    "request_type": "Streetlights",
    "request_reason": "Streetlight Outage/Malfunction",
    "date_created": "2024-12-23T15:39:02.000",
    "date_modified": "2024-12-23T15:39:03.000",
    "request_status": "Pending",
    "responsible_agency": "Department of Public Works",
    "final_address": "2110 Octavia St",
    "address_councildis": "A",
    "status": "Pending",
    "contractor": "Legacy Professional Services",
    "rowid": "1157113",
    "final_x": "3667412.88372",
    "final_y": "523503.218043",
    "longitude": "-90.1128221584101",
    "latitude": "29.93387232619676",
    "geocoded_column": {
      "latitude": "29.93387232619676",
      "longitude": "-90.1128221584101"
    }
  },
  {
    "service_request": "2024-1157112",
    "request_type": "Abandoned Vehicles",
    "request_reason": "Abandoned/Junk Vehicles",
    "date_created": "2024-12-23T15:36:21.000",
    "date_modified": "2024-12-23T15:36:22.000",
    "request_status": "Pending",
    "responsible_agency": "Department of Public Works",
    "final_address": "N DERBIGNY ST & URSULINES AVE",
    "address_councildis": "D",
    "status": "Pending",
    "rowid": "1157112",
    "final_x": "3680385.4",
    "final_y": "536027.19",
    "longitude": "-90.07143308947877",
    "latitude": "29.96792271519036",
    "geocoded_column": {
      "latitude": "29.96792271519036",
      "longitude": "-90.07143308947877"
    }
  },
  {
    "service_request": "2024-1157111",
    "request_type": "Trash/Recycling",
    "request_reason": "Request a Large Item Pick Up",
    "date_created": "2024-12-23T15:32:42.000",
    "date_modified": "2024-12-24T15:16:11.000",
    "case_close_date": "2024-12-24T09:16:11.000",
    "request_status": "Closed",
    "responsible_agency": "Department of Sanitation",
    "final_address": "1608 Lisbon St",
    "address_councildis": "D",
    "status": "Assigned to Contractor",
    "contractor": "IV Waste",
    "contractor_action": "Completed",
    "rowid": "1157111",
    "final_x": "3679045.60219",
    "final_y": "556085.701338",
    "longitude": "-90.07496855410672",
    "latitude": "30.023117040768604",
    "geocoded_column": {
      "latitude": "30.023117040768604",
      "longitude": "-90.07496855410672"
    }
  },
  {
    "service_request": "2024-1157110",
    "request_type": "Trash/Recycling",
    "request_reason": "Request a Large Item Pick Up",
    "date_created": "2024-12-23T15:31:43.000",
    "date_modified": "2024-12-24T13:58:48.000",
    "case_close_date": "2024-12-24T07:58:48.000",
    "request_status": "Closed",
    "responsible_agency": "Department of Sanitation",
    "final_address": "61 Morrison Ct",
    "address_councildis": "E",
    "status": "Assigned to Contractor",
    "contractor": "Waste Pro",
    "contractor_action": "Completed",
    "rowid": "1157110",
    "final_x": "3704144.45783",
    "final_y": "561478.294303",
    "longitude": "-89.99546333096717",
    "latitude": "30.037162790820343",
    "geocoded_column": {
      "latitude": "30.037162790820343",
      "longitude": "-89.99546333096717"
    }
  },
  {
    "service_request": "2024-1157109",
    "request_type": "Trash/Recycling",
    "request_reason": "Request a Large Item Pick Up",
    "date_created": "2024-12-23T15:28:41.000",
    "date_modified": "2024-12-23T15:28:42.000",
    "request_status": "Pending",
    "responsible_agency": "Department of Sanitation",
    "final_address": "3225 Canal St",
    "address_councildis": "B",
    "status": "Assigned to Contractor",
    "contractor": "IV Waste",
    "rowid": "1157109",
    "final_x": "3673752.36801",
    "final_y": "536464.759303",
    "longitude": "-90.09236549303446",
    "latitude": "29.969325075046253",
    "geocoded_column": {
      "latitude": "29.969325075046253",
      "longitude": "-90.09236549303446"
    }
  },
  {
    "service_request": "2024-1157108",
    "request_type": "Trash/Recycling",
    "request_reason": "Request a Large Item Pick Up",
    "date_created": "2024-12-23T15:14:26.000",
    "date_modified": "2024-12-24T13:29:32.000",
    "case_close_date": "2024-12-24T07:29:32.000",
    "request_status": "Closed",
    "responsible_agency": "Department of Sanitation",
    "final_address": "5064 Van Chu Dr",
    "address_councildis": "E",
    "status": "Assigned to Contractor",
    "contractor": "Waste Pro",
    "contractor_action": "Completed",
    "rowid": "1157108",
    "final_x": "3727614.93581",
    "final_y": "563120.183648",
    "longitude": "-89.92122851971912",
    "latitude": "30.04090291714669",
    "geocoded_column": {
      "latitude": "30.04090291714669",
      "longitude": "-89.92122851971912"
    }
  },
  {
    "service_request": "2024-1157107",
    "request_type": "Trash/Recycling",
    "request_reason": "Request a Large Item Pick Up",
    "date_created": "2024-12-23T15:02:46.000",
    "date_modified": "2024-12-23T15:02:47.000",
    "request_status": "Pending",
    "responsible_agency": "Department of Sanitation",
    "final_address": "5611 Congress Dr",
    "address_councildis": "D",
    "status": "Assigned to Contractor",
    "contractor": "IV Waste",
    "rowid": "1157107",
    "final_x": "3691550.39836",
    "final_y": "554554.208344",
    "longitude": "-90.03551109645166",
    "latitude": "30.018522478462405",
    "geocoded_column": {
      "latitude": "30.018522478462405",
      "longitude": "-90.03551109645166"
    }
  },
  {
    "service_request": "2024-1157106",
    "request_type": "Trash/Recycling",
    "request_reason": "Order Second Trash Cart",
    "date_created": "2024-12-23T14:59:54.000",
    "date_modified": "2024-12-23T14:59:54.000",
    "request_status": "Pending",
    "responsible_agency": "Department of Sanitation",
    "final_address": "5611 Congress Dr",
    "address_councildis": "D",
    "status": "Assigned to Contractor",
    "contractor": "IV Waste",
    "rowid": "1157106",
    "final_x": "3691550.39836",
    "final_y": "554554.208344",
    "longitude": "-90.03551109645166",
    "latitude": "30.018522478462405",
    "geocoded_column": {
      "latitude": "30.018522478462405",
      "longitude": "-90.03551109645166"
    }
  },
  {
    "service_request": "2024-1157105",
    "request_type": "Abandoned Vehicles",
    "request_reason": "Abandoned/Junk Vehicles",
    "date_created": "2024-12-23T14:59:42.000",
    "date_modified": "2024-12-23T15:01:03.000",
    "request_status": "Pending",
    "responsible_agency": "Department of Public Works",
    "final_address": "5415 Loyola Ave",
    "address_councildis": "A",
    "status": "Pending",
    "rowid": "1157105",
    "final_x": "3667537.09786",
    "final_y": "523046.868155",
    "longitude": "-90.11244536884995",
    "latitude": "29.932613871066344",
    "geocoded_column": {
      "latitude": "29.932613871066344",
      "longitude": "-90.11244536884995"
    }
  },
  {
    "service_request": "2024-1157104",
    "request_type": "Trash/Recycling",
    "request_reason": "Request a Large Item Pick Up",
    "date_created": "2024-12-23T14:54:48.000",
    "date_modified": "2024-12-23T14:54:49.000",
    "request_status": "Pending",
    "responsible_agency": "Department of Sanitation",
    "final_address": "2033 Clouet St",
    "address_councildis": "D",
    "status": "Assigned to Contractor",
    "contractor": "IV Waste",
    "rowid": "1157104",
    "final_x": "3689989.51484",
    "final_y": "539623.921994",
    "longitude": "-90.04097496671179",
    "latitude": "29.977518135421594",
    "geocoded_column": {
      "latitude": "29.977518135421594",
      "longitude": "-90.04097496671179"
    }
  },
  {
    "service_request": "2024-1157103",
    "request_type": "Property Maintenance",
    "request_reason": "Property Maintenance",
    "date_created": "2024-12-23T14:49:16.000",
    "date_modified": "2024-12-23T14:49:16.000",
    "request_status": "Pending",
    "responsible_agency": "Department of Code Enforcement",
    "final_address": "1813 Montegut St",
    "address_councildis": "D",
    "status": "Pending",
    "rowid": "1157103",
    "final_x": "3689154.04284",
    "final_y": "538875.114505",
    "longitude": "-90.04364027961337",
    "latitude": "29.975485063351726",
    "geocoded_column": {
      "latitude": "29.975485063351726",
      "longitude": "-90.04364027961337"
    }
  },
  {
    "service_request": "2024-1157102",
    "request_type": "Abandoned Vehicles",
    "request_reason": "Abandoned/Junk Vehicles",
    "date_created": "2024-12-23T14:46:20.000",
    "date_modified": "2024-12-23T14:46:21.000",
    "request_status": "Pending",
    "responsible_agency": "Department of Public Works",
    "final_address": "MONTPELIER ST & FAIRMONT DR",
    "address_councildis": "D",
    "status": "Pending",
    "rowid": "1157102",
    "final_x": "3685143.9",
    "final_y": "546420.18",
    "longitude": "-90.05603974917987",
    "latitude": "29.996354819381192",
    "geocoded_column": {
      "latitude": "29.996354819381192",
      "longitude": "-90.05603974917987"
    }
  },
  {
    "service_request": "2024-1157101",
    "request_type": "Trash/Recycling",
    "request_reason": "Request a Large Item Pick Up",
    "date_created": "2024-12-23T14:45:58.000",
    "date_modified": "2024-12-23T14:45:59.000",
    "request_status": "Pending",
    "responsible_agency": "Department of Sanitation",
    "final_address": "4527 Bundy Rd",
    "address_councildis": "E",
    "status": "Assigned to Contractor",
    "contractor": "Waste Pro",
    "rowid": "1157101",
    "final_x": "3709560.61342",
    "final_y": "554617.700824",
    "longitude": "-89.9786035522831",
    "latitude": "30.01812386264416",
    "geocoded_column": {
      "latitude": "30.01812386264416",
      "longitude": "-89.9786035522831"
    }
  },
  {
    "service_request": "2024-1157100",
    "request_type": "Trash/Recycling",
    "request_reason": "Request a Large Item Pick Up",
    "date_created": "2024-12-23T14:39:34.000",
    "date_modified": "2024-12-23T14:39:35.000",
    "request_status": "Pending",
    "responsible_agency": "Department of Sanitation",
    "final_address": "1500 De Battista Pl",
    "address_councildis": "C",
    "status": "Assigned to Contractor",
    "contractor": "Richards Disposal",
    "rowid": "1157100",
    "final_x": "3699824.21629",
    "final_y": "525702.975869",
    "longitude": "-90.01042147678989",
    "latitude": "29.938931823245607",
    "geocoded_column": {
      "latitude": "29.938931823245607",
      "longitude": "-90.01042147678989"
    }
  },
  {
    "service_request": "2024-1157009",
    "request_type": "Safety & Permits",
    "request_reason": "Zoning Enforcement",
    "date_created": "2024-12-23T14:38:47.000",
    "date_modified": "2024-12-23T14:38:47.000",
    "request_status": "Closed",
    "responsible_agency": "Safety and Permits",
    "final_address": "3335 First St",
    "address_councildis": "B",
    "status": "Invalid Request",
    "rowid": "1157009",
    "final_x": "3673518.66235",
    "final_y": "528564.086016",
    "longitude": "-90.09337355915193",
    "latitude": "29.947607816933534",
    "geocoded_column": {
      "latitude": "29.947607816933534",
      "longitude": "-90.09337355915193"
    }
  },
  {
    "service_request": "2024-1157058",
    "request_type": "Trash/Recycling",
    "request_reason": "Request a Large Item Pick Up",
    "date_created": "2024-12-23T14:38:47.000",
    "date_modified": "2024-12-23T15:02:27.000",
    "case_close_date": "2024-12-23T09:02:27.000",
    "request_status": "Closed",
    "responsible_agency": "Department of Sanitation",
    "final_address": "5901 N Derbigny St",
    "address_councildis": "E",
    "status": "Assigned to Contractor",
    "contractor": "Waste Pro",
    "contractor_action": "Invalid Request",
    "rowid": "1157058",
    "final_x": "3699564.6232",
    "final_y": "535802.614343",
    "longitude": "-90.01087303188848",
    "latitude": "29.966710496819765",
    "geocoded_column": {
      "latitude": "29.966710496819765",
      "longitude": "-90.01087303188848"
    }
  },
  {
    "service_request": "2024-1156945",
    "request_type": "Trash/Recycling",
    "request_reason": "Request a Large Item Pick Up",
    "date_created": "2024-12-23T14:38:47.000",
    "date_modified": "2024-12-23T14:38:47.000",
    "request_status": "Pending",
    "responsible_agency": "Department of Sanitation",
    "final_address": "2618 George Nick Connor Dr",
    "address_councildis": "D",
    "status": "Assigned to Contractor",
    "contractor": "IV Waste",
    "rowid": "1156945",
    "final_x": "3681102.38005",
    "final_y": "541728.013516",
    "longitude": "-90.06897018797079",
    "latitude": "29.983576272639638",
    "geocoded_column": {
      "latitude": "29.983576272639638",
      "longitude": "-90.06897018797079"
    }
  },
  {
    "service_request": "2024-1157034",
    "request_type": "Trash/Recycling",
    "request_reason": "Request a Large Item Pick Up",
    "date_created": "2024-12-23T14:38:47.000",
    "date_modified": "2024-12-23T14:38:47.000",
    "request_status": "Pending",
    "responsible_agency": "Department of Sanitation",
    "final_address": "1818 Napoleon Ave",
    "address_councildis": "B",
    "status": "Assigned to Contractor",
    "contractor": "IV Waste",
    "rowid": "1157034",
    "final_x": "3670650.28308",
    "final_y": "521770.186426",
    "longitude": "-90.10266056691204",
    "latitude": "29.929011829867303",
    "geocoded_column": {
      "latitude": "29.929011829867303",
      "longitude": "-90.10266056691204"
    }
  },
  {
    "service_request": "2024-1156969",
    "request_type": "Trash/Recycling",
    "request_reason": "Missed Trash Pick-Up",
    "date_created": "2024-12-23T14:38:47.000",
    "date_modified": "2024-12-23T17:48:32.000",
    "case_close_date": "2024-12-23T11:48:32.000",
    "request_status": "Closed",
    "responsible_agency": "Department of Sanitation",
    "final_address": "4819 Citrus Dr",
    "address_councildis": "E",
    "status": "Assigned to Contractor",
    "contractor": "Waste Pro",
    "contractor_action": "Invalid Request",
    "rowid": "1156969",
    "final_x": "3710783.0252",
    "final_y": "556417.207386",
    "longitude": "-89.97467381294824",
    "latitude": "30.023032005735196",
    "geocoded_column": {
      "latitude": "30.023032005735196",
      "longitude": "-89.97467381294824"
    }
  },
  {
    "service_request": "2024-1157094",
    "request_type": "Traffic Signals",
    "request_reason": "Traffic Signal Malfunctioning or Damaged",
    "date_created": "2024-12-23T14:38:47.000",
    "date_modified": "2024-12-23T14:38:47.000",
    "request_status": "Pending",
    "responsible_agency": "Department of Public Works",
    "final_address": "5900 Read Blvd",
    "address_councildis": "E",
    "status": "Pending",
    "rowid": "1157094",
    "final_x": "3710171.44011",
    "final_y": "561017.296606",
    "longitude": "-89.97643414198811",
    "latitude": "30.035700361410903",
    "geocoded_column": {
      "latitude": "30.035700361410903",
      "longitude": "-89.97643414198811"
    }
  },
  {
    "service_request": "2024-1157029",
    "request_type": "Trash/Recycling",
    "request_reason": "Damaged Caused By Contractor",
    "date_created": "2024-12-23T14:38:47.000",
    "date_modified": "2024-12-23T14:38:47.000",
    "request_status": "Closed",
    "responsible_agency": "Department of Sanitation",
    "final_address": "3236 Coliseum St",
    "address_councildis": "B",
    "status": "Assigned to Contractor",
    "contractor": "IV Waste",
    "contractor_action": "Completed",
    "rowid": "1157029",
    "final_x": "3675020.67912",
    "final_y": "520737.369017",
    "longitude": "-90.0888994832778",
    "latitude": "29.926042123862423",
    "geocoded_column": {
      "latitude": "29.926042123862423",
      "longitude": "-90.0888994832778"
    }
  },
  {
    "service_request": "2024-1156974",
    "request_type": "Street and Traffic Signs",
    "request_reason": "Stop Sign Missing or Damaged",
    "date_created": "2024-12-23T14:38:47.000",
    "date_modified": "2024-12-23T14:38:47.000",
    "request_status": "Pending",
    "responsible_agency": "Department of Public Works",
    "final_address": "DWYER RD & PECAN ST",
    "address_councildis": "E",
    "status": "Pending",
    "rowid": "1156974",
    "final_x": "3701660.0",
    "final_y": "555805.18",
    "longitude": "-90.00352279214088",
    "latitude": "30.02164344992284",
    "geocoded_column": {
      "latitude": "30.02164344992284",
      "longitude": "-90.00352279214088"
    }
  },
  {
    "service_request": "2024-1157065",
    "request_type": "Abandoned Vehicles",
    "request_reason": "Abandoned/Junk Vehicles",
    "date_created": "2024-12-23T14:38:47.000",
    "date_modified": "2024-12-23T14:38:47.000",
    "request_status": "Pending",
    "responsible_agency": "Department of Public Works",
    "final_address": "2200 BLK Pleasure St",
    "address_councildis": "D",
    "status": "Pending",
    "rowid": "1157065",
    "final_x": "3684531.64501",
    "final_y": "545162.003296",
    "longitude": "-90.05801805464287",
    "latitude": "29.99291403492156",
    "geocoded_column": {
      "latitude": "29.99291403492156",
      "longitude": "-90.05801805464287"
    }
  },
  {
    "service_request": "2024-1156923",
    "request_type": "Roads and Streets",
    "request_reason": "Pothole",
    "date_created": "2024-12-23T14:38:47.000",
    "date_modified": "2024-12-23T14:38:47.000",
    "request_status": "Closed",
    "responsible_agency": "Department of Public Works",
    "final_address": "700 BLK N Dupr St",
    "address_councildis": "A",
    "status": "Resolved",
    "rowid": "1156923",
    "final_x": "3676137.82551",
    "final_y": "537671.651807",
    "longitude": "-90.08479049548944",
    "latitude": "29.972572365340646",
    "geocoded_column": {
      "latitude": "29.972572365340646",
      "longitude": "-90.08479049548944"
    }
  },
  {
    "service_request": "2024-1156964",
    "request_type": "Streetlights",
    "request_reason": "Streetlight Outage/Malfunction",
    "date_created": "2024-12-23T14:38:47.000",
    "date_modified": "2024-12-23T14:38:47.000",
    "request_status": "Pending",
    "responsible_agency": "Department of Public Works",
    "final_address": "5600 BLK Hawthorne Pl",
    "address_councildis": "A",
    "status": "Pending",
    "contractor": "Legacy Professional Services",
    "rowid": "1156964",
    "final_x": "3667863.40538",
    "final_y": "544998.176195",
    "longitude": "-90.11067579719038",
    "latitude": "29.992963142465367",
    "geocoded_column": {
      "latitude": "29.992963142465367",
      "longitude": "-90.11067579719038"
    }
  },
  {
    "service_request": "2024-1157089",
    "request_type": "Abandoned Vehicles",
    "request_reason": "Abandoned/Junk Vehicles",
    "date_created": "2024-12-23T14:38:47.000",
    "date_modified": "2024-12-23T14:38:47.000",
    "request_status": "Pending",
    "responsible_agency": "Department of Public Works",
    "final_address": "723 Valence St",
    "address_councildis": "B",
    "status": "Pending",
    "rowid": "1157089",
    "final_x": "3670046.30727",
    "final_y": "518139.795446",
    "longitude": "-90.10469009039598",
    "latitude": "29.919047232233638",
    "geocoded_column": {
      "latitude": "29.919047232233638",
      "longitude": "-90.10469009039598"
    }
  },
  {
    "service_request": "2024-1157071",
    "request_type": "Streetlights",
    "request_reason": "Streetlight Outage/Malfunction",
    "date_created": "2024-12-23T14:38:47.000",
    "date_modified": "2024-12-23T14:38:47.000",
    "request_status": "Pending",
    "responsible_agency": "Department of Public Works",
    "final_address": "4936 Lonely Oak Dr",
    "address_councildis": "E",
    "status": "Pending",
    "contractor": "Legacy Professional Services",
    "rowid": "1157071",
    "final_x": "3702172.29399",
    "final_y": "555366.699737",
    "longitude": "-90.00192018944705",
    "latitude": "30.02042143973628",
    "geocoded_column": {
      "latitude": "30.02042143973628",
      "longitude": "-90.00192018944705"
    }
  },
  {
    "service_request": "2024-1156949",
    "request_type": "Traffic Signals",
    "request_reason": "Traffic Signal Malfunctioning or Damaged",
    "date_created": "2024-12-23T14:38:47.000",
    "date_modified": "2024-12-23T14:38:47.000",
    "request_status": "Pending",
    "responsible_agency": "Department of Public Works",
    "final_address": "LAFAYE ST & GENTILLY BLVD",
    "address_councildis": "D",
    "status": "Pending",
    "rowid": "1156949",
    "final_x": "3687572.54",
    "final_y": "548888.33",
    "longitude": "-90.04828041753437",
    "latitude": "30.003066674969364",
    "geocoded_column": {
      "latitude": "30.003066674969364",
      "longitude": "-90.04828041753437"
    }
  },
  {
    "service_request": "2024-1157007",
    "request_type": "Roads and Streets",
    "request_reason": "Road Shoulder Damage",
    "date_created": "2024-12-23T14:38:47.000",
    "date_modified": "2024-12-23T14:38:47.000",
    "request_status": "Pending",
    "responsible_agency": "Department of Public Works",
    "final_address": "1908 Alabo St",
    "address_councildis": "E",
    "status": "Pending",
    "rowid": "1157007",
    "final_x": "3699693.2506",
    "final_y": "536630.728519",
    "longitude": "-90.01043663707692",
    "latitude": "29.968983430539822",
    "geocoded_column": {
      "latitude": "29.968983430539822",
      "longitude": "-90.01043663707692"
    }
  },
  {
    "service_request": "2024-1157077",
    "request_type": "Abandoned Vehicles",
    "request_reason": "Abandoned/Junk Vehicles",
    "date_created": "2024-12-23T14:38:47.000",
    "date_modified": "2024-12-23T14:38:47.000",
    "request_status": "Pending",
    "responsible_agency": "Department of Public Works",
    "final_address": "600 BLK Mandeville St",
    "address_councildis": "C",
    "status": "Pending",
    "rowid": "1157077",
    "final_x": "3685906.56844",
    "final_y": "534752.415519",
    "longitude": "-90.0540420384141",
    "latitude": "29.96424918245354",
    "geocoded_column": {
      "latitude": "29.96424918245354",
      "longitude": "-90.0540420384141"
    }
  },
  {
    "service_request": "2024-1156978",
    "request_type": "Trash/Recycling",
    "request_reason": "Repair Trash Cart",
    "date_created": "2024-12-23T14:38:47.000",
    "date_modified": "2024-12-23T17:58:54.000",
    "case_close_date": "2024-12-23T11:58:54.000",
    "request_status": "Closed",
    "responsible_agency": "Department of Sanitation",
    "final_address": "4760 Francisco Verrett Dr",
    "address_councildis": "E",
    "status": "Assigned to Contractor",
    "contractor": "Waste Pro",
    "contractor_action": "Invalid Request",
    "rowid": "1156978",
    "final_x": "3704144.41246",
    "final_y": "555382.670297",
    "longitude": "-89.9956883549148",
    "latitude": "30.02040219715573",
    "geocoded_column": {
      "latitude": "30.02040219715573",
      "longitude": "-89.9956883549148"
    }
  },
  {
    "service_request": "2024-1156992",
    "request_type": "Trash/Recycling",
    "request_reason": "Request a Large Item Pick Up",
    "date_created": "2024-12-23T14:38:47.000",
    "date_modified": "2024-12-23T15:30:40.000",
    "case_close_date": "2024-12-23T09:30:40.000",
    "request_status": "Closed",
    "responsible_agency": "Department of Sanitation",
    "final_address": "603 S Hennessey St",
    "address_councildis": "A",
    "status": "Duplicate Request",
    "contractor": "IV Waste",
    "contractor_action": "Invalid Request",
    "rowid": "1156992",
    "final_x": "3669039.6946",
    "final_y": "537362.203912",
    "longitude": "-90.10721819869046",
    "latitude": "29.97193224613524",
    "geocoded_column": {
      "latitude": "29.97193224613524",
      "longitude": "-90.10721819869046"
    }
  },
  {
    "service_request": "2024-1157041",
    "request_type": "Streetlights",
    "request_reason": "Streetlight Outage/Malfunction",
    "date_created": "2024-12-23T14:38:47.000",
    "date_modified": "2024-12-23T14:38:47.000",
    "request_status": "Pending",
    "responsible_agency": "Department of Public Works",
    "final_address": "5705 Argonne Blvd",
    "address_councildis": "A",
    "status": "Pending",
    "contractor": "Legacy Professional Services",
    "rowid": "1157041",
    "final_x": "3670063.42023",
    "final_y": "545504.624592",
    "longitude": "-90.10370914677738",
    "latitude": "29.99429096931",
    "geocoded_column": {
      "latitude": "29.99429096931",
      "longitude": "-90.10370914677738"
    }
  },
  {
    "service_request": "2024-1157016",
    "request_type": "Trash/Recycling",
    "request_reason": "Request a Large Item Pick Up",
    "date_created": "2024-12-23T14:38:47.000",
    "date_modified": "2024-12-23T14:38:47.000",
    "request_status": "Pending",
    "responsible_agency": "Department of Sanitation",
    "final_address": "4743 Sandalwood St",
    "address_councildis": "E",
    "status": "Assigned to Contractor",
    "contractor": "Waste Pro",
    "rowid": "1157016",
    "final_x": "3712307.40862",
    "final_y": "556160.016346",
    "longitude": "-89.96986681973902",
    "latitude": "30.022275043725532",
    "geocoded_column": {
      "latitude": "30.022275043725532",
      "longitude": "-89.96986681973902"
    }
  },
  {
    "service_request": "2024-1157050",
    "request_type": "Trash/Recycling",
    "request_reason": "Request a Large Item Pick Up",
    "date_created": "2024-12-23T14:38:47.000",
    "date_modified": "2024-12-23T15:00:21.000",
    "case_close_date": "2024-12-23T09:00:21.000",
    "request_status": "Closed",
    "responsible_agency": "Department of Sanitation",
    "final_address": "7809 Symmes Ave",
    "address_councildis": "E",
    "status": "Assigned to Contractor",
    "contractor": "Waste Pro",
    "contractor_action": "Invalid Request",
    "rowid": "1157050",
    "final_x": "3707596.36721",
    "final_y": "565177.376354",
    "longitude": "-89.98441699741372",
    "latitude": "30.0472225212974",
    "geocoded_column": {
      "latitude": "30.0472225212974",
      "longitude": "-89.98441699741372"
    }
  },
  {
    "service_request": "2024-1156960",
    "request_type": "Trash/Recycling",
    "request_reason": "Request a Large Item Pick Up",
    "date_created": "2024-12-23T14:38:47.000",
    "date_modified": "2024-12-23T14:38:47.000",
    "request_status": "Pending",
    "responsible_agency": "Department of Sanitation",
    "final_address": "6745 Coventry St",
    "address_councildis": "E",
    "status": "Assigned to Contractor",
    "contractor": "Waste Pro",
    "rowid": "1156960",
    "final_x": "3698230.54333",
    "final_y": "559634.476253",
    "longitude": "-90.01421960768695",
    "latitude": "30.032281539518777",
    "geocoded_column": {
      "latitude": "30.032281539518777",
      "longitude": "-90.01421960768695"
    }
  },
  {
    "service_request": "2024-1157070",
    "request_type": "Abandoned Vehicles",
    "request_reason": "Vehicle Blocking Your Driveway",
    "date_created": "2024-12-23T14:38:47.000",
    "date_modified": "2024-12-23T14:38:47.000",
    "request_status": "Pending",
    "responsible_agency": "Department of Public Works",
    "final_address": "3031 Chippewa St",
    "address_councildis": "B",
    "status": "Pending",
    "rowid": "1157070",
    "final_x": "3676963.07765",
    "final_y": "519014.525047",
    "longitude": "-90.08282724658535",
    "latitude": "29.9212467121667",
    "geocoded_column": {
      "latitude": "29.9212467121667",
      "longitude": "-90.08282724658535"
    }
  },
  {
    "service_request": "2024-1156982",
    "request_type": "Drainage",
    "request_reason": "Drainage Manhole Cover Missing or Damaged",
    "date_created": "2024-12-23T14:38:47.000",
    "date_modified": "2024-12-23T14:38:47.000",
    "request_status": "Pending",
    "responsible_agency": "Department of Public Works",
    "final_address": "2817 Canal St",
    "address_councildis": "B",
    "status": "Pending",
    "rowid": "1156982",
    "final_x": "3674888.43861",
    "final_y": "535682.882055",
    "longitude": "-90.08880450830347",
    "latitude": "29.9671412969611",
    "geocoded_column": {
      "latitude": "29.9671412969611",
      "longitude": "-90.08880450830347"
    }
  },
  {
    "service_request": "2024-1157021",
    "request_type": "Street and Traffic Signs",
    "request_reason": "One Way Sign Missing or Damaged",
    "date_created": "2024-12-23T14:38:47.000",
    "date_modified": "2024-12-23T14:38:47.000",
    "request_status": "Pending",
    "responsible_agency": "Department of Public Works",
    "final_address": "225 Walnut St",
    "address_councildis": "A",
    "status": "Pending",
    "rowid": "1157021",
    "final_x": "3661395.55418",
    "final_y": "521207.350969",
    "longitude": "-90.13189469890942",
    "latitude": "29.927734279295464",
    "geocoded_column": {
      "latitude": "29.927734279295464",
      "longitude": "-90.13189469890942"
    }
  },
  {
    "service_request": "2024-1157026",
    "request_type": "Trash/Recycling",
    "request_reason": "Request a Large Item Pick Up",
    "date_created": "2024-12-23T14:38:47.000",
    "date_modified": "2024-12-23T14:38:47.000",
    "request_status": "Pending",
    "responsible_agency": "Department of Sanitation",
    "final_address": "4960 Wright Rd",
    "address_councildis": "E",
    "status": "Assigned to Contractor",
    "contractor": "Waste Pro",
    "rowid": "1157026",
    "final_x": "3716491.07308",
    "final_y": "558014.940315",
    "longitude": "-89.95657720200155",
    "latitude": "30.027237799051075",
    "geocoded_column": {
      "latitude": "30.027237799051075",
      "longitude": "-89.95657720200155"
    }
  },
  {
    "service_request": "2024-1157097",
    "request_type": "Trash/Recycling",
    "request_reason": "Request a Large Item Pick Up",
    "date_created": "2024-12-23T14:38:47.000",
    "date_modified": "2024-12-23T14:38:47.000",
    "request_status": "Pending",
    "responsible_agency": "Department of Sanitation",
    "final_address": "4727 Prytania St",
    "address_councildis": "B",
    "status": "Assigned to Contractor",
    "contractor": "IV Waste",
    "rowid": "1157097",
    "final_x": "3669561.05991",
    "final_y": "520236.588088",
    "longitude": "-90.10615088835384",
    "latitude": "29.92482704562592",
    "geocoded_column": {
      "latitude": "29.92482704562592",
      "longitude": "-90.10615088835384"
    }
  },
  {
    "service_request": "2024-1157020",
    "request_type": "Trash/Recycling",
    "request_reason": "Order Trash Cart",
    "date_created": "2024-12-23T14:38:47.000",
    "date_modified": "2024-12-23T18:00:15.000",
    "case_close_date": "2024-12-23T12:00:15.000",
    "request_status": "Closed",
    "responsible_agency": "Department of Sanitation",
    "final_address": "2407 Tennessee St",
    "address_councildis": "E",
    "status": "Assigned to Contractor",
    "contractor": "Waste Pro",
    "contractor_action": "Invalid Request",
    "rowid": "1157020",
    "final_x": "3697112.14032",
    "final_y": "539270.70177",
    "longitude": "-90.01849224178872",
    "latitude": "29.976324094607264",
    "geocoded_column": {
      "latitude": "29.976324094607264",
      "longitude": "-90.01849224178872"
    }
  },
  {
    "service_request": "2024-1156975",
    "request_type": "Streetlights",
    "request_reason": "Streetlight Outage/Malfunction",
    "date_created": "2024-12-23T14:38:47.000",
    "date_modified": "2024-12-23T14:38:47.000",
    "request_status": "Pending",
    "responsible_agency": "Department of Public Works",
    "final_address": "DWYER RD & PECAN ST",
    "address_councildis": "E",
    "status": "Pending",
    "contractor": "Legacy Professional Services",
    "rowid": "1156975",
    "final_x": "3701660.0",
    "final_y": "555805.18",
    "longitude": "-90.00352279214088",
    "latitude": "30.02164344992284",
    "geocoded_column": {
      "latitude": "30.02164344992284",
      "longitude": "-90.00352279214088"
    }
  },