[
  {
    "service_request": "2023-1056670",
    "request_type": "Roads/Drainage",
    "request_reason": "Road Shoulder Repair",
    "date_created": "2023-12-20T01:23:49.000",
    "date_modified": "2023-12-20T01:23:49.000",
    "request_status": "Pending",
    "responsible_agency": "Department of Public Works",
    "final_address": "3600 BLK Coliseum St",
    "address_councildis": "B",
    "status": "Pending",
    "rowid": "1056670",
    "final_x": "3673679.77859",
    "final_y": "520234.645014",
    "longitude": "-90.09314949821882",
    "latitude": "29.924699769259288",
    "geocoded_column": {
      "latitude": "29.924699769259288",
      "longitude": "-90.09314949821882"
    }
  },
  {
    "service_request": "2023-1056669",
    "request_type": "Roads/Drainage",
    "request_reason": "Pothole",
    "date_created": "2023-12-19T23:24:19.000",
    "date_modified": "2023-12-19T23:24:19.000",
    "request_status": "Pending",
    "responsible_agency": "Department of Public Works",
    "final_address": "4200 Perrier St",
    "address_councildis": "B",
    "status": "Pending",
    "rowid": "1056669",
    "final_x": "3671579.76411",
    "final_y": "520095.16844",
    "longitude": "-90.09978329705561",
    "latitude": "29.924378584144126",
    "geocoded_column": {
      "latitude": "29.924378584144126",
      "longitude": "-90.09978329705561"
    }
  },
  {
    "service_request": "2023-1056668",
    "request_type": "Trash/Recycling",
    "request_reason": "Request a Large Item Pick Up",
    "date_created": "2023-12-19T23:05:02.000",
    "date_modified": "2023-12-19T23:05:03.000",
    "request_status": "Pending",
    "responsible_agency": "Department of Sanitation",
    "final_address": "3340 Bell St",
    "address_councildis": "A",
    "status": "Assigned to Contractor",
    "contractor": "Richards Disposal",
    "rowid": "1056668",
    "final_x": "3675241.91227",
    "final_y": "539718.049546",
    "longitude": "-90.08754968834869",
    "latitude": "29.97822607203641",
    "geocoded_column": {
      "latitude": "29.97822607203641",
      "longitude": "-90.08754968834869"
    }
  },
  {
    "service_request": "2023-1056667",
    "request_type": "Trash/Recycling",
    "request_reason": "Request a Large Item Pick Up",
    "date_created": "2023-12-19T20:54:10.000",
    "date_modified": "2023-12-19T20:54:11.000",
    "request_status": "Pending",
    "responsible_agency": "Department of Sanitation",
    "final_address": "2018 Shalett St",
    "address_councildis": "C",
    "status": "Assigned to Contractor",
    "contractor": "Richards Disposal",
    "rowid": "1056667",
    "final_x": "3694255.69603",
    "final_y": "523034.714683",
    "longitude": "-90.02809781765497",
    "latitude": "29.931770621170113",
    "geocoded_column": {
      "latitude": "29.931770621170113",
      "longitude": "-90.02809781765497"
    }
  },
  {
    "service_request": "2023-1056666",
    "request_type": "Traffic Signals/Signs/Striping/Streetlights",
    "request_reason": "Street Light Outage/Malfunction",
    "date_created": "2023-12-19T20:15:36.000",
    "date_modified": "2023-12-19T20:15:37.000",
    "request_status": "Pending",
    "responsible_agency": "Department of Public Works",
    "final_address": "GIROD ST & LOYOLA AVE",
    "address_councildis": "B",
    "status": "Assigned to Contractor",
    "contractor": "Legacy Professional Services",
    "rowid": "1056666",
    "final_x": "3678938.3",
    "final_y": "528926.58",
    "longitude": "-90.07624908963957",
    "latitude": "29.948442178916256",
    "geocoded_column": {
      "latitude": "29.948442178916256",
      "longitude": "-90.07624908963957"
    }
  },
  {
    "service_request": "2023-1056665",
    "request_type": "Traffic Signals/Signs/Striping/Streetlights",
    "request_reason": "Street Light Outage/Malfunction",
    "date_created": "2023-12-19T20:06:17.000",
    "date_modified": "2023-12-19T20:06:18.000",
    "request_status": "Pending",
    "responsible_agency": "Department of Public Works",
    "final_address": "2021 Chestnut St",
    "address_councildis": "B",
    "status": "Assigned to Contractor",
    "contractor": "Legacy Professional Services",
    "rowid": "1056665",
    "final_x": "3678874.11592",
    "final_y": "523055.073083",
    "longitude": "-90.07665506618164",
    "latitude": "29.93229941557592",
    "geocoded_column": {
      "latitude": "29.93229941557592",
      "longitude": "-90.07665506618164"
    }
  },
  {
    "service_request": "2023-1056664",
    "request_type": "Abandoned Vehicles",
    "request_reason": "Abandoned/Junk Vehicles",
    "date_created": "2023-12-19T19:32:19.000",
    "date_modified": "2023-12-19T19:32:19.000",
    "request_status": "Pending",
    "responsible_agency": "Department of Public Works",
    "final_address": "3445 Annunciation St",
    "address_councildis": "B",
    "status": "Pending",
    "rowid": "1056664",
    "final_x": "3675056.25077",
    "final_y": "518481.244086",
    "longitude": "-90.08886454333428",
    "latitude": "29.91983744379894",
    "geocoded_column": {
      "latitude": "29.91983744379894",
      "longitude": "-90.08886454333428"
    }
  },
  {
    "service_request": "2023-1056663",
    "request_type": "Trash/Recycling",
    "request_reason": "Request a Large Item Pick Up",
    "date_created": "2023-12-19T18:47:32.000",
    "date_modified": "2023-12-19T18:47:33.000",
    "request_status": "Pending",
    "responsible_agency": "Department of Sanitation",
    "final_address": "5623 Tchoupitoulas St",
    "address_councildis": "A",
    "status": "Assigned to Contractor",
    "contractor": "Richards Disposal",
    "rowid": "1056663",
    "final_x": "3665542.35284",
    "final_y": "517211.422773",
    "longitude": "-90.1189378792945",
    "latitude": "29.916626522688514",
    "geocoded_column": {
      "latitude": "29.916626522688514",
      "longitude": "-90.1189378792945"
    }
  },
  {
    "service_request": "2023-1056662",
    "request_type": "Trash/Recycling",
    "request_reason": "Request a Large Item Pick Up",
    "date_created": "2023-12-19T18:46:34.000",
    "date_modified": "2023-12-19T18:46:35.000",
    "request_status": "Pending",
    "responsible_agency": "Department of Sanitation",
    "final_address": "5623 Tchoupitoulas St",
    "address_councildis": "A",
    "status": "Assigned to Contractor",
    "contractor": "Richards Disposal",
    "rowid": "1056662",
    "final_x": "3665542.35284",
    "final_y": "517211.422773",
    "longitude": "-90.1189378792945",
    "latitude": "29.916626522688514",
    "geocoded_column": {
      "latitude": "29.916626522688514",
      "longitude": "-90.1189378792945"
    }
  },
  {
    "service_request": "2023-1056661",
    "request_type": "Traffic Signals/Signs/Striping/Streetlights",
    "request_reason": "Street Light Outage/Malfunction",
    "date_created": "2023-12-19T18:42:17.000",
    "date_modified": "2023-12-19T18:42:18.000",
    "request_status": "Pending",
    "responsible_agency": "Department of Public Works",
    "final_address": "611 OKeefe Ave",
    "address_councildis": "B",
    "status": "Assigned to Contractor",
    "contractor": "Legacy Professional Services",
    "rowid": "1056661",
    "final_x": "3679355.91375",
    "final_y": "529017.045504",
    "longitude": "-90.07492737207814",
    "latitude": "29.948678324365698",
    "geocoded_column": {
      "latitude": "29.948678324365698",
      "longitude": "-90.07492737207814"
    }
  },
  {
    "service_request": "2023-1056660",
    "request_type": "Trash/Recycling",
    "request_reason": "MIssed Recycling Pick-Up",
    "date_created": "2023-12-19T18:35:23.000",
    "date_modified": "2023-12-19T18:35:24.000",
    "request_status": "Pending",
    "responsible_agency": "Department of Sanitation",
    "final_address": "1438 Mithra St",
    "address_councildis": "D",
    "status": "Assigned to Contractor",
    "contractor": "IV Waste",
    "rowid": "1056660",
    "final_x": "3677698.35054",
    "final_y": "552015.170582",
    "longitude": "-90.0793663332603",
    "latitude": "30.011965165520632",
    "geocoded_column": {
      "latitude": "30.011965165520632",
      "longitude": "-90.0793663332603"
    }
  },
  {
    "service_request": "2023-1056659",
    "request_type": "Abandoned Vehicles",
    "request_reason": "Abandoned/Junk Vehicles",
    "date_created": "2023-12-19T18:04:53.000",
    "date_modified": "2023-12-19T18:04:53.000",
    "request_status": "Pending",
    "responsible_agency": "Department of Public Works",
    "final_address": "4150 Willow St",
    "address_councildis": "B",
    "status": "Pending",
    "rowid": "1056659",
    "final_x": "3671271.37204",
    "final_y": "525481.337149",
    "longitude": "-90.10057386671097",
    "latitude": "29.939197940124103",
    "geocoded_column": {
      "latitude": "29.939197940124103",
      "longitude": "-90.10057386671097"
    }
  },
  {
    "service_request": "2023-1056658",
    "request_type": "Trash/Recycling",
    "request_reason": "Replace Recycling Cart",
    "date_created": "2023-12-19T18:04:23.000",
    "date_modified": "2023-12-19T18:04:23.000",
    "request_status": "Pending",
    "responsible_agency": "Department of Sanitation",
    "final_address": "3015 Baudin St",
    "address_councildis": "B",
    "status": "Pending",
    "rowid": "1056658",
    "final_x": "3673282.56238",
    "final_y": "534701.955014",
    "longitude": "-90.09390939581192",
    "latitude": "29.96449193894183",
    "geocoded_column": {
      "latitude": "29.96449193894183",
      "longitude": "-90.09390939581192"
    }
  },
  {
    "service_request": "2023-1056657",
    "request_type": "Trash/Recycling",
    "request_reason": "Missed Trash Pick-Up",
    "date_created": "2023-12-19T17:57:08.000",
    "date_modified": "2023-12-19T17:57:09.000",
    "request_status": "Pending",
    "responsible_agency": "Department of Sanitation",
    "final_address": "6694 Bellaire Dr",
    "address_councildis": "A",
    "status": "Assigned to Contractor",
    "contractor": "IV Waste",
    "rowid": "1056657",
    "final_x": "3664514.21997",
    "final_y": "552708.244438",
    "longitude": "-90.12099765511351",
    "latitude": "30.014261012749298",
    "geocoded_column": {
      "latitude": "30.014261012749298",
      "longitude": "-90.12099765511351"
    }
  },
  {
    "service_request": "2023-1056656",
    "request_type": "Trash/Recycling",
    "request_reason": "Request a Large Item Pick Up",
    "date_created": "2023-12-19T16:57:05.000",
    "date_modified": "2023-12-19T16:57:06.000",
    "request_status": "Pending",
    "responsible_agency": "Department of Sanitation",
    "final_address": "1517 S White St",
    "address_councildis": "B",
    "status": "Assigned to Contractor",
    "contractor": "Richards Disposal",
    "rowid": "1056656",
    "final_x": "3671246.59585",
    "final_y": "530317.868354",
    "longitude": "-90.10048779863762",
    "latitude": "29.95249755249957",
    "geocoded_column": {
      "latitude": "29.95249755249957",
      "longitude": "-90.10048779863762"
    }
  },
  {
    "service_request": "2023-1056655",
    "request_type": "Abandoned Vehicles",
    "request_reason": "Abandoned/Junk Vehicles",
    "date_created": "2023-12-19T16:56:14.000",
    "date_modified": "2023-12-19T16:56:14.000",
    "request_status": "Pending",
    "responsible_agency": "Department of Public Works",
    "final_address": "1515 N Roman St",
    "address_councildis": "D",
    "status": "Pending",
    "rowid": "1056655",
    "final_x": "3681153.10805",
    "final_y": "537812.715272",
    "longitude": "-90.06894642224194",
    "latitude": "29.97280902463742",
    "geocoded_column": {
      "latitude": "29.97280902463742",
      "longitude": "-90.06894642224194"
    }
  },
  {
    "service_request": "2023-1056654",
    "request_type": "Abandoned Vehicles",
    "request_reason": "Abandoned/Junk Vehicles",
    "date_created": "2023-12-19T16:54:53.000",
    "date_modified": "2023-12-19T16:54:54.000",
    "request_status": "Pending",
    "responsible_agency": "Department of Public Works",
    "final_address": "315 S Broad St",
    "address_councildis": "B",
    "status": "Pending",
    "rowid": "1056654",
    "final_x": "3674687.7492",
    "final_y": "534424.180933",
    "longitude": "-90.08948143799732",
    "latitude": "29.963686285425254",
    "geocoded_column": {
      "latitude": "29.963686285425254",
      "longitude": "-90.08948143799732"
    }
  },
  {
    "service_request": "2023-1056653",
    "request_type": "Abandoned Vehicles",
    "request_reason": "Abandoned/Junk Vehicles",
    "date_created": "2023-12-19T16:54:30.000",
    "date_modified": "2023-12-19T16:54:30.000",
    "request_status": "Pending",
    "responsible_agency": "Department of Public Works",
    "final_address": "1515 N Roman St",
    "address_councildis": "D",
    "status": "Pending",
    "rowid": "1056653",
    "final_x": "3681153.10805",
    "final_y": "537812.715272",
    "longitude": "-90.06894642224194",
    "latitude": "29.97280902463742",
    "geocoded_column": {
      "latitude": "29.97280902463742",
      "longitude": "-90.06894642224194"
    }
  },
  {
    "service_request": "2023-1056652",
    "request_type": "Taxi Issues",
    "request_reason": "Taxi Compliment",
    "date_created": "2023-12-19T16:52:03.000",
    "date_modified": "2023-12-19T16:56:01.000",
    "request_status": "Pending",
    "responsible_agency": "Ground Transportation Bureau",
    "final_address": "2823 Bruxelles St",
    "address_councildis": "D",
    "status": "Pending",
    "rowid": "1056652",
    "final_x": "3680343.94427",
    "final_y": "542803.476301",
    "longitude": "-90.07132831574769",
    "latitude": "29.98655640873709",
    "geocoded_column": {
      "latitude": "29.98655640873709",
      "longitude": "-90.07132831574769"
    }
  },
  {
    "service_request": "2023-1056651",
    "request_type": "Abandoned Vehicles",
    "request_reason": "Abandoned/Junk Vehicles",
    "date_created": "2023-12-19T16:50:59.000",
    "date_modified": "2023-12-19T16:50:59.000",
    "request_status": "Pending",
    "responsible_agency": "Department of Public Works",
    "final_address": "1515 N Roman St",
    "address_councildis": "D",
    "status": "Pending",
    "rowid": "1056651",
    "final_x": "3681153.10805",
    "final_y": "537812.715272",
    "longitude": "-90.06894642224194",
    "latitude": "29.97280902463742",
    "geocoded_column": {
      "latitude": "29.97280902463742",
      "longitude": "-90.06894642224194"
    }
  },
  {
    "service_request": "2023-1056650",
    "request_type": "Safety & Permits",
    "request_reason": "Construction permit",
    "date_created": "2023-12-19T16:45:43.000",
    "date_modified": "2023-12-19T16:45:44.000",
    "request_status": "Pending",
    "responsible_agency": "Department of Code Enforcement",
    "final_address": "4757 Tulip St",
    "address_councildis": "E",
    "status": "Pending",
    "rowid": "1056650",
    "final_x": "3702121.11786",
    "final_y": "554458.106584",
    "longitude": "-90.00211524257892",
    "latitude": "30.017924791426633",
    "geocoded_column": {
      "latitude": "30.017924791426633",
      "longitude": "-90.00211524257892"
    }
  },
  {
    "service_request": "2023-1056649",
    "request_type": "Trash/Recycling",
    "request_reason": "Replace Recycling Cart",
    "date_created": "2023-12-19T16:38:26.000",
    "date_modified": "2023-12-19T16:38:26.000",
    "request_status": "Pending",
    "responsible_agency": "Department of Sanitation",
    "final_address": "5609 Bancroft Dr",
    "address_councildis": "D",
    "status": "Pending",
    "rowid": "1056649",
    "final_x": "3676626.66702",
    "final_y": "552658.540822",
    "longitude": "-90.08273005718391",
    "latitude": "30.013766407679423",
    "geocoded_column": {
      "latitude": "30.013766407679423",
      "longitude": "-90.08273005718391"
    }
  },
  {
    "service_request": "2023-1056648",
    "request_type": "Trash/Recycling",
    "request_reason": "Replace Trash Cart",
    "date_created": "2023-12-19T16:37:21.000",
    "date_modified": "2023-12-19T16:37:22.000",
    "request_status": "Pending",
    "responsible_agency": "Department of Sanitation",
    "final_address": "4514 Pitt St",
    "address_councildis": "B",
    "status": "Assigned to Contractor",
    "contractor": "Richards Disposal",
    "rowid": "1056648",
    "final_x": "3670318.27137",
    "final_y": "520457.07756",
    "longitude": "-90.10375314665959",
    "latitude": "29.925411000790984",
    "geocoded_column": {
      "latitude": "29.925411000790984",
      "longitude": "-90.10375314665959"
    }
  },
  {
    "service_request": "2023-1056647",
    "request_type": "Trash/Recycling",
    "request_reason": "Request a Large Item Pick Up",
    "date_created": "2023-12-19T16:35:40.000",
    "date_modified": "2023-12-19T16:35:41.000",
    "request_status": "Pending",
    "responsible_agency": "Department of Sanitation",
    "final_address": "7021 Walmsley Ave",
    "address_councildis": "B",
    "status": "Assigned to Contractor",
    "contractor": "Richards Disposal",
    "rowid": "1056647",
    "final_x": "3667769.54618",
    "final_y": "530935.06829",
    "longitude": "-90.11144599522372",
    "latitude": "29.95429705931073",
    "geocoded_column": {
      "latitude": "29.95429705931073",
      "longitude": "-90.11144599522372"
    }
  },
  {
    "service_request": "2023-1056646",
    "request_type": "Property Maintenance",
    "request_reason": "Property Maintenance",
    "date_created": "2023-12-19T16:29:30.000",
    "date_modified": "2023-12-19T16:29:30.000",
    "request_status": "Pending",
    "responsible_agency": "Department of Code Enforcement",
    "final_address": "613 Valence St",
    "address_councildis": "B",
    "status": "Pending",
    "rowid": "1056646",
    "final_x": "3670081.83796",
    "final_y": "517787.004086",
    "longitude": "-90.10458987944105",
    "latitude": "29.91807611987925",
    "geocoded_column": {
      "latitude": "29.91807611987925",
      "longitude": "-90.10458987944105"
    }
  },
  {
    "service_request": "2023-1056645",
    "request_type": "Traffic Signals/Signs/Striping/Streetlights",
    "request_reason": "Traffic Signal Malfunctioning/Damaged",
    "date_created": "2023-12-19T16:25:23.000",
    "date_modified": "2023-12-19T16:25:24.000",
    "request_status": "Pending",
    "responsible_agency": "Department of Public Works",
    "final_address": "JACKSON AVE & TCHOUPITOULAS ST",
    "address_councildis": "B",
    "status": "Pending",
    "rowid": "1056645",
    "final_x": "3680589.1",
    "final_y": "519797.08",
    "longitude": "-90.07135430113576",
    "latitude": "29.923289173987115",
    "geocoded_column": {
      "latitude": "29.923289173987115",
      "longitude": "-90.07135430113576"
    }
  },
  {
    "service_request": "2023-1056644",
    "request_type": "Trash/Recycling",
    "request_reason": "Request a Large Item Pick Up",
    "date_created": "2023-12-19T16:12:16.000",
    "date_modified": "2023-12-19T16:12:16.000",
    "request_status": "Pending",
    "responsible_agency": "Department of Sanitation",
    "final_address": "2733 N Rampart St",
    "address_councildis": "C",
    "status": "Assigned to Contractor",
    "contractor": "IV Waste",
    "rowid": "1056644",
    "final_x": "3687586.94582",
    "final_y": "535916.042503",
    "longitude": "-90.04869436239709",
    "latitude": "29.967397058625046",
    "geocoded_column": {
      "latitude": "29.967397058625046",
      "longitude": "-90.04869436239709"
    }
  },
  {
    "service_request": "2023-1056643",
    "request_type": "Roads/Drainage",
    "request_reason": "Pothole",
    "date_created": "2023-12-19T16:08:59.000",
    "date_modified": "2023-12-19T16:08:59.000",
    "request_status": "Pending",
    "responsible_agency": "Department of Public Works",
    "final_address": "4216 Chestnut St",
    "address_councildis": "B",
    "status": "Pending",
    "rowid": "1056643",
    "final_x": "3671574.31393",
    "final_y": "519539.203703",
    "longitude": "-90.09981939416457",
    "latitude": "29.922850019854593",
    "geocoded_column": {
      "latitude": "29.922850019854593",
      "longitude": "-90.09981939416457"
    }
  },
  {
    "service_request": "2023-1056642",
    "request_type": "Trash/Recycling",
    "request_reason": "Request a Large Item Pick Up",
    "date_created": "2023-12-19T16:07:37.000",
    "date_modified": "2023-12-19T16:07:37.000",
    "request_status": "Pending",
    "responsible_agency": "Department of Sanitation",
    "final_address": "3014 Ursulines Ave",
    "address_councildis": "A",
    "status": "Assigned to Contractor",
    "contractor": "Richards Disposal",
    "rowid": "1056642",
    "final_x": "3676346.29512",
    "final_y": "539007.135946",
    "longitude": "-90.0840861270176",
    "latitude": "29.97623824210492",
    "geocoded_column": {
      "latitude": "29.97623824210492",
      "longitude": "-90.0840861270176"
    }
  },
  {
    "service_request": "2023-1056641",
    "request_type": "Trash/Recycling",
    "request_reason": "Missed Trash Pick-Up",
    "date_created": "2023-12-19T16:03:38.000",
    "date_modified": "2023-12-19T16:03:39.000",
    "request_status": "Pending",
    "responsible_agency": "Department of Sanitation",
    "final_address": "7701 Trapier Ave",
    "address_councildis": "E",
    "status": "Assigned to Contractor",
    "contractor": "Waste Pro",
    "rowid": "1056641",
    "final_x": "3706542.45131",
    "final_y": "563784.988769",
    "longitude": "-89.98779959372774",
    "latitude": "30.043428082762084",
    "geocoded_column": {
      "latitude": "30.043428082762084",
      "longitude": "-89.98779959372774"
    }
  },
  {
    "service_request": "2023-1056640",
    "request_type": "Trash/Recycling",
    "request_reason": "Return Trash Cart",
    "date_created": "2023-12-19T15:56:47.000",
    "date_modified": "2023-12-19T15:56:48.000",
    "request_status": "Pending",
    "responsible_agency": "Department of Sanitation",
    "final_address": "9412 Palm St",
    "address_councildis": "A",
    "status": "Assigned to Contractor",
    "contractor": "Richards Disposal",
    "rowid": "1056640",
    "final_x": "3664141.7881",
    "final_y": "537883.779977",
    "longitude": "-90.12266923646682",
    "latitude": "29.973509609122008",
    "geocoded_column": {
      "latitude": "29.973509609122008",
      "longitude": "-90.12266923646682"
    }
  },
  {
    "service_request": "2023-1056639",
    "request_type": "Trash/Recycling",
    "request_reason": "MIssed Recycling Pick-Up",
    "date_created": "2023-12-19T15:55:30.000",
    "date_modified": "2023-12-19T15:55:31.000",
    "request_status": "Pending",
    "responsible_agency": "Department of Sanitation",
    "final_address": "1230 N Broad St",
    "address_councildis": "D",
    "status": "Assigned to Contractor",
    "contractor": "Richards Disposal",
    "rowid": "1056639",
    "final_x": "3678024.13275",
    "final_y": "538599.677385",
    "longitude": "-90.07880110609337",
    "latitude": "29.975067466381123",
    "geocoded_column": {
      "latitude": "29.975067466381123",
      "longitude": "-90.07880110609337"
    }
  },
  {
    "service_request": "2023-1056638",
    "request_type": "Trash/Recycling",
    "request_reason": "Request a Large Item Pick Up",
    "date_created": "2023-12-19T15:55:04.000",
    "date_modified": "2023-12-19T15:55:05.000",
    "request_status": "Pending",
    "responsible_agency": "Department of Sanitation",
    "final_address": "2326 Laharpe St",
    "address_councildis": "D",
    "status": "Assigned to Contractor",
    "contractor": "IV Waste",
    "rowid": "1056638",
    "final_x": "3679764.76456",
    "final_y": "539065.103434",
    "longitude": "-90.07328757599709",
    "latitude": "29.97629471099269",
    "geocoded_column": {
      "latitude": "29.97629471099269",
      "longitude": "-90.07328757599709"
    }
  },
  {
    "service_request": "2023-1056637",
    "request_type": "Trash/Recycling",
    "request_reason": "MIssed Recycling Pick-Up",
    "date_created": "2023-12-19T15:54:48.000",
    "date_modified": "2023-12-19T15:54:49.000",
    "request_status": "Pending",
    "responsible_agency": "Department of Sanitation",
    "final_address": "4948 Chrysler St",
    "address_councildis": "E",
    "status": "Assigned to Contractor",
    "contractor": "Waste Pro",
    "rowid": "1056637",
    "final_x": "3715130.14245",
    "final_y": "557801.687899",
    "longitude": "-89.96088564470875",
    "latitude": "30.026696331180947",
    "geocoded_column": {
      "latitude": "30.026696331180947",
      "longitude": "-89.96088564470875"
    }
  },
  {
    "service_request": "2023-1056636",
    "request_type": "Roads/Drainage",
    "request_reason": "Pothole",
    "date_created": "2023-12-19T15:53:37.000",
    "date_modified": "2023-12-19T15:53:37.000",
    "request_status": "Pending",
    "responsible_agency": "Department of Public Works",
    "final_address": "1312 Milan St",
    "address_councildis": "B",
    "status": "Pending",
    "rowid": "1056636",
    "final_x": "3671625.82823",
    "final_y": "520286.919608",
    "longitude": "-90.09963137110304",
    "latitude": "29.92490447494246",
    "geocoded_column": {
      "latitude": "29.92490447494246",
      "longitude": "-90.09963137110304"
    }
  },
  {
    "service_request": "2023-1056635",
    "request_type": "Trash/Recycling",
    "request_reason": "Order Recycling Cart",
    "date_created": "2023-12-19T15:43:19.000",
    "date_modified": "2023-12-19T15:43:19.000",
    "request_status": "Pending",
    "responsible_agency": "Department of Sanitation",
    "final_address": "1204 Marengo St",
    "address_councildis": "B",
    "status": "Pending",
    "rowid": "1056635",
    "final_x": "3671955.50811",
    "final_y": "519992.437304",
    "longitude": "-90.09860069451175",
    "latitude": "29.92408497840993",
    "geocoded_column": {
      "latitude": "29.92408497840993",
      "longitude": "-90.09860069451175"
    }
  },
  {
    "service_request": "2023-1056634",
    "request_type": "Trash/Recycling",
    "request_reason": "MIssed Recycling Pick-Up",
    "date_created": "2023-12-19T15:39:57.000",
    "date_modified": "2023-12-19T15:39:58.000",
    "request_status": "Pending",
    "responsible_agency": "Department of Sanitation",
    "final_address": "4668 Francisco Verrett Dr",
    "address_councildis": "E",
    "status": "Assigned to Contractor",
    "contractor": "Waste Pro",
    "rowid": "1056634",
    "final_x": "3704225.39236",
    "final_y": "554817.277016",
    "longitude": "-89.99545334385458",
    "latitude": "30.018844983673084",
    "geocoded_column": {
      "latitude": "30.018844983673084",
      "longitude": "-89.99545334385458"
    }
  },
  {
    "service_request": "2023-1056633",
    "request_type": "Property Maintenance",
    "request_reason": "Property Maintenance",
    "date_created": "2023-12-19T15:36:03.000",
    "date_modified": "2023-12-19T15:36:03.000",
    "request_status": "Pending",
    "responsible_agency": "Department of Code Enforcement",
    "final_address": " & FOREST ISLE DR",
    "address_councildis": "C",
    "status": "Pending",
    "rowid": "1056633",
    "final_x": "3705876.93",
    "final_y": "512778.89",
    "longitude": "-89.99179023228741",
    "latitude": "29.903201541007117",
    "geocoded_column": {
      "latitude": "29.903201541007117",
      "longitude": "-89.99179023228741"
    }
  },
  {
    "service_request": "2023-1056632",
    "request_type": "Traffic Signals/Signs/Striping/Streetlights",
    "request_reason": "Traffic Signal Malfunctioning/Damaged",
    "date_created": "2023-12-19T15:29:52.000",
    "date_modified": "2023-12-19T15:29:53.000",
    "request_status": "Pending",
    "responsible_agency": "Department of Public Works",
    "final_address": "ELYSIAN FIELDS AVE & GENTILLY BLVD",
    "address_councildis": "D",
    "status": "Pending",
    "rowid": "1056632",
    "final_x": "3684059.79",
    "final_y": "547584.11",
    "longitude": "-90.05942349799389",
    "latitude": "29.99958839427118",
    "geocoded_column": {
      "latitude": "29.99958839427118",
      "longitude": "-90.05942349799389"
    }
  },
  {
    "service_request": "2023-1056631",
    "request_type": "Trash/Recycling",
    "request_reason": "Start Trash Service",
    "date_created": "2023-12-19T15:27:47.000",
    "date_modified": "2023-12-19T15:27:48.000",
    "request_status": "Pending",
    "responsible_agency": "Department of Sanitation",
    "final_address": "1204 Marengo St",
    "address_councildis": "B",
    "status": "Assigned to Contractor",
    "contractor": "Richards Disposal",
    "rowid": "1056631",
    "final_x": "3671955.50811",
    "final_y": "519992.437304",
    "longitude": "-90.09860069451175",
    "latitude": "29.92408497840993",
    "geocoded_column": {
      "latitude": "29.92408497840993",
      "longitude": "-90.09860069451175"
    }
  },
  {
    "service_request": "2023-1056630",
    "request_type": "Trash/Recycling",
    "request_reason": "Start Trash Service",
    "date_created": "2023-12-19T15:26:39.000",
    "date_modified": "2023-12-19T15:26:40.000",
    "request_status": "Pending",
    "responsible_agency": "Department of Sanitation",
    "final_address": "4106 Duplessis St",
    "address_councildis": "D",
    "status": "Assigned to Contractor",
    "contractor": "IV Waste",
    "rowid": "1056630",
    "final_x": "3678296.5092",
    "final_y": "547330.676625",
    "longitude": "-90.07763868629011",
    "latitude": "29.99906646498025",
    "geocoded_column": {
      "latitude": "29.99906646498025",
      "longitude": "-90.07763868629011"
    }
  },
  {
    "service_request": "2023-1056629",
    "request_type": "Abandoned Vehicles",
    "request_reason": "Abandoned/Junk Vehicles",
    "date_created": "2023-12-19T15:25:37.000",
    "date_modified": "2023-12-19T15:25:37.000",
    "request_status": "Pending",
    "responsible_agency": "Department of Public Works",
    "final_address": "13 Pointe Coupee Pl",
    "address_councildis": "E",
    "status": "Inspected",
    "rowid": "1056629",
    "final_x": "3725495.20908",
    "final_y": "564595.172897",
    "longitude": "-89.92787031083031",
    "latitude": "30.04503018354516",
    "geocoded_column": {
      "latitude": "30.04503018354516",
      "longitude": "-89.92787031083031"
    }
  },
  {
    "service_request": "2023-1056628",
    "request_type": "Trash/Recycling",
    "request_reason": "Request a Large Item Pick Up",
    "date_created": "2023-12-19T15:25:29.000",
    "date_modified": "2023-12-19T15:25:30.000",
    "request_status": "Pending",
    "responsible_agency": "Department of Sanitation",
    "final_address": "5015 Papania Dr",
    "address_councildis": "E",
    "status": "Assigned to Contractor",
    "contractor": "Waste Pro",
    "rowid": "1056628",
    "final_x": "3715563.1477",
    "final_y": "558141.494875",
    "longitude": "-89.95950453566644",
    "latitude": "30.027616397251332",
    "geocoded_column": {
      "latitude": "30.027616397251332",
      "longitude": "-89.95950453566644"
    }
  },
  {
    "service_request": "2023-1056627",
    "request_type": "Traffic Signals/Signs/Striping/Streetlights",
    "request_reason": "Street Light Outage/Malfunction",
    "date_created": "2023-12-19T15:15:20.000",
    "date_modified": "2023-12-19T15:15:21.000",
    "request_status": "Pending",
    "responsible_agency": "Department of Public Works",
    "final_address": "5327 Eastern St",
    "address_councildis": "D",
    "status": "Assigned to Contractor",
    "contractor": "Legacy Professional Services",
    "rowid": "1056627",
    "final_x": "3687908.11113",
    "final_y": "552539.991702",
    "longitude": "-90.04709080558497",
    "latitude": "30.013097056540513",
    "geocoded_column": {
      "latitude": "30.013097056540513",
      "longitude": "-90.04709080558497"
    }
  },
  {
    "service_request": "2023-1056626",
    "request_type": "Trash/Recycling",
    "request_reason": "Order Recycling Cart",
    "date_created": "2023-12-19T15:12:17.000",
    "date_modified": "2023-12-19T15:12:18.000",
    "request_status": "Pending",
    "responsible_agency": "Department of Sanitation",
    "final_address": "2137 Soniat St",
    "address_councildis": "B",
    "status": "Pending",
    "rowid": "1056626",
    "final_x": "3668532.95585",
    "final_y": "523522.878139",
    "longitude": "-90.10928546584748",
    "latitude": "29.933893532283022",
    "geocoded_column": {
      "latitude": "29.933893532283022",
      "longitude": "-90.10928546584748"
    }
  },
  {
    "service_request": "2023-1056625",
    "request_type": "Trash/Recycling",
    "request_reason": "Order Trash Cart",
    "date_created": "2023-12-19T15:11:58.000",
    "date_modified": "2023-12-19T15:11:59.000",
    "request_status": "Pending",
    "responsible_agency": "Department of Sanitation",
    "final_address": "2137 Soniat St",
    "address_councildis": "B",
    "status": "Assigned to Contractor",
    "contractor": "Richards Disposal",
    "rowid": "1056625",
    "final_x": "3668532.95585",
    "final_y": "523522.878139",
    "longitude": "-90.10928546584748",
    "latitude": "29.933893532283022",
    "geocoded_column": {
      "latitude": "29.933893532283022",
      "longitude": "-90.10928546584748"
    }
  },
  {
    "service_request": "2023-1056624",
    "request_type": "Parks & Parkways",
    "request_reason": "Request Tree Service (Right of Way/Public Property)",
    "date_created": "2023-12-19T15:10:55.000",
    "date_modified": "2023-12-19T15:10:55.000",
    "request_status": "Pending",
    "responsible_agency": "Department of Parks & Parkway",
    "final_address": "1204 Henry Clay Ave",
    "address_councildis": "A",
    "status": "Pending",
    "rowid": "1056624",
    "final_x": "3664258.10964",
    "final_y": "520916.620281",
    "longitude": "-90.12286794854776",
    "latitude": "29.926852020722908",
    "geocoded_column": {
      "latitude": "29.926852020722908",
      "longitude": "-90.12286794854776"
    }
  },
  {
    "service_request": "2023-1056623",
    "request_type": "Trash/Recycling",
    "request_reason": "Request a Large Item Pick Up",
    "date_created": "2023-12-19T15:07:28.000",
    "date_modified": "2023-12-19T15:07:29.000",
    "request_status": "Pending",
    "responsible_agency": "Department of Sanitation",
    "final_address": "4842 Gabriel Dr",
    "address_councildis": "E",
    "status": "Assigned to Contractor",
    "contractor": "Waste Pro",
    "rowid": "1056623",
    "final_x": "3708759.61144",
    "final_y": "556382.21609",
    "longitude": "-89.98106859726059",
    "latitude": "30.023001607871134",
    "geocoded_column": {
      "latitude": "30.023001607871134",
      "longitude": "-89.98106859726059"
    }
  },
  {
    "service_request": "2023-1056622",
    "request_type": "Trash/Recycling",
    "request_reason": "Request a Large Item Pick Up",
    "date_created": "2023-12-19T14:58:33.000",
    "date_modified": "2023-12-19T14:58:34.000",
    "request_status": "Pending",
    "responsible_agency": "Department of Sanitation",
    "final_address": "920 St Peter St",
    "address_councildis": "C",
    "status": "Assigned to Contractor",
    "contractor": "Empire Services",
    "rowid": "1056622",
    "final_x": "3681802.3782",
    "final_y": "532930.490948",
    "longitude": "-90.06706630170198",
    "latitude": "29.95936486884165",
    "geocoded_column": {
      "latitude": "29.95936486884165",
      "longitude": "-90.06706630170198"
    }
  },
  {
    "service_request": "2023-1056621",
    "request_type": "Trash/Recycling",
    "request_reason": "Missed Trash Pick-Up",
    "date_created": "2023-12-19T14:52:06.000",
    "date_modified": "2023-12-19T14:52:07.000",
    "request_status": "Pending",
    "responsible_agency": "Department of Sanitation",
    "final_address": "1744 Flanders St",
    "address_councildis": "C",
    "status": "Assigned to Contractor",
    "contractor": "Richards Disposal",
    "rowid": "1056621",
    "final_x": "3696708.32029",
    "final_y": "524744.71334",
    "longitude": "-90.02029333632261",
    "latitude": "29.936395481086507",
    "geocoded_column": {
      "latitude": "29.936395481086507",
      "longitude": "-90.02029333632261"
    }
  },
  {
    "service_request": "2023-1056620",
    "request_type": "Trash/Recycling",
    "request_reason": "Request a Large Item Pick Up",
    "date_created": "2023-12-19T14:47:24.000",
    "date_modified": "2023-12-19T14:47:25.000",
    "request_status": "Pending",
    "responsible_agency": "Department of Sanitation",
    "final_address": "2349 Annunciation St",
    "address_councildis": "B",
    "status": "Assigned to Contractor",
    "contractor": "Richards Disposal",
    "rowid": "1056620",
    "final_x": "3678876.81678",
    "final_y": "520747.712697",
    "longitude": "-90.07672642245623",
    "latitude": "29.925954847764157",
    "geocoded_column": {
      "latitude": "29.925954847764157",
      "longitude": "-90.07672642245623"
    }
  },
  {
    "service_request": "2023-1056619",
    "request_type": "Property Maintenance",
    "request_reason": "Property Maintenance",
    "date_created": "2023-12-19T14:45:43.000",
    "date_modified": "2023-12-19T14:46:11.000",
    "request_status": "Pending",
    "responsible_agency": "Department of Code Enforcement",
    "final_address": "2615 S Liberty St",
    "address_councildis": "B",
    "status": "Pending",
    "rowid": "1056619",
    "final_x": "3674936.8932",
    "final_y": "524903.5303",
    "longitude": "-90.08902115563825",
    "latitude": "29.9375002160845",
    "geocoded_column": {
      "latitude": "29.9375002160845",
      "longitude": "-90.08902115563825"
    }
  },
  {
    "service_request": "2023-1056618",
    "request_type": "Roads/Drainage",
    "request_reason": "Culvert Issue",
    "date_created": "2023-12-19T14:39:23.000",
    "date_modified": "2023-12-19T14:39:24.000",
    "request_status": "Pending",
    "responsible_agency": "Department of Public Works",
    "final_address": "7736 Haney Dr",
    "address_councildis": "E",
    "status": "Pending",
    "rowid": "1056618",
    "final_x": "3712283.09477",
    "final_y": "567670.93066",
    "longitude": "-89.96951073697166",
    "latitude": "30.053926244168768",
    "geocoded_column": {
      "latitude": "30.053926244168768",
      "longitude": "-89.96951073697166"
    }
  },
  {
    "service_request": "2023-1056617",
    "request_type": "Trash/Recycling",
    "request_reason": "Illegal Dumping",
    "date_created": "2023-12-19T14:38:02.000",
    "date_modified": "2023-12-19T14:38:03.000",
    "request_status": "Pending",
    "responsible_agency": "Department of Sanitation",
    "final_address": "7737 Haney Dr",
    "address_councildis": "E",
    "status": "Pending",
    "rowid": "1056617",
    "final_x": "3712349.39032",
    "final_y": "567724.654244",
    "longitude": "-89.96929917359496",
    "latitude": "30.054071792302",
    "geocoded_column": {
      "latitude": "30.054071792302",
      "longitude": "-89.96929917359496"
    }
  },
  {
    "service_request": "2023-1056616",
    "request_type": "Roads/Drainage",
    "request_reason": "Catch Basin - Clogged",
    "date_created": "2023-12-19T14:29:49.000",
    "date_modified": "2023-12-19T14:29:50.000",
    "request_status": "Pending",
    "responsible_agency": "Department of Public Works",
    "final_address": "4936 Haik Dr",
    "address_councildis": "D",
    "status": "Pending",
    "rowid": "1056616",
    "final_x": "3681889.43752",
    "final_y": "550940.039061",
    "longitude": "-90.0661624725675",
    "latitude": "30.00888216252399",
    "geocoded_column": {
      "latitude": "30.00888216252399",
      "longitude": "-90.0661624725675"
    }
  },
  {
    "service_request": "2023-1056615",
    "request_type": "Trash/Recycling",
    "request_reason": "Request a Large Item Pick Up",
    "date_created": "2023-12-19T14:29:14.000",
    "date_modified": "2023-12-19T14:29:14.000",
    "request_status": "Pending",
    "responsible_agency": "Department of Sanitation",
    "final_address": "2150 Timoleon St",
    "address_councildis": "D",
    "status": "Assigned to Contractor",
    "contractor": "IV Waste",
    "rowid": "1056615",
    "final_x": "3683496.12309",
    "final_y": "551051.480533",
    "longitude": "-90.06108252002572",
    "latitude": "30.00913963233658",
    "geocoded_column": {
      "latitude": "30.00913963233658",
      "longitude": "-90.06108252002572"
    }
  },
  {
    "service_request": "2023-1056613",
    "request_type": "Trash/Recycling",
    "request_reason": "Request a Large Item Pick Up",
    "date_created": "2023-12-19T14:27:50.000",
    "date_modified": "2023-12-19T14:27:51.000",
    "request_status": "Pending",
    "responsible_agency": "Department of Sanitation",
    "final_address": "320 Alix St",
    "address_councildis": "C",
    "status": "Assigned to Contractor",
    "contractor": "Richards Disposal",
    "rowid": "1056613",
    "final_x": "3686532.61436",
    "final_y": "530078.590081",
    "longitude": "-90.05223006039935",
    "latitude": "29.95137853746635",
    "geocoded_column": {
      "latitude": "29.95137853746635",
      "longitude": "-90.05223006039935"
    }
  },
  {
    "service_request": "2023-1056612",
    "request_type": "Traffic Signals/Signs/Striping/Streetlights",
    "request_reason": "Traffic Signal Malfunctioning/Damaged",
    "date_created": "2023-12-19T14:26:34.000",
    "date_modified": "2023-12-19T14:26:35.000",
    "request_status": "Pending",
    "responsible_agency": "Department of Public Works",
    "final_address": "ELYSIAN FIELDS AVE & GENTILLY BLVD",
    "address_councildis": "D",
    "status": "Pending",
    "rowid": "1056612",
    "final_x": "3684059.79",
    "final_y": "547584.11",
    "longitude": "-90.05942349799389",
    "latitude": "29.99958839427118",
    "geocoded_column": {
      "latitude": "29.99958839427118",
      "longitude": "-90.05942349799389"
    }
  },
  {
    "service_request": "2023-1056611",
    "request_type": "Traffic Signals/Signs/Striping/Streetlights",
    "request_reason": "Traffic Signal Malfunctioning/Damaged",
    "date_created": "2023-12-19T14:25:46.000",
    "date_modified": "2023-12-19T14:25:46.000",
    "request_status": "Pending",
    "responsible_agency": "Department of Public Works",
    "final_address": "4300 BLK Saint Claude Ave",
    "address_councildis": "C",
    "status": "Pending",
    "rowid": "1056611",
    "final_x": "3692792.19542",
    "final_y": "535058.700668",
    "longitude": "-90.03228690911833",
    "latitude": "29.96487818069733",
    "geocoded_column": {
      "latitude": "29.96487818069733",
      "longitude": "-90.03228690911833"
    }
  },
  {
    "service_request": "2023-1056610",
    "request_type": "Parks & Parkways",
    "request_reason": "Request Tree Service (Right of Way/Public Property)",
    "date_created": "2023-12-19T14:21:37.000",
    "date_modified": "2023-12-19T14:21:37.000",
    "request_status": "Pending",
    "responsible_agency": "Department of Parks & Parkway",
    "final_address": "1727 Bordeaux St",
    "address_councildis": "B",
    "status": "Pending",
    "rowid": "1056610",
    "final_x": "3669423.18746",
    "final_y": "521314.262521",
    "longitude": "-90.10654968566124",
    "latitude": "29.92779436673298",
    "geocoded_column": {
      "latitude": "29.92779436673298",
      "longitude": "-90.10654968566124"
    }
  },
  {
    "service_request": "2023-1056609",
    "request_type": "Trash/Recycling",
    "request_reason": "Request a Large Item Pick Up",
    "date_created": "2023-12-19T14:18:14.000",
    "date_modified": "2023-12-19T14:18:15.000",
    "request_status": "Pending",
    "responsible_agency": "Department of Sanitation",
    "final_address": "2113 Brainard St",
    "address_councildis": "B",
    "status": "Assigned to Contractor",
    "contractor": "Richards Disposal",
    "rowid": "1056609",
    "final_x": "3677361.53646",
    "final_y": "524434.666364",
    "longitude": "-90.08138255452843",
    "latitude": "29.936138372456302",
    "geocoded_column": {
      "latitude": "29.936138372456302",
      "longitude": "-90.08138255452843"
    }
  },
  {
    "service_request": "2023-1056608",
    "request_type": "Trash/Recycling",
    "request_reason": "Request a Large Item Pick Up",
    "date_created": "2023-12-19T14:14:50.000",
    "date_modified": "2023-12-19T16:22:18.000",
    "request_status": "Pending",
    "responsible_agency": "Department of Sanitation",
    "final_address": "1241 Eleonore St",
    "address_councildis": "A",
    "status": "Assigned to Contractor",
    "contractor": "Richards Disposal",
    "rowid": "1056608",
    "final_x": "3665601.32096",
    "final_y": "520595.412792",
    "longitude": "-90.11863851974041",
    "latitude": "29.925929716012785",
    "geocoded_column": {
      "latitude": "29.925929716012785",
      "longitude": "-90.11863851974041"
    }
  },
  {
    "service_request": "2023-1056607",
    "request_type": "Trash/Recycling",
    "request_reason": "Replace Trash Cart",
    "date_created": "2023-12-19T14:14:34.000",
    "date_modified": "2023-12-19T14:14:35.000",
    "request_status": "Pending",
    "responsible_agency": "Department of Sanitation",
    "final_address": "1014 Chartres St",
    "address_councildis": "C",
    "status": "Assigned to Contractor",
    "contractor": "Empire Services",
    "rowid": "1056607",
    "final_x": "3683607.79042",
    "final_y": "533192.925188",
    "longitude": "-90.0613560473369",
    "latitude": "29.9600314895343",
    "geocoded_column": {
      "latitude": "29.9600314895343",
      "longitude": "-90.0613560473369"
    }
  },
  {
    "service_request": "2023-1056606",
    "request_type": "Traffic Signals/Signs/Striping/Streetlights",
    "request_reason": "Street Light Outage/Malfunction",
    "date_created": "2023-12-19T14:05:31.000",
    "date_modified": "2023-12-19T14:05:32.000",
    "request_status": "Pending",
    "responsible_agency": "Department of Public Works",
    "final_address": "3773 Silver Maple Ct",
    "address_councildis": "C",
    "status": "Assigned to Contractor",
    "contractor": "Legacy Professional Services",
    "rowid": "1056606",
    "final_x": "3703679.56497",
    "final_y": "512780.878193",
    "longitude": "-89.99872495988359",
    "latitude": "29.903277564843922",
    "geocoded_column": {
      "latitude": "29.903277564843922",
      "longitude": "-89.99872495988359"
    }
  },
  {
    "service_request": "2023-1056605",
    "request_type": "Trash/Recycling",
    "request_reason": "Request a Large Item Pick Up",
    "date_created": "2023-12-19T14:05:18.000",
    "date_modified": "2023-12-19T14:05:18.000",
    "request_status": "Pending",
    "responsible_agency": "Department of Sanitation",
    "final_address": "8240 Curran Rd",
    "address_councildis": "E",
    "status": "Assigned to Contractor",
    "contractor": "Waste Pro",
    "rowid": "1056605",
    "final_x": "3702958.69207",
    "final_y": "561906.285599",
    "longitude": "-89.99919484292683",
    "latitude": "30.038377613964986",
    "geocoded_column": {
      "latitude": "30.038377613964986",
      "longitude": "-89.99919484292683"
    }
  },
  {
    "service_request": "2023-1056604",
    "request_type": "Traffic Signals/Signs/Striping/Streetlights",
    "request_reason": "Street Light Outage/Malfunction",
    "date_created": "2023-12-19T14:04:25.000",
    "date_modified": "2023-12-19T14:04:26.000",
    "request_status": "Pending",
    "responsible_agency": "Department of Public Works",
    "final_address": "3756 Silver Maple Ct",
    "address_councildis": "C",
    "status": "Assigned to Contractor",
    "contractor": "Legacy Professional Services",
    "rowid": "1056604",
    "final_x": "3703557.16772",
    "final_y": "512685.254193",
    "longitude": "-89.99911475528921",
    "latitude": "29.90301855067364",
    "geocoded_column": {
      "latitude": "29.90301855067364",
      "longitude": "-89.99911475528921"
    }
  },
  {
    "service_request": "2023-1056603",
    "request_type": "Traffic Signals/Signs/Striping/Streetlights",
    "request_reason": "Street Light Outage/Malfunction",
    "date_created": "2023-12-19T14:03:19.000",
    "date_modified": "2023-12-19T14:03:46.000",
    "request_status": "Pending",
    "responsible_agency": "Department of Public Works",
    "final_address": "3772 Silver Maple Ct",
    "address_councildis": "C",
    "status": "Assigned to Contractor",
    "contractor": "Legacy Professional Services",
    "rowid": "1056603",
    "final_x": "3703629.24273",
    "final_y": "512674.552113",
    "longitude": "-89.99888768305408",
    "latitude": "29.902986815742096",
    "geocoded_column": {
      "latitude": "29.902986815742096",
      "longitude": "-89.99888768305408"
    }
  },
  {
    "service_request": "2023-1056602",
    "request_type": "Trash/Recycling",
    "request_reason": "Replace Trash Cart",
    "date_created": "2023-12-19T13:54:37.000",
    "date_modified": "2023-12-19T13:54:38.000",
    "request_status": "Pending",
    "responsible_agency": "Department of Sanitation",
    "final_address": "1501 Richland Rd",
    "address_councildis": "C",
    "status": "Assigned to Contractor",
    "contractor": "Richards Disposal",
    "rowid": "1056602",
    "final_x": "3697873.7457",
    "final_y": "525713.278077",
    "longitude": "-90.01657892913082",
    "latitude": "29.939021925886188",
    "geocoded_column": {
      "latitude": "29.939021925886188",
      "longitude": "-90.01657892913082"
    }
  },
  {
    "service_request": "2023-1056601",
    "request_type": "Trash/Recycling",
    "request_reason": "Request a Large Item Pick Up",
    "date_created": "2023-12-19T13:51:47.000",
    "date_modified": "2023-12-19T13:51:48.000",
    "request_status": "Pending",
    "responsible_agency": "Department of Sanitation",
    "final_address": "4722 Cerise Ave",
    "address_councildis": "E",
    "status": "Assigned to Contractor",
    "contractor": "Waste Pro",
    "rowid": "1056601",
    "final_x": "3708549.55032",
    "final_y": "555524.219929",
    "longitude": "-89.98176431574876",
    "latitude": "30.02064926761903",
    "geocoded_column": {
      "latitude": "30.02064926761903",
      "longitude": "-89.98176431574876"
    }
  },
  {
    "service_request": "2023-1056600",
    "request_type": "Trash/Recycling",
    "request_reason": "Missed Trash Pick-Up",
    "date_created": "2023-12-19T13:48:14.000",
    "date_modified": "2023-12-19T13:48:15.000",
    "request_status": "Pending",
    "responsible_agency": "Department of Sanitation",
    "final_address": "7631 Berg Rd",
    "address_councildis": "E",
    "status": "Assigned to Contractor",
    "contractor": "Waste Pro",
    "rowid": "1056600",
    "final_x": "3711984.97317",
    "final_y": "566745.603875",
    "longitude": "-89.97048780352027",
    "latitude": "30.0513917251867",
    "geocoded_column": {
      "latitude": "30.0513917251867",
      "longitude": "-89.97048780352027"
    }
  },
  {
    "service_request": "2023-1056599",
    "request_type": "Trash/Recycling",
    "request_reason": "Order Recycling Cart",
    "date_created": "2023-12-19T13:47:41.000",
    "date_modified": "2023-12-19T13:47:41.000",
    "request_status": "Pending",
    "responsible_agency": "Department of Sanitation",
    "final_address": "2613 Republic St",
    "address_councildis": "D",
    "status": "Pending",
    "rowid": "1056599",
    "final_x": "3680798.03899",
    "final_y": "541701.137996",
    "longitude": "-90.06993239342809",
    "latitude": "29.983511604758892",
    "geocoded_column": {
      "latitude": "29.983511604758892",
      "longitude": "-90.06993239342809"
    }
  },
  {
    "service_request": "2023-1056598",
    "request_type": "Traffic Signals/Signs/Striping/Streetlights",
    "request_reason": "Street Light Outage/Malfunction",
    "date_created": "2023-12-19T13:46:04.000",
    "date_modified": "2023-12-19T13:49:52.000",
    "request_status": "Pending",
    "responsible_agency": "Department of Public Works",
    "final_address": "3500 BLK Rue Denise",
    "address_councildis": "C",
    "status": "Assigned to Contractor",
    "contractor": "Legacy Professional Services",
    "rowid": "1056598",
    "final_x": "3704261.42904",
    "final_y": "517226.038498",
    "longitude": "-89.99672497331625",
    "latitude": "29.915481588044603",
    "geocoded_column": {
      "latitude": "29.915481588044603",
      "longitude": "-89.99672497331625"
    }
  },
  {
    "service_request": "2023-1056597",
    "request_type": "Trash/Recycling",
    "request_reason": "Request a Large Item Pick Up",
    "date_created": "2023-12-19T13:45:19.000",
    "date_modified": "2023-12-19T13:45:20.000",
    "request_status": "Pending",
    "responsible_agency": "Department of Sanitation",
    "final_address": "4720 Papania Dr",
    "address_councildis": "E",
    "status": "Assigned to Contractor",
    "contractor": "Waste Pro",
    "rowid": "1056597",
    "final_x": "3715502.00075",
    "final_y": "556798.243418",
    "longitude": "-89.95974863505856",
    "latitude": "30.023925005781525",
    "geocoded_column": {
      "latitude": "30.023925005781525",
      "longitude": "-89.95974863505856"
    }
  },
  {
    "service_request": "2023-1056596",
    "request_type": "Trash/Recycling",
    "request_reason": "Order Recycling Cart",
    "date_created": "2023-12-19T13:42:55.000",
    "date_modified": "2023-12-19T13:42:56.000",
    "request_status": "Pending",
    "responsible_agency": "Department of Sanitation",
    "final_address": "1712 Oretha Castle Haley Blvd",
    "address_councildis": "B",
    "status": "Pending",
    "rowid": "1056596",
    "final_x": "3677677.85474",
    "final_y": "525605.217277",
    "longitude": "-90.08034351824807",
    "latitude": "29.939347495139817",
    "geocoded_column": {
      "latitude": "29.939347495139817",
      "longitude": "-90.08034351824807"
    }
  },
  {
    "service_request": "2023-1056595",
    "request_type": "Trash/Recycling",
    "request_reason": "Order Trash Cart",
    "date_created": "2023-12-19T13:39:51.000",
    "date_modified": "2023-12-19T13:39:52.000",
    "request_status": "Pending",
    "responsible_agency": "Department of Sanitation",
    "final_address": "10210 Heritage Dr",
    "address_councildis": "E",
    "status": "Assigned to Contractor",
    "contractor": "Waste Pro",
    "rowid": "1056595",
    "final_x": "3709429.56523",
    "final_y": "564156.674273",
    "longitude": "-89.97866128680653",
    "latitude": "30.044356533499435",
    "geocoded_column": {
      "latitude": "30.044356533499435",
      "longitude": "-89.97866128680653"
    }
  },
  {
    "service_request": "2023-1056594",
    "request_type": "Abandoned Vehicles",
    "request_reason": "Vehicle Blocking Your Driveway",
    "date_created": "2023-12-19T13:37:44.000",
    "date_modified": "2023-12-19T13:37:44.000",
    "request_status": "Pending",
    "responsible_agency": "Department of Public Works",
    "final_address": "7048 Orleans Ave",
    "address_councildis": "A",
    "status": "Pending",
    "rowid": "1056594",
    "final_x": "3671440.36884",
    "final_y": "554184.585176",
    "longitude": "-90.09906418914653",
    "latitude": "30.018117110215343",
    "geocoded_column": {
      "latitude": "30.018117110215343",
      "longitude": "-90.09906418914653"
    }
  },
  {
    "service_request": "2023-1056593",
    "request_type": "Abandoned Vehicles",
    "request_reason": "Abandoned/Junk Vehicles",
    "date_created": "2023-12-19T13:37:12.000",
    "date_modified": "2023-12-19T13:39:14.000",
    "request_status": "Pending",
    "responsible_agency": "Department of Public Works",
    "final_address": "409 Royal St",
    "address_councildis": "C",
    "status": "Pending",
    "rowid": "1056593",
    "final_x": "3681920.85967",
    "final_y": "531684.468099",
    "longitude": "-90.06673565873531",
    "latitude": "29.955935129214474",
    "geocoded_column": {
      "latitude": "29.955935129214474",
      "longitude": "-90.06673565873531"
    }
  },
  {
    "service_request": "2023-1056592",
    "request_type": "Traffic Signals/Signs/Striping/Streetlights",
    "request_reason": "Street Light Outage/Malfunction",
    "date_created": "2023-12-19T13:32:00.000",
    "date_modified": "2023-12-19T13:32:01.000",
    "request_status": "Pending",
    "responsible_agency": "Department of Public Works",
    "final_address": "2117 Sere St",
    "address_councildis": "D",
    "status": "Assigned to Contractor",
    "contractor": "Legacy Professional Services",
    "rowid": "1056592",
    "final_x": "3683606.25948",
    "final_y": "545912.705808",
    "longitude": "-90.06091484810698",
    "latitude": "29.995006486942035",
    "geocoded_column": {
      "latitude": "29.995006486942035",
      "longitude": "-90.06091484810698"
    }
  },
  {
    "service_request": "2023-1056591",
    "request_type": "Trash/Recycling",
    "request_reason": "Order Recycling Cart",
    "date_created": "2023-12-19T13:29:46.000",
    "date_modified": "2023-12-19T13:29:46.000",
    "request_status": "Pending",
    "responsible_agency": "Department of Sanitation",
    "final_address": "840 Audubon St",
    "address_councildis": "A",
    "status": "Pending",
    "rowid": "1056591",
    "final_x": "3663765.42445",
    "final_y": "525438.686269",
    "longitude": "-90.12427260582567",
    "latitude": "29.939300574414524",
    "geocoded_column": {
      "latitude": "29.939300574414524",
      "longitude": "-90.12427260582567"
    }
  },
  {
    "service_request": "2023-1056590",
    "request_type": "Trash/Recycling",
    "request_reason": "Order Recycling Cart",
    "date_created": "2023-12-19T13:27:45.000",
    "date_modified": "2023-12-19T13:27:45.000",
    "request_status": "Pending",
    "responsible_agency": "Department of Sanitation",
    "final_address": "1812 Washington Ave",
    "address_councildis": "B",
    "status": "Pending",
    "rowid": "1056590",
    "final_x": "3675406.92001",
    "final_y": "523228.004155",
    "longitude": "-90.08759475545149",
    "latitude": "29.93287902285723",
    "geocoded_column": {
      "latitude": "29.93287902285723",
      "longitude": "-90.08759475545149"
    }
  },
  {
    "service_request": "2023-1056589",
    "request_type": "Trash/Recycling",
    "request_reason": "Order Trash Cart",
    "date_created": "2023-12-19T13:27:03.000",
    "date_modified": "2023-12-19T13:27:04.000",
    "request_status": "Pending",
    "responsible_agency": "Department of Sanitation",
    "final_address": "1812 Washington Ave",
    "address_councildis": "B",
    "status": "Assigned to Contractor",
    "contractor": "Richards Disposal",
    "rowid": "1056589",
    "final_x": "3675406.92001",
    "final_y": "523228.004155",
    "longitude": "-90.08759475545149",
    "latitude": "29.93287902285723",
    "geocoded_column": {
      "latitude": "29.93287902285723",
      "longitude": "-90.08759475545149"
    }
  },
  {
    "service_request": "2023-1056588",
    "request_type": "Property Maintenance",
    "request_reason": "Property Maintenance",
    "date_created": "2023-12-19T13:26:06.000",
    "date_modified": "2023-12-19T13:26:06.000",
    "request_status": "Pending",
    "responsible_agency": "Department of Code Enforcement",
    "final_address": "2100 Second St",
    "address_councildis": "B",
    "status": "Pending",
    "rowid": "1056588",
    "final_x": "3675665.39733",
    "final_y": "524547.265404",
    "longitude": "-90.08673345079691",
    "latitude": "29.936498831181737",
    "geocoded_column": {
      "latitude": "29.936498831181737",
      "longitude": "-90.08673345079691"
    }
  },
  {
    "service_request": "2023-1056587",
    "request_type": "Trash/Recycling",
    "request_reason": "Illegal Dumping",
    "date_created": "2023-12-19T13:25:30.000",
    "date_modified": "2023-12-19T13:25:55.000",
    "request_status": "Pending",
    "responsible_agency": "Department of Code Enforcement",
    "final_address": "3225 Gravier St",
    "address_councildis": "B",
    "status": "Pending",
    "rowid": "1056587",
    "final_x": "3672161.36155",
    "final_y": "534375.476997",
    "longitude": "-90.09746119097116",
    "latitude": "29.963627533146266",
    "geocoded_column": {
      "latitude": "29.963627533146266",
      "longitude": "-90.09746119097116"
    }
  },
  {
    "service_request": "2023-1056586",
    "request_type": "Trash/Recycling",
    "request_reason": "Request a Large Item Pick Up",
    "date_created": "2023-12-19T13:24:57.000",
    "date_modified": "2023-12-19T13:24:58.000",
    "request_status": "Pending",
    "responsible_agency": "Department of Sanitation",
    "final_address": "4024 Baronne St",
    "address_councildis": "B",
    "status": "Assigned to Contractor",
    "contractor": "Richards Disposal",
    "rowid": "1056586",
    "final_x": "3672065.52129",
    "final_y": "521669.419897",
    "longitude": "-90.0981963592312",
    "latitude": "29.92869288295217",
    "geocoded_column": {
      "latitude": "29.92869288295217",
      "longitude": "-90.0981963592312"
    }
  },
  {
    "service_request": "2023-1056585",
    "request_type": "Trash/Recycling",
    "request_reason": "MIssed Recycling Pick-Up",
    "date_created": "2023-12-19T13:16:46.000",
    "date_modified": "2023-12-19T15:58:36.000",
    "case_close_date": "2023-12-19T09:58:36.000",
    "request_status": "Closed",
    "responsible_agency": "Department of Sanitation",
    "final_address": "2048 St Denis St",
    "address_councildis": "D",
    "status": "Invalid Request",
    "contractor": "IV Waste",
    "contractor_action": "Invalid Pick-Up",
    "rowid": "1056585",
    "final_x": "3683141.943",
    "final_y": "546098.738896",
    "longitude": "-90.06237505303609",
    "latitude": "29.995532180869247",
    "geocoded_column": {
      "latitude": "29.995532180869247",
      "longitude": "-90.06237505303609"
    }
  },
  {
    "service_request": "2023-1056584",
    "request_type": "Trash/Recycling",
    "request_reason": "Request a Large Item Pick Up",
    "date_created": "2023-12-19T13:16:19.000",
    "date_modified": "2023-12-19T13:16:20.000",
    "request_status": "Pending",
    "responsible_agency": "Department of Sanitation",
    "final_address": "7000 Jeannette St",
    "address_councildis": "A",
    "status": "Assigned to Contractor",
    "contractor": "Richards Disposal",
    "rowid": "1056584",
    "final_x": "3665160.76813",
    "final_y": "527061.247806",
    "longitude": "-90.11981305735448",
    "latitude": "29.943721540748875",
    "geocoded_column": {
      "latitude": "29.943721540748875",
      "longitude": "-90.11981305735448"
    }
  },
  {
    "service_request": "2023-1056583",
    "request_type": "Traffic Signals/Signs/Striping/Streetlights",
    "request_reason": "Street Light Outage/Malfunction",
    "date_created": "2023-12-19T13:16:19.000",
    "date_modified": "2023-12-19T13:16:20.000",
    "request_status": "Pending",
    "responsible_agency": "Department of Public Works",
    "final_address": "1000 Girod St",
    "address_councildis": "B",
    "status": "Assigned to Contractor",
    "contractor": "Legacy Professional Services",
    "rowid": "1056583",
    "final_x": "3679255.69909",
    "final_y": "528782.515456",
    "longitude": "-90.07525192274366",
    "latitude": "29.948036471072694",
    "geocoded_column": {
      "latitude": "29.948036471072694",
      "longitude": "-90.07525192274366"
    }
  },
  {
    "service_request": "2023-1056582",
    "request_type": "Traffic Signals/Signs/Striping/Streetlights",
    "request_reason": "Traffic Signal Malfunctioning/Damaged",
    "date_created": "2023-12-19T13:13:08.000",
    "date_modified": "2023-12-19T13:13:09.000",
    "request_status": "Pending",
    "responsible_agency": "Department of Public Works",
    "final_address": "INTERNATIONAL DR & EAST DR & MAGAZINE ST",
    "address_councildis": "A",
    "status": "Pending",
    "rowid": "1056582",
    "final_x": "3662910.7",
    "final_y": "520001.98",
    "longitude": "-90.12715177598051",
    "latitude": "29.924376116302703",
    "geocoded_column": {
      "latitude": "29.924376116302703",
      "longitude": "-90.12715177598051"
    }
  },
  {
    "service_request": "2023-1056581",
    "request_type": "Traffic Signals/Signs/Striping/Streetlights",
    "request_reason": "Traffic Signal Malfunctioning/Damaged",
    "date_created": "2023-12-19T13:13:07.000",
    "date_modified": "2023-12-19T13:13:08.000",
    "request_status": "Pending",
    "responsible_agency": "Department of Public Works",
    "final_address": "CANAL ST & BURGUNDY ST",
    "address_councildis": "C",
    "status": "Pending",
    "rowid": "1056581",
    "final_x": "3680365.6",
    "final_y": "531366.28",
    "longitude": "-90.07165769160682",
    "latitude": "29.955107399111597",
    "geocoded_column": {
      "latitude": "29.955107399111597",
      "longitude": "-90.07165769160682"
    }
  },
  {
    "service_request": "2023-1056580",
    "request_type": "Parks & Parkways",
    "request_reason": "Request Tree Service (Right of Way/Public Property)",
    "date_created": "2023-12-19T13:11:59.000",
    "date_modified": "2023-12-19T13:11:59.000",
    "request_status": "Pending",
    "responsible_agency": "Department of Parks & Parkway",
    "final_address": "6522 General Diaz St",
    "address_councildis": "A",
    "status": "Pending",
    "rowid": "1056580",
    "final_x": "3669769.81818",
    "final_y": "550810.270037",
    "longitude": "-90.10445685556408",
    "latitude": "30.00888830814347",
    "geocoded_column": {
      "latitude": "30.00888830814347",
      "longitude": "-90.10445685556408"
    }
  },
  {
    "service_request": "2023-1056579",
    "request_type": "Roads/Drainage",
    "request_reason": "Accessibility Ramps, Curbs and Sidewalk Repair",
    "date_created": "2023-12-19T13:11:30.000",
    "date_modified": "2023-12-19T13:11:31.000",
    "request_status": "Pending",
    "responsible_agency": "Department of Public Works",
    "final_address": "1205 State St",
    "address_councildis": "A",
    "status": "Pending",
    "rowid": "1056579",
    "final_x": "3665209.45114",
    "final_y": "520538.111864",
    "longitude": "-90.11987745774003",
    "latitude": "29.9257835733226",
    "geocoded_column": {
      "latitude": "29.9257835733226",
      "longitude": "-90.11987745774003"
    }
  },
  {
    "service_request": "2023-1056578",
    "request_type": "Abandoned Vehicles",
    "request_reason": "Abandoned/Junk Vehicles",
    "date_created": "2023-12-19T13:10:34.000",
    "date_modified": "2023-12-19T13:10:34.000",
    "request_status": "Pending",
    "responsible_agency": "Department of Public Works",
    "final_address": "2806 Orleans Ave",
    "address_councildis": "A",
    "status": "Pending",
    "rowid": "1056578",
    "final_x": "3676222.23131",
    "final_y": "537355.35412",
    "longitude": "-90.08453481333923",
    "latitude": "29.971700125456785",
    "geocoded_column": {
      "latitude": "29.971700125456785",
      "longitude": "-90.08453481333923"
    }
  },
  {
    "service_request": "2023-1056577",
    "request_type": "Roads/Drainage",
    "request_reason": "Catch Basin - Clogged",
    "date_created": "2023-12-19T13:09:10.000",
    "date_modified": "2023-12-19T13:09:11.000",
    "request_status": "Pending",
    "responsible_agency": "Department of Public Works",
    "final_address": "1205 State St",
    "address_councildis": "A",
    "status": "Pending",
    "rowid": "1056577",
    "final_x": "3665209.45114",
    "final_y": "520538.111864",
    "longitude": "-90.11987745774003",
    "latitude": "29.9257835733226",
    "geocoded_column": {
      "latitude": "29.9257835733226",
      "longitude": "-90.11987745774003"
    }
  },
  {
    "service_request": "2023-1056576",
    "request_type": "Traffic Signals/Signs/Striping/Streetlights",
    "request_reason": "Street Light Outage/Malfunction",
    "date_created": "2023-12-19T13:08:21.000",
    "date_modified": "2023-12-19T13:08:22.000",
    "request_status": "Pending",
    "responsible_agency": "Department of Public Works",
    "final_address": "1205 State St",
    "address_councildis": "A",
    "status": "Assigned to Contractor",
    "contractor": "Legacy Professional Services",
    "rowid": "1056576",
    "final_x": "3665209.45114",
    "final_y": "520538.111864",
    "longitude": "-90.11987745774003",
    "latitude": "29.9257835733226",
    "geocoded_column": {
      "latitude": "29.9257835733226",
      "longitude": "-90.11987745774003"
    }
  },
  {
    "service_request": "2023-1056575",
    "request_type": "Trash/Recycling",
    "request_reason": "Request a Large Item Pick Up",
    "date_created": "2023-12-19T13:06:05.000",
    "date_modified": "2023-12-19T13:06:06.000",
    "request_status": "Pending",
    "responsible_agency": "Department of Sanitation",
    "final_address": "3803 Palmyra St",
    "address_councildis": "A",
    "status": "Assigned to Contractor",
    "contractor": "Richards Disposal",
    "rowid": "1056575",
    "final_x": "3671568.51719",
    "final_y": "537024.281544",
    "longitude": "-90.09924324796944",
    "latitude": "29.970928425832355",
    "geocoded_column": {
      "latitude": "29.970928425832355",
      "longitude": "-90.09924324796944"
    }
  },
  {
    "service_request": "2023-1056573",
    "request_type": "Trash/Recycling",
    "request_reason": "Return Trash Cart",
    "date_created": "2023-12-19T13:00:02.000",
    "date_modified": "2023-12-19T13:00:03.000",
    "request_status": "Pending",
    "responsible_agency": "Department of Sanitation",
    "final_address": "711 Fern St",
    "address_councildis": "A",
    "status": "Assigned to Contractor",
    "contractor": "Richards Disposal",
    "rowid": "1056573",
    "final_x": "3661479.10765",
    "final_y": "526629.031678",
    "longitude": "-90.1314514185992",
    "latitude": "29.942639783403568",
    "geocoded_column": {
      "latitude": "29.942639783403568",
      "longitude": "-90.1314514185992"
    }
  },
  {
    "service_request": "2023-1056572",
    "request_type": "Traffic Signals/Signs/Striping/Streetlights",
    "request_reason": "Traffic Signal Malfunctioning/Damaged",
    "date_created": "2023-12-19T12:57:43.000",
    "date_modified": "2023-12-19T12:57:44.000",
    "request_status": "Pending",
    "responsible_agency": "Department of Public Works",
    "final_address": "MOSS ST & ESPLANADE AVE",
    "address_councildis": "A",
    "status": "Pending",
    "rowid": "1056572",
    "final_x": "3674746.1",
    "final_y": "541598.23",
    "longitude": "-90.08905115912894",
    "latitude": "29.983410735459444",
    "geocoded_column": {
      "latitude": "29.983410735459444",
      "longitude": "-90.08905115912894"
    }
  },
  {
    "service_request": "2023-1056571",
    "request_type": "Traffic Signals/Signs/Striping/Streetlights",
    "request_reason": "Traffic Signal Malfunctioning/Damaged",
    "date_created": "2023-12-19T12:43:18.000",
    "date_modified": "2023-12-19T12:43:19.000",
    "request_status": "Pending",
    "responsible_agency": "Department of Public Works",
    "final_address": "1200 Allen Toussaint Blvd",
    "address_councildis": "D",
    "status": "Pending",
    "rowid": "1056571",
    "final_x": "3676667.27361",
    "final_y": "555074.621081",
    "longitude": "-90.08251843209551",
    "latitude": "30.020408539295705",
    "geocoded_column": {
      "latitude": "30.020408539295705",
      "longitude": "-90.08251843209551"
    }
  },
  {
    "service_request": "2023-1056570",
    "request_type": "Abandoned Vehicles",
    "request_reason": "Abandoned/Junk Vehicles",
    "date_created": "2023-12-19T12:43:04.000",
    "date_modified": "2023-12-19T12:43:04.000",
    "request_status": "Pending",
    "responsible_agency": "Department of Public Works",
    "final_address": "4809 Mithra St",
    "address_councildis": "D",
    "status": "Pending",
    "rowid": "1056570",
    "final_x": "3691444.88105",
    "final_y": "553675.006935",
    "longitude": "-90.03587594672192",
    "latitude": "30.016108288114232",
    "geocoded_column": {
      "latitude": "30.016108288114232",
      "longitude": "-90.03587594672192"
    }
  },
  {
    "service_request": "2023-1056569",
    "request_type": "Trash/Recycling",
    "request_reason": "Repair Trash Cart",
    "date_created": "2023-12-19T12:42:33.000",
    "date_modified": "2023-12-19T12:42:34.000",
    "request_status": "Pending",
    "responsible_agency": "Department of Sanitation",
    "final_address": "2511 Conti St",
    "address_councildis": "B",
    "status": "Assigned to Contractor",
    "contractor": "Richards Disposal",
    "rowid": "1056569",
    "final_x": "3676788.46798",
    "final_y": "535523.680006",
    "longitude": "-90.08280968209866",
    "latitude": "29.966646664588772",
    "geocoded_column": {
      "latitude": "29.966646664588772",
      "longitude": "-90.08280968209866"
    }
  },
  {
    "service_request": "2023-1056568",
    "request_type": "Trash/Recycling",
    "request_reason": "Request a Large Item Pick Up",
    "date_created": "2023-12-19T12:39:07.000",
    "date_modified": "2023-12-19T12:39:08.000",
    "request_status": "Pending",
    "responsible_agency": "Department of Sanitation",
    "final_address": "2007 Baronne St Apt 1A",
    "address_councildis": "B",
    "status": "Assigned to Contractor",
    "contractor": "Richards Disposal",
    "rowid": "1056568",
    "final_x": "3677487.10914",
    "final_y": "524870.279292",
    "longitude": "-90.08097108701438",
    "latitude": "29.937332391641345",
    "geocoded_column": {
      "latitude": "29.937332391641345",
      "longitude": "-90.08097108701438"
    }
  },
  {
    "service_request": "2023-1056567",
    "request_type": "Trash/Recycling",
    "request_reason": "Missed Trash Pick-Up",
    "date_created": "2023-12-19T12:35:41.000",
    "date_modified": "2023-12-19T13:07:05.000",
    "case_close_date": "2023-12-19T07:07:05.000",
    "request_status": "Closed",
    "responsible_agency": "Department of Sanitation",
    "final_address": "6234 Caldwell Dr",
    "address_councildis": "D",
    "status": "Invalid Request",
    "contractor": "IV Waste",
    "contractor_action": "Invalid Request",
    "rowid": "1056567",
    "final_x": "3679368.20923",
    "final_y": "556204.452122",
    "longitude": "-90.07394506247122",
    "latitude": "30.023433816487472",
    "geocoded_column": {
      "latitude": "30.023433816487472",
      "longitude": "-90.07394506247122"
    }
  },
  {
    "service_request": "2023-1056566",
    "request_type": "Trash/Recycling",
    "request_reason": "Request a Large Item Pick Up",
    "date_created": "2023-12-19T12:35:19.000",
    "date_modified": "2023-12-19T12:35:20.000",
    "request_status": "Pending",
    "responsible_agency": "Department of Sanitation",
    "final_address": "2209 Bienville Ave",
    "address_councildis": "B",
    "status": "Assigned to Contractor",
    "contractor": "Richards Disposal",
    "rowid": "1056566",
    "final_x": "3677365.40578",
    "final_y": "534630.44487",
    "longitude": "-90.0810185451714",
    "latitude": "29.964173245454223",
    "geocoded_column": {
      "latitude": "29.964173245454223",
      "longitude": "-90.0810185451714"
    }
  },
  {
    "service_request": "2023-1056564",
    "request_type": "Trash/Recycling",
    "request_reason": "Replace Trash Cart",
    "date_created": "2023-12-19T12:28:57.000",
    "date_modified": "2023-12-19T12:28:58.000",
    "request_status": "Pending",
    "responsible_agency": "Department of Sanitation",
    "final_address": "4623 Laine Ave",
    "address_councildis": "E",
    "status": "Assigned to Contractor",
    "contractor": "Waste Pro",
    "rowid": "1056564",
    "final_x": "3705928.19153",
    "final_y": "554651.552728",
    "longitude": "-89.99007928534928",
    "latitude": "30.01833452825426",
    "geocoded_column": {
      "latitude": "30.01833452825426",
      "longitude": "-89.99007928534928"
    }
  },
  {
    "service_request": "2023-1056563",
    "request_type": "Trash/Recycling",
    "request_reason": "Request a Large Item Pick Up",
    "date_created": "2023-12-19T12:18:42.000",
    "date_modified": "2023-12-19T12:18:43.000",
    "request_status": "Pending",
    "responsible_agency": "Department of Sanitation",
    "final_address": "6335 Dauphine St",
    "address_councildis": "E",
    "status": "Assigned to Contractor",
    "contractor": "Waste Pro",
    "rowid": "1056563",
    "final_x": "3699971.39037",
    "final_y": "531900.992643",
    "longitude": "-90.00973079913217",
    "latitude": "29.95596951565446",
    "geocoded_column": {
      "latitude": "29.95596951565446",
      "longitude": "-90.00973079913217"
    }
  },
  {
    "service_request": "2023-1056562",
    "request_type": "Trash/Recycling",
    "request_reason": "Request a Large Item Pick Up",
    "date_created": "2023-12-19T12:00:42.000",
    "date_modified": "2023-12-19T12:00:43.000",
    "request_status": "Pending",
    "responsible_agency": "Department of Sanitation",
    "final_address": "2223 Mithra St",
    "address_councildis": "D",
    "status": "Assigned to Contractor",
    "contractor": "IV Waste",
    "rowid": "1056562",
    "final_x": "3683953.81116",
    "final_y": "552731.843094",
    "longitude": "-90.0595775159338",
    "latitude": "30.01374603681611",
    "geocoded_column": {
      "latitude": "30.01374603681611",
      "longitude": "-90.0595775159338"
    }
  },
  {
    "service_request": "2023-1056561",
    "request_type": "Safety & Permits",
    "request_reason": "Licenses & Permits",
    "date_created": "2023-12-19T11:58:33.000",
    "date_modified": "2023-12-19T11:58:34.000",
    "request_status": "Pending",
    "responsible_agency": "Safety and Permits",
    "final_address": "4117 Odin St",
    "address_councildis": "D",
    "status": "Pending",
    "rowid": "1056561",
    "final_x": "3689155.18377",
    "final_y": "553828.574103",
    "longitude": "-90.04310489467262",
    "latitude": "30.01660163111464",
    "geocoded_column": {
      "latitude": "30.01660163111464",
      "longitude": "-90.04310489467262"
    }
  },
  {
    "service_request": "2023-1056560",
    "request_type": "Traffic Signals/Signs/Striping/Streetlights",
    "request_reason": "Street Light Knocked Down/Leaning",
    "date_created": "2023-12-19T11:56:20.000",
    "date_modified": "2023-12-19T11:56:20.000",
    "request_status": "Pending",
    "responsible_agency": "Department of Public Works",
    "final_address": "CURRAN BLVD & BUFFALO RD",
    "address_councildis": "E",
    "status": "Pending",
    "contractor": "Legacy Professional Services",
    "rowid": "1056560",
    "final_x": "3719902.7",
    "final_y": "573496.68",
    "longitude": "-89.94520425277503",
    "latitude": "30.06969305023701",
    "geocoded_column": {
      "latitude": "30.06969305023701",
      "longitude": "-89.94520425277503"
    }
  },
  {
    "service_request": "2023-1056559",
    "request_type": "Trash/Recycling",
    "request_reason": "Missed Trash Pick-Up",
    "date_created": "2023-12-19T11:55:37.000",
    "date_modified": "2023-12-19T11:55:38.000",
    "request_status": "Pending",
    "responsible_agency": "Department of Sanitation",
    "final_address": "1802 Annunciation St",
    "address_councildis": "B",
    "status": "Assigned to Contractor",
    "contractor": "Richards Disposal",
    "rowid": "1056559",
    "final_x": "3680756.6884",
    "final_y": "522188.424954",
    "longitude": "-90.07074211130102",
    "latitude": "29.92985951263366",
    "geocoded_column": {
      "latitude": "29.92985951263366",
      "longitude": "-90.07074211130102"
    }
  },
  {
    "service_request": "2023-1056558",
    "request_type": "Roads/Drainage",
    "request_reason": "Catch Basin - Broken/Damage",
    "date_created": "2023-12-19T11:54:56.000",
    "date_modified": "2023-12-19T11:54:56.000",
    "request_status": "Pending",
    "responsible_agency": "Department of Public Works",
    "final_address": "6046 Pines Blvd",
    "address_councildis": "D",
    "status": "Pending",
    "rowid": "1056558",
    "final_x": "3696185.44323",
    "final_y": "556057.734681",
    "longitude": "-90.02081170516817",
    "latitude": "30.022511441711345",
    "geocoded_column": {
      "latitude": "30.022511441711345",
      "longitude": "-90.02081170516817"
    }
  },
  {
    "service_request": "2023-1056557",
    "request_type": "Property Maintenance",
    "request_reason": "Property Maintenance",
    "date_created": "2023-12-19T11:51:02.000",
    "date_modified": "2023-12-19T11:51:03.000",
    "request_status": "Pending",
    "responsible_agency": "Department of Code Enforcement",
    "final_address": "1804 France St",
    "address_councildis": "D",
    "status": "Pending",
    "rowid": "1056557",
    "final_x": "3693022.98013",
    "final_y": "537858.319369",
    "longitude": "-90.03145765936314",
    "latitude": "29.972568933687366",
    "geocoded_column": {
      "latitude": "29.972568933687366",
      "longitude": "-90.03145765936314"
    }
  },
  {
    "service_request": "2023-1056556",
    "request_type": "Trash/Recycling",
    "request_reason": "Repair Trash Cart",
    "date_created": "2023-12-19T11:46:28.000",
    "date_modified": "2023-12-19T11:46:29.000",
    "request_status": "Pending",
    "responsible_agency": "Department of Sanitation",
    "final_address": "8530 Fordham Ct",
    "address_councildis": "E",
    "status": "Assigned to Contractor",
    "contractor": "Waste Pro",
    "rowid": "1056556",
    "final_x": "3705005.22257",
    "final_y": "560255.111901",
    "longitude": "-89.99278836537528",
    "latitude": "30.033771857240136",
    "geocoded_column": {
      "latitude": "30.033771857240136",
      "longitude": "-89.99278836537528"
    }
  },
  {
    "service_request": "2023-1056555",
    "request_type": "Roads/Drainage",
    "request_reason": "Catch Basin - Clogged",
    "date_created": "2023-12-19T11:45:05.000",
    "date_modified": "2023-12-19T11:45:05.000",
    "request_status": "Pending",
    "responsible_agency": "Department of Public Works",
    "final_address": "6476 Memphis St",
    "address_councildis": "A",
    "status": "Pending",
    "rowid": "1056555",
    "final_x": "3669397.98657",
    "final_y": "550547.28802",
    "longitude": "-90.10564049984146",
    "latitude": "30.008176159514235",
    "geocoded_column": {
      "latitude": "30.008176159514235",
      "longitude": "-90.10564049984146"
    }
  },
  {
    "service_request": "2023-1056554",
    "request_type": "Trash/Recycling",
    "request_reason": "Illegal Dumping",
    "date_created": "2023-12-19T11:44:07.000",
    "date_modified": "2023-12-19T11:44:07.000",
    "request_status": "Pending",
    "responsible_agency": "Department of Sanitation",
    "final_address": "HAYNE BLVD & PARIS RD",
    "address_councildis": "E",
    "status": "Pending",
    "rowid": "1056554",
    "final_x": "3720262.6",
    "final_y": "575599.98",
    "longitude": "-89.94398591056006",
    "latitude": "30.075464240642027",
    "geocoded_column": {
      "latitude": "30.075464240642027",
      "longitude": "-89.94398591056006"
    }
  },
  {
    "service_request": "2023-1056553",
    "request_type": "Parks & Parkways",
    "request_reason": "Request Tree Service (Right of Way/Public Property)",
    "date_created": "2023-12-19T11:43:09.000",
    "date_modified": "2023-12-19T11:43:09.000",
    "request_status": "Pending",
    "responsible_agency": "Department of Parks & Parkway",
    "final_address": "3805 Carondelet St",
    "address_councildis": "B",
    "status": "Pending",
    "rowid": "1056553",
    "final_x": "3672736.36116",
    "final_y": "521497.796857",
    "longitude": "-90.09608450313026",
    "latitude": "29.928201074347534",
    "geocoded_column": {
      "latitude": "29.928201074347534",
      "longitude": "-90.09608450313026"
    }
  },
  {
    "service_request": "2023-1056552",
    "request_type": "Trash/Recycling",
    "request_reason": "Missed Trash Pick-Up",
    "date_created": "2023-12-19T11:41:47.000",
    "date_modified": "2023-12-19T11:41:48.000",
    "request_status": "Pending",
    "responsible_agency": "Department of Sanitation",
    "final_address": "3112 Esplanade Ave",
    "address_councildis": "A",
    "status": "Assigned to Contractor",
    "contractor": "Richards Disposal",
    "rowid": "1056552",
    "final_x": "3676427.73217",
    "final_y": "540230.439819",
    "longitude": "-90.0837867921193",
    "latitude": "29.97959946577619",
    "geocoded_column": {
      "latitude": "29.97959946577619",
      "longitude": "-90.0837867921193"
    }
  },
  {
    "service_request": "2023-1056551",
    "request_type": "Roads/Drainage",
    "request_reason": "Catch Basin - Clogged",
    "date_created": "2023-12-19T11:41:20.000",
    "date_modified": "2023-12-19T11:41:20.000",
    "request_status": "Pending",
    "responsible_agency": "Department of Public Works",
    "final_address": "6046 Pines Blvd",
    "address_councildis": "D",
    "status": "Pending",
    "rowid": "1056551",
    "final_x": "3696185.44323",
    "final_y": "556057.734681",
    "longitude": "-90.02081170516817",
    "latitude": "30.022511441711345",
    "geocoded_column": {
      "latitude": "30.022511441711345",
      "longitude": "-90.02081170516817"
    }
  },
  {
    "service_request": "2023-1056550",
    "request_type": "Roads/Drainage",
    "request_reason": "Catch Basin - Clogged",
    "date_created": "2023-12-19T11:39:42.000",
    "date_modified": "2023-12-19T11:39:42.000",
    "request_status": "Pending",
    "responsible_agency": "Department of Public Works",
    "final_address": "6028 Pines Blvd",
    "address_councildis": "D",
    "status": "Pending",
    "rowid": "1056550",
    "final_x": "3696011.59062",
    "final_y": "555998.394649",
    "longitude": "-90.02136318199365",
    "latitude": "30.02235375364511",
    "geocoded_column": {
      "latitude": "30.02235375364511",
      "longitude": "-90.02136318199365"
    }
  },
  {
    "service_request": "2023-1056549",
    "request_type": "Roads/Drainage",
    "request_reason": "Catch Basin - Clogged",
    "date_created": "2023-12-19T11:39:26.000",
    "date_modified": "2023-12-19T11:39:26.000",
    "request_status": "Pending",
    "responsible_agency": "Department of Public Works",
    "final_address": "6473 Memphis St",
    "address_councildis": "A",
    "status": "Pending",
    "rowid": "1056549",
    "final_x": "3669580.28852",
    "final_y": "550541.730324",
    "longitude": "-90.10506473845201",
    "latitude": "30.008155505808126",
    "geocoded_column": {
      "latitude": "30.008155505808126",
      "longitude": "-90.10506473845201"
    }
  },
  {
    "service_request": "2023-1056548",
    "request_type": "Roads/Drainage",
    "request_reason": "Catch Basin - Clogged",
    "date_created": "2023-12-19T11:37:40.000",
    "date_modified": "2023-12-19T11:37:40.000",
    "request_status": "Pending",
    "responsible_agency": "Department of Public Works",
    "final_address": "6028 Pines Blvd",
    "address_councildis": "D",
    "status": "Pending",
    "rowid": "1056548",
    "final_x": "3696011.59062",
    "final_y": "555998.394649",
    "longitude": "-90.02136318199365",
    "latitude": "30.02235375364511",
    "geocoded_column": {
      "latitude": "30.02235375364511",
      "longitude": "-90.02136318199365"
    }
  },
  {
    "service_request": "2023-1056546",
    "request_type": "Trash/Recycling",
    "request_reason": "Repair Trash Cart",
    "date_created": "2023-12-19T11:33:31.000",
    "date_modified": "2023-12-19T11:33:32.000",
    "request_status": "Pending",
    "responsible_agency": "Department of Sanitation",
    "final_address": "2118 Pace Blvd",
    "address_councildis": "C",
    "status": "Assigned to Contractor",
    "contractor": "Richards Disposal",
    "rowid": "1056546",
    "final_x": "3694533.67734",
    "final_y": "522540.996026",
    "longitude": "-90.02723803152068",
    "latitude": "29.93040435348311",
    "geocoded_column": {
      "latitude": "29.93040435348311",
      "longitude": "-90.02723803152068"
    }
  },
  {
    "service_request": "2023-1056545",
    "request_type": "Abandoned Vehicles",
    "request_reason": "Abandoned/Junk Vehicles",
    "date_created": "2023-12-19T11:32:26.000",
    "date_modified": "2023-12-19T11:32:26.000",
    "request_status": "Pending",
    "responsible_agency": "Department of Public Works",
    "final_address": "8800 BLK Lake Forest Blvd",
    "address_councildis": "E",
    "status": "Pending",
    "rowid": "1056545",
    "final_x": "3707244.43816",
    "final_y": "558354.812212",
    "longitude": "-89.98578286354731",
    "latitude": "30.02847455714972",
    "geocoded_column": {
      "latitude": "30.02847455714972",
      "longitude": "-89.98578286354731"
    }
  },
  {
    "service_request": "2023-1056544",
    "request_type": "Abandoned Vehicles",
    "request_reason": "Abandoned/Junk Vehicles",
    "date_created": "2023-12-19T11:28:23.000",
    "date_modified": "2023-12-19T11:28:23.000",
    "request_status": "Pending",
    "responsible_agency": "Department of Public Works",
    "final_address": "4321 Lotus St",
    "address_councildis": "D",
    "status": "Pending",
    "rowid": "1056544",
    "final_x": "3687736.93782",
    "final_y": "548656.881043",
    "longitude": "-90.04776926560801",
    "latitude": "30.002425203875195",
    "geocoded_column": {
      "latitude": "30.002425203875195",
      "longitude": "-90.04776926560801"
    }
  },
  {
    "service_request": "2023-1056543",
    "request_type": "Safety & Permits",
    "request_reason": "Licenses & Permits",
    "date_created": "2023-12-19T11:27:32.000",
    "date_modified": "2023-12-19T11:27:32.000",
    "request_status": "Pending",
    "responsible_agency": "Safety and Permits",
    "final_address": "833 Poydras St",
    "address_councildis": "B",
    "status": "Pending",
    "rowid": "1056543",
    "final_x": "3680011.55458",
    "final_y": "529610.537345",
    "longitude": "-90.07283662222024",
    "latitude": "29.950290412537097",
    "geocoded_column": {
      "latitude": "29.950290412537097",
      "longitude": "-90.07283662222024"
    }
  },
  {
    "service_request": "2023-1056542",
    "request_type": "Traffic Signals/Signs/Striping/Streetlights",
    "request_reason": "Traffic Sign Missing/Damaged",
    "date_created": "2023-12-19T11:25:02.000",
    "date_modified": "2023-12-19T11:25:03.000",
    "request_status": "Pending",
    "responsible_agency": "Department of Public Works",
    "final_address": "S CLAIBORNE AVE & AUDUBON ST",
    "address_councildis": "A",
    "status": "Pending",
    "rowid": "1056542",
    "final_x": "3666399.1",
    "final_y": "529440.68",
    "longitude": "-90.11582347362199",
    "latitude": "29.9502280903352",
    "geocoded_column": {
      "latitude": "29.9502280903352",
      "longitude": "-90.11582347362199"
    }
  },
  {
    "service_request": "2023-1056541",
    "request_type": "Trash/Recycling",
    "request_reason": "Missed Trash Pick-Up",
    "date_created": "2023-12-19T11:18:45.000",
    "date_modified": "2023-12-19T11:18:46.000",
    "request_status": "Pending",
    "responsible_agency": "Department of Sanitation",
    "final_address": "10900 Yardley Rd",
    "address_councildis": "E",
    "status": "Assigned to Contractor",
    "contractor": "Waste Pro",
    "rowid": "1056541",
    "final_x": "3711745.50642",
    "final_y": "563461.995232",
    "longitude": "-89.97136803214775",
    "latitude": "30.042370957007655",
    "geocoded_column": {
      "latitude": "30.042370957007655",
      "longitude": "-89.97136803214775"
    }
  },
  {
    "service_request": "2023-1056540",
    "request_type": "Roads/Drainage",
    "request_reason": "Debris in Roadway",
    "date_created": "2023-12-19T11:17:47.000",
    "date_modified": "2023-12-19T11:17:47.000",
    "request_status": "Pending",
    "responsible_agency": "Department of Public Works",
    "final_address": "4217 S Tonti St",
    "address_councildis": "B",
    "status": "Pending",
    "rowid": "1056540",
    "final_x": "3670682.20193",
    "final_y": "528259.759232",
    "longitude": "-90.10233971761478",
    "latitude": "29.94685511260558",
    "geocoded_column": {
      "latitude": "29.94685511260558",
      "longitude": "-90.10233971761478"
    }
  },
  {
    "service_request": "2023-1056539",
    "request_type": "Trash/Recycling",
    "request_reason": "Replace Trash Cart",
    "date_created": "2023-12-19T11:16:50.000",
    "date_modified": "2023-12-19T11:16:51.000",
    "request_status": "Pending",
    "responsible_agency": "Department of Sanitation",
    "final_address": " & FOREST ISLE DR",
    "address_councildis": "C",
    "status": "Assigned to Contractor",
    "contractor": "Richards Disposal",
    "rowid": "1056539",
    "final_x": "3705876.93",
    "final_y": "512778.89",
    "longitude": "-89.99179023228741",
    "latitude": "29.903201541007117",
    "geocoded_column": {
      "latitude": "29.903201541007117",
      "longitude": "-89.99179023228741"
    }
  },
  {
    "service_request": "2023-1056538",
    "request_type": "Roads/Drainage",
    "request_reason": "Pothole",
    "date_created": "2023-12-19T11:01:56.000",
    "date_modified": "2023-12-19T11:01:56.000",
    "request_status": "Pending",
    "responsible_agency": "Department of Public Works",
    "final_address": "READ BLVD & I 10 W ONRAMP",
    "address_councildis": "E",
    "status": "Pending",
    "rowid": "1056538",
    "final_x": "3710119.8",
    "final_y": "561653.68",
    "longitude": "-89.97657351976011",
    "latitude": "30.037451843959406",
    "geocoded_column": {
      "latitude": "30.037451843959406",
      "longitude": "-89.97657351976011"
    }
  },
  {
    "service_request": "2023-1056537",
    "request_type": "Roads/Drainage",
    "request_reason": "Pothole",
    "date_created": "2023-12-19T10:55:55.000",
    "date_modified": "2023-12-19T10:55:55.000",
    "request_status": "Pending",
    "responsible_agency": "Department of Public Works",
    "final_address": "2200 BLK Agriculture St",
    "address_councildis": "D",
    "status": "Pending",
    "rowid": "1056537",
    "final_x": "3684690.35335",
    "final_y": "543322.534534",
    "longitude": "-90.05758141707962",
    "latitude": "29.987851292049008",
    "geocoded_column": {
      "latitude": "29.987851292049008",
      "longitude": "-90.05758141707962"
    }
  },
  {
    "service_request": "2023-1056536",
    "request_type": "Trash/Recycling",
    "request_reason": "Missed Trash Pick-Up",
    "date_created": "2023-12-19T10:48:27.000",
    "date_modified": "2023-12-19T10:48:28.000",
    "request_status": "Pending",
    "responsible_agency": "Department of Sanitation",
    "final_address": "5829 Royal St",
    "address_councildis": "E",
    "status": "Assigned to Contractor",
    "contractor": "Waste Pro",
    "rowid": "1056536",
    "final_x": "3698477.2874",
    "final_y": "532138.369411",
    "longitude": "-90.01444000495667",
    "latitude": "29.956669589326623",
    "geocoded_column": {
      "latitude": "29.956669589326623",
      "longitude": "-90.01444000495667"
    }
  },
  {
    "service_request": "2023-1056535",
    "request_type": "Abandoned Vehicles",
    "request_reason": "Abandoned/Junk Vehicles",
    "date_created": "2023-12-19T10:42:08.000",
    "date_modified": "2023-12-19T10:42:37.000",
    "request_status": "Pending",
    "responsible_agency": "Department of Public Works",
    "final_address": "MAGAZINE ST & CANAL ST",
    "address_councildis": "B",
    "status": "Pending",
    "rowid": "1056535",
    "final_x": "3681763.3",
    "final_y": "530173.38",
    "longitude": "-90.06728589780234",
    "latitude": "29.951784936707664",
    "geocoded_column": {
      "latitude": "29.951784936707664",
      "longitude": "-90.06728589780234"
    }
  },
  {
    "service_request": "2023-1056534",
    "request_type": "Trash/Recycling",
    "request_reason": "Missed Trash Pick-Up",
    "date_created": "2023-12-19T10:39:22.000",
    "date_modified": "2023-12-19T10:39:23.000",
    "request_status": "Pending",
    "responsible_agency": "Department of Sanitation",
    "final_address": "4975 Sandalwood St",
    "address_councildis": "E",
    "status": "Assigned to Contractor",
    "contractor": "Waste Pro",
    "rowid": "1056534",
    "final_x": "3712158.37182",
    "final_y": "557631.500827",
    "longitude": "-89.97028242555685",
    "latitude": "30.026325921536625",
    "geocoded_column": {
      "latitude": "30.026325921536625",
      "longitude": "-89.97028242555685"
    }
  },
  {
    "service_request": "2023-1056533",
    "request_type": "Roads/Drainage",
    "request_reason": "Street Subsidence (Sinking)",
    "date_created": "2023-12-19T10:35:41.000",
    "date_modified": "2023-12-19T10:35:41.000",
    "request_status": "Pending",
    "responsible_agency": "Department of Public Works",
    "final_address": "2848 Annunciation St",
    "address_councildis": "B",
    "status": "Pending",
    "rowid": "1056533",
    "final_x": "3677341.64315",
    "final_y": "519644.9278",
    "longitude": "-90.08161054468029",
    "latitude": "29.922968750350993",
    "geocoded_column": {
      "latitude": "29.922968750350993",
      "longitude": "-90.08161054468029"
    }
  },
  {
    "service_request": "2023-1056532",
    "request_type": "Roads/Drainage",
    "request_reason": "Catch Basin - Clogged",
    "date_created": "2023-12-19T10:33:40.000",
    "date_modified": "2023-12-19T10:33:41.000",
    "request_status": "Pending",
    "responsible_agency": "Department of Public Works",
    "final_address": "BELFAST ST & S CARROLLTON AVE",
    "address_councildis": "A",
    "status": "Pending",
    "rowid": "1056532",
    "final_x": "3665625.0",
    "final_y": "532332.58",
    "longitude": "-90.11817084819907",
    "latitude": "29.958202467612676",
    "geocoded_column": {
      "latitude": "29.958202467612676",
      "longitude": "-90.11817084819907"
    }
  },
  {
    "service_request": "2023-1056531",
    "request_type": "Trash/Recycling",
    "request_reason": "Replace Trash Cart",
    "date_created": "2023-12-19T10:33:23.000",
    "date_modified": "2023-12-19T10:33:24.000",
    "request_status": "Pending",
    "responsible_agency": "Department of Sanitation",
    "final_address": "737 Constantinople St",
    "address_councildis": "B",
    "status": "Assigned to Contractor",
    "contractor": "Richards Disposal",
    "rowid": "1056531",
    "final_x": "3672599.62363",
    "final_y": "518518.159543",
    "longitude": "-90.0966176741887",
    "latitude": "29.920012084609464",
    "geocoded_column": {
      "latitude": "29.920012084609464",
      "longitude": "-90.0966176741887"
    }
  },
  {
    "service_request": "2023-1056530",
    "request_type": "Abandoned Vehicles",
    "request_reason": "Abandoned/Junk Vehicles",
    "date_created": "2023-12-19T10:30:30.000",
    "date_modified": "2023-12-19T10:30:31.000",
    "request_status": "Pending",
    "responsible_agency": "Department of Public Works",
    "final_address": "14801 Emory Rd",
    "address_councildis": "E",
    "status": "Pending",
    "rowid": "1056530",
    "final_x": "3720523.04262",
    "final_y": "573841.253546",
    "longitude": "-89.94323000105615",
    "latitude": "30.07061980352665",
    "geocoded_column": {
      "latitude": "30.07061980352665",
      "longitude": "-89.94323000105615"
    }
  },