[
  {
    "service_request": "2025-1227162",
    "request_type": "Streetlights",
    "request_reason": "Streetlight Outage/Malfunction",
    "date_created": "2025-09-17T23:16:09.000",
    "date_modified": "2025-09-17T23:16:13.000",
    "request_status": "Pending",
    "responsible_agency": "Department of Public Works",
    "final_address": "2336 St Nick Dr",
    "address_councildis": "C",
    "status": "Pending",
    "rowid": "1227162",
    "final_x": "3699619.45661",
    "final_y": "522321.25241",
    "longitude": "-90.01119111451732",
    "latitude": "29.929639754660748",
    "geocoded_column": {
      "latitude": "29.929639754660748",
      "longitude": "-90.01119111451732"
    }
  },
  {
    "service_request": "2025-1227161",
    "request_type": "Trash/Recycling",
    "request_reason": "Order Trash Cart",
    "date_created": "2025-09-17T22:18:14.000",
    "date_modified": "2025-09-17T22:18:16.000",
    "request_status": "Pending",
    "responsible_agency": "Department of Sanitation",
    "final_address": "3006 Rabbits St",
    "address_councildis": "D",
    "status": "Assigned to Contractor",
    "contractor": "IV Waste",
    "rowid": "1227161",
    "final_x": "3688358.63759",
    "final_y": "544056.11867",
    "longitude": "-90.04596853881314",
    "latitude": "29.989755575140634",
    "geocoded_column": {
      "latitude": "29.989755575140634",
      "longitude": "-90.04596853881314"
    }
  },
  {
    "service_request": "2025-1227160",
    "request_type": "Roads and Streets",
    "request_reason": "Sidewalk Damaged or Missing",
    "date_created": "2025-09-17T22:15:52.000",
    "date_modified": "2025-09-17T22:15:54.000",
    "request_status": "Pending",
    "responsible_agency": "Department of Public Works",
    "final_address": "8714 Jeannette St",
    "address_councildis": "A",
    "status": "Pending",
    "rowid": "1227160",
    "final_x": "3660973.0953",
    "final_y": "530643.261634",
    "longitude": "-90.13291625074805",
    "latitude": "29.953692217444853",
    "geocoded_column": {
      "latitude": "29.953692217444853",
      "longitude": "-90.13291625074805"
    }
  },
  {
    "service_request": "2025-1227159",
    "request_type": "Trash/Recycling",
    "request_reason": "Order Trash Cart",
    "date_created": "2025-09-17T22:10:54.000",
    "date_modified": "2025-09-17T22:10:56.000",
    "request_status": "Pending",
    "responsible_agency": "Department of Sanitation",
    "final_address": "3010 Rabbits St",
    "address_councildis": "D",
    "status": "Assigned to Contractor",
    "contractor": "IV Waste",
    "rowid": "1227159",
    "final_x": "3688356.72284",
    "final_y": "544083.41851",
    "longitude": "-90.04597361813441",
    "latitude": "29.989830699064818",
    "geocoded_column": {
      "latitude": "29.989830699064818",
      "longitude": "-90.04597361813441"
    }
  },
  {
    "service_request": "2025-1227158",
    "request_type": "Utility Poles",
    "request_reason": "Wires Sagging/Hanging Low",
    "date_created": "2025-09-17T21:36:52.000",
    "date_modified": "2025-09-17T21:36:56.000",
    "request_status": "Pending",
    "responsible_agency": "Utility Company Collective",
    "final_address": "3601 Canal St",
    "address_councildis": "B",
    "status": "Pending",
    "rowid": "1227158",
    "final_x": "3672619.87419",
    "final_y": "537298.879816",
    "longitude": "-90.09591355584773",
    "latitude": "29.971652301208948",
    "geocoded_column": {
      "latitude": "29.971652301208948",
      "longitude": "-90.09591355584773"
    }
  },
  {
    "service_request": "2025-1227157",
    "request_type": "Streetlights",
    "request_reason": "New Streetlight Request",
    "date_created": "2025-09-17T21:09:19.000",
    "date_modified": "2025-09-17T21:09:21.000",
    "request_status": "Pending",
    "responsible_agency": "Department of Public Works",
    "final_address": "3315 Pauger St",
    "address_councildis": "D",
    "status": "Pending",
    "rowid": "1227157",
    "final_x": "3683455.8902",
    "final_y": "541883.300876",
    "longitude": "-90.06153112436341",
    "latitude": "29.98393164123807",
    "geocoded_column": {
      "latitude": "29.98393164123807",
      "longitude": "-90.06153112436341"
    }
  },
  {
    "service_request": "2025-1227156",
    "request_type": "Trash/Recycling",
    "request_reason": "Replace Trash Cart",
    "date_created": "2025-09-17T20:48:29.000",
    "date_modified": "2025-09-17T20:48:30.000",
    "request_status": "Pending",
    "responsible_agency": "Department of Sanitation",
    "final_address": "2024 S Gayoso St",
    "address_councildis": "B",
    "status": "Assigned to Contractor",
    "contractor": "IV Waste",
    "rowid": "1227156",
    "final_x": "3669881.31463",
    "final_y": "529291.834561",
    "longitude": "-90.10483348223745",
    "latitude": "29.949716616507274",
    "geocoded_column": {
      "latitude": "29.949716616507274",
      "longitude": "-90.10483348223745"
    }
  },
  {
    "service_request": "2025-1227155",
    "request_type": "Trash/Recycling",
    "request_reason": "Order Trash Cart",
    "date_created": "2025-09-17T20:43:30.000",
    "date_modified": "2025-09-17T20:43:31.000",
    "request_status": "Pending",
    "responsible_agency": "Department of Sanitation",
    "final_address": "1112 Vallette St",
    "address_councildis": "C",
    "status": "Assigned to Contractor",
    "contractor": "Richards Disposal",
    "rowid": "1227155",
    "final_x": "3687462.43286",
    "final_y": "527458.335295",
    "longitude": "-90.0493868634988",
    "latitude": "29.944145113033873",
    "geocoded_column": {
      "latitude": "29.944145113033873",
      "longitude": "-90.0493868634988"
    }
  },
  {
    "service_request": "2025-1227154",
    "request_type": "Trash/Recycling",
    "request_reason": "Replace Trash Cart",
    "date_created": "2025-09-17T20:30:54.000",
    "date_modified": "2025-09-17T20:30:56.000",
    "request_status": "Pending",
    "responsible_agency": "Department of Sanitation",
    "final_address": "4215 Jena St",
    "address_councildis": "A",
    "status": "Assigned to Contractor",
    "contractor": "IV Waste",
    "rowid": "1227154",
    "final_x": "3669481.18113",
    "final_y": "529003.313344",
    "longitude": "-90.10610664725192",
    "latitude": "29.94893506742764",
    "geocoded_column": {
      "latitude": "29.94893506742764",
      "longitude": "-90.10610664725192"
    }
  },
  {
    "service_request": "2025-1227153",
    "request_type": "Trash/Recycling",
    "request_reason": "Replace Recycling Cart",
    "date_created": "2025-09-17T19:51:58.000",
    "date_modified": "2025-09-17T19:52:01.000",
    "request_status": "Pending",
    "responsible_agency": "Department of Sanitation",
    "final_address": "4821 Laurel St",
    "address_councildis": "B",
    "status": "Pending",
    "rowid": "1227153",
    "final_x": "3669472.27521",
    "final_y": "517924.58079",
    "longitude": "-90.10650929377935",
    "latitude": "29.91847237203799",
    "geocoded_column": {
      "latitude": "29.91847237203799",
      "longitude": "-90.10650929377935"
    }
  },
  {
    "service_request": "2025-1227152",
    "request_type": "Parks & Parkways",
    "request_reason": "Park Maintenance/Clean Up",
    "date_created": "2025-09-17T19:41:54.000",
    "date_modified": "2025-09-17T19:41:56.000",
    "request_status": "Pending",
    "responsible_agency": "Department of Parks & Parkway",
    "final_address": "5909 St Claude Ave",
    "address_councildis": "E",
    "status": "Pending",
    "rowid": "1227152",
    "final_x": "3699065.07031",
    "final_y": "533597.858309",
    "longitude": "-90.01253086494992",
    "latitude": "29.96066404920907",
    "geocoded_column": {
      "latitude": "29.96066404920907",
      "longitude": "-90.01253086494992"
    }
  },
  {
    "service_request": "2025-1227151",
    "request_type": "Trash/Recycling",
    "request_reason": "Repair Recycling Cart",
    "date_created": "2025-09-17T19:08:34.000",
    "date_modified": "2025-09-17T19:08:36.000",
    "request_status": "Pending",
    "responsible_agency": "Department of Sanitation",
    "final_address": "5929 Chestnut St",
    "address_councildis": "A",
    "status": "Pending",
    "rowid": "1227151",
    "final_x": "3665179.07604",
    "final_y": "519869.398712",
    "longitude": "-90.11999569598656",
    "latitude": "29.92394570684376",
    "geocoded_column": {
      "latitude": "29.92394570684376",
      "longitude": "-90.11999569598656"
    }
  },
  {
    "service_request": "2025-1227150",
    "request_type": "Streetlights",
    "request_reason": "Streetlight Outage/Malfunction",
    "date_created": "2025-09-17T18:49:07.000",
    "date_modified": "2025-09-17T18:49:09.000",
    "request_status": "Pending",
    "responsible_agency": "Department of Public Works",
    "final_address": "5618 Rosemary Pl",
    "address_councildis": "A",
    "status": "Pending",
    "rowid": "1227150",
    "final_x": "3667084.38605",
    "final_y": "544913.741647",
    "longitude": "-90.11313943270619",
    "latitude": "29.99275380967612",
    "geocoded_column": {
      "latitude": "29.99275380967612",
      "longitude": "-90.11313943270619"
    }
  },
  {
    "service_request": "2025-1227149",
    "request_type": "Abandoned Vehicles",
    "request_reason": "Abandoned/Junk Vehicles",
    "date_created": "2025-09-17T18:46:44.000",
    "date_modified": "2025-09-17T18:46:47.000",
    "request_status": "Pending",
    "responsible_agency": "Department of Public Works",
    "final_address": "2613 Joliet St",
    "address_councildis": "A",
    "status": "Pending",
    "rowid": "1227149",
    "final_x": "3664412.09306",
    "final_y": "533127.737924",
    "longitude": "-90.1219743475927",
    "latitude": "29.960424205071405",
    "geocoded_column": {
      "latitude": "29.960424205071405",
      "longitude": "-90.1219743475927"
    }
  },
  {
    "service_request": "2025-1227148",
    "request_type": "Abandoned Vehicles",
    "request_reason": "Abandoned/Junk Vehicles",
    "date_created": "2025-09-17T18:39:37.000",
    "date_modified": "2025-09-17T18:39:39.000",
    "request_status": "Pending",
    "responsible_agency": "Department of Public Works",
    "final_address": "2613 Joliet St",
    "address_councildis": "A",
    "status": "Pending",
    "rowid": "1227148",
    "final_x": "3664412.09306",
    "final_y": "533127.737924",
    "longitude": "-90.1219743475927",
    "latitude": "29.960424205071405",
    "geocoded_column": {
      "latitude": "29.960424205071405",
      "longitude": "-90.1219743475927"
    }
  },
  {
    "service_request": "2025-1227147",
    "request_type": "Trash/Recycling",
    "request_reason": "Missed Trash Pick-Up",
    "date_created": "2025-09-17T18:23:15.000",
    "date_modified": "2025-09-17T18:23:17.000",
    "request_status": "Pending",
    "responsible_agency": "Department of Sanitation",
    "final_address": "717 Evelina St",
    "address_councildis": "C",
    "status": "Assigned to Contractor",
    "contractor": "Richards Disposal",
    "rowid": "1227147",
    "final_x": "3687668.62953",
    "final_y": "529460.512641",
    "longitude": "-90.04866497116821",
    "latitude": "29.94964406327142",
    "geocoded_column": {
      "latitude": "29.94964406327142",
      "longitude": "-90.04866497116821"
    }
  },
  {
    "service_request": "2025-1227146",
    "request_type": "Roads and Streets",
    "request_reason": "Sidewalk Damaged or Missing",
    "date_created": "2025-09-17T18:14:27.000",
    "date_modified": "2025-09-17T18:14:31.000",
    "request_status": "Pending",
    "responsible_agency": "Department of Public Works",
    "final_address": "1912 Marigny St",
    "address_councildis": "D",
    "status": "Pending",
    "rowid": "1227146",
    "final_x": "3685131.24533",
    "final_y": "539415.679178",
    "longitude": "-90.05632632064747",
    "latitude": "29.977095313279044",
    "geocoded_column": {
      "latitude": "29.977095313279044",
      "longitude": "-90.05632632064747"
    }
  },
  {
    "service_request": "2025-1227145",
    "request_type": "Trash/Recycling",
    "request_reason": "Request a Large Item Pick Up",
    "date_created": "2025-09-17T18:04:23.000",
    "date_modified": "2025-09-17T18:04:24.000",
    "request_status": "Pending",
    "responsible_agency": "Department of Sanitation",
    "final_address": "6943 E Hermes St",
    "address_councildis": "D",
    "status": "Assigned to Contractor",
    "contractor": "Waste Pro",
    "rowid": "1227145",
    "final_x": "3697532.76298",
    "final_y": "556967.60041",
    "longitude": "-90.01652148063187",
    "latitude": "30.024970721784683",
    "geocoded_column": {
      "latitude": "30.024970721784683",
      "longitude": "-90.01652148063187"
    }
  },
  {
    "service_request": "2025-1227144",
    "request_type": "Property Maintenance",
    "request_reason": "Property Maintenance",
    "date_created": "2025-09-17T18:03:48.000",
    "date_modified": "2025-09-17T18:03:49.000",
    "request_status": "Pending",
    "responsible_agency": "Department of Code Enforcement",
    "final_address": "102 Hathaway Pl, New Orleans, Louisiana, 70119",
    "address_councildis": "D",
    "status": "Pending",
    "rowid": "1227144",
    "final_x": "3678342.86901",
    "final_y": "543799.168782",
    "longitude": "-90.0776144936951",
    "latitude": "29.98935466419275",
    "geocoded_column": {
      "latitude": "29.98935466419275",
      "longitude": "-90.0776144936951"
    }
  },
  {
    "service_request": "2025-1227143",
    "request_type": "Property Maintenance",
    "request_reason": "Property Maintenance",
    "date_created": "2025-09-17T17:58:47.000",
    "date_modified": "2025-09-17T17:58:48.000",
    "request_status": "Pending",
    "responsible_agency": "Department of Code Enforcement",
    "final_address": "102 Hathaway Pl, New Orleans, Louisiana, 70119",
    "address_councildis": "D",
    "status": "Pending",
    "rowid": "1227143",
    "final_x": "3678342.86901",
    "final_y": "543799.168782",
    "longitude": "-90.0776144936951",
    "latitude": "29.98935466419275",
    "geocoded_column": {
      "latitude": "29.98935466419275",
      "longitude": "-90.0776144936951"
    }
  },
  {
    "service_request": "2025-1227142",
    "request_type": "Trash/Recycling",
    "request_reason": "Request a Large Item Pick Up",
    "date_created": "2025-09-17T17:58:26.000",
    "date_modified": "2025-09-17T17:58:27.000",
    "request_status": "Pending",
    "responsible_agency": "Department of Sanitation",
    "final_address": "6015 Pratt Dr",
    "address_councildis": "D",
    "status": "Assigned to Contractor",
    "contractor": "IV Waste",
    "rowid": "1227142",
    "final_x": "3680303.75503",
    "final_y": "554609.19676",
    "longitude": "-90.07104446364862",
    "latitude": "30.019019140222873",
    "geocoded_column": {
      "latitude": "30.019019140222873",
      "longitude": "-90.07104446364862"
    }
  },
  {
    "service_request": "2025-1227141",
    "request_type": "Parks & Parkways",
    "request_reason": "Request Tree Service (Right of Way/Public Property)",
    "date_created": "2025-09-17T17:54:04.000",
    "date_modified": "2025-09-17T17:54:06.000",
    "request_status": "Pending",
    "responsible_agency": "Department of Parks & Parkway",
    "final_address": "6015 Pratt Dr",
    "address_councildis": "D",
    "status": "Pending",
    "rowid": "1227141",
    "final_x": "3680303.75503",
    "final_y": "554609.19676",
    "longitude": "-90.07104446364862",
    "latitude": "30.019019140222873",
    "geocoded_column": {
      "latitude": "30.019019140222873",
      "longitude": "-90.07104446364862"
    }
  },
  {
    "service_request": "2025-1227140",
    "request_type": "General Services",
    "request_reason": "General Service Request",
    "date_created": "2025-09-17T17:41:47.000",
    "date_modified": "2025-09-17T17:41:49.000",
    "request_status": "Pending",
    "responsible_agency": "Orleans Parish Communication District",
    "final_address": "100 Hathaway Pl, New Orleans, Louisiana, 70119",
    "address_councildis": "D",
    "status": "Pending",
    "rowid": "1227140",
    "final_x": "3678341.5099",
    "final_y": "543748.978958",
    "longitude": "-90.07762052410094",
    "latitude": "29.98921670069132",
    "geocoded_column": {
      "latitude": "29.98921670069132",
      "longitude": "-90.07762052410094"
    }
  },
  {
    "service_request": "2025-1227139",
    "request_type": "Abandoned Vehicles",
    "request_reason": "Abandoned/Junk Vehicles",
    "date_created": "2025-09-17T17:39:18.000",
    "date_modified": "2025-09-17T17:39:20.000",
    "request_status": "Pending",
    "responsible_agency": "Department of Public Works",
    "final_address": "3240 Constance St",
    "address_councildis": "B",
    "status": "Pending",
    "rowid": "1227139",
    "final_x": "3675654.14081",
    "final_y": "519473.131447",
    "longitude": "-90.08694323773106",
    "latitude": "29.922546946414577",
    "geocoded_column": {
      "latitude": "29.922546946414577",
      "longitude": "-90.08694323773106"
    }
  },
  {
    "service_request": "2025-1227138",
    "request_type": "Trash/Recycling",
    "request_reason": "Request a Large Item Pick Up",
    "date_created": "2025-09-17T17:35:13.000",
    "date_modified": "2025-09-17T17:35:14.000",
    "request_status": "Pending",
    "responsible_agency": "Department of Sanitation",
    "final_address": "4926 Brittany Ct",
    "address_councildis": "E",
    "status": "Assigned to Contractor",
    "contractor": "Waste Pro",
    "rowid": "1227138",
    "final_x": "3727090.10822",
    "final_y": "561996.061471",
    "longitude": "-89.92293085876243",
    "latitude": "30.037829820813396",
    "geocoded_column": {
      "latitude": "30.037829820813396",
      "longitude": "-89.92293085876243"
    }
  },
  {
    "service_request": "2025-1227137",
    "request_type": "Property Maintenance",
    "request_reason": "Property Maintenance",
    "date_created": "2025-09-17T17:29:33.000",
    "date_modified": "2025-09-17T17:29:35.000",
    "request_status": "Pending",
    "responsible_agency": "Department of Code Enforcement",
    "final_address": "63 French Market Pl",
    "address_councildis": "C",
    "status": "Pending",
    "rowid": "1227137",
    "final_x": "3684444.52956",
    "final_y": "533457.302148",
    "longitude": "-90.05870452378475",
    "latitude": "29.960732868654926",
    "geocoded_column": {
      "latitude": "29.960732868654926",
      "longitude": "-90.05870452378475"
    }
  },
  {
    "service_request": "2025-1227136",
    "request_type": "Trash/Recycling",
    "request_reason": "Repair Trash Cart",
    "date_created": "2025-09-17T16:59:14.000",
    "date_modified": "2025-09-17T16:59:16.000",
    "request_status": "Pending",
    "responsible_agency": "Department of Sanitation",
    "final_address": "325 Exposition Blvd",
    "address_councildis": "A",
    "status": "Assigned to Contractor",
    "contractor": "IV Waste",
    "rowid": "1227136",
    "final_x": "3662514.54874",
    "final_y": "518420.473974",
    "longitude": "-90.12845479023107",
    "latitude": "29.920038927616044",
    "geocoded_column": {
      "latitude": "29.920038927616044",
      "longitude": "-90.12845479023107"
    }
  },
  {
    "service_request": "2025-1227135",
    "request_type": "Trash/Recycling",
    "request_reason": "Return Trash Cart",
    "date_created": "2025-09-17T16:51:42.000",
    "date_modified": "2025-09-17T16:51:44.000",
    "request_status": "Pending",
    "responsible_agency": "Department of Sanitation",
    "final_address": "521 Olivier St",
    "address_councildis": "C",
    "status": "Assigned to Contractor",
    "contractor": "Richards Disposal",
    "rowid": "1227135",
    "final_x": "3687231.92604",
    "final_y": "529733.946305",
    "longitude": "-90.05003417005422",
    "latitude": "29.950409367879082",
    "geocoded_column": {
      "latitude": "29.950409367879082",
      "longitude": "-90.05003417005422"
    }
  },
  {
    "service_request": "2025-1227134",
    "request_type": "Trash/Recycling",
    "request_reason": "Replace Trash Cart",
    "date_created": "2025-09-17T16:49:32.000",
    "date_modified": "2025-09-17T16:49:34.000",
    "request_status": "Pending",
    "responsible_agency": "Department of Sanitation",
    "final_address": "6422 Carlson Dr",
    "address_councildis": "D",
    "status": "Assigned to Contractor",
    "contractor": "IV Waste",
    "rowid": "1227134",
    "final_x": "3678383.29832",
    "final_y": "557536.701979",
    "longitude": "-90.07701102063524",
    "latitude": "30.027126745282636",
    "geocoded_column": {
      "latitude": "30.027126745282636",
      "longitude": "-90.07701102063524"
    }
  },
  {
    "service_request": "2025-1227133",
    "request_type": "Roads and Streets",
    "request_reason": "Pothole",
    "date_created": "2025-09-17T16:46:46.000",
    "date_modified": "2025-09-17T16:46:47.000",
    "request_status": "Pending",
    "responsible_agency": "Department of Public Works",
    "final_address": "6107 Chartres St",
    "address_councildis": "E",
    "status": "Pending",
    "rowid": "1227133",
    "final_x": "3698881.82237",
    "final_y": "531547.981763",
    "longitude": "-90.01318410040936",
    "latitude": "29.955033422890633",
    "geocoded_column": {
      "latitude": "29.955033422890633",
      "longitude": "-90.01318410040936"
    }
  },
  {
    "service_request": "2025-1227132",
    "request_type": "Abandoned Vehicles",
    "request_reason": "Abandoned/Junk Vehicles",
    "date_created": "2025-09-17T16:39:34.000",
    "date_modified": "2025-09-17T16:39:37.000",
    "request_status": "Pending",
    "responsible_agency": "Department of Public Works",
    "final_address": "7051 Ridgefield Dr",
    "address_councildis": "E",
    "status": "Pending",
    "rowid": "1227132",
    "final_x": "3719402.01631",
    "final_y": "569692.855078",
    "longitude": "-89.94693251592692",
    "latitude": "30.059250794336176",
    "geocoded_column": {
      "latitude": "30.059250794336176",
      "longitude": "-89.94693251592692"
    }
  },
  {
    "service_request": "2025-1227131",
    "request_type": "Property Maintenance",
    "request_reason": "Property Maintenance",
    "date_created": "2025-09-17T16:37:31.000",
    "date_modified": "2025-09-17T16:37:34.000",
    "request_status": "Pending",
    "responsible_agency": "Department of Code Enforcement",
    "final_address": "2826 Carver St",
    "address_councildis": "C",
    "status": "Pending",
    "rowid": "1227131",
    "final_x": "3708604.02116",
    "final_y": "519897.2702",
    "longitude": "-89.98291888661541",
    "latitude": "29.922686541861605",
    "geocoded_column": {
      "latitude": "29.922686541861605",
      "longitude": "-89.98291888661541"
    }
  },
  {
    "service_request": "2025-1227130",
    "request_type": "Trash/Recycling",
    "request_reason": "Request a Large Item Pick Up",
    "date_created": "2025-09-17T16:35:56.000",
    "date_modified": "2025-09-17T16:35:57.000",
    "request_status": "Pending",
    "responsible_agency": "Department of Sanitation",
    "final_address": "1307 St Andrew St",
    "address_councildis": "B",
    "status": "Assigned to Contractor",
    "contractor": "IV Waste",
    "rowid": "1227130",
    "final_x": "3679024.66594",
    "final_y": "523250.165371",
    "longitude": "-90.07617303665367",
    "latitude": "29.932831314371477",
    "geocoded_column": {
      "latitude": "29.932831314371477",
      "longitude": "-90.07617303665367"
    }
  },
  {
    "service_request": "2025-1227129",
    "request_type": "Trash/Recycling",
    "request_reason": "Request a Large Item Pick Up",
    "date_created": "2025-09-17T16:34:58.000",
    "date_modified": "2025-09-17T16:35:00.000",
    "request_status": "Pending",
    "responsible_agency": "Department of Sanitation",
    "final_address": "4546 Stemway Dr",
    "address_councildis": "D",
    "status": "Assigned to Contractor",
    "contractor": "Waste Pro",
    "rowid": "1227129",
    "final_x": "3696934.52061",
    "final_y": "553237.446295",
    "longitude": "-90.0185470655372",
    "latitude": "30.014733100799962",
    "geocoded_column": {
      "latitude": "30.014733100799962",
      "longitude": "-90.0185470655372"
    }
  },
  {
    "service_request": "2025-1227128",
    "request_type": "Trash/Recycling",
    "request_reason": "Request a Large Item Pick Up",
    "date_created": "2025-09-17T16:30:54.000",
    "date_modified": "2025-09-17T16:30:56.000",
    "request_status": "Pending",
    "responsible_agency": "Department of Sanitation",
    "final_address": "5219 Spain St",
    "address_councildis": "D",
    "status": "Assigned to Contractor",
    "contractor": "IV Waste",
    "rowid": "1227128",
    "final_x": "3684895.67375",
    "final_y": "552357.632214",
    "longitude": "-90.05661489479148",
    "latitude": "30.012688271125743",
    "geocoded_column": {
      "latitude": "30.012688271125743",
      "longitude": "-90.05661489479148"
    }
  },
  {
    "service_request": "2025-1227127",
    "request_type": "Trash/Recycling",
    "request_reason": "Repair Trash Cart",
    "date_created": "2025-09-17T16:27:47.000",
    "date_modified": "2025-09-17T16:27:49.000",
    "request_status": "Pending",
    "responsible_agency": "Department of Sanitation",
    "final_address": "4315 Tchoupitoulas St",
    "address_councildis": "B",
    "status": "Assigned to Contractor",
    "contractor": "IV Waste",
    "rowid": "1227127",
    "final_x": "3671448.53742",
    "final_y": "517530.729718",
    "longitude": "-90.10028464707803",
    "latitude": "29.917331077042974",
    "geocoded_column": {
      "latitude": "29.917331077042974",
      "longitude": "-90.10028464707803"
    }
  },
  {
    "service_request": "2025-1227126",
    "request_type": "Trash/Recycling",
    "request_reason": "Missed Trash Pick-Up",
    "date_created": "2025-09-17T16:26:21.000",
    "date_modified": "2025-09-17T16:26:23.000",
    "request_status": "Pending",
    "responsible_agency": "Department of Sanitation",
    "final_address": "4439 Lancelot Dr, New Orleans, Louisiana, 70127",
    "address_councildis": "E",
    "status": "Assigned to Contractor",
    "contractor": "Waste Pro",
    "rowid": "1227126",
    "final_x": "3707687.40145",
    "final_y": "553834.508311",
    "longitude": "-89.98455127125207",
    "latitude": "30.016031149371464",
    "geocoded_column": {
      "latitude": "30.016031149371464",
      "longitude": "-89.98455127125207"
    }
  },
  {
    "service_request": "2025-1227125",
    "request_type": "General Services",
    "request_reason": "General Service Request",
    "date_created": "2025-09-17T16:22:39.000",
    "date_modified": "2025-09-17T16:24:02.000",
    "case_close_date": "2025-09-17T11:24:01.000",
    "request_status": "Closed",
    "responsible_agency": "Orleans Parish Communication District",
    "final_address": "6301 Saint Bernard Ave, New Orleans, Louisiana, 70122",
    "address_councildis": "D",
    "status": "Question Answered.",
    "rowid": "1227125",
    "final_x": "3677103.38907",
    "final_y": "555881.486681",
    "longitude": "-90.08111257789491",
    "latitude": "30.022614029773447",
    "geocoded_column": {
      "latitude": "30.022614029773447",
      "longitude": "-90.08111257789491"
    }
  },
  {
    "service_request": "2025-1227124",
    "request_type": "Trash/Recycling",
    "request_reason": "Request a Large Item Pick Up",
    "date_created": "2025-09-17T16:21:47.000",
    "date_modified": "2025-09-17T16:21:49.000",
    "request_status": "Pending",
    "responsible_agency": "Department of Sanitation",
    "final_address": "2820 General Pershing St",
    "address_councildis": "B",
    "status": "Assigned to Contractor",
    "contractor": "IV Waste",
    "rowid": "1227124",
    "final_x": "3670762.58395",
    "final_y": "525311.606077",
    "longitude": "-90.1021859355875",
    "latitude": "29.93874627609012",
    "geocoded_column": {
      "latitude": "29.93874627609012",
      "longitude": "-90.1021859355875"
    }
  },
  {
    "service_request": "2025-1227123",
    "request_type": "Trash/Recycling",
    "request_reason": "Request a Large Item Pick Up",
    "date_created": "2025-09-17T16:21:37.000",
    "date_modified": "2025-09-17T16:21:40.000",
    "request_status": "Pending",
    "responsible_agency": "Department of Sanitation",
    "final_address": "5000 Dauphine St",
    "address_councildis": "E",
    "status": "Assigned to Contractor",
    "contractor": "Waste Pro",
    "rowid": "1227123",
    "final_x": "3695676.13206",
    "final_y": "533091.228996",
    "longitude": "-90.02325070290962",
    "latitude": "29.9593779749642",
    "geocoded_column": {
      "latitude": "29.9593779749642",
      "longitude": "-90.02325070290962"
    }
  },
  {
    "service_request": "2025-1227122",
    "request_type": "Trash/Recycling",
    "request_reason": "Return Trash Cart",
    "date_created": "2025-09-17T16:19:45.000",
    "date_modified": "2025-09-17T16:19:48.000",
    "request_status": "Pending",
    "responsible_agency": "Department of Sanitation",
    "final_address": "2229 General Taylor St",
    "address_councildis": "B",
    "status": "Assigned to Contractor",
    "contractor": "IV Waste",
    "rowid": "1227122",
    "final_x": "3672139.09409",
    "final_y": "523366.880187",
    "longitude": "-90.09790632985954",
    "latitude": "29.9333581709244",
    "geocoded_column": {
      "latitude": "29.9333581709244",
      "longitude": "-90.09790632985954"
    }
  },
  {
    "service_request": "2025-1227121",
    "request_type": "Trash/Recycling",
    "request_reason": "Request a Large Item Pick Up",
    "date_created": "2025-09-17T16:19:32.000",
    "date_modified": "2025-09-17T16:19:34.000",
    "request_status": "Pending",
    "responsible_agency": "Department of Sanitation",
    "final_address": "6732 Deanne St",
    "address_councildis": "D",
    "status": "Assigned to Contractor",
    "contractor": "Waste Pro",
    "rowid": "1227121",
    "final_x": "3695876.29603",
    "final_y": "555485.952281",
    "longitude": "-90.02180921097602",
    "latitude": "30.020948989879415",
    "geocoded_column": {
      "latitude": "30.020948989879415",
      "longitude": "-90.02180921097602"
    }
  },
  {
    "service_request": "2025-1227120",
    "request_type": "Abandoned Vehicles",
    "request_reason": "Abandoned/Junk Vehicles",
    "date_created": "2025-09-17T16:18:29.000",
    "date_modified": "2025-09-17T16:18:31.000",
    "request_status": "Pending",
    "responsible_agency": "Department of Public Works",
    "final_address": "154 Middle Park Pl",
    "address_councildis": "A",
    "status": "Pending",
    "rowid": "1227120",
    "final_x": "3669984.45396",
    "final_y": "544541.979343",
    "longitude": "-90.10399121619979",
    "latitude": "29.991646356359563",
    "geocoded_column": {
      "latitude": "29.991646356359563",
      "longitude": "-90.10399121619979"
    }
  },
  {
    "service_request": "2025-1227119",
    "request_type": "Abandoned Vehicles",
    "request_reason": "Abandoned/Junk Vehicles",
    "date_created": "2025-09-17T16:14:38.000",
    "date_modified": "2025-09-17T16:14:39.000",
    "request_status": "Pending",
    "responsible_agency": "Department of Public Works",
    "final_address": "1308 Jay St",
    "address_councildis": "D",
    "status": "Pending",
    "rowid": "1227119",
    "final_x": "3677185.10395",
    "final_y": "556006.050905",
    "longitude": "-90.08085007566275",
    "latitude": "30.02295408043608",
    "geocoded_column": {
      "latitude": "30.02295408043608",
      "longitude": "-90.08085007566275"
    }
  },
  {
    "service_request": "2025-1227118",
    "request_type": "Trash/Recycling",
    "request_reason": "Missed Trash Pick-Up",
    "date_created": "2025-09-17T16:14:25.000",
    "date_modified": "2025-09-17T16:52:19.000",
    "request_status": "Pending",
    "responsible_agency": "Department of Sanitation",
    "final_address": "2123 Broadway St",
    "address_councildis": "A",
    "status": "Assigned to Contractor",
    "contractor": "IV Waste",
    "rowid": "1227118",
    "final_x": "3666112.92826",
    "final_y": "529285.727937",
    "longitude": "-90.11673225146713",
    "latitude": "29.9498103802666",
    "geocoded_column": {
      "latitude": "29.9498103802666",
      "longitude": "-90.11673225146713"
    }
  },
  {
    "service_request": "2025-1227117",
    "request_type": "Trash/Recycling",
    "request_reason": "Request a Large Item Pick Up",
    "date_created": "2025-09-17T16:14:09.000",
    "date_modified": "2025-09-17T16:14:11.000",
    "request_status": "Pending",
    "responsible_agency": "Department of Sanitation",
    "final_address": "4829 Burgundy St",
    "address_councildis": "E",
    "status": "Assigned to Contractor",
    "contractor": "Waste Pro",
    "rowid": "1227117",
    "final_x": "3695090.10134",
    "final_y": "533692.479621",
    "longitude": "-90.02507956265967",
    "latitude": "29.961049612802643",
    "geocoded_column": {
      "latitude": "29.961049612802643",
      "longitude": "-90.02507956265967"
    }
  },
  {
    "service_request": "2025-1227116",
    "request_type": "Trash/Recycling",
    "request_reason": "Request a Large Item Pick Up",
    "date_created": "2025-09-17T16:12:02.000",
    "date_modified": "2025-09-17T16:12:04.000",
    "request_status": "Pending",
    "responsible_agency": "Department of Sanitation",
    "final_address": "1417 St Anthony St",
    "address_councildis": "C",
    "status": "Assigned to Contractor",
    "contractor": "IV Waste",
    "rowid": "1227116",
    "final_x": "3683452.88629",
    "final_y": "537454.302024",
    "longitude": "-90.06169586207473",
    "latitude": "29.971753534005668",
    "geocoded_column": {
      "latitude": "29.971753534005668",
      "longitude": "-90.06169586207473"
    }
  },
  {
    "service_request": "2025-1227115",
    "request_type": "Trash/Recycling",
    "request_reason": "Replace Recycling Cart",
    "date_created": "2025-09-17T16:08:25.000",
    "date_modified": "2025-09-17T16:08:29.000",
    "request_status": "Pending",
    "responsible_agency": "Department of Sanitation",
    "final_address": "6141 General Diaz St",
    "address_councildis": "A",
    "status": "Pending",
    "rowid": "1227115",
    "final_x": "3669654.24628",
    "final_y": "548151.636242",
    "longitude": "-90.10491203504593",
    "latitude": "30.001581401762344",
    "geocoded_column": {
      "latitude": "30.001581401762344",
      "longitude": "-90.10491203504593"
    }
  },
  {
    "service_request": "2025-1227114",
    "request_type": "Streetlights",
    "request_reason": "Streetlight Outage/Malfunction",
    "date_created": "2025-09-17T16:05:37.000",
    "date_modified": "2025-09-17T16:05:39.000",
    "request_status": "Pending",
    "responsible_agency": "Department of Public Works",
    "final_address": "0 BLK Belleville Ct",
    "address_councildis": "C",
    "status": "Pending",
    "rowid": "1227114",
    "final_x": "3687657.76408",
    "final_y": "526987.448437",
    "longitude": "-90.04878681649089",
    "latitude": "29.942844314399935",
    "geocoded_column": {
      "latitude": "29.942844314399935",
      "longitude": "-90.04878681649089"
    }
  },
  {
    "service_request": "2025-1227113",
    "request_type": "Trash/Recycling",
    "request_reason": "Request a Large Item Pick Up",
    "date_created": "2025-09-17T15:58:53.000",
    "date_modified": "2025-09-17T15:58:55.000",
    "request_status": "Pending",
    "responsible_agency": "Department of Sanitation",
    "final_address": "3109 General Taylor St",
    "address_councildis": "B",
    "status": "Assigned to Contractor",
    "contractor": "IV Waste",
    "rowid": "1227113",
    "final_x": "3671405.51214",
    "final_y": "526460.735038",
    "longitude": "-90.10011709006002",
    "latitude": "29.941886997028753",
    "geocoded_column": {
      "latitude": "29.941886997028753",
      "longitude": "-90.10011709006002"
    }
  },
  {
    "service_request": "2025-1227112",
    "request_type": "Trash/Recycling",
    "request_reason": "Repair Trash Cart",
    "date_created": "2025-09-17T15:57:55.000",
    "date_modified": "2025-09-17T15:57:58.000",
    "request_status": "Pending",
    "responsible_agency": "Department of Sanitation",
    "final_address": "2406 Ap Tureaud Ave",
    "address_councildis": "D",
    "status": "Assigned to Contractor",
    "contractor": "IV Waste",
    "rowid": "1227112",
    "final_x": "3681541.45724",
    "final_y": "540923.382603",
    "longitude": "-90.06761142450144",
    "latitude": "29.981350489846513",
    "geocoded_column": {
      "latitude": "29.981350489846513",
      "longitude": "-90.06761142450144"
    }
  },
  {
    "service_request": "2025-1227111",
    "request_type": "Trash/Recycling",
    "request_reason": "Request a Large Item Pick Up",
    "date_created": "2025-09-17T15:57:27.000",
    "date_modified": "2025-09-17T15:57:29.000",
    "request_status": "Pending",
    "responsible_agency": "Department of Sanitation",
    "final_address": "603 Fats Domino Ave",
    "address_councildis": "E",
    "status": "Assigned to Contractor",
    "contractor": "Waste Pro",
    "rowid": "1227111",
    "final_x": "3697601.45994",
    "final_y": "531965.147139",
    "longitude": "-90.01721185211875",
    "latitude": "29.956220979519568",
    "geocoded_column": {
      "latitude": "29.956220979519568",
      "longitude": "-90.01721185211875"
    }
  },
  {
    "service_request": "2025-1227110",
    "request_type": "Trash/Recycling",
    "request_reason": "Request a Large Item Pick Up",
    "date_created": "2025-09-17T15:57:27.000",
    "date_modified": "2025-09-17T15:57:29.000",
    "request_status": "Pending",
    "responsible_agency": "Department of Sanitation",
    "final_address": "2608 Wabash St",
    "address_councildis": "C",
    "status": "Assigned to Contractor",
    "contractor": "Richards Disposal",
    "rowid": "1227110",
    "final_x": "3692991.83907",
    "final_y": "521544.433465",
    "longitude": "-90.03214108235447",
    "latitude": "29.92771237900195",
    "geocoded_column": {
      "latitude": "29.92771237900195",
      "longitude": "-90.03214108235447"
    }
  },
  {
    "service_request": "2025-1227109",
    "request_type": "Street and Traffic Signs",
    "request_reason": "One Way Sign Missing or Damaged",
    "date_created": "2025-09-17T15:57:11.000",
    "date_modified": "2025-09-17T15:57:12.000",
    "request_status": "Pending",
    "responsible_agency": "Department of Public Works",
    "final_address": "747 Tchoupitoulas St",
    "address_councildis": "B",
    "status": "Pending",
    "rowid": "1227109",
    "final_x": "3681695.24008",
    "final_y": "527794.422655",
    "longitude": "-90.06758377515915",
    "latitude": "29.94524567231543",
    "geocoded_column": {
      "latitude": "29.94524567231543",
      "longitude": "-90.06758377515915"
    }
  },
  {
    "service_request": "2025-1227108",
    "request_type": "Trash/Recycling",
    "request_reason": "Request a Large Item Pick Up",
    "date_created": "2025-09-17T15:49:21.000",
    "date_modified": "2025-09-17T15:49:24.000",
    "request_status": "Pending",
    "responsible_agency": "Department of Sanitation",
    "final_address": "4753 Lynhuber Dr",
    "address_councildis": "D",
    "status": "Assigned to Contractor",
    "contractor": "Waste Pro",
    "rowid": "1227108",
    "final_x": "3698079.12995",
    "final_y": "554468.14428",
    "longitude": "-90.01488593450607",
    "latitude": "30.018080892235083",
    "geocoded_column": {
      "latitude": "30.018080892235083",
      "longitude": "-90.01488593450607"
    }
  },
  {
    "service_request": "2025-1227107",
    "request_type": "Trash/Recycling",
    "request_reason": "Request a Large Item Pick Up",
    "date_created": "2025-09-17T15:47:52.000",
    "date_modified": "2025-09-17T15:47:53.000",
    "request_status": "Pending",
    "responsible_agency": "Department of Sanitation",
    "final_address": "4849 Lynhuber Dr",
    "address_councildis": "D",
    "status": "Assigned to Contractor",
    "contractor": "Waste Pro",
    "rowid": "1227107",
    "final_x": "3698038.07709",
    "final_y": "554941.38748",
    "longitude": "-90.01499844160995",
    "latitude": "30.019383430387997",
    "geocoded_column": {
      "latitude": "30.019383430387997",
      "longitude": "-90.01499844160995"
    }
  },
  {
    "service_request": "2025-1227106",
    "request_type": "Trash/Recycling",
    "request_reason": "Request a Large Item Pick Up",
    "date_created": "2025-09-17T15:47:39.000",
    "date_modified": "2025-09-17T15:47:42.000",
    "request_status": "Pending",
    "responsible_agency": "Department of Sanitation",
    "final_address": "1226 Piety St",
    "address_councildis": "C",
    "status": "Assigned to Contractor",
    "contractor": "IV Waste",
    "rowid": "1227106",
    "final_x": "3689945.30672",
    "final_y": "536388.038279",
    "longitude": "-90.04122983590392",
    "latitude": "29.968621968703534",
    "geocoded_column": {
      "latitude": "29.968621968703534",
      "longitude": "-90.04122983590392"
    }
  },
  {
    "service_request": "2025-1227105",
    "request_type": "Trash/Recycling",
    "request_reason": "Repair Trash Cart",
    "date_created": "2025-09-17T15:44:25.000",
    "date_modified": "2025-09-17T15:44:26.000",
    "request_status": "Pending",
    "responsible_agency": "Department of Sanitation",
    "final_address": "1538 Dante St",
    "address_councildis": "A",
    "status": "Assigned to Contractor",
    "contractor": "IV Waste",
    "rowid": "1227105",
    "final_x": "3662311.4329",
    "final_y": "529902.632833",
    "longitude": "-90.12871490339111",
    "latitude": "29.951617106471105",
    "geocoded_column": {
      "latitude": "29.951617106471105",
      "longitude": "-90.12871490339111"
    }
  },
  {
    "service_request": "2025-1227104",
    "request_type": "Property Maintenance",
    "request_reason": "Property Maintenance",
    "date_created": "2025-09-17T15:40:04.000",
    "date_modified": "2025-09-17T15:40:06.000",
    "request_status": "Pending",
    "responsible_agency": "Department of Code Enforcement",
    "final_address": "2502 Tennessee St",
    "address_councildis": "E",
    "status": "Pending",
    "rowid": "1227104",
    "final_x": "3697129.37245",
    "final_y": "539646.03873",
    "longitude": "-90.01842421453628",
    "latitude": "29.977355592109813",
    "geocoded_column": {
      "latitude": "29.977355592109813",
      "longitude": "-90.01842421453628"
    }
  },
  {
    "service_request": "2025-1227103",
    "request_type": "Parks & Parkways",
    "request_reason": "Request Tree Service (Right of Way/Public Property)",
    "date_created": "2025-09-17T15:39:13.000",
    "date_modified": "2025-09-17T15:39:14.000",
    "request_status": "Pending",
    "responsible_agency": "Department of Parks & Parkway",
    "final_address": "3446 Magazine St Apt A",
    "address_councildis": "B",
    "status": "Pending",
    "rowid": "1227103",
    "final_x": "3674639.09556",
    "final_y": "519363.726839",
    "longitude": "-90.09015107849024",
    "latitude": "29.92227643950869",
    "geocoded_column": {
      "latitude": "29.92227643950869",
      "longitude": "-90.09015107849024"
    }
  },
  {
    "service_request": "2025-1227102",
    "request_type": "Trash/Recycling",
    "request_reason": "Order Trash Cart",
    "date_created": "2025-09-17T15:35:58.000",
    "date_modified": "2025-09-17T15:36:00.000",
    "request_status": "Pending",
    "responsible_agency": "Department of Sanitation",
    "final_address": "1439 Tricou St",
    "address_councildis": "E",
    "status": "Assigned to Contractor",
    "contractor": "Waste Pro",
    "rowid": "1227102",
    "final_x": "3700714.86551",
    "final_y": "534373.808901",
    "longitude": "-90.00729281444299",
    "latitude": "29.96274524207435",
    "geocoded_column": {
      "latitude": "29.96274524207435",
      "longitude": "-90.00729281444299"
    }
  },
  {
    "service_request": "2025-1227101",
    "request_type": "Trash/Recycling",
    "request_reason": "Return Recycling Cart",
    "date_created": "2025-09-17T15:35:05.000",
    "date_modified": "2025-09-17T15:35:10.000",
    "request_status": "Pending",
    "responsible_agency": "Department of Sanitation",
    "final_address": "7121 Pinebrook Dr",
    "address_councildis": "E",
    "status": "Pending",
    "rowid": "1227101",
    "final_x": "3719428.02674",
    "final_y": "570129.874343",
    "longitude": "-89.94683358483705",
    "latitude": "30.060451549734644",
    "geocoded_column": {
      "latitude": "30.060451549734644",
      "longitude": "-89.94683358483705"
    }
  },
  {
    "service_request": "2025-1227100",
    "request_type": "Abandoned Vehicles",
    "request_reason": "Abandoned/Junk Vehicles",
    "date_created": "2025-09-17T15:34:11.000",
    "date_modified": "2025-09-17T15:34:13.000",
    "request_status": "Pending",
    "responsible_agency": "Department of Public Works",
    "final_address": "600 BLK N Pierce St",
    "address_councildis": "A",
    "status": "Pending",
    "rowid": "1227100",
    "final_x": "3672769.27844",
    "final_y": "539659.204918",
    "longitude": "-90.0953611774148",
    "latitude": "29.978137956750814",
    "geocoded_column": {
      "latitude": "29.978137956750814",
      "longitude": "-90.0953611774148"
    }
  },
  {
    "service_request": "2025-1227099",
    "request_type": "Property Maintenance",
    "request_reason": "Property Maintenance",
    "date_created": "2025-09-17T15:33:13.000",
    "date_modified": "2025-09-17T15:33:15.000",
    "request_status": "Pending",
    "responsible_agency": "Department of Code Enforcement",
    "final_address": "2018 Simon Bolivar Ave",
    "address_councildis": "B",
    "status": "Pending",
    "rowid": "1227099",
    "final_x": "3676712.07259",
    "final_y": "525766.090493",
    "longitude": "-90.08338707898031",
    "latitude": "29.93981884729819",
    "geocoded_column": {
      "latitude": "29.93981884729819",
      "longitude": "-90.08338707898031"
    }
  },
  {
    "service_request": "2025-1227098",
    "request_type": "Trash/Recycling",
    "request_reason": "Repair Trash Cart",
    "date_created": "2025-09-17T15:31:37.000",
    "date_modified": "2025-09-17T15:31:43.000",
    "request_status": "Pending",
    "responsible_agency": "Department of Sanitation",
    "final_address": "7121 Pinebrook Dr",
    "address_councildis": "E",
    "status": "Assigned to Contractor",
    "contractor": "Waste Pro",
    "rowid": "1227098",
    "final_x": "3719428.02674",
    "final_y": "570129.874343",
    "longitude": "-89.94683358483705",
    "latitude": "30.060451549734644",
    "geocoded_column": {
      "latitude": "30.060451549734644",
      "longitude": "-89.94683358483705"
    }
  },
  {
    "service_request": "2025-1227097",
    "request_type": "Trash/Recycling",
    "request_reason": "Request a Large Item Pick Up",
    "date_created": "2025-09-17T15:22:11.000",
    "date_modified": "2025-09-17T15:22:13.000",
    "request_status": "Pending",
    "responsible_agency": "Department of Sanitation",
    "final_address": "3202 General Taylor St",
    "address_councildis": "B",
    "status": "Assigned to Contractor",
    "contractor": "IV Waste",
    "rowid": "1227097",
    "final_x": "3671237.95047",
    "final_y": "526711.396158",
    "longitude": "-90.10063760481563",
    "latitude": "29.94258119115884",
    "geocoded_column": {
      "latitude": "29.94258119115884",
      "longitude": "-90.10063760481563"
    }
  },
  {
    "service_request": "2025-1227096",
    "request_type": "Trash/Recycling",
    "request_reason": "Order Recycling Cart",
    "date_created": "2025-09-17T15:15:54.000",
    "date_modified": "2025-09-17T15:15:57.000",
    "request_status": "Pending",
    "responsible_agency": "Department of Sanitation",
    "final_address": "341 S Cortez St",
    "address_councildis": "A",
    "status": "Pending",
    "rowid": "1227096",
    "final_x": "3671355.18529",
    "final_y": "536738.849031",
    "longitude": "-90.0999266822785",
    "latitude": "29.970149898437892",
    "geocoded_column": {
      "latitude": "29.970149898437892",
      "longitude": "-90.0999266822785"
    }
  },
  {
    "service_request": "2025-1227095",
    "request_type": "Abandoned Vehicles",
    "request_reason": "Abandoned/Junk Vehicles",
    "date_created": "2025-09-17T15:10:11.000",
    "date_modified": "2025-09-17T15:12:36.000",
    "request_status": "Pending",
    "responsible_agency": "Department of Public Works",
    "final_address": "5400 BLK Chartres St",
    "address_councildis": "E",
    "status": "Pending",
    "rowid": "1227095",
    "final_x": "3696933.82165",
    "final_y": "532068.724692",
    "longitude": "-90.01931626652545",
    "latitude": "29.956526850258545",
    "geocoded_column": {
      "latitude": "29.956526850258545",
      "longitude": "-90.01931626652545"
    }
  },
  {
    "service_request": "2025-1227094",
    "request_type": "Trash/Recycling",
    "request_reason": "Repair Trash Cart",
    "date_created": "2025-09-17T15:09:51.000",
    "date_modified": "2025-09-17T15:11:22.000",
    "request_status": "Pending",
    "responsible_agency": "Department of Sanitation",
    "final_address": "4020 Baronne St",
    "address_councildis": "B",
    "status": "Assigned to Contractor",
    "contractor": "IV Waste",
    "rowid": "1227094",
    "final_x": "3672093.53108",
    "final_y": "521676.629305",
    "longitude": "-90.09810769262025",
    "latitude": "29.928711876278946",
    "geocoded_column": {
      "latitude": "29.928711876278946",
      "longitude": "-90.09810769262025"
    }
  },
  {
    "service_request": "2025-1227093",
    "request_type": "Trash/Recycling",
    "request_reason": "Request a Large Item Pick Up",
    "date_created": "2025-09-17T15:09:39.000",
    "date_modified": "2025-09-17T15:09:41.000",
    "request_status": "Pending",
    "responsible_agency": "Department of Sanitation",
    "final_address": "5223 Wickfield Dr",
    "address_councildis": "D",
    "status": "Assigned to Contractor",
    "contractor": "IV Waste",
    "rowid": "1227093",
    "final_x": "3681374.17013",
    "final_y": "551707.277589",
    "longitude": "-90.06776359882811",
    "latitude": "30.01100744958456",
    "geocoded_column": {
      "latitude": "30.01100744958456",
      "longitude": "-90.06776359882811"
    }
  },
  {
    "service_request": "2025-1227092",
    "request_type": "Abandoned Vehicles",
    "request_reason": "Abandoned/Junk Vehicles",
    "date_created": "2025-09-17T14:58:26.000",
    "date_modified": "2025-09-17T14:58:27.000",
    "request_status": "Pending",
    "responsible_agency": "Department of Public Works",
    "final_address": "3612 Erato St",
    "address_councildis": "B",
    "status": "Pending",
    "rowid": "1227092",
    "final_x": "3673125.85588",
    "final_y": "530032.424193",
    "longitude": "-90.09456368361374",
    "latitude": "29.95165694469819",
    "geocoded_column": {
      "latitude": "29.95165694469819",
      "longitude": "-90.09456368361374"
    }
  },
  {
    "service_request": "2025-1227091",
    "request_type": "Trash/Recycling",
    "request_reason": "Return Trash Cart",
    "date_created": "2025-09-17T14:57:53.000",
    "date_modified": "2025-09-17T14:58:02.000",
    "request_status": "Pending",
    "responsible_agency": "Department of Sanitation",
    "final_address": "1727 S Rendon St",
    "address_councildis": "B",
    "status": "Assigned to Contractor",
    "contractor": "IV Waste",
    "rowid": "1227091",
    "final_x": "3669497.78292",
    "final_y": "530611.151298",
    "longitude": "-90.10599985108094",
    "latitude": "29.953355606256576",
    "geocoded_column": {
      "latitude": "29.953355606256576",
      "longitude": "-90.10599985108094"
    }
  },
  {
    "service_request": "2025-1227090",
    "request_type": "Streetlights",
    "request_reason": "Streetlight Outage/Malfunction",
    "date_created": "2025-09-17T14:57:39.000",
    "date_modified": "2025-09-17T14:57:41.000",
    "request_status": "Pending",
    "responsible_agency": "Department of Public Works",
    "final_address": "JENA ST & BARONNE ST",
    "address_councildis": "B",
    "status": "Pending",
    "rowid": "1227090",
    "final_x": "3670380.5",
    "final_y": "521559.78",
    "longitude": "-90.10351934985778",
    "latitude": "29.928441244120755",
    "geocoded_column": {
      "latitude": "29.928441244120755",
      "longitude": "-90.10351934985778"
    }
  },
  {
    "service_request": "2025-1227089",
    "request_type": "Trash/Recycling",
    "request_reason": "Request a Large Item Pick Up",
    "date_created": "2025-09-17T14:56:39.000",
    "date_modified": "2025-09-17T14:56:41.000",
    "request_status": "Pending",
    "responsible_agency": "Department of Sanitation",
    "final_address": "1526 Poland Ave",
    "address_councildis": "D",
    "status": "Assigned to Contractor",
    "contractor": "IV Waste",
    "rowid": "1227089",
    "final_x": "3693397.53033",
    "final_y": "536722.103495",
    "longitude": "-90.03031557343351",
    "latitude": "29.969433037060792",
    "geocoded_column": {
      "latitude": "29.969433037060792",
      "longitude": "-90.03031557343351"
    }
  },
  {
    "service_request": "2025-1227088",
    "request_type": "Trash/Recycling",
    "request_reason": "Replace Trash Cart",
    "date_created": "2025-09-17T14:55:25.000",
    "date_modified": "2025-09-17T14:55:40.000",
    "request_status": "Pending",
    "responsible_agency": "Department of Sanitation",
    "final_address": "801 Carondelet St",
    "address_councildis": "B",
    "status": "Assigned to Contractor",
    "contractor": "IV Waste",
    "rowid": "1227088",
    "final_x": "3679948.12296",
    "final_y": "528079.049279",
    "longitude": "-90.07309009028124",
    "latitude": "29.946081251945472",
    "geocoded_column": {
      "latitude": "29.946081251945472",
      "longitude": "-90.07309009028124"
    }
  },
  {
    "service_request": "2025-1227087",
    "request_type": "Drainage",
    "request_reason": "Illegal Dumping (Sewer Odor)",
    "date_created": "2025-09-17T14:55:00.000",
    "date_modified": "2025-09-17T14:55:10.000",
    "request_status": "Pending",
    "responsible_agency": "Sewerage & Water Board",
    "final_address": "1521 Burdette St",
    "address_councildis": "A",
    "status": "Pending",
    "rowid": "1227087",
    "final_x": "3663660.79251",
    "final_y": "528502.021248",
    "longitude": "-90.12450091341289",
    "latitude": "29.947726800816863",
    "geocoded_column": {
      "latitude": "29.947726800816863",
      "longitude": "-90.12450091341289"
    }
  },
  {
    "service_request": "2025-1227086",
    "request_type": "Trash/Recycling",
    "request_reason": "Request a Large Item Pick Up",
    "date_created": "2025-09-17T14:52:05.000",
    "date_modified": "2025-09-17T14:52:07.000",
    "request_status": "Pending",
    "responsible_agency": "Department of Sanitation",
    "final_address": "4929 S Johnson St",
    "address_councildis": "B",
    "status": "Assigned to Contractor",
    "contractor": "IV Waste",
    "rowid": "1227086",
    "final_x": "3668990.20276",
    "final_y": "527098.936383",
    "longitude": "-90.1077211985664",
    "latitude": "29.943713100318238",
    "geocoded_column": {
      "latitude": "29.943713100318238",
      "longitude": "-90.1077211985664"
    }
  },
  {
    "service_request": "2025-1227085",
    "request_type": "Streetlights",
    "request_reason": "Streetlight Outage/Malfunction",
    "date_created": "2025-09-17T14:48:16.000",
    "date_modified": "2025-09-17T14:48:18.000",
    "request_status": "Pending",
    "responsible_agency": "Department of Public Works",
    "final_address": "5033 St Charles Ave",
    "address_councildis": "B",
    "status": "Pending",
    "rowid": "1227085",
    "final_x": "3668479.08212",
    "final_y": "521084.575865",
    "longitude": "-90.10953775657389",
    "latitude": "29.92719056136446",
    "geocoded_column": {
      "latitude": "29.92719056136446",
      "longitude": "-90.10953775657389"
    }
  },
  {
    "service_request": "2025-1227084",
    "request_type": "Trash/Recycling",
    "request_reason": "Repair Trash Cart",
    "date_created": "2025-09-17T14:45:23.000",
    "date_modified": "2025-09-17T14:45:24.000",
    "request_status": "Pending",
    "responsible_agency": "Department of Sanitation",
    "final_address": "3901 Mimosa Dr",
    "address_councildis": "C",
    "status": "Assigned to Contractor",
    "contractor": "Richards Disposal",
    "rowid": "1227084",
    "final_x": "3704375.65444",
    "final_y": "512896.468529",
    "longitude": "-89.99652387074657",
    "latitude": "29.903573087241117",
    "geocoded_column": {
      "latitude": "29.903573087241117",
      "longitude": "-89.99652387074657"
    }
  },
  {
    "service_request": "2025-1227083",
    "request_type": "Trash/Recycling",
    "request_reason": "Replace Trash Cart",
    "date_created": "2025-09-17T14:44:27.000",
    "date_modified": "2025-09-17T14:44:29.000",
    "request_status": "Pending",
    "responsible_agency": "Department of Sanitation",
    "final_address": "3519 Banks St",
    "address_councildis": "B",
    "status": "Assigned to Contractor",
    "contractor": "IV Waste",
    "rowid": "1227083",
    "final_x": "3672029.87278",
    "final_y": "536191.704455",
    "longitude": "-90.09781457643132",
    "latitude": "29.96862544846358",
    "geocoded_column": {
      "latitude": "29.96862544846358",
      "longitude": "-90.09781457643132"
    }
  },
  {
    "service_request": "2025-1227082",
    "request_type": "Trash/Recycling",
    "request_reason": "Illegal Dumping",
    "date_created": "2025-09-17T14:39:42.000",
    "date_modified": "2025-09-17T14:39:43.000",
    "request_status": "Pending",
    "responsible_agency": "Department of Sanitation",
    "final_address": "2735 Paris Ave",
    "address_councildis": "D",
    "status": "Pending",
    "rowid": "1227082",
    "final_x": "3679999.22984",
    "final_y": "542479.703053",
    "longitude": "-90.07242839215691",
    "latitude": "29.98567658046859",
    "geocoded_column": {
      "latitude": "29.98567658046859",
      "longitude": "-90.07242839215691"
    }
  },
  {
    "service_request": "2025-1227081",
    "request_type": "Trash/Recycling",
    "request_reason": "Repair Recycling Cart",
    "date_created": "2025-09-17T14:39:36.000",
    "date_modified": "2025-09-17T14:39:38.000",
    "request_status": "Pending",
    "responsible_agency": "Department of Sanitation",
    "final_address": "117 20Th St",
    "address_councildis": "A",
    "status": "Pending",
    "rowid": "1227081",
    "final_x": "3665998.00359",
    "final_y": "549050.674003",
    "longitude": "-90.11643234941965",
    "latitude": "30.004160717568404",
    "geocoded_column": {
      "latitude": "30.004160717568404",
      "longitude": "-90.11643234941965"
    }
  },
  {
    "service_request": "2025-1227080",
    "request_type": "Trash/Recycling",
    "request_reason": "Return Recycling Cart",
    "date_created": "2025-09-17T14:34:21.000",
    "date_modified": "2025-09-17T14:34:22.000",
    "request_status": "Pending",
    "responsible_agency": "Department of Sanitation",
    "final_address": "418 Pelican Ave",
    "address_councildis": "C",
    "status": "Pending",
    "rowid": "1227080",
    "final_x": "3686606.10786",
    "final_y": "530605.409026",
    "longitude": "-90.05197940287324",
    "latitude": "29.952824849768987",
    "geocoded_column": {
      "latitude": "29.952824849768987",
      "longitude": "-90.05197940287324"
    }
  },
  {
    "service_request": "2025-1227079",
    "request_type": "Trash/Recycling",
    "request_reason": "Repair Trash Cart",
    "date_created": "2025-09-17T14:33:47.000",
    "date_modified": "2025-09-17T14:33:49.000",
    "request_status": "Pending",
    "responsible_agency": "Department of Sanitation",
    "final_address": "3519 Banks St",
    "address_councildis": "B",
    "status": "Assigned to Contractor",
    "contractor": "IV Waste",
    "rowid": "1227079",
    "final_x": "3672029.87278",
    "final_y": "536191.704455",
    "longitude": "-90.09781457643132",
    "latitude": "29.96862544846358",
    "geocoded_column": {
      "latitude": "29.96862544846358",
      "longitude": "-90.09781457643132"
    }
  },
  {
    "service_request": "2025-1227078",
    "request_type": "Trash/Recycling",
    "request_reason": "Repair Trash Cart",
    "date_created": "2025-09-17T14:33:37.000",
    "date_modified": "2025-09-17T15:58:49.000",
    "case_close_date": "2025-09-17T10:58:48.000",
    "request_status": "Closed",
    "responsible_agency": "Department of Sanitation",
    "final_address": "418 Pelican Ave",
    "address_councildis": "C",
    "status": "Invalid Request",
    "contractor": "Richards Disposal",
    "rowid": "1227078",
    "final_x": "3686606.10786",
    "final_y": "530605.409026",
    "longitude": "-90.05197940287324",
    "latitude": "29.952824849768987",
    "geocoded_column": {
      "latitude": "29.952824849768987",
      "longitude": "-90.05197940287324"
    }
  },
  {
    "service_request": "2025-1227077",
    "request_type": "Parks & Parkways",
    "request_reason": "Request Tree Service (Right of Way/Public Property)",
    "date_created": "2025-09-17T14:26:34.000",
    "date_modified": "2025-09-17T14:26:35.000",
    "request_status": "Pending",
    "responsible_agency": "Department of Parks & Parkway",
    "final_address": "1227 Esplanade Ave",
    "address_councildis": "C",
    "status": "Pending",
    "rowid": "1227077",
    "final_x": "3682458.19132",
    "final_y": "535751.679879",
    "longitude": "-90.06489678383166",
    "latitude": "29.967102226952356",
    "geocoded_column": {
      "latitude": "29.967102226952356",
      "longitude": "-90.06489678383166"
    }
  },
  {
    "service_request": "2025-1227076",
    "request_type": "Alley Ways",
    "request_reason": "Alley Way Issues",
    "date_created": "2025-09-17T14:22:43.000",
    "date_modified": "2025-09-17T14:22:45.000",
    "request_status": "Pending",
    "responsible_agency": "Department of Public Works",
    "final_address": "1491 Saux Ln",
    "address_councildis": "C",
    "status": "Pending",
    "rowid": "1227076",
    "final_x": "3692611.17437",
    "final_y": "525512.507005",
    "longitude": "-90.03320061534531",
    "latitude": "29.938635112076238",
    "geocoded_column": {
      "latitude": "29.938635112076238",
      "longitude": "-90.03320061534531"
    }
  },
  {
    "service_request": "2025-1227075",
    "request_type": "Trash/Recycling",
    "request_reason": "Repair Recycling Cart",
    "date_created": "2025-09-17T14:22:17.000",
    "date_modified": "2025-09-17T14:22:20.000",
    "request_status": "Pending",
    "responsible_agency": "Department of Sanitation",
    "final_address": "811 Whitney Ave",
    "address_councildis": "C",
    "status": "Pending",
    "rowid": "1227075",
    "final_x": "3690124.60176",
    "final_y": "528527.905216",
    "longitude": "-90.04094358864829",
    "latitude": "29.9470037719502",
    "geocoded_column": {
      "latitude": "29.9470037719502",
      "longitude": "-90.04094358864829"
    }
  },
  {
    "service_request": "2025-1227074",
    "request_type": "Trash/Recycling",
    "request_reason": "Order Recycling Cart",
    "date_created": "2025-09-17T14:20:30.000",
    "date_modified": "2025-09-17T14:20:32.000",
    "request_status": "Pending",
    "responsible_agency": "Department of Sanitation",
    "final_address": "3131 Octavia St",
    "address_councildis": "A",
    "status": "Pending",
    "rowid": "1227074",
    "final_x": "3668352.32519",
    "final_y": "527247.479551",
    "longitude": "-90.10973014678167",
    "latitude": "29.94414029110915",
    "geocoded_column": {
      "latitude": "29.94414029110915",
      "longitude": "-90.10973014678167"
    }
  },
  {
    "service_request": "2025-1227073",
    "request_type": "Trash/Recycling",
    "request_reason": "Request a Large Item Pick Up",
    "date_created": "2025-09-17T14:16:29.000",
    "date_modified": "2025-09-17T14:16:31.000",
    "request_status": "Pending",
    "responsible_agency": "Department of Sanitation",
    "final_address": "1719 St Ann St",
    "address_councildis": "D",
    "status": "Assigned to Contractor",
    "contractor": "IV Waste",
    "rowid": "1227073",
    "final_x": "3679835.70639",
    "final_y": "535060.856198",
    "longitude": "-90.0732026008287",
    "latitude": "29.965282261903386",
    "geocoded_column": {
      "latitude": "29.965282261903386",
      "longitude": "-90.0732026008287"
    }
  },
  {
    "service_request": "2025-1227072",
    "request_type": "Abandoned Vehicles",
    "request_reason": "Abandoned/Junk Vehicles",
    "date_created": "2025-09-17T14:14:36.000",
    "date_modified": "2025-09-17T14:16:00.000",
    "request_status": "Pending",
    "responsible_agency": "Department of Public Works",
    "final_address": "2 Brownlee Ct",
    "address_councildis": "E",
    "status": "Pending",
    "rowid": "1227072",
    "final_x": "3712580.73643",
    "final_y": "567376.606756",
    "longitude": "-89.96858105392467",
    "latitude": "30.053107229192484",
    "geocoded_column": {
      "latitude": "30.053107229192484",
      "longitude": "-89.96858105392467"
    }
  },
  {
    "service_request": "2025-1227071",
    "request_type": "Trash/Recycling",
    "request_reason": "Order Second Trash Cart",
    "date_created": "2025-09-17T14:14:28.000",
    "date_modified": "2025-09-17T14:14:31.000",
    "request_status": "Pending",
    "responsible_agency": "Department of Sanitation",
    "final_address": "6203 S Rocheblave St",
    "address_councildis": "A",
    "status": "Assigned to Contractor",
    "contractor": "IV Waste",
    "rowid": "1227071",
    "final_x": "3667642.84884",
    "final_y": "528734.782912",
    "longitude": "-90.11192011495264",
    "latitude": "29.948250706343114",
    "geocoded_column": {
      "latitude": "29.948250706343114",
      "longitude": "-90.11192011495264"
    }
  },
  {
    "service_request": "2025-1227070",
    "request_type": "Roads and Streets",
    "request_reason": "Street Subsidence (Sinking)",
    "date_created": "2025-09-17T14:11:59.000",
    "date_modified": "2025-09-17T14:16:59.000",
    "request_status": "Pending",
    "responsible_agency": "Sewerage & Water Board",
    "final_address": "1436 N Roman St",
    "address_councildis": "D",
    "status": "Pending",
    "rowid": "1227070",
    "final_x": "3680924.41749",
    "final_y": "537257.079432",
    "longitude": "-90.0696880217532",
    "latitude": "29.971288154591633",
    "geocoded_column": {
      "latitude": "29.971288154591633",
      "longitude": "-90.0696880217532"
    }
  },
  {
    "service_request": "2025-1227069",
    "request_type": "Trash/Recycling",
    "request_reason": "Request a Large Item Pick Up",
    "date_created": "2025-09-17T14:10:54.000",
    "date_modified": "2025-09-17T14:10:56.000",
    "request_status": "Pending",
    "responsible_agency": "Department of Sanitation",
    "final_address": "3310 Plymouth Pl",
    "address_councildis": "C",
    "status": "Assigned to Contractor",
    "contractor": "Richards Disposal",
    "rowid": "1227069",
    "final_x": "3702871.82378",
    "final_y": "519051.267511",
    "longitude": "-90.00104407008529",
    "latitude": "29.9205448384092",
    "geocoded_column": {
      "latitude": "29.9205448384092",
      "longitude": "-90.00104407008529"
    }
  },
  {
    "service_request": "2025-1227068",
    "request_type": "Roads and Streets",
    "request_reason": "Street Subsidence (Sinking)",
    "date_created": "2025-09-17T14:10:06.000",
    "date_modified": "2025-09-17T14:10:08.000",
    "request_status": "Pending",
    "responsible_agency": "Sewerage & Water Board",
    "final_address": "530 Harrison Ave",
    "address_councildis": "A",
    "status": "Pending",
    "rowid": "1227068",
    "final_x": "3668197.98324",
    "final_y": "549190.083603",
    "longitude": "-90.10947748974516",
    "latitude": "30.00447961889947",
    "geocoded_column": {
      "latitude": "30.00447961889947",
      "longitude": "-90.10947748974516"
    }
  },
  {
    "service_request": "2025-1227067",
    "request_type": "Property Maintenance",
    "request_reason": "Property Maintenance",
    "date_created": "2025-09-17T14:04:26.000",
    "date_modified": "2025-09-17T14:05:44.000",
    "request_status": "Pending",
    "responsible_agency": "Department of Code Enforcement",
    "final_address": "1833 Painters St",
    "address_councildis": "D",
    "status": "Pending",
    "rowid": "1227067",
    "final_x": "3687367.54703",
    "final_y": "539323.637642",
    "longitude": "-90.04926663173103",
    "latitude": "29.976773512517372",
    "geocoded_column": {
      "latitude": "29.976773512517372",
      "longitude": "-90.04926663173103"
    }
  },
  {
    "service_request": "2025-1227065",
    "request_type": "Trash/Recycling",
    "request_reason": "Request a Large Item Pick Up",
    "date_created": "2025-09-17T14:01:45.000",
    "date_modified": "2025-09-17T14:01:47.000",
    "request_status": "Pending",
    "responsible_agency": "Department of Sanitation",
    "final_address": "5435 Lafaye St",
    "address_councildis": "D",
    "status": "Assigned to Contractor",
    "contractor": "IV Waste",
    "rowid": "1227065",
    "final_x": "3687343.05974",
    "final_y": "553283.144599",
    "longitude": "-90.04884973980765",
    "latitude": "30.01515788209823",
    "geocoded_column": {
      "latitude": "30.01515788209823",
      "longitude": "-90.04884973980765"
    }
  },
  {
    "service_request": "2025-1227064",
    "request_type": "Trash/Recycling",
    "request_reason": "Repair Recycling Cart",
    "date_created": "2025-09-17T14:01:30.000",
    "date_modified": "2025-09-17T14:01:32.000",
    "request_status": "Pending",
    "responsible_agency": "Department of Sanitation",
    "final_address": "2425 Jasmine St",
    "address_councildis": "D",
    "status": "Pending",
    "rowid": "1227064",
    "final_x": "3685803.04681",
    "final_y": "548019.777682",
    "longitude": "-90.05390113117626",
    "latitude": "30.000732917278203",
    "geocoded_column": {
      "latitude": "30.000732917278203",
      "longitude": "-90.05390113117626"
    }
  },
  {
    "service_request": "2025-1227063",
    "request_type": "Roads and Streets",
    "request_reason": "Sidewalk Damaged or Missing",
    "date_created": "2025-09-17T13:59:18.000",
    "date_modified": "2025-09-17T13:59:20.000",
    "request_status": "Pending",
    "responsible_agency": "Department of Public Works",
    "final_address": "2834 Laurel St",
    "address_councildis": "B",
    "status": "Pending",
    "rowid": "1227063",
    "final_x": "3677248.75739",
    "final_y": "520025.161528",
    "longitude": "-90.08189064040052",
    "latitude": "29.924017059756583",
    "geocoded_column": {
      "latitude": "29.924017059756583",
      "longitude": "-90.08189064040052"
    }
  },
  {
    "service_request": "2025-1227062",
    "request_type": "Trash/Recycling",
    "request_reason": "Request a Large Item Pick Up",
    "date_created": "2025-09-17T13:57:22.000",
    "date_modified": "2025-09-17T13:57:25.000",
    "request_status": "Pending",
    "responsible_agency": "Department of Sanitation",
    "final_address": "7112 Boston Dr",
    "address_councildis": "E",
    "status": "Assigned to Contractor",
    "contractor": "Waste Pro",
    "rowid": "1227062",
    "final_x": "3706202.97643",
    "final_y": "561017.444382",
    "longitude": "-89.98897508889557",
    "latitude": "30.035829387320288",
    "geocoded_column": {
      "latitude": "30.035829387320288",
      "longitude": "-89.98897508889557"
    }
  },
  {
    "service_request": "2025-1227061",
    "request_type": "Trash/Recycling",
    "request_reason": "Replace Trash Cart",
    "date_created": "2025-09-17T13:57:05.000",
    "date_modified": "2025-09-17T13:57:06.000",
    "request_status": "Pending",
    "responsible_agency": "Department of Sanitation",
    "final_address": "5251 Michoud Blvd",
    "address_councildis": "E",
    "status": "Assigned to Contractor",
    "contractor": "Waste Pro",
    "rowid": "1227061",
    "final_x": "3724873.17337",
    "final_y": "562779.96944",
    "longitude": "-89.9299064760112",
    "latitude": "30.04006008965546",
    "geocoded_column": {
      "latitude": "30.04006008965546",
      "longitude": "-89.9299064760112"
    }
  },
  {
    "service_request": "2025-1227060",
    "request_type": "Roads and Streets",
    "request_reason": "Street Subsidence (Sinking)",
    "date_created": "2025-09-17T13:56:58.000",
    "date_modified": "2025-09-17T13:56:59.000",
    "request_status": "Pending",
    "responsible_agency": "Sewerage & Water Board",
    "final_address": "530 Harrison Ave",
    "address_councildis": "A",
    "status": "Pending",
    "rowid": "1227060",
    "final_x": "3668197.98324",
    "final_y": "549190.083603",
    "longitude": "-90.10947748974516",
    "latitude": "30.00447961889947",
    "geocoded_column": {
      "latitude": "30.00447961889947",
      "longitude": "-90.10947748974516"
    }
  },
  {
    "service_request": "2025-1227059",
    "request_type": "Trash/Recycling",
    "request_reason": "Order Trash Cart",
    "date_created": "2025-09-17T13:53:02.000",
    "date_modified": "2025-09-17T13:53:04.000",
    "request_status": "Pending",
    "responsible_agency": "Department of Sanitation",
    "final_address": "5251 Michoud Blvd",
    "address_councildis": "E",
    "status": "Assigned to Contractor",
    "contractor": "Waste Pro",
    "rowid": "1227059",
    "final_x": "3724873.17337",
    "final_y": "562779.96944",
    "longitude": "-89.9299064760112",
    "latitude": "30.04006008965546",
    "geocoded_column": {
      "latitude": "30.04006008965546",
      "longitude": "-89.9299064760112"
    }
  },
  {
    "service_request": "2025-1227058",
    "request_type": "Abandoned Vehicles",
    "request_reason": "Abandoned/Junk Vehicles",
    "date_created": "2025-09-17T13:52:02.000",
    "date_modified": "2025-09-17T13:52:04.000",
    "request_status": "Pending",
    "responsible_agency": "Department of Public Works",
    "final_address": "2860 Maurepas St",
    "address_councildis": "A",
    "status": "Pending",
    "rowid": "1227058",
    "final_x": "3677854.09538",
    "final_y": "540646.539339",
    "longitude": "-90.07926737740706",
    "latitude": "29.98070074877033",
    "geocoded_column": {
      "latitude": "29.98070074877033",
      "longitude": "-90.07926737740706"
    }
  },
  {
    "service_request": "2025-1227057",
    "request_type": "Trash/Recycling",
    "request_reason": "Request a Large Item Pick Up",
    "date_created": "2025-09-17T13:51:14.000",
    "date_modified": "2025-09-17T13:55:36.000",
    "request_status": "Pending",
    "responsible_agency": "Department of Sanitation",
    "final_address": "3621 White Oak Ave",
    "address_councildis": "C",
    "status": "Pending",
    "contractor": "Richards Disposal",
    "rowid": "1227057",
    "final_x": "3703595.02449",
    "final_y": "514269.956595",
    "longitude": "-89.99893703826794",
    "latitude": "29.90737473159547",
    "geocoded_column": {
      "latitude": "29.90737473159547",
      "longitude": "-89.99893703826794"
    }
  },
  {
    "service_request": "2025-1227056",
    "request_type": "Parks & Parkways",
    "request_reason": "Park Maintenance/Clean Up",
    "date_created": "2025-09-17T13:49:53.000",
    "date_modified": "2025-09-17T13:49:55.000",
    "request_status": "Pending",
    "responsible_agency": "Department of Parks & Parkway",
    "final_address": "HORACE ST & WALL BLVD & CYPRESS ACRES DR",
    "address_councildis": "C",
    "status": "Pending",
    "rowid": "1227056",
    "final_x": "3696256.4",
    "final_y": "523830.08",
    "longitude": "-90.021753109187",
    "latitude": "29.93389478584879",
    "geocoded_column": {
      "latitude": "29.93389478584879",
      "longitude": "-90.021753109187"
    }
  },
  {
    "service_request": "2025-1227055",
    "request_type": "Trash/Recycling",
    "request_reason": "Repair Trash Cart",
    "date_created": "2025-09-17T13:49:51.000",
    "date_modified": "2025-09-17T13:49:53.000",
    "request_status": "Pending",
    "responsible_agency": "Department of Sanitation",
    "final_address": "2719 Palmyra St",
    "address_councildis": "B",
    "status": "Assigned to Contractor",
    "contractor": "IV Waste",
    "rowid": "1227055",
    "final_x": "3674751.95835",
    "final_y": "534652.277574",
    "longitude": "-90.08927085119457",
    "latitude": "29.96431155766382",
    "geocoded_column": {
      "latitude": "29.96431155766382",
      "longitude": "-90.08927085119457"
    }
  },
  {
    "service_request": "2025-1227054",
    "request_type": "Property Maintenance",
    "request_reason": "Property Maintenance",
    "date_created": "2025-09-17T13:49:49.000",
    "date_modified": "2025-09-17T13:52:35.000",
    "request_status": "Pending",
    "responsible_agency": "Department of Code Enforcement",
    "final_address": "2728 Philip St",
    "address_councildis": "B",
    "status": "Pending",
    "rowid": "1227054",
    "final_x": "3674806.74133",
    "final_y": "526820.38835",
    "longitude": "-90.08936635576708",
    "latitude": "29.942774833141232",
    "geocoded_column": {
      "latitude": "29.942774833141232",
      "longitude": "-90.08936635576708"
    }
  },
  {
    "service_request": "2025-1227053",
    "request_type": "Trash/Recycling",
    "request_reason": "Order Recycling Cart",
    "date_created": "2025-09-17T13:49:18.000",
    "date_modified": "2025-09-17T13:49:19.000",
    "request_status": "Pending",
    "responsible_agency": "Department of Sanitation",
    "final_address": "7257 E Tamaron Blvd",
    "address_councildis": "E",
    "status": "Pending",
    "rowid": "1227053",
    "final_x": "3717875.60255",
    "final_y": "569820.206118",
    "longitude": "-89.95175248432443",
    "latitude": "30.059651650176782",
    "geocoded_column": {
      "latitude": "30.059651650176782",
      "longitude": "-89.95175248432443"
    }
  },
  {
    "service_request": "2025-1227052",
    "request_type": "Trash/Recycling",
    "request_reason": "Replace Trash Cart",
    "date_created": "2025-09-17T13:48:22.000",
    "date_modified": "2025-09-17T13:48:23.000",
    "request_status": "Pending",
    "responsible_agency": "Department of Sanitation",
    "final_address": "3917 Baudin St",
    "address_councildis": "B",
    "status": "Assigned to Contractor",
    "contractor": "IV Waste",
    "rowid": "1227052",
    "final_x": "3670690.52622",
    "final_y": "536680.351751",
    "longitude": "-90.10202773506204",
    "latitude": "29.97000870634238",
    "geocoded_column": {
      "latitude": "29.97000870634238",
      "longitude": "-90.10202773506204"
    }
  },
  {
    "service_request": "2025-1227051",
    "request_type": "Parks & Parkways",
    "request_reason": "Request Tree Service (Right of Way/Public Property)",
    "date_created": "2025-09-17T13:48:19.000",
    "date_modified": "2025-09-17T13:48:22.000",
    "request_status": "Pending",
    "responsible_agency": "Department of Parks & Parkway",
    "final_address": "JEFFERSON AVE & ST CHARLES AVE",
    "address_councildis": "A",
    "status": "Pending",
    "rowid": "1227051",
    "final_x": "3667368.3",
    "final_y": "521602.28",
    "longitude": "-90.11302681964649",
    "latitude": "29.92864665761511",
    "geocoded_column": {
      "latitude": "29.92864665761511",
      "longitude": "-90.11302681964649"
    }
  },
  {
    "service_request": "2025-1227050",
    "request_type": "Trash/Recycling",
    "request_reason": "Order Recycling Cart",
    "date_created": "2025-09-17T13:47:17.000",
    "date_modified": "2025-09-17T13:47:41.000",
    "request_status": "Pending",
    "responsible_agency": "Department of Sanitation",
    "final_address": "7257 E Tamaron Blvd",
    "address_councildis": "E",
    "status": "Pending",
    "rowid": "1227050",
    "final_x": "3717875.60255",
    "final_y": "569820.206118",
    "longitude": "-89.95175248432443",
    "latitude": "30.059651650176782",
    "geocoded_column": {
      "latitude": "30.059651650176782",
      "longitude": "-89.95175248432443"
    }
  },
  {
    "service_request": "2025-1227049",
    "request_type": "Trash/Recycling",
    "request_reason": "Missed Trash Pick-Up",
    "date_created": "2025-09-17T13:43:22.000",
    "date_modified": "2025-09-17T14:16:44.000",
    "case_close_date": "2025-09-17T09:16:42.000",
    "request_status": "Closed",
    "responsible_agency": "Department of Sanitation",
    "final_address": "2918 Palmer Ave",
    "address_councildis": "A",
    "status": "Duplicate Request",
    "contractor": "IV Waste",
    "contractor_action": "Duplicate",
    "rowid": "1227049",
    "final_x": "3667009.13671",
    "final_y": "527317.784831",
    "longitude": "-90.11396862300903",
    "latitude": "29.944372979316494",
    "geocoded_column": {
      "latitude": "29.944372979316494",
      "longitude": "-90.11396862300903"
    }
  },
  {
    "service_request": "2025-1227048",
    "request_type": "Trash/Recycling",
    "request_reason": "Order Trash Cart",
    "date_created": "2025-09-17T13:38:49.000",
    "date_modified": "2025-09-17T13:38:51.000",
    "request_status": "Pending",
    "responsible_agency": "Department of Sanitation",
    "final_address": "7929 Lamb Rd",
    "address_councildis": "E",
    "status": "Assigned to Contractor",
    "contractor": "Waste Pro",
    "rowid": "1227048",
    "final_x": "3696737.83632",
    "final_y": "560274.077149",
    "longitude": "-90.01891345732791",
    "latitude": "30.034087362110494",
    "geocoded_column": {
      "latitude": "30.034087362110494",
      "longitude": "-90.01891345732791"
    }
  },
  {
    "service_request": "2025-1227047",
    "request_type": "Trash/Recycling",
    "request_reason": "Missed Trash Pick-Up",
    "date_created": "2025-09-17T13:38:46.000",
    "date_modified": "2025-09-17T14:34:13.000",
    "case_close_date": "2025-09-17T09:34:12.000",
    "request_status": "Closed",
    "responsible_agency": "Department of Sanitation",
    "final_address": "2918 Palmer Ave",
    "address_councildis": "A",
    "status": "Invalid Request",
    "contractor": "IV Waste",
    "contractor_action": "Invalid",
    "rowid": "1227047",
    "final_x": "3667009.13671",
    "final_y": "527317.784831",
    "longitude": "-90.11396862300903",
    "latitude": "29.944372979316494",
    "geocoded_column": {
      "latitude": "29.944372979316494",
      "longitude": "-90.11396862300903"
    }
  },
  {
    "service_request": "2025-1227046",
    "request_type": "Trash/Recycling",
    "request_reason": "Return Recycling Cart",
    "date_created": "2025-09-17T13:29:52.000",
    "date_modified": "2025-09-17T13:29:53.000",
    "request_status": "Pending",
    "responsible_agency": "Department of Sanitation",
    "final_address": "11298 Waverly Dr",
    "address_councildis": "E",
    "status": "Pending",
    "rowid": "1227046",
    "final_x": "3717915.25625",
    "final_y": "560427.134622",
    "longitude": "-89.95198507534872",
    "latitude": "30.033823235234248",
    "geocoded_column": {
      "latitude": "30.033823235234248",
      "longitude": "-89.95198507534872"
    }
  },
  {
    "service_request": "2025-1227045",
    "request_type": "Trash/Recycling",
    "request_reason": "Request a Large Item Pick Up",
    "date_created": "2025-09-17T13:29:10.000",
    "date_modified": "2025-09-17T13:29:12.000",
    "request_status": "Pending",
    "responsible_agency": "Department of Sanitation",
    "final_address": "5218 Timber Crest Dr",
    "address_councildis": "C",
    "status": "Assigned to Contractor",
    "contractor": "Richards Disposal",
    "rowid": "1227045",
    "final_x": "3703478.19031",
    "final_y": "511250.721712",
    "longitude": "-89.99941670910759",
    "latitude": "29.899076600111137",
    "geocoded_column": {
      "latitude": "29.899076600111137",
      "longitude": "-89.99941670910759"
    }
  },
  {
    "service_request": "2025-1227044",
    "request_type": "Trash/Recycling",
    "request_reason": "Request a Large Item Pick Up",
    "date_created": "2025-09-17T13:26:28.000",
    "date_modified": "2025-09-17T13:26:30.000",
    "request_status": "Pending",
    "responsible_agency": "Department of Sanitation",
    "final_address": "7531 Expedition Dr",
    "address_councildis": "E",
    "status": "Assigned to Contractor",
    "contractor": "Waste Pro",
    "rowid": "1227044",
    "final_x": "3726242.63744",
    "final_y": "571213.884648",
    "longitude": "-89.92525106167803",
    "latitude": "30.06320362807709",
    "geocoded_column": {
      "latitude": "30.06320362807709",
      "longitude": "-89.92525106167803"
    }
  },
  {
    "service_request": "2025-1227043",
    "request_type": "Trash/Recycling",
    "request_reason": "Request a Large Item Pick Up",
    "date_created": "2025-09-17T13:23:48.000",
    "date_modified": "2025-09-17T13:23:49.000",
    "request_status": "Pending",
    "responsible_agency": "Department of Sanitation",
    "final_address": "4666 Arthur Dr",
    "address_councildis": "E",
    "status": "Assigned to Contractor",
    "contractor": "Waste Pro",
    "rowid": "1227043",
    "final_x": "3707670.07825",
    "final_y": "554964.51388",
    "longitude": "-89.98456397830365",
    "latitude": "30.019138787889656",
    "geocoded_column": {
      "latitude": "30.019138787889656",
      "longitude": "-89.98456397830365"
    }
  },
  {
    "service_request": "2025-1227042",
    "request_type": "Trash/Recycling",
    "request_reason": "Illegal Dumping",
    "date_created": "2025-09-17T13:23:46.000",
    "date_modified": "2025-09-17T13:23:48.000",
    "request_status": "Pending",
    "responsible_agency": "Department of Sanitation",
    "final_address": "1818 Numa St",
    "address_councildis": "C",
    "status": "Pending",
    "rowid": "1227042",
    "final_x": "3691729.33296",
    "final_y": "524523.857468",
    "longitude": "-90.03602001069119",
    "latitude": "29.93594414617945",
    "geocoded_column": {
      "latitude": "29.93594414617945",
      "longitude": "-90.03602001069119"
    }
  },
  {
    "service_request": "2025-1227041",
    "request_type": "Parks & Parkways",
    "request_reason": "Request Tree Service (Right of Way/Public Property)",
    "date_created": "2025-09-17T13:22:17.000",
    "date_modified": "2025-09-17T13:22:19.000",
    "request_status": "Pending",
    "responsible_agency": "Department of Parks & Parkway",
    "final_address": "3327 S Claiborne Ave",
    "address_councildis": "B",
    "status": "Pending",
    "rowid": "1227041",
    "final_x": "3672353.74427",
    "final_y": "526364.021118",
    "longitude": "-90.09712661081814",
    "latitude": "29.9415929697839",
    "geocoded_column": {
      "latitude": "29.9415929697839",
      "longitude": "-90.09712661081814"
    }
  },
  {
    "service_request": "2025-1227040",
    "request_type": "Trash/Recycling",
    "request_reason": "Missed Trash Pick-Up",
    "date_created": "2025-09-17T13:17:16.000",
    "date_modified": "2025-09-17T13:17:18.000",
    "request_status": "Pending",
    "responsible_agency": "Department of Sanitation",
    "final_address": "5220 Forest Park Ln",
    "address_councildis": "C",
    "status": "Assigned to Contractor",
    "contractor": "Richards Disposal",
    "rowid": "1227040",
    "final_x": "3703834.30711",
    "final_y": "510568.634415",
    "longitude": "-89.99831794393147",
    "latitude": "29.897189686252663",
    "geocoded_column": {
      "latitude": "29.897189686252663",
      "longitude": "-89.99831794393147"
    }
  },
  {
    "service_request": "2025-1227039",
    "request_type": "Trash/Recycling",
    "request_reason": "Order Second Trash Cart",
    "date_created": "2025-09-17T13:16:43.000",
    "date_modified": "2025-09-17T13:16:45.000",
    "request_status": "Pending",
    "responsible_agency": "Department of Sanitation",
    "final_address": "11298 Waverly Dr",
    "address_councildis": "E",
    "status": "Assigned to Contractor",
    "contractor": "Waste Pro",
    "rowid": "1227039",
    "final_x": "3717915.25625",
    "final_y": "560427.134622",
    "longitude": "-89.95198507534872",
    "latitude": "30.033823235234248",
    "geocoded_column": {
      "latitude": "30.033823235234248",
      "longitude": "-89.95198507534872"
    }
  },
  {
    "service_request": "2025-1227038",
    "request_type": "Roads and Streets",
    "request_reason": "Street Subsidence (Sinking)",
    "date_created": "2025-09-17T13:16:09.000",
    "date_modified": "2025-09-17T13:16:11.000",
    "request_status": "Pending",
    "responsible_agency": "Sewerage & Water Board",
    "final_address": "2500 BLK Saint Ann St",
    "address_councildis": "D",
    "status": "Pending",
    "rowid": "1227038",
    "final_x": "3677550.2574",
    "final_y": "536741.788509",
    "longitude": "-90.08036189107317",
    "latitude": "29.969973165611165",
    "geocoded_column": {
      "latitude": "29.969973165611165",
      "longitude": "-90.08036189107317"
    }
  },
  {
    "service_request": "2025-1227037",
    "request_type": "Trash/Recycling",
    "request_reason": "Request a Large Item Pick Up",
    "date_created": "2025-09-17T13:09:48.000",
    "date_modified": "2025-09-17T13:09:50.000",
    "request_status": "Pending",
    "responsible_agency": "Department of Sanitation",
    "final_address": "1031 Lamanche St",
    "address_councildis": "E",
    "status": "Assigned to Contractor",
    "contractor": "Waste Pro",
    "rowid": "1227037",
    "final_x": "3698349.2008",
    "final_y": "533486.820228",
    "longitude": "-90.01479546156801",
    "latitude": "29.960381404082295",
    "geocoded_column": {
      "latitude": "29.960381404082295",
      "longitude": "-90.01479546156801"
    }
  },
  {
    "service_request": "2025-1227036",
    "request_type": "Roads and Streets",
    "request_reason": "Street Subsidence (Sinking)",
    "date_created": "2025-09-17T13:09:11.000",
    "date_modified": "2025-09-17T13:09:13.000",
    "request_status": "Pending",
    "responsible_agency": "Sewerage & Water Board",
    "final_address": "1304 Second St",
    "address_councildis": "B",
    "status": "Pending",
    "rowid": "1227036",
    "final_x": "3677331.71784",
    "final_y": "521972.849594",
    "longitude": "-90.08156159815606",
    "latitude": "29.92937007744901",
    "geocoded_column": {
      "latitude": "29.92937007744901",
      "longitude": "-90.08156159815606"
    }
  },
  {
    "service_request": "2025-1227035",
    "request_type": "Trash/Recycling",
    "request_reason": "Order Trash Cart",
    "date_created": "2025-09-17T13:01:09.000",
    "date_modified": "2025-09-17T13:01:12.000",
    "request_status": "Pending",
    "responsible_agency": "Department of Sanitation",
    "final_address": "6501 Center St",
    "address_councildis": "A",
    "status": "Assigned to Contractor",
    "contractor": "IV Waste",
    "rowid": "1227035",
    "final_x": "3664939.56333",
    "final_y": "551260.769109",
    "longitude": "-90.11970221561765",
    "latitude": "30.01026857920348",
    "geocoded_column": {
      "latitude": "30.01026857920348",
      "longitude": "-90.11970221561765"
    }
  },
  {
    "service_request": "2025-1227034",
    "request_type": "Trash/Recycling",
    "request_reason": "Request a Large Item Pick Up",
    "date_created": "2025-09-17T12:57:59.000",
    "date_modified": "2025-09-17T12:58:02.000",
    "request_status": "Pending",
    "responsible_agency": "Department of Sanitation",
    "final_address": "7917 Pompano St",
    "address_councildis": "E",
    "status": "Assigned to Contractor",
    "contractor": "Waste Pro",
    "rowid": "1227034",
    "final_x": "3700256.5768",
    "final_y": "561602.619871",
    "longitude": "-90.00774528822065",
    "latitude": "30.03762888216296",
    "geocoded_column": {
      "latitude": "30.03762888216296",
      "longitude": "-90.00774528822065"
    }
  },
  {
    "service_request": "2025-1227033",
    "request_type": "Abandoned Vehicles",
    "request_reason": "Abandoned/Junk Vehicles",
    "date_created": "2025-09-17T12:57:42.000",
    "date_modified": "2025-09-17T12:57:43.000",
    "request_status": "Pending",
    "responsible_agency": "Department of Public Works",
    "final_address": "2417 Ap Tureaud Ave",
    "address_councildis": "D",
    "status": "Pending",
    "rowid": "1227033",
    "final_x": "3681679.52354",
    "final_y": "541024.289675",
    "longitude": "-90.06717182641844",
    "latitude": "29.981623754779378",
    "geocoded_column": {
      "latitude": "29.981623754779378",
      "longitude": "-90.06717182641844"
    }
  },
  {
    "service_request": "2025-1227032",
    "request_type": "Abandoned Vehicles",
    "request_reason": "Abandoned/Junk Vehicles",
    "date_created": "2025-09-17T12:57:23.000",
    "date_modified": "2025-09-17T12:57:25.000",
    "request_status": "Pending",
    "responsible_agency": "Department of Public Works",
    "final_address": "1200 Lowerline St",
    "address_councildis": "A",
    "status": "Pending",
    "rowid": "1227032",
    "final_x": "3663672.71789",
    "final_y": "526876.685758",
    "longitude": "-90.12451739889859",
    "latitude": "29.943257303536235",
    "geocoded_column": {
      "latitude": "29.943257303536235",
      "longitude": "-90.12451739889859"
    }
  },
  {
    "service_request": "2025-1227031",
    "request_type": "Roads and Streets",
    "request_reason": "Debris in Driving Lanes",
    "date_created": "2025-09-17T12:57:10.000",
    "date_modified": "2025-09-17T12:57:13.000",
    "request_status": "Pending",
    "responsible_agency": "Department of Public Works",
    "final_address": "1322 Cambronne St",
    "address_councildis": "A",
    "status": "Pending",
    "rowid": "1227031",
    "final_x": "3661505.33011",
    "final_y": "529534.414657",
    "longitude": "-90.13127239716106",
    "latitude": "29.950627902266273",
    "geocoded_column": {
      "latitude": "29.950627902266273",
      "longitude": "-90.13127239716106"
    }
  },
  {
    "service_request": "2025-1227030",
    "request_type": "Drainage",
    "request_reason": "Ditch and Culvert Maintenance",
    "date_created": "2025-09-17T12:50:34.000",
    "date_modified": "2025-09-17T12:50:36.000",
    "request_status": "Pending",
    "responsible_agency": "Department of Public Works",
    "final_address": "1625 N Roman St",
    "address_councildis": "D",
    "status": "Pending",
    "rowid": "1227030",
    "final_x": "3681707.21276",
    "final_y": "538420.679241",
    "longitude": "-90.06717524005421",
    "latitude": "29.974463891099397",
    "geocoded_column": {
      "latitude": "29.974463891099397",
      "longitude": "-90.06717524005421"
    }
  },
  {
    "service_request": "2025-1227029",
    "request_type": "Streetlights",
    "request_reason": "Streetlight Outage/Malfunction",
    "date_created": "2025-09-17T12:47:55.000",
    "date_modified": "2025-09-17T12:47:57.000",
    "request_status": "Pending",
    "responsible_agency": "Department of Public Works",
    "final_address": "4612 Prytania St",
    "address_councildis": "B",
    "status": "Pending",
    "rowid": "1227029",
    "final_x": "3670032.88398",
    "final_y": "520173.543864",
    "longitude": "-90.1046636254298",
    "latitude": "29.924639791020127",
    "geocoded_column": {
      "latitude": "29.924639791020127",
      "longitude": "-90.1046636254298"
    }
  },
  {
    "service_request": "2025-1227028",
    "request_type": "Roads and Streets",
    "request_reason": "Sidewalk Damaged or Missing",
    "date_created": "2025-09-17T12:45:21.000",
    "date_modified": "2025-09-17T15:31:59.000",
    "request_status": "Pending",
    "responsible_agency": "Department of Public Works",
    "final_address": "4811 Press Dr",
    "address_councildis": "D",
    "status": "Pending",
    "rowid": "1227028",
    "final_x": "3689661.08412",
    "final_y": "551165.465109",
    "longitude": "-90.04160132603725",
    "latitude": "30.009263392123643",
    "geocoded_column": {
      "latitude": "30.009263392123643",
      "longitude": "-90.04160132603725"
    }
  },
  {
    "service_request": "2025-1227027",
    "request_type": "Trash/Recycling",
    "request_reason": "Request a Large Item Pick Up",
    "date_created": "2025-09-17T12:43:43.000",
    "date_modified": "2025-09-17T12:43:45.000",
    "request_status": "Pending",
    "responsible_agency": "Department of Sanitation",
    "final_address": "4949 Virgilian St",
    "address_councildis": "D",
    "status": "Assigned to Contractor",
    "contractor": "Waste Pro",
    "rowid": "1227027",
    "final_x": "3697451.8945",
    "final_y": "554948.269656",
    "longitude": "-90.01685032055592",
    "latitude": "30.019420884976046",
    "geocoded_column": {
      "latitude": "30.019420884976046",
      "longitude": "-90.01685032055592"
    }
  },
  {
    "service_request": "2025-1227026",
    "request_type": "Abandoned Vehicles",
    "request_reason": "Abandoned/Junk Vehicles",
    "date_created": "2025-09-17T12:43:28.000",
    "date_modified": "2025-09-17T12:43:30.000",
    "request_status": "Pending",
    "responsible_agency": "Department of Public Works",
    "final_address": "1544 Leda St",
    "address_councildis": "A",
    "status": "Pending",
    "rowid": "1227026",
    "final_x": "3675752.87406",
    "final_y": "541801.742412",
    "longitude": "-90.08586423827006",
    "latitude": "29.98394022479719",
    "geocoded_column": {
      "latitude": "29.98394022479719",
      "longitude": "-90.08586423827006"
    }
  },
  {
    "service_request": "2025-1227025",
    "request_type": "Trash/Recycling",
    "request_reason": "Request a Large Item Pick Up",
    "date_created": "2025-09-17T12:41:51.000",
    "date_modified": "2025-09-17T12:41:53.000",
    "request_status": "Pending",
    "responsible_agency": "Department of Sanitation",
    "final_address": "2423 Chartres St",
    "address_councildis": "C",
    "status": "Assigned to Contractor",
    "contractor": "IV Waste",
    "rowid": "1227025",
    "final_x": "3686117.63823",
    "final_y": "534617.359302",
    "longitude": "-90.0533802631079",
    "latitude": "29.9638713433095",
    "geocoded_column": {
      "latitude": "29.9638713433095",
      "longitude": "-90.0533802631079"
    }
  },
  {
    "service_request": "2025-1227024",
    "request_type": "Streetlights",
    "request_reason": "Streetlight Outage/Malfunction",
    "date_created": "2025-09-17T12:38:53.000",
    "date_modified": "2025-09-17T12:38:56.000",
    "request_status": "Pending",
    "responsible_agency": "Department of Public Works",
    "final_address": "3817 Urquhart St",
    "address_councildis": "D",
    "status": "Pending",
    "rowid": "1227024",
    "final_x": "3691536.67056",
    "final_y": "536203.410055",
    "longitude": "-90.03621084041629",
    "latitude": "29.968064867768213",
    "geocoded_column": {
      "latitude": "29.968064867768213",
      "longitude": "-90.03621084041629"
    }
  },
  {
    "service_request": "2025-1227023",
    "request_type": "Trash/Recycling",
    "request_reason": "Request a Large Item Pick Up",
    "date_created": "2025-09-17T12:38:19.000",
    "date_modified": "2025-09-17T12:38:22.000",
    "request_status": "Pending",
    "responsible_agency": "Department of Sanitation",
    "final_address": "1221 Port St",
    "address_councildis": "C",
    "status": "Assigned to Contractor",
    "contractor": "IV Waste",
    "rowid": "1227023",
    "final_x": "3687579.68617",
    "final_y": "536916.814856",
    "longitude": "-90.04868185522332",
    "latitude": "29.970149056747733",
    "geocoded_column": {
      "latitude": "29.970149056747733",
      "longitude": "-90.04868185522332"
    }
  },