[
  {
    "service_request": "2024-1152781",
    "request_type": "Trash/Recycling",
    "request_reason": "Request a Large Item Pick Up",
    "date_created": "2024-12-03T23:58:50.000",
    "date_modified": "2024-12-03T23:58:51.000",
    "request_status": "Pending",
    "responsible_agency": "Department of Sanitation",
    "final_address": "6007 Royal St",
    "address_councildis": "E",
    "status": "Assigned to Contractor",
    "contractor": "Waste Pro",
    "rowid": "1152781",
    "final_x": "3698688.34096",
    "final_y": "532030.656387",
    "longitude": "-90.01377748686518",
    "latitude": "29.956366735275072",
    "geocoded_column": {
      "latitude": "29.956366735275072",
      "longitude": "-90.01377748686518"
    }
  },
  {
    "service_request": "2024-1152780",
    "request_type": "Trash/Recycling",
    "request_reason": "Request a Large Item Pick Up",
    "date_created": "2024-12-03T23:22:51.000",
    "date_modified": "2024-12-03T23:22:53.000",
    "request_status": "Pending",
    "responsible_agency": "Department of Sanitation",
    "final_address": "4735 Sherwood Dr",
    "address_councildis": "E",
    "status": "Assigned to Contractor",
    "contractor": "Waste Pro",
    "rowid": "1152780",
    "final_x": "3718084.70431",
    "final_y": "556817.537562",
    "longitude": "-89.95158715701086",
    "latitude": "30.023892674773005",
    "geocoded_column": {
      "latitude": "30.023892674773005",
      "longitude": "-89.95158715701086"
    }
  },
  {
    "service_request": "2024-1152779",
    "request_type": "Trash/Recycling",
    "request_reason": "Request a Large Item Pick Up",
    "date_created": "2024-12-03T22:30:46.000",
    "date_modified": "2024-12-03T22:30:47.000",
    "request_status": "Pending",
    "responsible_agency": "Department of Sanitation",
    "final_address": "6724 Tara Ln",
    "address_councildis": "E",
    "status": "Assigned to Contractor",
    "contractor": "Waste Pro",
    "rowid": "1152779",
    "final_x": "3707495.62443",
    "final_y": "558748.066012",
    "longitude": "-89.98497451146255",
    "latitude": "30.029547726035503",
    "geocoded_column": {
      "latitude": "30.029547726035503",
      "longitude": "-89.98497451146255"
    }
  },
  {
    "service_request": "2024-1152778",
    "request_type": "Streetlights",
    "request_reason": "Streetlight Outage/Malfunction",
    "date_created": "2024-12-03T21:57:31.000",
    "date_modified": "2024-12-03T21:57:33.000",
    "request_status": "Pending",
    "responsible_agency": "Department of Public Works",
    "final_address": "4823 Constance St",
    "address_councildis": "B",
    "status": "Pending",
    "contractor": "Legacy Professional Services",
    "rowid": "1152778",
    "final_x": "3669427.32871",
    "final_y": "518301.685814",
    "longitude": "-90.10663842327637",
    "latitude": "29.919510614953804",
    "geocoded_column": {
      "latitude": "29.919510614953804",
      "longitude": "-90.10663842327637"
    }
  },
  {
    "service_request": "2024-1152777",
    "request_type": "Streetlights",
    "request_reason": "Streetlight Outage/Malfunction",
    "date_created": "2024-12-03T20:49:45.000",
    "date_modified": "2024-12-03T20:49:46.000",
    "request_status": "Pending",
    "responsible_agency": "Department of Public Works",
    "final_address": "7511 Wave Dr",
    "address_councildis": "E",
    "status": "Pending",
    "contractor": "Legacy Professional Services",
    "rowid": "1152777",
    "final_x": "3715413.31736",
    "final_y": "568287.917733",
    "longitude": "-89.95959359607491",
    "latitude": "30.055519891021852",
    "geocoded_column": {
      "latitude": "30.055519891021852",
      "longitude": "-89.95959359607491"
    }
  },
  {
    "service_request": "2024-1152776",
    "request_type": "Property Maintenance",
    "request_reason": "Property Maintenance",
    "date_created": "2024-12-03T20:42:10.000",
    "date_modified": "2024-12-03T20:42:10.000",
    "request_status": "Pending",
    "responsible_agency": "Department of Code Enforcement",
    "final_address": "3819 Herschel St",
    "address_councildis": "C",
    "status": "Pending",
    "rowid": "1152776",
    "final_x": "3697822.90141",
    "final_y": "521008.288313",
    "longitude": "-90.01691010511081",
    "latitude": "29.92608643113844",
    "geocoded_column": {
      "latitude": "29.92608643113844",
      "longitude": "-90.01691010511081"
    }
  },
  {
    "service_request": "2024-1152775",
    "request_type": "Trash/Recycling",
    "request_reason": "Request a Large Item Pick Up",
    "date_created": "2024-12-03T20:33:38.000",
    "date_modified": "2024-12-03T20:33:39.000",
    "request_status": "Pending",
    "responsible_agency": "Department of Sanitation",
    "final_address": "3810 Royal St",
    "address_councildis": "C",
    "status": "Assigned to Contractor",
    "contractor": "IV Waste",
    "rowid": "1152775",
    "final_x": "3690951.844",
    "final_y": "533891.875653",
    "longitude": "-90.03814025204115",
    "latitude": "29.96172714972762",
    "geocoded_column": {
      "latitude": "29.96172714972762",
      "longitude": "-90.03814025204115"
    }
  },
  {
    "service_request": "2024-1152774",
    "request_type": "Roads and Streets",
    "request_reason": "Street Subsidence (Sinking)",
    "date_created": "2024-12-03T19:37:48.000",
    "date_modified": "2024-12-03T19:37:48.000",
    "request_status": "Pending",
    "responsible_agency": "Department of Public Works",
    "final_address": "OLEANDER ST & MISTLETOE ST",
    "address_councildis": "A",
    "status": "Pending",
    "rowid": "1152774",
    "final_x": "3663908.9",
    "final_y": "536266.08",
    "longitude": "-90.12345869491281",
    "latitude": "29.969068233232885",
    "geocoded_column": {
      "latitude": "29.969068233232885",
      "longitude": "-90.12345869491281"
    }
  },
  {
    "service_request": "2024-1152773",
    "request_type": "Property Maintenance",
    "request_reason": "Property Maintenance",
    "date_created": "2024-12-03T19:31:29.000",
    "date_modified": "2024-12-03T19:31:29.000",
    "request_status": "Pending",
    "responsible_agency": "Department of Code Enforcement",
    "final_address": "7690 Vincent Rd",
    "address_councildis": "E",
    "status": "Pending",
    "rowid": "1152773",
    "final_x": "3718223.63449",
    "final_y": "571764.564328",
    "longitude": "-89.95057822308358",
    "latitude": "30.06498628150632",
    "geocoded_column": {
      "latitude": "30.06498628150632",
      "longitude": "-89.95057822308358"
    }
  },
  {
    "service_request": "2024-1152772",
    "request_type": "Property Maintenance",
    "request_reason": "Property Maintenance",
    "date_created": "2024-12-03T19:07:00.000",
    "date_modified": "2024-12-03T19:07:00.000",
    "request_status": "Pending",
    "responsible_agency": "Department of Code Enforcement",
    "final_address": "9224 Fig St",
    "address_councildis": "A",
    "status": "Pending",
    "rowid": "1152772",
    "final_x": "3663264.43008",
    "final_y": "535857.116487",
    "longitude": "-90.12550759931962",
    "latitude": "29.967962413526852",
    "geocoded_column": {
      "latitude": "29.967962413526852",
      "longitude": "-90.12550759931962"
    }
  },
  {
    "service_request": "2024-1152771",
    "request_type": "Trash/Recycling",
    "request_reason": "Request a Large Item Pick Up",
    "date_created": "2024-12-03T19:05:47.000",
    "date_modified": "2024-12-03T19:05:48.000",
    "request_status": "Pending",
    "responsible_agency": "Department of Sanitation",
    "final_address": "4423 General Pershing St",
    "address_councildis": "B",
    "status": "Assigned to Contractor",
    "contractor": "IV Waste",
    "rowid": "1152771",
    "final_x": "3669317.73287",
    "final_y": "529939.726337",
    "longitude": "-90.10659107141466",
    "latitude": "29.951514709407622",
    "geocoded_column": {
      "latitude": "29.951514709407622",
      "longitude": "-90.10659107141466"
    }
  },
  {
    "service_request": "2024-1152770",
    "request_type": "Property Maintenance",
    "request_reason": "Property Maintenance",
    "date_created": "2024-12-03T19:01:57.000",
    "date_modified": "2024-12-03T19:01:57.000",
    "request_status": "Pending",
    "responsible_agency": "Department of Code Enforcement",
    "final_address": "2101 Louisiana Ave",
    "address_councildis": "B",
    "status": "Pending",
    "rowid": "1152770",
    "final_x": "3673541.95835",
    "final_y": "523268.250171",
    "longitude": "-90.09348093374489",
    "latitude": "29.933045305739597",
    "geocoded_column": {
      "latitude": "29.933045305739597",
      "longitude": "-90.09348093374489"
    }
  },
  {
    "service_request": "2024-1152769",
    "request_type": "Trash/Recycling",
    "request_reason": "Request a Large Item Pick Up",
    "date_created": "2024-12-03T19:00:22.000",
    "date_modified": "2024-12-03T19:00:23.000",
    "request_status": "Pending",
    "responsible_agency": "Department of Sanitation",
    "final_address": "7231 Chadbourne Dr",
    "address_councildis": "E",
    "status": "Assigned to Contractor",
    "contractor": "Waste Pro",
    "rowid": "1152769",
    "final_x": "3700973.11044",
    "final_y": "557540.181275",
    "longitude": "-90.00562964358878",
    "latitude": "30.026435938521832",
    "geocoded_column": {
      "latitude": "30.026435938521832",
      "longitude": "-90.00562964358878"
    }
  },
  {
    "service_request": "2024-1152768",
    "request_type": "Streetlights",
    "request_reason": "Streetlight Outage/Malfunction",
    "date_created": "2024-12-03T18:57:57.000",
    "date_modified": "2024-12-03T18:57:58.000",
    "request_status": "Pending",
    "responsible_agency": "Department of Public Works",
    "final_address": "7324 Ligustrum Dr",
    "address_councildis": "E",
    "status": "Pending",
    "contractor": "Legacy Professional Services",
    "rowid": "1152768",
    "final_x": "3701743.98154",
    "final_y": "560256.792925",
    "longitude": "-90.003094139786",
    "latitude": "30.03388098528928",
    "geocoded_column": {
      "latitude": "30.03388098528928",
      "longitude": "-90.003094139786"
    }
  },
  {
    "service_request": "2024-1152767",
    "request_type": "Trash/Recycling",
    "request_reason": "Request a Large Item Pick Up",
    "date_created": "2024-12-03T18:54:31.000",
    "date_modified": "2024-12-03T18:54:33.000",
    "request_status": "Pending",
    "responsible_agency": "Department of Sanitation",
    "final_address": "7000 Manchester St",
    "address_councildis": "E",
    "status": "Assigned to Contractor",
    "contractor": "Waste Pro",
    "rowid": "1152767",
    "final_x": "3698950.00874",
    "final_y": "560018.787293",
    "longitude": "-90.01193205437833",
    "latitude": "30.033315452729585",
    "geocoded_column": {
      "latitude": "30.033315452729585",
      "longitude": "-90.01193205437833"
    }
  },
  {
    "service_request": "2024-1152766",
    "request_type": "Roads and Streets",
    "request_reason": "Street Subsidence (Sinking)",
    "date_created": "2024-12-03T18:39:35.000",
    "date_modified": "2024-12-03T18:39:35.000",
    "request_status": "Pending",
    "responsible_agency": "Department of Public Works",
    "final_address": "ELYSIAN FIELDS AVE & GENTILLY BLVD",
    "address_councildis": "D",
    "status": "Pending",
    "rowid": "1152766",
    "final_x": "3684156.09",
    "final_y": "547683.17",
    "longitude": "-90.0591158033759",
    "latitude": "29.999857829487908",
    "geocoded_column": {
      "latitude": "29.999857829487908",
      "longitude": "-90.0591158033759"
    }
  },
  {
    "service_request": "2024-1152765",
    "request_type": "Street and Traffic Signs",
    "request_reason": "Street Name Sign Damaged or Missing",
    "date_created": "2024-12-03T18:39:07.000",
    "date_modified": "2024-12-03T18:39:07.000",
    "request_status": "Pending",
    "responsible_agency": "Department of Public Works",
    "final_address": "2438 Royal St",
    "address_councildis": "C",
    "status": "Pending",
    "rowid": "1152765",
    "final_x": "3686198.55337",
    "final_y": "534922.67847",
    "longitude": "-90.05311396891908",
    "latitude": "29.964708379701865",
    "geocoded_column": {
      "latitude": "29.964708379701865",
      "longitude": "-90.05311396891908"
    }
  },
  {
    "service_request": "2024-1152764",
    "request_type": "Road Striping",
    "request_reason": "Lane Striping or other Pavement Markings",
    "date_created": "2024-12-03T18:34:05.000",
    "date_modified": "2024-12-03T18:34:05.000",
    "request_status": "Pending",
    "responsible_agency": "Department of Public Works",
    "final_address": "INDUSTRIAL PKWY & CHEF MENTEUR HWY",
    "address_councildis": "E",
    "status": "Pending",
    "rowid": "1152764",
    "final_x": "3735179.4",
    "final_y": "563378.38",
    "longitude": "-89.89731241368825",
    "latitude": "30.041354352402212",
    "geocoded_column": {
      "latitude": "30.041354352402212",
      "longitude": "-89.89731241368825"
    }
  },
  {
    "service_request": "2024-1152763",
    "request_type": "Trash/Recycling",
    "request_reason": "Request a Large Item Pick Up",
    "date_created": "2024-12-03T18:27:08.000",
    "date_modified": "2024-12-03T18:27:09.000",
    "request_status": "Pending",
    "responsible_agency": "Department of Sanitation",
    "final_address": "2259 Lafreniere St",
    "address_councildis": "D",
    "status": "Assigned to Contractor",
    "contractor": "IV Waste",
    "rowid": "1152763",
    "final_x": "3684823.74351",
    "final_y": "545659.145744",
    "longitude": "-90.0570778771862",
    "latitude": "29.99427205667812",
    "geocoded_column": {
      "latitude": "29.99427205667812",
      "longitude": "-90.0570778771862"
    }
  },
  {
    "service_request": "2024-1152762",
    "request_type": "Trash/Recycling",
    "request_reason": "Request a Large Item Pick Up",
    "date_created": "2024-12-03T18:24:46.000",
    "date_modified": "2024-12-03T18:24:47.000",
    "request_status": "Pending",
    "responsible_agency": "Department of Sanitation",
    "final_address": "2259 Lafreniere St",
    "address_councildis": "D",
    "status": "Assigned to Contractor",
    "contractor": "IV Waste",
    "rowid": "1152762",
    "final_x": "3684823.74351",
    "final_y": "545659.145744",
    "longitude": "-90.0570778771862",
    "latitude": "29.99427205667812",
    "geocoded_column": {
      "latitude": "29.99427205667812",
      "longitude": "-90.0570778771862"
    }
  },
  {
    "service_request": "2024-1152761",
    "request_type": "Streetlights",
    "request_reason": "Streetlight Outage/Malfunction",
    "date_created": "2024-12-03T18:17:08.000",
    "date_modified": "2024-12-03T18:17:09.000",
    "request_status": "Pending",
    "responsible_agency": "Department of Public Works",
    "final_address": "6718 Virgilian St",
    "address_councildis": "D",
    "status": "Pending",
    "contractor": "Legacy Professional Services",
    "rowid": "1152761",
    "final_x": "3696977.8129",
    "final_y": "556099.774874",
    "longitude": "-90.0183064950397",
    "latitude": "30.02260205592213",
    "geocoded_column": {
      "latitude": "30.02260205592213",
      "longitude": "-90.0183064950397"
    }
  },
  {
    "service_request": "2024-1152759",
    "request_type": "Trash/Recycling",
    "request_reason": "Request a Large Item Pick Up",
    "date_created": "2024-12-03T17:22:01.000",
    "date_modified": "2024-12-03T17:22:02.000",
    "request_status": "Pending",
    "responsible_agency": "Department of Sanitation",
    "final_address": "2319 Arts St",
    "address_councildis": "D",
    "status": "Assigned to Contractor",
    "contractor": "IV Waste",
    "rowid": "1152759",
    "final_x": "3686878.01929",
    "final_y": "541075.792076",
    "longitude": "-90.05075076761048",
    "latitude": "29.981606393803197",
    "geocoded_column": {
      "latitude": "29.981606393803197",
      "longitude": "-90.05075076761048"
    }
  },
  {
    "service_request": "2024-1152758",
    "request_type": "Trash/Recycling",
    "request_reason": "Order Trash Cart",
    "date_created": "2024-12-03T16:57:02.000",
    "date_modified": "2024-12-03T16:57:03.000",
    "request_status": "Pending",
    "responsible_agency": "Department of Sanitation",
    "final_address": "1501 Marais St",
    "address_councildis": "C",
    "status": "Assigned to Contractor",
    "contractor": "IV Waste",
    "rowid": "1152758",
    "final_x": "3682670.46223",
    "final_y": "536422.403911",
    "longitude": "-90.06420297089069",
    "latitude": "29.968940023774735",
    "geocoded_column": {
      "latitude": "29.968940023774735",
      "longitude": "-90.06420297089069"
    }
  },
  {
    "service_request": "2024-1152757",
    "request_type": "Trash/Recycling",
    "request_reason": "Order Recycling Cart",
    "date_created": "2024-12-03T16:54:43.000",
    "date_modified": "2024-12-03T16:54:43.000",
    "request_status": "Pending",
    "responsible_agency": "Department of Sanitation",
    "final_address": "1502 Marais St",
    "address_councildis": "C",
    "status": "Pending",
    "rowid": "1152757",
    "final_x": "3682739.83567",
    "final_y": "536407.402055",
    "longitude": "-90.06398441010384",
    "latitude": "29.96889666089157",
    "geocoded_column": {
      "latitude": "29.96889666089157",
      "longitude": "-90.06398441010384"
    }
  },
  {
    "service_request": "2024-1152756",
    "request_type": "Trash/Recycling",
    "request_reason": "MIssed Recycling Pick-Up",
    "date_created": "2024-12-03T16:51:38.000",
    "date_modified": "2024-12-03T16:51:40.000",
    "request_status": "Pending",
    "responsible_agency": "Department of Sanitation",
    "final_address": "6317 Louis Xiv St",
    "address_councildis": "A",
    "status": "Assigned to Contractor",
    "contractor": "IV Waste",
    "rowid": "1152756",
    "final_x": "3668329.31188",
    "final_y": "549520.409747",
    "longitude": "-90.10905144615334",
    "latitude": "30.005384043185273",
    "geocoded_column": {
      "latitude": "30.005384043185273",
      "longitude": "-90.10905144615334"
    }
  },
  {
    "service_request": "2024-1152755",
    "request_type": "Trash/Recycling",
    "request_reason": "Request a Large Item Pick Up",
    "date_created": "2024-12-03T16:47:20.000",
    "date_modified": "2024-12-03T16:47:21.000",
    "request_status": "Pending",
    "responsible_agency": "Department of Sanitation",
    "final_address": "7716 Edward St",
    "address_councildis": "E",
    "status": "Assigned to Contractor",
    "contractor": "Waste Pro",
    "rowid": "1152755",
    "final_x": "3700858.6081",
    "final_y": "561216.908254",
    "longitude": "-90.00585685876314",
    "latitude": "30.036549161466564",
    "geocoded_column": {
      "latitude": "30.036549161466564",
      "longitude": "-90.00585685876314"
    }
  },
  {
    "service_request": "2024-1152754",
    "request_type": "Trash/Recycling",
    "request_reason": "Order Recycling Cart",
    "date_created": "2024-12-03T16:45:13.000",
    "date_modified": "2024-12-03T16:45:13.000",
    "request_status": "Pending",
    "responsible_agency": "Department of Sanitation",
    "final_address": "100 Oriole St",
    "address_councildis": "D",
    "status": "Pending",
    "rowid": "1152754",
    "final_x": "3675760.45211",
    "final_y": "556825.50057",
    "longitude": "-90.08532345923297",
    "latitude": "30.025250011469346",
    "geocoded_column": {
      "latitude": "30.025250011469346",
      "longitude": "-90.08532345923297"
    }
  },
  {
    "service_request": "2024-1152753",
    "request_type": "Trash/Recycling",
    "request_reason": "Request a Large Item Pick Up",
    "date_created": "2024-12-03T16:41:05.000",
    "date_modified": "2024-12-03T16:41:06.000",
    "request_status": "Pending",
    "responsible_agency": "Department of Sanitation",
    "final_address": "608 St Roch Ave",
    "address_councildis": "C",
    "status": "Assigned to Contractor",
    "contractor": "IV Waste",
    "rowid": "1152753",
    "final_x": "3686600.93634",
    "final_y": "534726.42631",
    "longitude": "-90.05185020511549",
    "latitude": "29.964156386488398",
    "geocoded_column": {
      "latitude": "29.964156386488398",
      "longitude": "-90.05185020511549"
    }
  },
  {
    "service_request": "2024-1152752",
    "request_type": "Mosquito, Termite & Rodent Control",
    "request_reason": "Rodent Complaint (Rats)",
    "date_created": "2024-12-03T16:29:10.000",
    "date_modified": "2024-12-03T16:29:10.000",
    "request_status": "Pending",
    "responsible_agency": "Mosquito, Termite & Rodent Control Board",
    "final_address": "3300 BLK S Claiborne Ave",
    "address_councildis": "B",
    "status": "Pending",
    "rowid": "1152752",
    "final_x": "3672401.61776",
    "final_y": "526307.640742",
    "longitude": "-90.09697738498055",
    "latitude": "29.941436521881478",
    "geocoded_column": {
      "latitude": "29.941436521881478",
      "longitude": "-90.09697738498055"
    }
  },
  {
    "service_request": "2024-1152751",
    "request_type": "Trash/Recycling",
    "request_reason": "Request a Large Item Pick Up",
    "date_created": "2024-12-03T16:25:06.000",
    "date_modified": "2024-12-03T16:25:07.000",
    "request_status": "Pending",
    "responsible_agency": "Department of Sanitation",
    "final_address": "2715 Philip St",
    "address_councildis": "B",
    "status": "Assigned to Contractor",
    "contractor": "IV Waste",
    "rowid": "1152751",
    "final_x": "3674921.13576",
    "final_y": "526769.322942",
    "longitude": "-90.08900693575457",
    "latitude": "29.942631004726373",
    "geocoded_column": {
      "latitude": "29.942631004726373",
      "longitude": "-90.08900693575457"
    }
  },
  {
    "service_request": "2024-1152750",
    "request_type": "Trash/Recycling",
    "request_reason": "Order Second Trash Cart",
    "date_created": "2024-12-03T16:12:49.000",
    "date_modified": "2024-12-03T16:12:50.000",
    "request_status": "Pending",
    "responsible_agency": "Department of Sanitation",
    "final_address": "7200 Benson Ct",
    "address_councildis": "E",
    "status": "Assigned to Contractor",
    "contractor": "Waste Pro",
    "rowid": "1152750",
    "final_x": "3705174.56753",
    "final_y": "560775.760862",
    "longitude": "-89.99223396277",
    "latitude": "30.035197988921894",
    "geocoded_column": {
      "latitude": "30.035197988921894",
      "longitude": "-89.99223396277"
    }
  },
  {
    "service_request": "2024-1152749",
    "request_type": "Abandoned Vehicles",
    "request_reason": "Abandoned/Junk Vehicles",
    "date_created": "2024-12-03T16:07:27.000",
    "date_modified": "2024-12-03T16:07:27.000",
    "request_status": "Pending",
    "responsible_agency": "Department of Public Works",
    "final_address": "7331 Dundee St",
    "address_councildis": "E",
    "status": "Pending",
    "rowid": "1152749",
    "final_x": "3698178.26813",
    "final_y": "558933.31414",
    "longitude": "-90.01441030416638",
    "latitude": "30.030355268161934",
    "geocoded_column": {
      "latitude": "30.030355268161934",
      "longitude": "-90.01441030416638"
    }
  },
  {
    "service_request": "2024-1152748",
    "request_type": "Abandoned Vehicles",
    "request_reason": "Abandoned/Junk Vehicles",
    "date_created": "2024-12-03T16:05:10.000",
    "date_modified": "2024-12-03T16:05:10.000",
    "request_status": "Pending",
    "responsible_agency": "Department of Public Works",
    "final_address": "2800 Cleveland Ave",
    "address_councildis": "B",
    "status": "Pending",
    "rowid": "1152748",
    "final_x": "3674567.98145",
    "final_y": "535111.858374",
    "longitude": "-90.08983608601379",
    "latitude": "29.965580741085244",
    "geocoded_column": {
      "latitude": "29.965580741085244",
      "longitude": "-90.08983608601379"
    }
  },
  {
    "service_request": "2024-1152747",
    "request_type": "Abandoned Vehicles",
    "request_reason": "Abandoned/Junk Vehicles",
    "date_created": "2024-12-03T16:04:14.000",
    "date_modified": "2024-12-03T16:04:15.000",
    "request_status": "Pending",
    "responsible_agency": "Department of Public Works",
    "final_address": "200 BLK S White St",
    "address_councildis": "B",
    "status": "Pending",
    "rowid": "1152747",
    "final_x": "3674512.33303",
    "final_y": "534975.969862",
    "longitude": "-90.09001647805874",
    "latitude": "29.96520875392279",
    "geocoded_column": {
      "latitude": "29.96520875392279",
      "longitude": "-90.09001647805874"
    }
  },
  {
    "service_request": "2024-1152746",
    "request_type": "Trash/Recycling",
    "request_reason": "Request a Large Item Pick Up",
    "date_created": "2024-12-03T16:01:43.000",
    "date_modified": "2024-12-03T16:01:43.000",
    "request_status": "Closed",
    "responsible_agency": "Department of Sanitation",
    "final_address": "2038 Lauradale Dr",
    "address_councildis": "C",
    "status": "Resolved",
    "rowid": "1152746",
    "final_x": "3692739.87888",
    "final_y": "523640.969659",
    "longitude": "-90.0328613432534",
    "latitude": "29.933485007073628",
    "geocoded_column": {
      "latitude": "29.933485007073628",
      "longitude": "-90.0328613432534"
    }
  },
  {
    "service_request": "2024-1152745",
    "request_type": "Abandoned Vehicles",
    "request_reason": "Abandoned/Junk Vehicles",
    "date_created": "2024-12-03T16:00:46.000",
    "date_modified": "2024-12-03T16:00:47.000",
    "request_status": "Pending",
    "responsible_agency": "Department of Public Works",
    "final_address": "421 Second St",
    "address_councildis": "B",
    "status": "Pending",
    "rowid": "1152745",
    "final_x": "3679197.43874",
    "final_y": "519317.522359",
    "longitude": "-90.07576386244708",
    "latitude": "29.922012617678643",
    "geocoded_column": {
      "latitude": "29.922012617678643",
      "longitude": "-90.07576386244708"
    }
  },
  {
    "service_request": "2024-1152744",
    "request_type": "Abandoned Vehicles",
    "request_reason": "Abandoned/Junk Vehicles",
    "date_created": "2024-12-03T16:00:39.000",
    "date_modified": "2024-12-03T16:00:39.000",
    "request_status": "Pending",
    "responsible_agency": "Department of Public Works",
    "final_address": "7520 Pineridge St",
    "address_councildis": "E",
    "status": "Pending",
    "rowid": "1152744",
    "final_x": "3719326.70271",
    "final_y": "571541.369256",
    "longitude": "-89.94709988531739",
    "latitude": "30.064335941396",
    "geocoded_column": {
      "latitude": "30.064335941396",
      "longitude": "-89.94709988531739"
    }
  },
  {
    "service_request": "2024-1152743",
    "request_type": "General Services",
    "request_reason": "General Service Request",
    "date_created": "2024-12-03T15:58:19.000",
    "date_modified": "2024-12-03T16:00:08.000",
    "case_close_date": "2024-12-03T10:00:08.000",
    "request_status": "Closed",
    "responsible_agency": "Orleans Parish Communication District",
    "final_address": "FRANKLIN AVE & N TONTI ST",
    "address_councildis": "D",
    "status": "Referred to Risk Management",
    "rowid": "1152743",
    "final_x": "3687605.9",
    "final_y": "540956.48",
    "longitude": "-90.04845601252279",
    "latitude": "29.981255905184177",
    "geocoded_column": {
      "latitude": "29.981255905184177",
      "longitude": "-90.04845601252279"
    }
  },
  {
    "service_request": "2024-1152742",
    "request_type": "Trash/Recycling",
    "request_reason": "Order Second Trash Cart",
    "date_created": "2024-12-03T15:57:14.000",
    "date_modified": "2024-12-03T15:57:15.000",
    "request_status": "Pending",
    "responsible_agency": "Department of Sanitation",
    "final_address": "629 Chartres St",
    "address_councildis": "C",
    "status": "Assigned to Contractor",
    "contractor": "Empire Services",
    "rowid": "1152742",
    "final_x": "3682726.90728",
    "final_y": "532147.604419",
    "longitude": "-90.06417424402125",
    "latitude": "29.95718407242813",
    "geocoded_column": {
      "latitude": "29.95718407242813",
      "longitude": "-90.06417424402125"
    }
  },
  {
    "service_request": "2024-1152741",
    "request_type": "Trash/Recycling",
    "request_reason": "Request a Large Item Pick Up",
    "date_created": "2024-12-03T15:57:09.000",
    "date_modified": "2024-12-03T15:57:10.000",
    "request_status": "Pending",
    "responsible_agency": "Department of Sanitation",
    "final_address": "4600 Crowder Blvd",
    "address_councildis": "E",
    "status": "Assigned to Contractor",
    "contractor": "Waste Pro",
    "rowid": "1152741",
    "final_x": "3706429.64836",
    "final_y": "554607.110552",
    "longitude": "-89.98849652916357",
    "latitude": "30.018196156171463",
    "geocoded_column": {
      "latitude": "30.018196156171463",
      "longitude": "-89.98849652916357"
    }
  },
  {
    "service_request": "2024-1152740",
    "request_type": "Trash/Recycling",
    "request_reason": "Order Trash Cart",
    "date_created": "2024-12-03T15:56:50.000",
    "date_modified": "2024-12-03T15:56:51.000",
    "request_status": "Pending",
    "responsible_agency": "Department of Sanitation",
    "final_address": "629 Chartres St",
    "address_councildis": "C",
    "status": "Assigned to Contractor",
    "contractor": "Empire Services",
    "rowid": "1152740",
    "final_x": "3682726.90728",
    "final_y": "532147.604419",
    "longitude": "-90.06417424402125",
    "latitude": "29.95718407242813",
    "geocoded_column": {
      "latitude": "29.95718407242813",
      "longitude": "-90.06417424402125"
    }
  },
  {
    "service_request": "2024-1152739",
    "request_type": "Trash/Recycling",
    "request_reason": "Illegal Dumping",
    "date_created": "2024-12-03T15:53:21.000",
    "date_modified": "2024-12-03T15:53:21.000",
    "request_status": "Pending",
    "responsible_agency": "Department of Sanitation",
    "final_address": "4619 S Robertson St",
    "address_councildis": "B",
    "status": "Pending",
    "rowid": "1152739",
    "final_x": "3669570.24423",
    "final_y": "524354.80966",
    "longitude": "-90.10598265006745",
    "latitude": "29.936150566911035",
    "geocoded_column": {
      "latitude": "29.936150566911035",
      "longitude": "-90.10598265006745"
    }
  },
  {
    "service_request": "2024-1152738",
    "request_type": "Trash/Recycling",
    "request_reason": "Repair Trash Cart",
    "date_created": "2024-12-03T15:53:09.000",
    "date_modified": "2024-12-03T15:53:10.000",
    "request_status": "Pending",
    "responsible_agency": "Department of Sanitation",
    "final_address": "2511 Washington Ave",
    "address_councildis": "B",
    "status": "Assigned to Contractor",
    "contractor": "IV Waste",
    "rowid": "1152738",
    "final_x": "3674110.22766",
    "final_y": "525396.771453",
    "longitude": "-90.09161412613761",
    "latitude": "29.938881126358893",
    "geocoded_column": {
      "latitude": "29.938881126358893",
      "longitude": "-90.09161412613761"
    }
  },
  {
    "service_request": "2024-1152737",
    "request_type": "Trash/Recycling",
    "request_reason": "Request a Large Item Pick Up",
    "date_created": "2024-12-03T15:51:51.000",
    "date_modified": "2024-12-03T15:51:52.000",
    "request_status": "Pending",
    "responsible_agency": "Department of Sanitation",
    "final_address": "2224 Royal St",
    "address_councildis": "C",
    "status": "Assigned to Contractor",
    "contractor": "IV Waste",
    "rowid": "1152737",
    "final_x": "3685394.18882",
    "final_y": "534853.095302",
    "longitude": "-90.05565654242851",
    "latitude": "29.96454173662454",
    "geocoded_column": {
      "latitude": "29.96454173662454",
      "longitude": "-90.05565654242851"
    }
  },
  {
    "service_request": "2024-1152736",
    "request_type": "Trash/Recycling",
    "request_reason": "Illegal Dumping",
    "date_created": "2024-12-03T15:49:12.000",
    "date_modified": "2024-12-03T15:49:12.000",
    "request_status": "Pending",
    "responsible_agency": "Department of Sanitation",
    "final_address": "9901 Chef Menteur Hwy",
    "address_councildis": "E",
    "status": "Pending",
    "rowid": "1152736",
    "final_x": "3712157.88626",
    "final_y": "554756.899864",
    "longitude": "-89.97039200370233",
    "latitude": "30.0184219152567",
    "geocoded_column": {
      "latitude": "30.0184219152567",
      "longitude": "-89.97039200370233"
    }
  },
  {
    "service_request": "2024-1152735",
    "request_type": "Trash/Recycling",
    "request_reason": "Request a Large Item Pick Up",
    "date_created": "2024-12-03T15:48:40.000",
    "date_modified": "2024-12-03T15:48:41.000",
    "request_status": "Pending",
    "responsible_agency": "Department of Sanitation",
    "final_address": "5906 St Roch Ave",
    "address_councildis": "D",
    "status": "Assigned to Contractor",
    "contractor": "IV Waste",
    "rowid": "1152735",
    "final_x": "3684889.78057",
    "final_y": "554788.125592",
    "longitude": "-90.05654794830652",
    "latitude": "30.019371417259432",
    "geocoded_column": {
      "latitude": "30.019371417259432",
      "longitude": "-90.05654794830652"
    }
  },
  {
    "service_request": "2024-1152734",
    "request_type": "Graffiti Removal",
    "request_reason": "Graffiti Removal",
    "date_created": "2024-12-03T15:47:41.000",
    "date_modified": "2024-12-03T15:47:41.000",
    "request_status": "Pending",
    "responsible_agency": "Department of Code Enforcement",
    "final_address": "9901 Chef Menteur Hwy",
    "address_councildis": "E",
    "status": "Pending",
    "rowid": "1152734",
    "final_x": "3712157.88626",
    "final_y": "554756.899864",
    "longitude": "-89.97039200370233",
    "latitude": "30.0184219152567",
    "geocoded_column": {
      "latitude": "30.0184219152567",
      "longitude": "-89.97039200370233"
    }
  },
  {
    "service_request": "2024-1152733",
    "request_type": "Trash/Recycling",
    "request_reason": "Order Second Trash Cart",
    "date_created": "2024-12-03T15:47:14.000",
    "date_modified": "2024-12-03T15:47:15.000",
    "request_status": "Pending",
    "responsible_agency": "Department of Sanitation",
    "final_address": "1331 Milton St",
    "address_councildis": "D",
    "status": "Assigned to Contractor",
    "contractor": "IV Waste",
    "rowid": "1152733",
    "final_x": "3677614.378",
    "final_y": "546130.025232",
    "longitude": "-90.07983504527778",
    "latitude": "29.995785633819057",
    "geocoded_column": {
      "latitude": "29.995785633819057",
      "longitude": "-90.07983504527778"
    }
  },
  {
    "service_request": "2024-1152732",
    "request_type": "Trash/Recycling",
    "request_reason": "Request a Large Item Pick Up",
    "date_created": "2024-12-03T15:45:45.000",
    "date_modified": "2024-12-03T15:45:47.000",
    "request_status": "Pending",
    "responsible_agency": "Department of Sanitation",
    "final_address": "10710 Kinneil Rd",
    "address_councildis": "E",
    "status": "Assigned to Contractor",
    "contractor": "Waste Pro",
    "rowid": "1152732",
    "final_x": "3710937.92318",
    "final_y": "563833.487713",
    "longitude": "-89.9739063564982",
    "latitude": "30.043418781260645",
    "geocoded_column": {
      "latitude": "30.043418781260645",
      "longitude": "-89.9739063564982"
    }
  },
  {
    "service_request": "2024-1152731",
    "request_type": "Graffiti Removal",
    "request_reason": "Graffiti Removal",
    "date_created": "2024-12-03T15:45:37.000",
    "date_modified": "2024-12-03T15:45:37.000",
    "request_status": "Pending",
    "responsible_agency": "Department of Code Enforcement",
    "final_address": "9901 Chef Menteur Hwy",
    "address_councildis": "E",
    "status": "Pending",
    "rowid": "1152731",
    "final_x": "3712157.88626",
    "final_y": "554756.899864",
    "longitude": "-89.97039200370233",
    "latitude": "30.0184219152567",
    "geocoded_column": {
      "latitude": "30.0184219152567",
      "longitude": "-89.97039200370233"
    }
  },
  {
    "service_request": "2024-1152730",
    "request_type": "Trash/Recycling",
    "request_reason": "Request a Large Item Pick Up",
    "date_created": "2024-12-03T15:44:38.000",
    "date_modified": "2024-12-03T15:44:39.000",
    "request_status": "Pending",
    "responsible_agency": "Department of Sanitation",
    "final_address": "1331 Milton St",
    "address_councildis": "D",
    "status": "Assigned to Contractor",
    "contractor": "IV Waste",
    "rowid": "1152730",
    "final_x": "3677614.378",
    "final_y": "546130.025232",
    "longitude": "-90.07983504527778",
    "latitude": "29.995785633819057",
    "geocoded_column": {
      "latitude": "29.995785633819057",
      "longitude": "-90.07983504527778"
    }
  },
  {
    "service_request": "2024-1152729",
    "request_type": "Trash/Recycling",
    "request_reason": "Start Trash Service",
    "date_created": "2024-12-03T15:42:26.000",
    "date_modified": "2024-12-03T15:42:27.000",
    "request_status": "Pending",
    "responsible_agency": "Department of Sanitation",
    "final_address": "1331 Milton St",
    "address_councildis": "D",
    "status": "Assigned to Contractor",
    "contractor": "IV Waste",
    "rowid": "1152729",
    "final_x": "3677614.378",
    "final_y": "546130.025232",
    "longitude": "-90.07983504527778",
    "latitude": "29.995785633819057",
    "geocoded_column": {
      "latitude": "29.995785633819057",
      "longitude": "-90.07983504527778"
    }
  },
  {
    "service_request": "2024-1152728",
    "request_type": "Streetlights",
    "request_reason": "Streetlight Outage/Malfunction",
    "date_created": "2024-12-03T15:41:44.000",
    "date_modified": "2024-12-03T15:41:45.000",
    "request_status": "Pending",
    "responsible_agency": "Department of Public Works",
    "final_address": "2000 BLK S Chippewa St",
    "address_councildis": "B",
    "status": "Pending",
    "contractor": "Legacy Professional Services",
    "rowid": "1152728",
    "final_x": "3680441.48554",
    "final_y": "521162.585743",
    "longitude": "-90.07177280693578",
    "latitude": "29.92704833780034",
    "geocoded_column": {
      "latitude": "29.92704833780034",
      "longitude": "-90.07177280693578"
    }
  },
  {
    "service_request": "2024-1152727",
    "request_type": "Trash/Recycling",
    "request_reason": "Order Trash Cart",
    "date_created": "2024-12-03T15:41:10.000",
    "date_modified": "2024-12-03T15:41:11.000",
    "request_status": "Pending",
    "responsible_agency": "Department of Sanitation",
    "final_address": "1331 Milton St",
    "address_councildis": "D",
    "status": "Assigned to Contractor",
    "contractor": "IV Waste",
    "rowid": "1152727",
    "final_x": "3677614.378",
    "final_y": "546130.025232",
    "longitude": "-90.07983504527778",
    "latitude": "29.995785633819057",
    "geocoded_column": {
      "latitude": "29.995785633819057",
      "longitude": "-90.07983504527778"
    }
  },
  {
    "service_request": "2024-1152726",
    "request_type": "Trash/Recycling",
    "request_reason": "Request a Large Item Pick Up",
    "date_created": "2024-12-03T15:40:43.000",
    "date_modified": "2024-12-03T15:40:44.000",
    "request_status": "Pending",
    "responsible_agency": "Department of Sanitation",
    "final_address": "10710 Kinneil Rd",
    "address_councildis": "E",
    "status": "Assigned to Contractor",
    "contractor": "Waste Pro",
    "rowid": "1152726",
    "final_x": "3710937.92318",
    "final_y": "563833.487713",
    "longitude": "-89.9739063564982",
    "latitude": "30.043418781260645",
    "geocoded_column": {
      "latitude": "30.043418781260645",
      "longitude": "-89.9739063564982"
    }
  },
  {
    "service_request": "2024-1152725",
    "request_type": "Trash/Recycling",
    "request_reason": "Request a Large Item Pick Up",
    "date_created": "2024-12-03T15:40:21.000",
    "date_modified": "2024-12-03T15:40:22.000",
    "request_status": "Pending",
    "responsible_agency": "Department of Sanitation",
    "final_address": "3945 Tall Pines Dr",
    "address_councildis": "C",
    "status": "Assigned to Contractor",
    "contractor": "Richards Disposal",
    "rowid": "1152725",
    "final_x": "3704791.32087",
    "final_y": "512879.643569",
    "longitude": "-89.99521265894751",
    "latitude": "29.903513483443987",
    "geocoded_column": {
      "latitude": "29.903513483443987",
      "longitude": "-89.99521265894751"
    }
  },
  {
    "service_request": "2024-1152724",
    "request_type": "Trash/Recycling",
    "request_reason": "Illegal Dumping",
    "date_created": "2024-12-03T15:36:21.000",
    "date_modified": "2024-12-03T15:36:22.000",
    "request_status": "Pending",
    "responsible_agency": "Department of Sanitation",
    "final_address": "4028 Reynes St",
    "address_councildis": "E",
    "status": "Pending",
    "rowid": "1152724",
    "final_x": "3699452.91716",
    "final_y": "551527.003221",
    "longitude": "-90.01065258491225",
    "latitude": "30.009950331170547",
    "geocoded_column": {
      "latitude": "30.009950331170547",
      "longitude": "-90.01065258491225"
    }
  },
  {
    "service_request": "2024-1152723",
    "request_type": "Property Maintenance",
    "request_reason": "Property Maintenance",
    "date_created": "2024-12-03T15:29:29.000",
    "date_modified": "2024-12-03T15:45:40.000",
    "case_close_date": "2024-12-03T09:45:40.000",
    "request_status": "Closed",
    "responsible_agency": "Department of Code Enforcement",
    "final_address": "8601 Bill St",
    "address_councildis": "E",
    "status": "Referred to Code Enforcement",
    "rowid": "1152723",
    "final_x": "3703704.43345",
    "final_y": "563238.8712",
    "longitude": "-89.99678899883781",
    "latitude": "30.042017803963272",
    "geocoded_column": {
      "latitude": "30.042017803963272",
      "longitude": "-89.99678899883781"
    }
  },
  {
    "service_request": "2024-1152722",
    "request_type": "Trash/Recycling",
    "request_reason": "Request a Large Item Pick Up",
    "date_created": "2024-12-03T15:28:18.000",
    "date_modified": "2024-12-03T15:28:19.000",
    "request_status": "Pending",
    "responsible_agency": "Department of Sanitation",
    "final_address": "1624 Farragut St",
    "address_councildis": "C",
    "status": "Assigned to Contractor",
    "contractor": "Richards Disposal",
    "rowid": "1152722",
    "final_x": "3692358.29661",
    "final_y": "525172.041469",
    "longitude": "-90.03401116275724",
    "latitude": "29.937706835375035",
    "geocoded_column": {
      "latitude": "29.937706835375035",
      "longitude": "-90.03401116275724"
    }
  },
  {
    "service_request": "2024-1152721",
    "request_type": "Trash/Recycling",
    "request_reason": "Request a Large Item Pick Up",
    "date_created": "2024-12-03T15:27:49.000",
    "date_modified": "2024-12-03T15:27:49.000",
    "request_status": "Closed",
    "responsible_agency": "Department of Sanitation",
    "final_address": "1624 Farragut St",
    "address_councildis": "C",
    "status": "Resolved",
    "rowid": "1152721",
    "final_x": "3692358.29661",
    "final_y": "525172.041469",
    "longitude": "-90.03401116275724",
    "latitude": "29.937706835375035",
    "geocoded_column": {
      "latitude": "29.937706835375035",
      "longitude": "-90.03401116275724"
    }
  },
  {
    "service_request": "2024-1152720",
    "request_type": "Trash/Recycling",
    "request_reason": "Repair Trash Cart",
    "date_created": "2024-12-03T15:27:46.000",
    "date_modified": "2024-12-03T15:27:48.000",
    "request_status": "Pending",
    "responsible_agency": "Department of Sanitation",
    "final_address": "6232 Marshal Foch St",
    "address_councildis": "A",
    "status": "Assigned to Contractor",
    "contractor": "IV Waste",
    "rowid": "1152720",
    "final_x": "3669896.17902",
    "final_y": "548731.265171",
    "longitude": "-90.10412810021703",
    "latitude": "30.00316804543225",
    "geocoded_column": {
      "latitude": "30.00316804543225",
      "longitude": "-90.10412810021703"
    }
  },
  {
    "service_request": "2024-1152719",
    "request_type": "Trash/Recycling",
    "request_reason": "Request a Large Item Pick Up",
    "date_created": "2024-12-03T15:23:58.000",
    "date_modified": "2024-12-03T15:23:59.000",
    "request_status": "Pending",
    "responsible_agency": "Department of Sanitation",
    "final_address": "3318 General Ogden St",
    "address_councildis": "A",
    "status": "Assigned to Contractor",
    "contractor": "IV Waste",
    "rowid": "1152719",
    "final_x": "3664999.15924",
    "final_y": "535961.412935",
    "longitude": "-90.12002575414498",
    "latitude": "29.968198800747736",
    "geocoded_column": {
      "latitude": "29.968198800747736",
      "longitude": "-90.12002575414498"
    }
  },
  {
    "service_request": "2024-1152718",
    "request_type": "Trash/Recycling",
    "request_reason": "Request a Large Item Pick Up",
    "date_created": "2024-12-03T15:23:17.000",
    "date_modified": "2024-12-03T15:32:37.000",
    "request_status": "Pending",
    "responsible_agency": "Department of Sanitation",
    "final_address": "104 Constitution St, New Orleans, Louisiana, 70114",
    "address_councildis": "C",
    "contractor": "Richards Disposal",
    "rowid": "1152718",
    "final_x": "3693206.05846",
    "final_y": "528247.77728",
    "longitude": "-90.03122437871811",
    "latitude": "29.946137590915686",
    "geocoded_column": {
      "latitude": "29.946137590915686",
      "longitude": "-90.03122437871811"
    }
  },
  {
    "service_request": "2024-1152717",
    "request_type": "Trash/Recycling",
    "request_reason": "Repair Trash Cart",
    "date_created": "2024-12-03T15:23:06.000",
    "date_modified": "2024-12-03T15:23:07.000",
    "request_status": "Pending",
    "responsible_agency": "Department of Sanitation",
    "final_address": "13060 N Lake Carmel Dr",
    "address_councildis": "E",
    "status": "Assigned to Contractor",
    "contractor": "Waste Pro",
    "rowid": "1152717",
    "final_x": "3716858.30296",
    "final_y": "568895.309093",
    "longitude": "-89.95500323494524",
    "latitude": "30.05714225349378",
    "geocoded_column": {
      "latitude": "30.05714225349378",
      "longitude": "-89.95500323494524"
    }
  },
  {
    "service_request": "2024-1152716",
    "request_type": "Trash/Recycling",
    "request_reason": "Replace Recycling Cart",
    "date_created": "2024-12-03T15:22:57.000",
    "date_modified": "2024-12-03T15:22:57.000",
    "request_status": "Pending",
    "responsible_agency": "Department of Sanitation",
    "final_address": "7532 Horizon Dr",
    "address_councildis": "E",
    "status": "Pending",
    "rowid": "1152716",
    "final_x": "3725273.33702",
    "final_y": "569708.616998",
    "longitude": "-89.92837336730125",
    "latitude": "30.059097494703302",
    "geocoded_column": {
      "latitude": "30.059097494703302",
      "longitude": "-89.92837336730125"
    }
  },
  {
    "service_request": "2024-1152715",
    "request_type": "Trash/Recycling",
    "request_reason": "Request a Large Item Pick Up",
    "date_created": "2024-12-03T15:22:30.000",
    "date_modified": "2024-12-03T15:22:31.000",
    "request_status": "Pending",
    "responsible_agency": "Department of Sanitation",
    "final_address": "104 Constitution St, New Orleans, Louisiana, 70114",
    "address_councildis": "C",
    "status": "Assigned to Contractor",
    "contractor": "Richards Disposal",
    "rowid": "1152715",
    "final_x": "3693206.05846",
    "final_y": "528247.77728",
    "longitude": "-90.03122437871811",
    "latitude": "29.946137590915686",
    "geocoded_column": {
      "latitude": "29.946137590915686",
      "longitude": "-90.03122437871811"
    }
  },
  {
    "service_request": "2024-1152714",
    "request_type": "Trash/Recycling",
    "request_reason": "Order Trash Cart",
    "date_created": "2024-12-03T15:22:01.000",
    "date_modified": "2024-12-03T15:22:02.000",
    "request_status": "Pending",
    "responsible_agency": "Department of Sanitation",
    "final_address": "3301 Feliciana St Apt A",
    "address_councildis": "D",
    "status": "Assigned to Contractor",
    "contractor": "IV Waste",
    "rowid": "1152714",
    "final_x": "3690999.16496",
    "final_y": "544764.298575",
    "longitude": "-90.03760257546459",
    "latitude": "29.99162097716296",
    "geocoded_column": {
      "latitude": "29.99162097716296",
      "longitude": "-90.03760257546459"
    }
  },
  {
    "service_request": "2024-1152713",
    "request_type": "Abandoned Vehicles",
    "request_reason": "Abandoned/Junk Vehicles",
    "date_created": "2024-12-03T15:18:11.000",
    "date_modified": "2024-12-03T15:24:12.000",
    "request_status": "Pending",
    "responsible_agency": "Department of Public Works",
    "final_address": "3615 Tulane Ave",
    "address_councildis": "B",
    "status": "Pending",
    "rowid": "1152713",
    "final_x": "3671033.957",
    "final_y": "535489.962118",
    "longitude": "-90.10098357592663",
    "latitude": "29.966725382164732",
    "geocoded_column": {
      "latitude": "29.966725382164732",
      "longitude": "-90.10098357592663"
    }
  },
  {
    "service_request": "2024-1152712",
    "request_type": "Street and Traffic Signs",
    "request_reason": "New Disabled Parking Sign Request ",
    "date_created": "2024-12-03T15:13:22.000",
    "date_modified": "2024-12-03T15:13:23.000",
    "request_status": "Pending",
    "responsible_agency": "Department of Public Works",
    "final_address": "4401 Paris Ave",
    "address_councildis": "D",
    "status": "Pending",
    "rowid": "1152712",
    "final_x": "3679554.62965",
    "final_y": "548587.339155",
    "longitude": "-90.07362061677966",
    "latitude": "30.00248386955318",
    "geocoded_column": {
      "latitude": "30.00248386955318",
      "longitude": "-90.07362061677966"
    }
  },
  {
    "service_request": "2024-1152711",
    "request_type": "Trash/Recycling",
    "request_reason": "Repair Trash Cart",
    "date_created": "2024-12-03T15:11:42.000",
    "date_modified": "2024-12-03T15:11:43.000",
    "request_status": "Pending",
    "responsible_agency": "Department of Sanitation",
    "final_address": "2208 Gravier St",
    "address_councildis": "B",
    "status": "Assigned to Contractor",
    "contractor": "IV Waste",
    "rowid": "1152711",
    "final_x": "3675727.24065",
    "final_y": "532425.984515",
    "longitude": "-90.08626750093468",
    "latitude": "29.95816084913193",
    "geocoded_column": {
      "latitude": "29.95816084913193",
      "longitude": "-90.08626750093468"
    }
  },
  {
    "service_request": "2024-1152710",
    "request_type": "Trash/Recycling",
    "request_reason": "Missed Trash Pick-Up",
    "date_created": "2024-12-03T15:11:11.000",
    "date_modified": "2024-12-03T17:33:39.000",
    "case_close_date": "2024-12-03T11:33:39.000",
    "request_status": "Closed",
    "responsible_agency": "Department of Sanitation",
    "final_address": "2546 Columbus St",
    "address_councildis": "D",
    "status": "Invalid Request",
    "contractor": "IV Waste",
    "contractor_action": "Invalid",
    "rowid": "1152710",
    "final_x": "3678770.46286",
    "final_y": "539411.188298",
    "longitude": "-90.0764158876433",
    "latitude": "29.977276352262624",
    "geocoded_column": {
      "latitude": "29.977276352262624",
      "longitude": "-90.0764158876433"
    }
  },
  {
    "service_request": "2024-1152709",
    "request_type": "Trash/Recycling",
    "request_reason": "Request a Large Item Pick Up",
    "date_created": "2024-12-03T15:02:18.000",
    "date_modified": "2024-12-03T15:02:19.000",
    "request_status": "Pending",
    "responsible_agency": "Department of Sanitation",
    "final_address": "5300 Cameron Blvd",
    "address_councildis": "D",
    "status": "Assigned to Contractor",
    "contractor": "IV Waste",
    "rowid": "1152709",
    "final_x": "3682539.1373",
    "final_y": "552243.699094",
    "longitude": "-90.06406423512159",
    "latitude": "30.012446983174012",
    "geocoded_column": {
      "latitude": "30.012446983174012",
      "longitude": "-90.06406423512159"
    }
  },
  {
    "service_request": "2024-1152708",
    "request_type": "Trash/Recycling",
    "request_reason": "Order Recycling Cart",
    "date_created": "2024-12-03T14:56:48.000",
    "date_modified": "2024-12-03T14:56:49.000",
    "request_status": "Pending",
    "responsible_agency": "Department of Sanitation",
    "final_address": "4437 Kennon Ave",
    "address_councildis": "D",
    "status": "Pending",
    "rowid": "1152708",
    "final_x": "3677529.97448",
    "final_y": "548758.040467",
    "longitude": "-90.08001086505426",
    "latitude": "30.00301428552286",
    "geocoded_column": {
      "latitude": "30.00301428552286",
      "longitude": "-90.08001086505426"
    }
  },
  {
    "service_request": "2024-1152707",
    "request_type": "Trash/Recycling",
    "request_reason": "Replace Trash Cart",
    "date_created": "2024-12-03T14:56:00.000",
    "date_modified": "2024-12-03T14:56:01.000",
    "request_status": "Pending",
    "responsible_agency": "Department of Sanitation",
    "final_address": "4437 Kennon Ave",
    "address_councildis": "D",
    "status": "Assigned to Contractor",
    "contractor": "IV Waste",
    "rowid": "1152707",
    "final_x": "3677529.97448",
    "final_y": "548758.040467",
    "longitude": "-90.08001086505426",
    "latitude": "30.00301428552286",
    "geocoded_column": {
      "latitude": "30.00301428552286",
      "longitude": "-90.08001086505426"
    }
  },
  {
    "service_request": "2024-1152706",
    "request_type": "Trash/Recycling",
    "request_reason": "Request a Large Item Pick Up",
    "date_created": "2024-12-03T14:51:40.000",
    "date_modified": "2024-12-03T14:51:41.000",
    "request_status": "Pending",
    "responsible_agency": "Department of Sanitation",
    "final_address": "2317 N Rampart St HM",
    "address_councildis": "C",
    "status": "Assigned to Contractor",
    "contractor": "IV Waste",
    "rowid": "1152706",
    "final_x": "3685607.26287",
    "final_y": "536021.260871",
    "longitude": "-90.05494251445307",
    "latitude": "29.967747252357427",
    "geocoded_column": {
      "latitude": "29.967747252357427",
      "longitude": "-90.05494251445307"
    }
  },
  {
    "service_request": "2024-1152705",
    "request_type": "Trash/Recycling",
    "request_reason": "Request a Large Item Pick Up",
    "date_created": "2024-12-03T14:50:00.000",
    "date_modified": "2024-12-03T14:50:01.000",
    "request_status": "Pending",
    "responsible_agency": "Department of Sanitation",
    "final_address": "4740 Sherwood Dr",
    "address_councildis": "E",
    "status": "Assigned to Contractor",
    "contractor": "Waste Pro",
    "rowid": "1152705",
    "final_x": "3717936.25932",
    "final_y": "556904.797082",
    "longitude": "-89.95205288478644",
    "latitude": "30.024137524794895",
    "geocoded_column": {
      "latitude": "30.024137524794895",
      "longitude": "-89.95205288478644"
    }
  },
  {
    "service_request": "2024-1152704",
    "request_type": "Trash/Recycling",
    "request_reason": "Illegal Dumping",
    "date_created": "2024-12-03T14:44:06.000",
    "date_modified": "2024-12-03T14:44:06.000",
    "request_status": "Pending",
    "responsible_agency": "Department of Sanitation",
    "final_address": "4619 S Robertson St",
    "address_councildis": "B",
    "status": "Pending",
    "rowid": "1152704",
    "final_x": "3669570.24423",
    "final_y": "524354.80966",
    "longitude": "-90.10598265006745",
    "latitude": "29.936150566911035",
    "geocoded_column": {
      "latitude": "29.936150566911035",
      "longitude": "-90.10598265006745"
    }
  },
  {
    "service_request": "2024-1152703",
    "request_type": "Trash/Recycling",
    "request_reason": "Replace Trash Cart",
    "date_created": "2024-12-03T14:43:44.000",
    "date_modified": "2024-12-03T14:43:45.000",
    "request_status": "Pending",
    "responsible_agency": "Department of Sanitation",
    "final_address": "6701 Patterson Rd",
    "address_councildis": "C",
    "status": "Assigned to Contractor",
    "contractor": "Richards Disposal",
    "rowid": "1152703",
    "final_x": "3708924.7587",
    "final_y": "520364.5806",
    "longitude": "-89.98188905731051",
    "latitude": "29.92396108382349",
    "geocoded_column": {
      "latitude": "29.92396108382349",
      "longitude": "-89.98188905731051"
    }
  },
  {
    "service_request": "2024-1152702",
    "request_type": "Streetlights",
    "request_reason": "Streetlight Outage/Malfunction",
    "date_created": "2024-12-03T14:41:07.000",
    "date_modified": "2024-12-03T14:41:09.000",
    "request_status": "Pending",
    "responsible_agency": "Department of Public Works",
    "final_address": "2903 Octavia St",
    "address_councildis": "A",
    "status": "Pending",
    "contractor": "Legacy Professional Services",
    "rowid": "1152702",
    "final_x": "3668070.42273",
    "final_y": "526056.37523",
    "longitude": "-90.11066032311759",
    "latitude": "29.940873413534753",
    "geocoded_column": {
      "latitude": "29.940873413534753",
      "longitude": "-90.11066032311759"
    }
  },
  {
    "service_request": "2024-1152701",
    "request_type": "Property Maintenance",
    "request_reason": "Property Maintenance",
    "date_created": "2024-12-03T14:39:47.000",
    "date_modified": "2024-12-03T15:15:33.000",
    "case_close_date": "2024-12-03T09:15:33.000",
    "request_status": "Closed",
    "responsible_agency": "Department of Code Enforcement",
    "final_address": "7515 Poitevent Ave",
    "address_councildis": "E",
    "status": "Referred to Code Enforcement",
    "rowid": "1152701",
    "final_x": "3707181.15019",
    "final_y": "563843.504417",
    "longitude": "-89.98577887686498",
    "latitude": "30.04356833963095",
    "geocoded_column": {
      "latitude": "30.04356833963095",
      "longitude": "-89.98577887686498"
    }
  },
  {
    "service_request": "2024-1152700",
    "request_type": "Property Maintenance",
    "request_reason": "Property Maintenance",
    "date_created": "2024-12-03T14:37:08.000",
    "date_modified": "2024-12-03T15:23:47.000",
    "case_close_date": "2024-12-03T09:23:47.000",
    "request_status": "Closed",
    "responsible_agency": "Department of Code Enforcement",
    "final_address": "6901 Pritchard Pl",
    "address_councildis": "B",
    "status": "Referred to Code Enforcement",
    "rowid": "1152700",
    "final_x": "3668093.09537",
    "final_y": "531119.838786",
    "longitude": "-90.11041812550769",
    "latitude": "29.954795626696427",
    "geocoded_column": {
      "latitude": "29.954795626696427",
      "longitude": "-90.11041812550769"
    }
  },
  {
    "service_request": "2024-1152699",
    "request_type": "Trash/Recycling",
    "request_reason": "Repair Trash Cart",
    "date_created": "2024-12-03T14:34:02.000",
    "date_modified": "2024-12-03T14:34:26.000",
    "request_status": "Pending",
    "responsible_agency": "Department of Sanitation",
    "final_address": "10 Marywood Ct",
    "address_councildis": "E",
    "status": "Assigned to Contractor",
    "contractor": "Waste Pro",
    "rowid": "1152699",
    "final_x": "3712690.16901",
    "final_y": "566470.829219",
    "longitude": "-89.96826927703182",
    "latitude": "30.05061312540942",
    "geocoded_column": {
      "latitude": "30.05061312540942",
      "longitude": "-89.96826927703182"
    }
  },
  {
    "service_request": "2024-1152698",
    "request_type": "Trash/Recycling",
    "request_reason": "Request a Large Item Pick Up",
    "date_created": "2024-12-03T14:33:27.000",
    "date_modified": "2024-12-03T14:33:28.000",
    "request_status": "Pending",
    "responsible_agency": "Department of Sanitation",
    "final_address": "11259 Winrock Dr",
    "address_councildis": "E",
    "status": "Assigned to Contractor",
    "contractor": "Waste Pro",
    "rowid": "1152698",
    "final_x": "3716428.80338",
    "final_y": "561528.077919",
    "longitude": "-89.95664058932091",
    "latitude": "30.036899574205986",
    "geocoded_column": {
      "latitude": "30.036899574205986",
      "longitude": "-89.95664058932091"
    }
  },
  {
    "service_request": "2024-1152697",
    "request_type": "Trash/Recycling",
    "request_reason": "Request a Large Item Pick Up",
    "date_created": "2024-12-03T14:33:20.000",
    "date_modified": "2024-12-03T14:33:21.000",
    "request_status": "Pending",
    "responsible_agency": "Department of Sanitation",
    "final_address": "14210 Dwyer Blvd",
    "address_councildis": "E",
    "status": "Assigned to Contractor",
    "contractor": "Waste Pro",
    "rowid": "1152697",
    "final_x": "3729190.22624",
    "final_y": "563070.924064",
    "longitude": "-89.91625206452701",
    "latitude": "30.04071400019202",
    "geocoded_column": {
      "latitude": "30.04071400019202",
      "longitude": "-89.91625206452701"
    }
  },
  {
    "service_request": "2024-1152696",
    "request_type": "Trash/Recycling",
    "request_reason": "Repair Trash Cart",
    "date_created": "2024-12-03T14:32:18.000",
    "date_modified": "2024-12-03T14:32:19.000",
    "request_status": "Pending",
    "responsible_agency": "Department of Sanitation",
    "final_address": "419 22Nd St",
    "address_councildis": "A",
    "status": "Assigned to Contractor",
    "contractor": "IV Waste",
    "rowid": "1152696",
    "final_x": "3664659.93236",
    "final_y": "549411.398739",
    "longitude": "-90.12064751542755",
    "latitude": "30.005191592168593",
    "geocoded_column": {
      "latitude": "30.005191592168593",
      "longitude": "-90.12064751542755"
    }
  },
  {
    "service_request": "2024-1152695",
    "request_type": "Trash/Recycling",
    "request_reason": "Request a Large Item Pick Up",
    "date_created": "2024-12-03T14:30:25.000",
    "date_modified": "2024-12-03T14:30:26.000",
    "request_status": "Pending",
    "responsible_agency": "Department of Sanitation",
    "final_address": "6615 Louis Xiv St",
    "address_councildis": "A",
    "status": "Assigned to Contractor",
    "contractor": "IV Waste",
    "rowid": "1152695",
    "final_x": "3668560.40046",
    "final_y": "551596.811477",
    "longitude": "-90.1082512496993",
    "latitude": "30.01108663048943",
    "geocoded_column": {
      "latitude": "30.01108663048943",
      "longitude": "-90.1082512496993"
    }
  },
  {
    "service_request": "2024-1152694",
    "request_type": "Abandoned Vehicles",
    "request_reason": "Abandoned/Junk Vehicles",
    "date_created": "2024-12-03T14:29:30.000",
    "date_modified": "2024-12-03T14:29:33.000",
    "request_status": "Pending",
    "responsible_agency": "Department of Public Works",
    "final_address": "7530 Pineridge St",
    "address_councildis": "E",
    "status": "Pending",
    "rowid": "1152694",
    "final_x": "3719289.60223",
    "final_y": "571582.215656",
    "longitude": "-89.9472155997439",
    "latitude": "30.06444948596262",
    "geocoded_column": {
      "latitude": "30.06444948596262",
      "longitude": "-89.9472155997439"
    }
  },
  {
    "service_request": "2024-1152693",
    "request_type": "Abandoned Vehicles",
    "request_reason": "Abandoned/Junk Vehicles",
    "date_created": "2024-12-03T14:23:54.000",
    "date_modified": "2024-12-03T14:23:55.000",
    "request_status": "Pending",
    "responsible_agency": "Department of Public Works",
    "final_address": "629 Montegut St",
    "address_councildis": "C",
    "status": "Pending",
    "rowid": "1152693",
    "final_x": "3688060.58499",
    "final_y": "534522.701509",
    "longitude": "-90.04724799362143",
    "latitude": "29.9635512469344",
    "geocoded_column": {
      "latitude": "29.9635512469344",
      "longitude": "-90.04724799362143"
    }
  },
  {
    "service_request": "2024-1152692",
    "request_type": "Trash/Recycling",
    "request_reason": "Illegal Dumping",
    "date_created": "2024-12-03T14:23:52.000",
    "date_modified": "2024-12-03T14:23:52.000",
    "request_status": "Pending",
    "responsible_agency": "Department of Sanitation",
    "final_address": "2323 Ursulines Ave",
    "address_councildis": "D",
    "status": "Pending",
    "rowid": "1152692",
    "final_x": "3678865.44328",
    "final_y": "537264.142728",
    "longitude": "-90.07619030582468",
    "latitude": "29.971369850917124",
    "geocoded_column": {
      "latitude": "29.971369850917124",
      "longitude": "-90.07619030582468"
    }
  },
  {
    "service_request": "2024-1152691",
    "request_type": "Abandoned Vehicles",
    "request_reason": "Abandoned/Junk Vehicles",
    "date_created": "2024-12-03T14:21:54.000",
    "date_modified": "2024-12-03T14:23:07.000",
    "request_status": "Pending",
    "responsible_agency": "Department of Public Works",
    "final_address": "I 510 S & LAKE FOREST BLVD",
    "address_councildis": "E",
    "rowid": "1152691",
    "final_x": "3721849.53",
    "final_y": "563782.6",
    "longitude": "-89.93942347403858",
    "latitude": "30.042918393447007",
    "geocoded_column": {
      "latitude": "30.042918393447007",
      "longitude": "-89.93942347403858"
    }
  },
  {
    "service_request": "2024-1152690",
    "request_type": "Abandoned Vehicles",
    "request_reason": "Abandoned/Junk Vehicles",
    "date_created": "2024-12-03T14:21:22.000",
    "date_modified": "2024-12-03T14:21:22.000",
    "request_status": "Pending",
    "responsible_agency": "Department of Public Works",
    "final_address": "629 Cherokee St",
    "address_councildis": "A",
    "status": "Pending",
    "rowid": "1152690",
    "final_x": "3662364.38759",
    "final_y": "525545.023037",
    "longitude": "-90.12869235048296",
    "latitude": "29.939633541859468",
    "geocoded_column": {
      "latitude": "29.939633541859468",
      "longitude": "-90.12869235048296"
    }
  },
  {
    "service_request": "2024-1152689",
    "request_type": "General Services",
    "request_reason": "General Service Request",
    "date_created": "2024-12-03T14:20:45.000",
    "date_modified": "2024-12-03T15:11:13.000",
    "case_close_date": "2024-12-03T08:22:43.000",
    "request_status": "Closed",
    "responsible_agency": "Orleans Parish Communication District",
    "final_address": "CANAL ST & S ROBERTSON ST & N ROBERTSON ST",
    "address_councildis": "B",
    "status": "Referred to Risk Management",
    "rowid": "1152689",
    "final_x": "3678730.9",
    "final_y": "532601.78",
    "longitude": "-90.07677668414013",
    "latitude": "29.958553998833693",
    "geocoded_column": {
      "latitude": "29.958553998833693",
      "longitude": "-90.07677668414013"
    }
  },
  {
    "service_request": "2024-1152688",
    "request_type": "Trash/Recycling",
    "request_reason": "Request a Large Item Pick Up",
    "date_created": "2024-12-03T14:20:44.000",
    "date_modified": "2024-12-03T14:20:45.000",
    "request_status": "Pending",
    "responsible_agency": "Department of Sanitation",
    "final_address": "4713 E Adams Ct",
    "address_councildis": "E",
    "status": "Assigned to Contractor",
    "contractor": "Waste Pro",
    "rowid": "1152688",
    "final_x": "3718858.20914",
    "final_y": "556918.43305",
    "longitude": "-89.9491392117181",
    "latitude": "30.024144427092885",
    "geocoded_column": {
      "latitude": "30.024144427092885",
      "longitude": "-89.9491392117181"
    }
  },
  {
    "service_request": "2024-1152687",
    "request_type": "Trash/Recycling",
    "request_reason": "Order Recycling Cart",
    "date_created": "2024-12-03T14:19:29.000",
    "date_modified": "2024-12-03T14:19:30.000",
    "request_status": "Pending",
    "responsible_agency": "Department of Sanitation",
    "final_address": "1349 Moss St",
    "address_councildis": "A",
    "status": "Pending",
    "rowid": "1152687",
    "final_x": "3674694.29096",
    "final_y": "540581.517387",
    "longitude": "-90.08924966588515",
    "latitude": "29.980616672267214",
    "geocoded_column": {
      "latitude": "29.980616672267214",
      "longitude": "-90.08924966588515"
    }
  },
  {
    "service_request": "2024-1152686",
    "request_type": "Roads and Streets",
    "request_reason": "Pothole",
    "date_created": "2024-12-03T14:17:15.000",
    "date_modified": "2024-12-03T14:17:15.000",
    "request_status": "Pending",
    "responsible_agency": "Department of Public Works",
    "final_address": "ALBERT ST & PATTERSON DR",
    "address_councildis": "C",
    "status": "Inspected",
    "rowid": "1152686",
    "final_x": "3712050.3",
    "final_y": "519024.18",
    "longitude": "-89.97207320912692",
    "latitude": "29.92017372275242",
    "geocoded_column": {
      "latitude": "29.92017372275242",
      "longitude": "-89.97207320912692"
    }
  },
  {
    "service_request": "2024-1152685",
    "request_type": "Trash/Recycling",
    "request_reason": "Order Recycling Cart",
    "date_created": "2024-12-03T14:17:06.000",
    "date_modified": "2024-12-03T14:17:07.000",
    "request_status": "Pending",
    "responsible_agency": "Department of Sanitation",
    "final_address": "8012 Burthe St",
    "address_councildis": "A",
    "status": "Pending",
    "rowid": "1152685",
    "final_x": "3661491.16922",
    "final_y": "527339.198399",
    "longitude": "-90.1313898177354",
    "latitude": "29.944592167983767",
    "geocoded_column": {
      "latitude": "29.944592167983767",
      "longitude": "-90.1313898177354"
    }
  },
  {
    "service_request": "2024-1152684",
    "request_type": "Trash/Recycling",
    "request_reason": "Illegal Dumping",
    "date_created": "2024-12-03T14:16:16.000",
    "date_modified": "2024-12-03T14:16:17.000",
    "request_status": "Pending",
    "responsible_agency": "Department of Sanitation",
    "final_address": "4861 Ray Ave",
    "address_councildis": "E",
    "status": "Pending",
    "rowid": "1152684",
    "final_x": "3698786.75076",
    "final_y": "555110.928473",
    "longitude": "-90.01262672530262",
    "latitude": "30.019825897675286",
    "geocoded_column": {
      "latitude": "30.019825897675286",
      "longitude": "-90.01262672530262"
    }
  },
  {
    "service_request": "2024-1152683",
    "request_type": "Trash/Recycling",
    "request_reason": "Missed Trash Pick-Up",
    "date_created": "2024-12-03T14:15:56.000",
    "date_modified": "2024-12-03T14:15:57.000",
    "request_status": "Pending",
    "responsible_agency": "Department of Sanitation",
    "final_address": "8736 Hayne Blvd",
    "address_councildis": "E",
    "status": "Assigned to Contractor",
    "contractor": "Waste Pro",
    "rowid": "1152683",
    "final_x": "3704003.43665",
    "final_y": "563849.305697",
    "longitude": "-89.99582152336016",
    "latitude": "30.043686664460576",
    "geocoded_column": {
      "latitude": "30.043686664460576",
      "longitude": "-89.99582152336016"
    }
  },
  {
    "service_request": "2024-1152682",
    "request_type": "Roads and Streets",
    "request_reason": "Sidewalk Damaged or Missing",
    "date_created": "2024-12-03T14:14:24.000",
    "date_modified": "2024-12-03T14:14:25.000",
    "request_status": "Pending",
    "responsible_agency": "Department of Public Works",
    "final_address": "CANAL ST & S ROBERTSON ST & N ROBERTSON ST",
    "address_councildis": "B",
    "status": "Pending",
    "rowid": "1152682",
    "final_x": "3678730.9",
    "final_y": "532601.78",
    "longitude": "-90.07677668414013",
    "latitude": "29.958553998833693",
    "geocoded_column": {
      "latitude": "29.958553998833693",
      "longitude": "-90.07677668414013"
    }
  },
  {
    "service_request": "2024-1152681",
    "request_type": "Property Maintenance",
    "request_reason": "Property Maintenance",
    "date_created": "2024-12-03T14:14:09.000",
    "date_modified": "2024-12-03T15:30:12.000",
    "case_close_date": "2024-12-03T09:30:12.000",
    "request_status": "Closed",
    "responsible_agency": "Department of Code Enforcement",
    "final_address": "4861 Ray Ave",
    "address_councildis": "E",
    "status": "Referred to Code Enforcement",
    "rowid": "1152681",
    "final_x": "3698786.75076",
    "final_y": "555110.928473",
    "longitude": "-90.01262672530262",
    "latitude": "30.019825897675286",
    "geocoded_column": {
      "latitude": "30.019825897675286",
      "longitude": "-90.01262672530262"
    }
  },
  {
    "service_request": "2024-1152680",
    "request_type": "Trash/Recycling",
    "request_reason": "Request a Large Item Pick Up",
    "date_created": "2024-12-03T14:13:34.000",
    "date_modified": "2024-12-03T14:13:35.000",
    "request_status": "Pending",
    "responsible_agency": "Department of Sanitation",
    "final_address": "1813 Congress St",
    "address_councildis": "D",
    "status": "Assigned to Contractor",
    "contractor": "IV Waste",
    "rowid": "1152680",
    "final_x": "3691440.935",
    "final_y": "538324.268745",
    "longitude": "-90.0364373687514",
    "latitude": "29.973899458948193",
    "geocoded_column": {
      "latitude": "29.973899458948193",
      "longitude": "-90.0364373687514"
    }
  },
  {
    "service_request": "2024-1152679",
    "request_type": "Drainage",
    "request_reason": "Street Flooding",
    "date_created": "2024-12-03T14:11:32.000",
    "date_modified": "2024-12-03T14:11:32.000",
    "request_status": "Closed",
    "responsible_agency": "Department of Public Works",
    "final_address": "ALBERT ST & PATTERSON DR",
    "address_councildis": "C",
    "status": "Referred to External Agency",
    "rowid": "1152679",
    "final_x": "3712050.3",
    "final_y": "519024.18",
    "longitude": "-89.97207320912692",
    "latitude": "29.92017372275242",
    "geocoded_column": {
      "latitude": "29.92017372275242",
      "longitude": "-89.97207320912692"
    }
  },
  {
    "service_request": "2024-1152678",
    "request_type": "Trash/Recycling",
    "request_reason": "Request a Large Item Pick Up",
    "date_created": "2024-12-03T14:10:00.000",
    "date_modified": "2024-12-03T14:10:02.000",
    "request_status": "Pending",
    "responsible_agency": "Department of Sanitation",
    "final_address": "3150 Dickens Dr",
    "address_councildis": "C",
    "status": "Assigned to Contractor",
    "contractor": "Richards Disposal",
    "rowid": "1152678",
    "final_x": "3708363.71448",
    "final_y": "518568.420727",
    "longitude": "-89.98372683799145",
    "latitude": "29.91904045543256",
    "geocoded_column": {
      "latitude": "29.91904045543256",
      "longitude": "-89.98372683799145"
    }
  },
  {
    "service_request": "2024-1152677",
    "request_type": "Trash/Recycling",
    "request_reason": "Request a Large Item Pick Up",
    "date_created": "2024-12-03T14:08:35.000",
    "date_modified": "2024-12-03T14:08:36.000",
    "request_status": "Pending",
    "responsible_agency": "Department of Sanitation",
    "final_address": "7963 Jahncke Rd",
    "address_councildis": "E",
    "status": "Assigned to Contractor",
    "contractor": "Waste Pro",
    "rowid": "1152677",
    "final_x": "3713420.77131",
    "final_y": "569409.67607",
    "longitude": "-89.96584926839381",
    "latitude": "30.058669799760057",
    "geocoded_column": {
      "latitude": "30.058669799760057",
      "longitude": "-89.96584926839381"
    }
  },
  {
    "service_request": "2024-1152676",
    "request_type": "Trash/Recycling",
    "request_reason": "Request a Large Item Pick Up",
    "date_created": "2024-12-03T14:07:21.000",
    "date_modified": "2024-12-03T14:07:21.000",
    "request_status": "Pending",
    "responsible_agency": "Department of Sanitation",
    "final_address": "8650 Dinkins St",
    "address_councildis": "E",
    "status": "Assigned to Contractor",
    "contractor": "Waste Pro",
    "rowid": "1152676",
    "final_x": "3704075.85393",
    "final_y": "563038.32528",
    "longitude": "-89.9956225774144",
    "latitude": "30.04145446425451",
    "geocoded_column": {
      "latitude": "30.04145446425451",
      "longitude": "-89.9956225774144"
    }
  },
  {
    "service_request": "2024-1152675",
    "request_type": "Trash/Recycling",
    "request_reason": "Request a Large Item Pick Up",
    "date_created": "2024-12-03T14:05:59.000",
    "date_modified": "2024-12-03T14:06:00.000",
    "request_status": "Pending",
    "responsible_agency": "Department of Sanitation",
    "final_address": "2320 Montpelier St",
    "address_councildis": "D",
    "status": "Assigned to Contractor",
    "contractor": "IV Waste",
    "rowid": "1152675",
    "final_x": "3684944.32239",
    "final_y": "546256.038096",
    "longitude": "-90.05667597752733",
    "latitude": "29.995909603671784",
    "geocoded_column": {
      "latitude": "29.995909603671784",
      "longitude": "-90.05667597752733"
    }
  },
  {
    "service_request": "2024-1152674",
    "request_type": "Trash/Recycling",
    "request_reason": "Request a Large Item Pick Up",
    "date_created": "2024-12-03T14:05:15.000",
    "date_modified": "2024-12-03T14:05:16.000",
    "request_status": "Pending",
    "responsible_agency": "Department of Sanitation",
    "final_address": "5226 Revel St",
    "address_councildis": "E",
    "status": "Assigned to Contractor",
    "contractor": "Waste Pro",
    "rowid": "1152674",
    "final_x": "3725029.99468",
    "final_y": "562602.206624",
    "longitude": "-89.92941776123452",
    "latitude": "30.0395660330494",
    "geocoded_column": {
      "latitude": "30.0395660330494",
      "longitude": "-89.92941776123452"
    }
  },
  {
    "service_request": "2024-1152673",
    "request_type": "Trash/Recycling",
    "request_reason": "Return Trash Cart",
    "date_created": "2024-12-03T14:04:09.000",
    "date_modified": "2024-12-03T14:04:10.000",
    "request_status": "Pending",
    "responsible_agency": "Department of Sanitation",
    "final_address": "3630 Live Oak St",
    "address_councildis": "A",
    "status": "Assigned to Contractor",
    "contractor": "IV Waste",
    "rowid": "1152673",
    "final_x": "3664448.16461",
    "final_y": "538015.650121",
    "longitude": "-90.1216972269849",
    "latitude": "29.973863303750544",
    "geocoded_column": {
      "latitude": "29.973863303750544",
      "longitude": "-90.1216972269849"
    }
  },
  {
    "service_request": "2024-1152672",
    "request_type": "Safety & Permits",
    "request_reason": "Construction permit",
    "date_created": "2024-12-03T14:03:25.000",
    "date_modified": "2024-12-03T14:03:26.000",
    "request_status": "Pending",
    "responsible_agency": "Safety and Permits",
    "final_address": "2133 Joseph St A",
    "address_councildis": "A",
    "status": "Pending",
    "rowid": "1152672",
    "final_x": "3667305.06177",
    "final_y": "524026.790716",
    "longitude": "-90.11314494729267",
    "latitude": "29.935315141232728",
    "geocoded_column": {
      "latitude": "29.935315141232728",
      "longitude": "-90.11314494729267"
    }
  },
  {
    "service_request": "2024-1152671",
    "request_type": "Roads and Streets",
    "request_reason": "Street Subsidence (Sinking)",
    "date_created": "2024-12-03T13:56:51.000",
    "date_modified": "2024-12-03T13:56:51.000",
    "request_status": "Pending",
    "responsible_agency": "Department of Public Works",
    "final_address": "936 Girod St",
    "address_councildis": "B",
    "status": "Pending",
    "rowid": "1152671",
    "final_x": "3679515.70728",
    "final_y": "528740.350912",
    "longitude": "-90.07443243461238",
    "latitude": "29.9479126804506",
    "geocoded_column": {
      "latitude": "29.9479126804506",
      "longitude": "-90.07443243461238"
    }
  },
  {
    "service_request": "2024-1152670",
    "request_type": "Streetlights",
    "request_reason": "Streetlight Outage/Malfunction",
    "date_created": "2024-12-03T13:56:05.000",
    "date_modified": "2024-12-03T13:56:07.000",
    "request_status": "Pending",
    "responsible_agency": "Department of Public Works",
    "final_address": "4776 Charlene Dr",
    "address_councildis": "E",
    "status": "Pending",
    "contractor": "Legacy Professional Services",
    "rowid": "1152670",
    "final_x": "3707817.80312",
    "final_y": "555795.969305",
    "longitude": "-89.984066287812",
    "latitude": "30.021420185255586",
    "geocoded_column": {
      "latitude": "30.021420185255586",
      "longitude": "-89.984066287812"
    }
  },
  {
    "service_request": "2024-1152669",
    "request_type": "Trash/Recycling",
    "request_reason": "Request a Large Item Pick Up",
    "date_created": "2024-12-03T13:51:01.000",
    "date_modified": "2024-12-03T13:51:02.000",
    "request_status": "Pending",
    "responsible_agency": "Department of Sanitation",
    "final_address": "2317 General Pershing St",
    "address_councildis": "B",
    "status": "Assigned to Contractor",
    "contractor": "IV Waste",
    "rowid": "1152669",
    "final_x": "3671025.65268",
    "final_y": "523515.219003",
    "longitude": "-90.10141637098738",
    "latitude": "29.933799017591653",
    "geocoded_column": {
      "latitude": "29.933799017591653",
      "longitude": "-90.10141637098738"
    }
  },
  {
    "service_request": "2024-1152668",
    "request_type": "Trash/Recycling",
    "request_reason": "Return Trash Cart",
    "date_created": "2024-12-03T13:49:06.000",
    "date_modified": "2024-12-03T13:49:07.000",
    "request_status": "Pending",
    "responsible_agency": "Department of Sanitation",
    "final_address": "6417 Baccich St",
    "address_councildis": "D",
    "status": "Assigned to Contractor",
    "contractor": "IV Waste",
    "rowid": "1152668",
    "final_x": "3687403.78498",
    "final_y": "556979.355162",
    "longitude": "-90.04852693115232",
    "latitude": "30.025319219275104",
    "geocoded_column": {
      "latitude": "30.025319219275104",
      "longitude": "-90.04852693115232"
    }
  },
  {
    "service_request": "2024-1152667",
    "request_type": "Parks & Parkways",
    "request_reason": "Request Tree Service (Right of Way/Public Property)",
    "date_created": "2024-12-03T13:46:10.000",
    "date_modified": "2024-12-03T13:46:10.000",
    "request_status": "Pending",
    "responsible_agency": "Department of Parks & Parkway",
    "final_address": "1516 Tennessee St",
    "address_councildis": "E",
    "status": "Pending",
    "rowid": "1152667",
    "final_x": "3696107.90256",
    "final_y": "536027.658439",
    "longitude": "-90.02178114597574",
    "latitude": "29.967438533705145",
    "geocoded_column": {
      "latitude": "29.967438533705145",
      "longitude": "-90.02178114597574"
    }
  },
  {
    "service_request": "2024-1152666",
    "request_type": "Trash/Recycling",
    "request_reason": "Repair Trash Cart",
    "date_created": "2024-12-03T13:38:49.000",
    "date_modified": "2024-12-03T13:39:32.000",
    "request_status": "Pending",
    "responsible_agency": "Department of Sanitation",
    "final_address": "6625 Lake Willow Dr",
    "address_councildis": "E",
    "status": "Assigned to Contractor",
    "contractor": "Waste Pro",
    "rowid": "1152666",
    "final_x": "3704066.03774",
    "final_y": "559685.381661",
    "longitude": "-89.99577729422951",
    "latitude": "30.032235500405864",
    "geocoded_column": {
      "latitude": "30.032235500405864",
      "longitude": "-89.99577729422951"
    }
  },
  {
    "service_request": "2024-1152665",
    "request_type": "Trash/Recycling",
    "request_reason": "Request a Large Item Pick Up",
    "date_created": "2024-12-03T13:36:28.000",
    "date_modified": "2024-12-03T13:36:29.000",
    "request_status": "Pending",
    "responsible_agency": "Department of Sanitation",
    "final_address": "5172 Lakeview Ct",
    "address_councildis": "E",
    "status": "Assigned to Contractor",
    "contractor": "Waste Pro",
    "rowid": "1152665",
    "final_x": "3698883.31268",
    "final_y": "556548.020378",
    "longitude": "-90.01226927159038",
    "latitude": "30.0237742919185",
    "geocoded_column": {
      "latitude": "30.0237742919185",
      "longitude": "-90.01226927159038"
    }
  },
  {
    "service_request": "2024-1152664",
    "request_type": "Trash/Recycling",
    "request_reason": "Replace Trash Cart",
    "date_created": "2024-12-03T13:35:41.000",
    "date_modified": "2024-12-03T13:35:42.000",
    "request_status": "Pending",
    "responsible_agency": "Department of Sanitation",
    "final_address": "5172 Lakeview Ct",
    "address_councildis": "E",
    "status": "Assigned to Contractor",
    "contractor": "Waste Pro",
    "rowid": "1152664",
    "final_x": "3698883.31268",
    "final_y": "556548.020378",
    "longitude": "-90.01226927159038",
    "latitude": "30.0237742919185",
    "geocoded_column": {
      "latitude": "30.0237742919185",
      "longitude": "-90.01226927159038"
    }
  },
  {
    "service_request": "2024-1152663",
    "request_type": "Trash/Recycling",
    "request_reason": "Request a Large Item Pick Up",
    "date_created": "2024-12-03T13:35:14.000",
    "date_modified": "2024-12-03T13:35:15.000",
    "request_status": "Pending",
    "responsible_agency": "Department of Sanitation",
    "final_address": "1710 S Gayoso St",
    "address_councildis": "B",
    "status": "Assigned to Contractor",
    "contractor": "IV Waste",
    "rowid": "1152663",
    "final_x": "3670449.62023",
    "final_y": "530190.347457",
    "longitude": "-90.1030086150624",
    "latitude": "29.952170466031944",
    "geocoded_column": {
      "latitude": "29.952170466031944",
      "longitude": "-90.1030086150624"
    }
  },
  {
    "service_request": "2024-1152662",
    "request_type": "Trash/Recycling",
    "request_reason": "Request a Large Item Pick Up",
    "date_created": "2024-12-03T13:31:16.000",
    "date_modified": "2024-12-03T13:49:31.000",
    "request_status": "Pending",
    "responsible_agency": "Department of Sanitation",
    "final_address": "6200 Eastover Dr",
    "address_councildis": "E",
    "status": "Assigned to Contractor",
    "contractor": "Waste Pro",
    "rowid": "1152662",
    "final_x": "3717498.93983",
    "final_y": "564868.848546",
    "longitude": "-89.95313159758682",
    "latitude": "30.046049938574868",
    "geocoded_column": {
      "latitude": "30.046049938574868",
      "longitude": "-89.95313159758682"
    }
  },
  {
    "service_request": "2024-1152661",
    "request_type": "Roads and Streets",
    "request_reason": "Push-up/Pavement Expansion",
    "date_created": "2024-12-03T13:30:51.000",
    "date_modified": "2024-12-03T13:30:52.000",
    "request_status": "Pending",
    "responsible_agency": "Department of Public Works",
    "final_address": "BASIN ST & BASIN EXIT",
    "address_councildis": "C",
    "status": "Pending",
    "rowid": "1152661",
    "final_x": "3680562.4",
    "final_y": "533837.98",
    "longitude": "-90.0709502855728",
    "latitude": "29.96189777523691",
    "geocoded_column": {
      "latitude": "29.96189777523691",
      "longitude": "-90.0709502855728"
    }
  },
  {
    "service_request": "2024-1152660",
    "request_type": "Trash/Recycling",
    "request_reason": "Order Recycling Cart",
    "date_created": "2024-12-03T13:29:00.000",
    "date_modified": "2024-12-03T13:29:01.000",
    "request_status": "Pending",
    "responsible_agency": "Department of Sanitation",
    "final_address": "4219 Tchoupitoulas St",
    "address_councildis": "B",
    "status": "Pending",
    "rowid": "1152660",
    "final_x": "3671768.55143",
    "final_y": "517562.655862",
    "longitude": "-90.09927345679804",
    "latitude": "29.917409390874973",
    "geocoded_column": {
      "latitude": "29.917409390874973",
      "longitude": "-90.09927345679804"
    }
  },
  {
    "service_request": "2024-1152659",
    "request_type": "Roads and Streets",
    "request_reason": "Push-up/Pavement Expansion",
    "date_created": "2024-12-03T13:26:50.000",
    "date_modified": "2024-12-03T13:26:51.000",
    "request_status": "Pending",
    "responsible_agency": "Department of Public Works",
    "final_address": "700 BLK Milan St",
    "address_councildis": "B",
    "status": "Pending",
    "rowid": "1152659",
    "final_x": "3671859.36458",
    "final_y": "518307.396244",
    "longitude": "-90.0989614868256",
    "latitude": "29.919454500843372",
    "geocoded_column": {
      "latitude": "29.919454500843372",
      "longitude": "-90.0989614868256"
    }
  },
  {
    "service_request": "2024-1152658",
    "request_type": "Streetlights",
    "request_reason": "Streetlight Knocked Down/Leaning",
    "date_created": "2024-12-03T13:26:30.000",
    "date_modified": "2024-12-03T13:26:31.000",
    "request_status": "Pending",
    "responsible_agency": "Department of Public Works",
    "final_address": "MARIE ST & LEDA CT",
    "address_councildis": "A",
    "status": "Pending",
    "contractor": "Legacy Professional Services",
    "rowid": "1152658",
    "final_x": "3675630.7",
    "final_y": "541485.98",
    "longitude": "-90.08626098498002",
    "latitude": "29.98307564393761",
    "geocoded_column": {
      "latitude": "29.98307564393761",
      "longitude": "-90.08626098498002"
    }
  },
  {
    "service_request": "2024-1152657",
    "request_type": "Trash/Recycling",
    "request_reason": "Request a Large Item Pick Up",
    "date_created": "2024-12-03T13:25:18.000",
    "date_modified": "2024-12-03T13:25:19.000",
    "request_status": "Pending",
    "responsible_agency": "Department of Sanitation",
    "final_address": "2827 Aubry St",
    "address_councildis": "D",
    "status": "Assigned to Contractor",
    "contractor": "IV Waste",
    "rowid": "1152657",
    "final_x": "3679031.86741",
    "final_y": "541661.064396",
    "longitude": "-90.0755122830844",
    "latitude": "29.98345484416286",
    "geocoded_column": {
      "latitude": "29.98345484416286",
      "longitude": "-90.0755122830844"
    }
  },
  {
    "service_request": "2024-1152656",
    "request_type": "Drainage",
    "request_reason": "Catch Basin Clogged",
    "date_created": "2024-12-03T13:25:10.000",
    "date_modified": "2024-12-03T13:25:10.000",
    "request_status": "Pending",
    "responsible_agency": "Department of Public Works",
    "final_address": "2726 Prytania St",
    "address_councildis": "B",
    "status": "Pending",
    "rowid": "1152656",
    "final_x": "3676306.64277",
    "final_y": "522107.487226",
    "longitude": "-90.08479294057153",
    "latitude": "29.92977103935137",
    "geocoded_column": {
      "latitude": "29.92977103935137",
      "longitude": "-90.08479294057153"
    }
  },
  {
    "service_request": "2024-1152655",
    "request_type": "Trash/Recycling",
    "request_reason": "Request a Large Item Pick Up",
    "date_created": "2024-12-03T13:24:15.000",
    "date_modified": "2024-12-03T13:24:16.000",
    "request_status": "Pending",
    "responsible_agency": "Department of Sanitation",
    "final_address": "2020 Baronne St",
    "address_councildis": "B",
    "status": "Assigned to Contractor",
    "contractor": "IV Waste",
    "rowid": "1152655",
    "final_x": "3677480.42158",
    "final_y": "524737.832188",
    "longitude": "-90.0809967701606",
    "latitude": "29.93696840663906",
    "geocoded_column": {
      "latitude": "29.93696840663906",
      "longitude": "-90.0809967701606"
    }
  },
  {
    "service_request": "2024-1152654",
    "request_type": "Parks & Parkways",
    "request_reason": "Tree Stump (removal, grind)",
    "date_created": "2024-12-03T13:24:02.000",
    "date_modified": "2024-12-03T13:24:02.000",
    "request_status": "Pending",
    "responsible_agency": "Department of Parks & Parkway",
    "final_address": "MARCIA AVE & JACQUELYN CT",
    "address_councildis": "A",
    "status": "Pending",
    "rowid": "1152654",
    "final_x": "3664838.9",
    "final_y": "544859.68",
    "longitude": "-90.12023435548555",
    "latitude": "29.992670716980395",
    "geocoded_column": {
      "latitude": "29.992670716980395",
      "longitude": "-90.12023435548555"
    }
  },
  {
    "service_request": "2024-1152653",
    "request_type": "General Services",
    "request_reason": "General Service Request",
    "date_created": "2024-12-03T13:17:29.000",
    "date_modified": "2024-12-03T13:25:41.000",
    "case_close_date": "2024-12-03T07:25:41.000",
    "request_status": "Closed",
    "responsible_agency": "Orleans Parish Communication District",
    "final_address": "8138 Hampson St",
    "address_councildis": "A",
    "status": "Referred to External Agency",
    "rowid": "1152653",
    "final_x": "3660559.21158",
    "final_y": "527271.299903",
    "longitude": "-90.13433454229992",
    "latitude": "29.944432316274625",
    "geocoded_column": {
      "latitude": "29.944432316274625",
      "longitude": "-90.13433454229992"
    }
  },
  {
    "service_request": "2024-1152652",
    "request_type": "Trash/Recycling",
    "request_reason": "Request a Large Item Pick Up",
    "date_created": "2024-12-03T13:16:50.000",
    "date_modified": "2024-12-03T13:16:51.000",
    "request_status": "Pending",
    "responsible_agency": "Department of Sanitation",
    "final_address": "7620 Daniel Dr",
    "address_councildis": "E",
    "status": "Assigned to Contractor",
    "contractor": "Waste Pro",
    "rowid": "1152652",
    "final_x": "3705026.53201",
    "final_y": "562756.264224",
    "longitude": "-89.99262854480342",
    "latitude": "30.04064835639841",
    "geocoded_column": {
      "latitude": "30.04064835639841",
      "longitude": "-89.99262854480342"
    }
  },
  {
    "service_request": "2024-1152651",
    "request_type": "Streetlights",
    "request_reason": "Streetlight Outage/Malfunction",
    "date_created": "2024-12-03T13:16:46.000",
    "date_modified": "2024-12-03T13:16:47.000",
    "request_status": "Pending",
    "responsible_agency": "Department of Public Works",
    "final_address": "1627 Richland Rd",
    "address_councildis": "C",
    "status": "Pending",
    "contractor": "Legacy Professional Services",
    "rowid": "1152651",
    "final_x": "3697836.79779",
    "final_y": "525064.276349",
    "longitude": "-90.01671912085858",
    "latitude": "29.93723856344169",
    "geocoded_column": {
      "latitude": "29.93723856344169",
      "longitude": "-90.01671912085858"
    }
  },
  {
    "service_request": "2024-1152650",
    "request_type": "Abandoned Vehicles",
    "request_reason": "Abandoned/Junk Vehicles",
    "date_created": "2024-12-03T13:15:38.000",
    "date_modified": "2024-12-03T13:15:39.000",
    "request_status": "Pending",
    "responsible_agency": "Department of Public Works",
    "final_address": "3100 BLK Laussat Pl",
    "address_councildis": "D",
    "status": "Pending",
    "rowid": "1152650",
    "final_x": "3690760.96588",
    "final_y": "541832.889219",
    "longitude": "-90.03845963241373",
    "latitude": "29.98356806000986",
    "geocoded_column": {
      "latitude": "29.98356806000986",
      "longitude": "-90.03845963241373"
    }
  },
  {
    "service_request": "2024-1152649",
    "request_type": "Trash/Recycling",
    "request_reason": "Order Trash Cart",
    "date_created": "2024-12-03T13:15:19.000",
    "date_modified": "2024-12-03T13:15:19.000",
    "request_status": "Pending",
    "responsible_agency": "Department of Sanitation",
    "final_address": "4740 Dodt Ave",
    "address_councildis": "E",
    "status": "Assigned to Contractor",
    "contractor": "Waste Pro",
    "rowid": "1152649",
    "final_x": "3705386.18577",
    "final_y": "555364.291481",
    "longitude": "-89.99176544209499",
    "latitude": "30.020311744435602",
    "geocoded_column": {
      "latitude": "30.020311744435602",
      "longitude": "-89.99176544209499"
    }
  },
  {
    "service_request": "2024-1152648",
    "request_type": "Trash/Recycling",
    "request_reason": "Request a Large Item Pick Up",
    "date_created": "2024-12-03T13:13:10.000",
    "date_modified": "2024-12-03T13:13:10.000",
    "request_status": "Pending",
    "responsible_agency": "Department of Sanitation",
    "final_address": "8632 Bill St",
    "address_councildis": "E",
    "status": "Assigned to Contractor",
    "contractor": "Waste Pro",
    "rowid": "1152648",
    "final_x": "3703931.4339",
    "final_y": "563238.147552",
    "longitude": "-89.99607162340092",
    "latitude": "30.042008531807397",
    "geocoded_column": {
      "latitude": "30.042008531807397",
      "longitude": "-89.99607162340092"
    }
  },
  {
    "service_request": "2024-1152647",
    "request_type": "Trash/Recycling",
    "request_reason": "Request a Large Item Pick Up",
    "date_created": "2024-12-03T13:12:10.000",
    "date_modified": "2024-12-03T13:12:11.000",
    "request_status": "Pending",
    "responsible_agency": "Department of Sanitation",
    "final_address": "2105 New Orleans St",
    "address_councildis": "D",
    "status": "Assigned to Contractor",
    "contractor": "IV Waste",
    "rowid": "1152647",
    "final_x": "3682141.21308",
    "final_y": "539849.603146",
    "longitude": "-90.06575464054313",
    "latitude": "29.978379741117365",
    "geocoded_column": {
      "latitude": "29.978379741117365",
      "longitude": "-90.06575464054313"
    }
  },
  {
    "service_request": "2024-1152646",
    "request_type": "Trash/Recycling",
    "request_reason": "Request a Large Item Pick Up",
    "date_created": "2024-12-03T13:11:28.000",
    "date_modified": "2024-12-03T13:11:29.000",
    "request_status": "Pending",
    "responsible_agency": "Department of Sanitation",
    "final_address": "5630 Royal St",
    "address_councildis": "E",
    "status": "Assigned to Contractor",
    "contractor": "Waste Pro",
    "rowid": "1152646",
    "final_x": "3697897.46736",
    "final_y": "532160.025347",
    "longitude": "-90.01627009278215",
    "latitude": "29.95674747365214",
    "geocoded_column": {
      "latitude": "29.95674747365214",
      "longitude": "-90.01627009278215"
    }
  },
  {
    "service_request": "2024-1152645",
    "request_type": "Trash/Recycling",
    "request_reason": "Order Recycling Cart",
    "date_created": "2024-12-03T13:08:52.000",
    "date_modified": "2024-12-03T13:08:52.000",
    "request_status": "Pending",
    "responsible_agency": "Department of Sanitation",
    "final_address": "6568 Memphis St",
    "address_councildis": "A",
    "status": "Pending",
    "rowid": "1152645",
    "final_x": "3669457.0395",
    "final_y": "551199.961045",
    "longitude": "-90.10543183622502",
    "latitude": "30.009969041450574",
    "geocoded_column": {
      "latitude": "30.009969041450574",
      "longitude": "-90.10543183622502"
    }
  },
  {
    "service_request": "2024-1152644",
    "request_type": "Trash/Recycling",
    "request_reason": "Order Trash Cart",
    "date_created": "2024-12-03T13:07:45.000",
    "date_modified": "2024-12-03T13:07:46.000",
    "request_status": "Pending",
    "responsible_agency": "Department of Sanitation",
    "final_address": "4910 Ray Ave",
    "address_councildis": "E",
    "status": "Assigned to Contractor",
    "contractor": "Waste Pro",
    "rowid": "1152644",
    "final_x": "3698649.92567",
    "final_y": "555286.400537",
    "longitude": "-90.01305265734572",
    "latitude": "30.020312714746694",
    "geocoded_column": {
      "latitude": "30.020312714746694",
      "longitude": "-90.01305265734572"
    }
  },
  {
    "service_request": "2024-1152643",
    "request_type": "Roads and Streets",
    "request_reason": "Pothole",
    "date_created": "2024-12-03T13:05:48.000",
    "date_modified": "2024-12-03T13:05:49.000",
    "request_status": "Pending",
    "responsible_agency": "Department of Public Works",
    "final_address": "5900 Almonaster Ave",
    "address_councildis": "E",
    "status": "Pending",
    "rowid": "1152643",
    "final_x": "3698161.74531",
    "final_y": "549080.420243",
    "longitude": "-90.01482078709545",
    "latitude": "30.0032640615742",
    "geocoded_column": {
      "latitude": "30.0032640615742",
      "longitude": "-90.01482078709545"
    }
  },