[
  {
    "service_request": "2024-1132196",
    "request_type": "Streetlights",
    "request_reason": "Streetlight Outage/Malfunction",
    "date_created": "2024-09-16T23:13:32.000",
    "date_modified": "2024-09-16T23:13:33.000",
    "request_status": "Pending",
    "responsible_agency": "Department of Public Works",
    "final_address": "4033 Velie St",
    "address_councildis": "D",
    "status": "Pending",
    "contractor": "Legacy Professional Services",
    "rowid": "1132196",
    "final_x": "3689635.93782",
    "final_y": "548213.359826",
    "longitude": "-90.04178589854443",
    "latitude": "30.00114696268138",
    "geocoded_column": {
      "latitude": "30.00114696268138",
      "longitude": "-90.04178589854443"
    }
  },
  {
    "service_request": "2024-1132195",
    "request_type": "Streetlights",
    "request_reason": "Streetlight Outage/Malfunction",
    "date_created": "2024-09-16T23:12:08.000",
    "date_modified": "2024-09-16T23:12:09.000",
    "request_status": "Pending",
    "responsible_agency": "Department of Public Works",
    "final_address": "3907 Iroquois St",
    "address_councildis": "D",
    "status": "Pending",
    "contractor": "Legacy Professional Services",
    "rowid": "1132195",
    "final_x": "3689212.431",
    "final_y": "547604.82549",
    "longitude": "-90.04314543435125",
    "latitude": "29.999486833446753",
    "geocoded_column": {
      "latitude": "29.999486833446753",
      "longitude": "-90.04314543435125"
    }
  },
  {
    "service_request": "2024-1132194",
    "request_type": "Hurricane Francine Tree-Related Issues or Emergencies\t",
    "request_reason": "Hurricane Francine Tree-Related Issues or Emergencies",
    "date_created": "2024-09-16T22:58:01.000",
    "date_modified": "2024-09-16T22:58:01.000",
    "request_status": "Pending",
    "responsible_agency": "Department of Parks & Parkway",
    "final_address": "3811 Ford St",
    "address_councildis": "D",
    "status": "Pending",
    "rowid": "1132194",
    "final_x": "3688965.12591",
    "final_y": "547368.144529",
    "longitude": "-90.04393509038067",
    "latitude": "29.998843701022466",
    "geocoded_column": {
      "latitude": "29.998843701022466",
      "longitude": "-90.04393509038067"
    }
  },
  {
    "service_request": "2024-1132193",
    "request_type": "Streetlights",
    "request_reason": "Streetlight Knocked Down/Leaning",
    "date_created": "2024-09-16T22:55:03.000",
    "date_modified": "2024-09-16T22:55:04.000",
    "request_status": "Pending",
    "responsible_agency": "Department of Public Works",
    "final_address": "4033 Velie St",
    "address_councildis": "D",
    "status": "Pending",
    "contractor": "Legacy Professional Services",
    "rowid": "1132193",
    "final_x": "3689635.93782",
    "final_y": "548213.359826",
    "longitude": "-90.04178589854443",
    "latitude": "30.00114696268138",
    "geocoded_column": {
      "latitude": "30.00114696268138",
      "longitude": "-90.04178589854443"
    }
  },
  {
    "service_request": "2024-1132192",
    "request_type": "Drainage",
    "request_reason": "Catch Basin Damaged",
    "date_created": "2024-09-16T22:52:17.000",
    "date_modified": "2024-09-16T22:52:17.000",
    "request_status": "Pending",
    "responsible_agency": "Department of Public Works",
    "final_address": "2831 Chickasaw St",
    "address_councildis": "D",
    "status": "Pending",
    "rowid": "1132192",
    "final_x": "3688899.4543",
    "final_y": "547289.724817",
    "longitude": "-90.04414533437415",
    "latitude": "29.99863010706137",
    "geocoded_column": {
      "latitude": "29.99863010706137",
      "longitude": "-90.04414533437415"
    }
  },
  {
    "service_request": "2024-1132191",
    "request_type": "Parks & Parkways",
    "request_reason": "Request Tree Service (Right of Way/Public Property)",
    "date_created": "2024-09-16T22:43:04.000",
    "date_modified": "2024-09-16T22:43:04.000",
    "request_status": "Pending",
    "responsible_agency": "Department of Parks & Parkway",
    "final_address": "4460 Arts St",
    "address_councildis": "D",
    "status": "Pending",
    "rowid": "1132191",
    "final_x": "3685966.75618",
    "final_y": "549345.781331",
    "longitude": "-90.05333716875867",
    "latitude": "30.004373920300093",
    "geocoded_column": {
      "latitude": "30.004373920300093",
      "longitude": "-90.05333716875867"
    }
  },
  {
    "service_request": "2024-1132190",
    "request_type": "Parks & Parkways",
    "request_reason": "Request Tree Service (Right of Way/Public Property)",
    "date_created": "2024-09-16T22:43:02.000",
    "date_modified": "2024-09-16T22:43:02.000",
    "request_status": "Pending",
    "responsible_agency": "Department of Parks & Parkway",
    "final_address": "4460 Arts St",
    "address_councildis": "D",
    "status": "Pending",
    "rowid": "1132190",
    "final_x": "3685966.75618",
    "final_y": "549345.781331",
    "longitude": "-90.05333716875867",
    "latitude": "30.004373920300093",
    "geocoded_column": {
      "latitude": "30.004373920300093",
      "longitude": "-90.05333716875867"
    }
  },
  {
    "service_request": "2024-1132189",
    "request_type": "Streetlights",
    "request_reason": "Streetlight Outage/Malfunction",
    "date_created": "2024-09-16T22:21:16.000",
    "date_modified": "2024-09-16T22:21:17.000",
    "request_status": "Pending",
    "responsible_agency": "Department of Public Works",
    "final_address": "7837 Plum St",
    "address_councildis": "A",
    "status": "Pending",
    "contractor": "Legacy Professional Services",
    "rowid": "1132189",
    "final_x": "3662860.9257",
    "final_y": "528080.388671",
    "longitude": "-90.12704043537094",
    "latitude": "29.946590624994997",
    "geocoded_column": {
      "latitude": "29.946590624994997",
      "longitude": "-90.12704043537094"
    }
  },
  {
    "service_request": "2024-1132188",
    "request_type": "Trash/Recycling",
    "request_reason": "Storm Debris Collection",
    "date_created": "2024-09-16T21:53:44.000",
    "date_modified": "2024-09-16T21:53:44.000",
    "request_status": "Pending",
    "responsible_agency": "Department of Sanitation",
    "final_address": "2704 Verbena St",
    "address_councildis": "D",
    "status": "Pending",
    "rowid": "1132188",
    "final_x": "3687801.22646",
    "final_y": "547778.308178",
    "longitude": "-90.04759731408473",
    "latitude": "30.000007463826517",
    "geocoded_column": {
      "latitude": "30.000007463826517",
      "longitude": "-90.04759731408473"
    }
  },
  {
    "service_request": "2024-1132187",
    "request_type": "Streetlights",
    "request_reason": "Streetlight Outage/Malfunction",
    "date_created": "2024-09-16T21:42:34.000",
    "date_modified": "2024-09-16T21:42:35.000",
    "request_status": "Pending",
    "responsible_agency": "Department of Public Works",
    "final_address": "6860 Colbert St",
    "address_councildis": "A",
    "status": "Pending",
    "contractor": "Legacy Professional Services",
    "rowid": "1132187",
    "final_x": "3667856.90202",
    "final_y": "553287.315351",
    "longitude": "-90.11041688758415",
    "latitude": "30.015755584660795",
    "geocoded_column": {
      "latitude": "30.015755584660795",
      "longitude": "-90.11041688758415"
    }
  },
  {
    "service_request": "2024-1132186",
    "request_type": "Streetlights",
    "request_reason": "Streetlight Outage/Malfunction",
    "date_created": "2024-09-16T21:40:02.000",
    "date_modified": "2024-09-16T21:40:03.000",
    "request_status": "Pending",
    "responsible_agency": "Department of Public Works",
    "final_address": "2800 BLK Danneel St",
    "address_councildis": "B",
    "status": "Pending",
    "contractor": "Legacy Professional Services",
    "rowid": "1132186",
    "final_x": "3674916.25282",
    "final_y": "523591.304967",
    "longitude": "-90.08913130302243",
    "latitude": "29.933892640763087",
    "geocoded_column": {
      "latitude": "29.933892640763087",
      "longitude": "-90.08913130302243"
    }
  },
  {
    "service_request": "2024-1132184",
    "request_type": "Streetlights",
    "request_reason": "Streetlight Outage/Malfunction",
    "date_created": "2024-09-16T20:30:45.000",
    "date_modified": "2024-09-16T20:30:46.000",
    "request_status": "Pending",
    "responsible_agency": "Department of Public Works",
    "final_address": "1927 Milan St",
    "address_councildis": "B",
    "status": "Pending",
    "contractor": "Legacy Professional Services",
    "rowid": "1132184",
    "final_x": "3671518.6978",
    "final_y": "522242.092346",
    "longitude": "-90.09990311124528",
    "latitude": "29.930283744570684",
    "geocoded_column": {
      "latitude": "29.930283744570684",
      "longitude": "-90.09990311124528"
    }
  },
  {
    "service_request": "2024-1132183",
    "request_type": "Streetlights",
    "request_reason": "Streetlight Outage/Malfunction",
    "date_created": "2024-09-16T20:30:21.000",
    "date_modified": "2024-09-16T20:30:22.000",
    "request_status": "Pending",
    "responsible_agency": "Department of Public Works",
    "final_address": "1927 Milan St",
    "address_councildis": "B",
    "status": "Pending",
    "contractor": "Legacy Professional Services",
    "rowid": "1132183",
    "final_x": "3671518.6978",
    "final_y": "522242.092346",
    "longitude": "-90.09990311124528",
    "latitude": "29.930283744570684",
    "geocoded_column": {
      "latitude": "29.930283744570684",
      "longitude": "-90.09990311124528"
    }
  },
  {
    "service_request": "2024-1132182",
    "request_type": "Streetlights",
    "request_reason": "Streetlight Outage/Malfunction",
    "date_created": "2024-09-16T20:29:55.000",
    "date_modified": "2024-09-16T20:29:56.000",
    "request_status": "Pending",
    "responsible_agency": "Department of Public Works",
    "final_address": "1927 Milan St",
    "address_councildis": "B",
    "status": "Pending",
    "contractor": "Legacy Professional Services",
    "rowid": "1132182",
    "final_x": "3671518.6978",
    "final_y": "522242.092346",
    "longitude": "-90.09990311124528",
    "latitude": "29.930283744570684",
    "geocoded_column": {
      "latitude": "29.930283744570684",
      "longitude": "-90.09990311124528"
    }
  },
  {
    "service_request": "2024-1132181",
    "request_type": "Streetlights",
    "request_reason": "Streetlight Outage/Malfunction",
    "date_created": "2024-09-16T20:29:23.000",
    "date_modified": "2024-09-16T20:29:24.000",
    "request_status": "Pending",
    "responsible_agency": "Department of Public Works",
    "final_address": "1927 Milan St",
    "address_councildis": "B",
    "status": "Pending",
    "contractor": "Legacy Professional Services",
    "rowid": "1132181",
    "final_x": "3671518.6978",
    "final_y": "522242.092346",
    "longitude": "-90.09990311124528",
    "latitude": "29.930283744570684",
    "geocoded_column": {
      "latitude": "29.930283744570684",
      "longitude": "-90.09990311124528"
    }
  },
  {
    "service_request": "2024-1132180",
    "request_type": "Trash/Recycling",
    "request_reason": "Replace Trash Cart",
    "date_created": "2024-09-16T20:24:01.000",
    "date_modified": "2024-09-16T20:24:02.000",
    "request_status": "Pending",
    "responsible_agency": "Department of Sanitation",
    "final_address": "2407 Constance St",
    "address_councildis": "B",
    "status": "Assigned to Contractor",
    "contractor": "IV Waste",
    "rowid": "1132180",
    "final_x": "3678191.44091",
    "final_y": "521177.111417",
    "longitude": "-90.0788751131164",
    "latitude": "29.927156204017606",
    "geocoded_column": {
      "latitude": "29.927156204017606",
      "longitude": "-90.0788751131164"
    }
  },
  {
    "service_request": "2024-1132179",
    "request_type": "Property Maintenance",
    "request_reason": "Property Maintenance",
    "date_created": "2024-09-16T20:16:24.000",
    "date_modified": "2024-09-16T20:16:24.000",
    "request_status": "Pending",
    "responsible_agency": "Department of Code Enforcement",
    "final_address": "2111 Delachaise St",
    "address_councildis": "B",
    "status": "Pending",
    "rowid": "1132179",
    "final_x": "3673165.26907",
    "final_y": "523159.385531",
    "longitude": "-90.09467383265893",
    "latitude": "29.932757165383748",
    "geocoded_column": {
      "latitude": "29.932757165383748",
      "longitude": "-90.09467383265893"
    }
  },
  {
    "service_request": "2024-1132178",
    "request_type": "Property Maintenance",
    "request_reason": "Property Maintenance",
    "date_created": "2024-09-16T20:14:15.000",
    "date_modified": "2024-09-16T20:14:15.000",
    "request_status": "Pending",
    "responsible_agency": "Department of Code Enforcement",
    "final_address": "3511 S Saratoga St",
    "address_councildis": "B",
    "status": "Pending",
    "rowid": "1132178",
    "final_x": "3673014.23668",
    "final_y": "523029.692091",
    "longitude": "-90.09515505507049",
    "latitude": "29.932405038818406",
    "geocoded_column": {
      "latitude": "29.932405038818406",
      "longitude": "-90.09515505507049"
    }
  },
  {
    "service_request": "2024-1132177",
    "request_type": "Trash/Recycling",
    "request_reason": "Order Recycling Cart",
    "date_created": "2024-09-16T20:11:41.000",
    "date_modified": "2024-09-16T20:11:41.000",
    "request_status": "Pending",
    "responsible_agency": "Department of Sanitation",
    "final_address": "737 Hagan St",
    "address_councildis": "A",
    "status": "Pending",
    "rowid": "1132177",
    "final_x": "3674819.20353",
    "final_y": "538719.262345",
    "longitude": "-90.08891901525591",
    "latitude": "29.975492378788648",
    "geocoded_column": {
      "latitude": "29.975492378788648",
      "longitude": "-90.08891901525591"
    }
  },
  {
    "service_request": "2024-1132176",
    "request_type": "Trash/Recycling",
    "request_reason": "Request a Large Item Pick Up",
    "date_created": "2024-09-16T20:07:34.000",
    "date_modified": "2024-09-16T20:07:35.000",
    "request_status": "Pending",
    "responsible_agency": "Department of Sanitation",
    "final_address": "8803 Olive St",
    "address_councildis": "A",
    "status": "Assigned to Contractor",
    "contractor": "IV Waste",
    "rowid": "1132176",
    "final_x": "3665401.99636",
    "final_y": "535901.590663",
    "longitude": "-90.11875557496711",
    "latitude": "29.9680225742866",
    "geocoded_column": {
      "latitude": "29.9680225742866",
      "longitude": "-90.11875557496711"
    }
  },
  {
    "service_request": "2024-1132175",
    "request_type": "Abandoned Vehicles",
    "request_reason": "Abandoned/Junk Vehicles",
    "date_created": "2024-09-16T20:06:39.000",
    "date_modified": "2024-09-16T20:06:39.000",
    "request_status": "Pending",
    "responsible_agency": "Department of Public Works",
    "final_address": "741 Hagan St",
    "address_councildis": "A",
    "status": "Pending",
    "rowid": "1132175",
    "final_x": "3674844.70504",
    "final_y": "538749.674377",
    "longitude": "-90.08883743123336",
    "latitude": "29.975575239942497",
    "geocoded_column": {
      "latitude": "29.975575239942497",
      "longitude": "-90.08883743123336"
    }
  },
  {
    "service_request": "2024-1132174",
    "request_type": "Trash/Recycling",
    "request_reason": "Start Trash Service",
    "date_created": "2024-09-16T20:03:04.000",
    "date_modified": "2024-09-16T20:03:05.000",
    "request_status": "Pending",
    "responsible_agency": "Department of Sanitation",
    "final_address": "2049 Halsey Ave",
    "address_councildis": "C",
    "status": "Assigned to Contractor",
    "contractor": "Richards Disposal",
    "rowid": "1132174",
    "final_x": "3697684.84432",
    "final_y": "523294.231931",
    "longitude": "-90.01726302790252",
    "latitude": "29.93237635226288",
    "geocoded_column": {
      "latitude": "29.93237635226288",
      "longitude": "-90.01726302790252"
    }
  },
  {
    "service_request": "2024-1132173",
    "request_type": "Trash/Recycling",
    "request_reason": "Start Trash Service",
    "date_created": "2024-09-16T20:01:14.000",
    "date_modified": "2024-09-16T20:01:15.000",
    "request_status": "Pending",
    "responsible_agency": "Department of Sanitation",
    "final_address": "2049 Halsey Ave",
    "address_councildis": "C",
    "status": "Assigned to Contractor",
    "contractor": "Richards Disposal",
    "rowid": "1132173",
    "final_x": "3697684.84432",
    "final_y": "523294.231931",
    "longitude": "-90.01726302790252",
    "latitude": "29.93237635226288",
    "geocoded_column": {
      "latitude": "29.93237635226288",
      "longitude": "-90.01726302790252"
    }
  },
  {
    "service_request": "2024-1132172",
    "request_type": "Trash/Recycling",
    "request_reason": "Replace Trash Cart",
    "date_created": "2024-09-16T19:49:44.000",
    "date_modified": "2024-09-16T19:49:45.000",
    "request_status": "Pending",
    "responsible_agency": "Department of Sanitation",
    "final_address": "2401 Memorial Park Dr",
    "address_councildis": "C",
    "status": "Assigned to Contractor",
    "contractor": "Richards Disposal",
    "rowid": "1132172",
    "final_x": "3692096.15229",
    "final_y": "521676.535417",
    "longitude": "-90.03496381504824",
    "latitude": "29.92810355187705",
    "geocoded_column": {
      "latitude": "29.92810355187705",
      "longitude": "-90.03496381504824"
    }
  },
  {
    "service_request": "2024-1132171",
    "request_type": "Drainage",
    "request_reason": "Catch Basin Clogged",
    "date_created": "2024-09-16T19:33:20.000",
    "date_modified": "2024-09-16T19:33:20.000",
    "request_status": "Pending",
    "responsible_agency": "Department of Public Works",
    "final_address": "1750 St Charles Ave",
    "address_councildis": "B",
    "status": "Pending",
    "rowid": "1132171",
    "final_x": "3678708.23739",
    "final_y": "524583.7655",
    "longitude": "-90.07712582148702",
    "latitude": "29.93650781826905",
    "geocoded_column": {
      "latitude": "29.93650781826905",
      "longitude": "-90.07712582148702"
    }
  },
  {
    "service_request": "2024-1132170",
    "request_type": "Trash/Recycling",
    "request_reason": "Missed Trash Pick-Up",
    "date_created": "2024-09-16T19:23:10.000",
    "date_modified": "2024-09-16T19:23:11.000",
    "request_status": "Pending",
    "responsible_agency": "Department of Sanitation",
    "final_address": "14512 Hayne Blvd.",
    "address_councildis": "E",
    "status": "Assigned to Contractor",
    "contractor": "Waste Pro",
    "rowid": "1132170",
    "final_x": "3718990.29548",
    "final_y": "574330.822763",
    "longitude": "-89.94805668232095",
    "latitude": "30.072016951664434",
    "geocoded_column": {
      "latitude": "30.072016951664434",
      "longitude": "-89.94805668232095"
    }
  },
  {
    "service_request": "2024-1132169",
    "request_type": "Trash/Recycling",
    "request_reason": "MIssed Recycling Pick-Up",
    "date_created": "2024-09-16T19:22:07.000",
    "date_modified": "2024-09-16T19:22:08.000",
    "request_status": "Pending",
    "responsible_agency": "Department of Sanitation",
    "final_address": "4433 Allen St",
    "address_councildis": "D",
    "status": "Assigned to Contractor",
    "contractor": "IV Waste",
    "rowid": "1132169",
    "final_x": "3681811.31631",
    "final_y": "548948.177171",
    "longitude": "-90.06647885861494",
    "latitude": "30.00340763433988",
    "geocoded_column": {
      "latitude": "30.00340763433988",
      "longitude": "-90.06647885861494"
    }
  },
  {
    "service_request": "2024-1132168",
    "request_type": "Trash/Recycling",
    "request_reason": "MIssed Recycling Pick-Up",
    "date_created": "2024-09-16T19:19:14.000",
    "date_modified": "2024-09-16T19:19:15.000",
    "request_status": "Pending",
    "responsible_agency": "Department of Sanitation",
    "final_address": "4433 Allen St",
    "address_councildis": "D",
    "status": "Assigned to Contractor",
    "contractor": "IV Waste",
    "rowid": "1132168",
    "final_x": "3681811.31631",
    "final_y": "548948.177171",
    "longitude": "-90.06647885861494",
    "latitude": "30.00340763433988",
    "geocoded_column": {
      "latitude": "30.00340763433988",
      "longitude": "-90.06647885861494"
    }
  },
  {
    "service_request": "2024-1132167",
    "request_type": "Street and Traffic Signs",
    "request_reason": "Stop Sign Missing or Damaged",
    "date_created": "2024-09-16T19:14:36.000",
    "date_modified": "2024-09-16T19:14:36.000",
    "request_status": "Pending",
    "responsible_agency": "Department of Public Works",
    "final_address": "N ROCHEBLAVE ST & LIZARDI ST",
    "address_councildis": "E",
    "status": "Pending",
    "rowid": "1132167",
    "final_x": "3697896.6",
    "final_y": "538992.78",
    "longitude": "-90.01602478894782",
    "latitude": "29.97553513552852",
    "geocoded_column": {
      "latitude": "29.97553513552852",
      "longitude": "-90.01602478894782"
    }
  },
  {
    "service_request": "2024-1132166",
    "request_type": "Trash/Recycling",
    "request_reason": "Replace Trash Cart",
    "date_created": "2024-09-16T18:59:00.000",
    "date_modified": "2024-09-16T18:59:01.000",
    "request_status": "Pending",
    "responsible_agency": "Department of Sanitation",
    "final_address": "2546 St Ann St",
    "address_councildis": "D",
    "status": "Assigned to Contractor",
    "contractor": "IV Waste",
    "rowid": "1132166",
    "final_x": "3677407.40584",
    "final_y": "536797.193736",
    "longitude": "-90.08081111789164",
    "latitude": "29.970129805472823",
    "geocoded_column": {
      "latitude": "29.970129805472823",
      "longitude": "-90.08081111789164"
    }
  },
  {
    "service_request": "2024-1132165",
    "request_type": "Trash/Recycling",
    "request_reason": "Start Trash Service",
    "date_created": "2024-09-16T18:46:54.000",
    "date_modified": "2024-09-16T18:46:55.000",
    "request_status": "Pending",
    "responsible_agency": "Department of Sanitation",
    "final_address": "820 State St",
    "address_councildis": "A",
    "status": "Assigned to Contractor",
    "contractor": "IV Waste",
    "rowid": "1132165",
    "final_x": "3664712.71674",
    "final_y": "519441.147703",
    "longitude": "-90.12148212879904",
    "latitude": "29.922781721328786",
    "geocoded_column": {
      "latitude": "29.922781721328786",
      "longitude": "-90.12148212879904"
    }
  },
  {
    "service_request": "2024-1132164",
    "request_type": "Trash/Recycling",
    "request_reason": "Storm Debris Collection",
    "date_created": "2024-09-16T18:45:12.000",
    "date_modified": "2024-09-16T18:45:12.000",
    "request_status": "Pending",
    "responsible_agency": "Department of Sanitation",
    "final_address": "930 Marengo St",
    "address_councildis": "B",
    "status": "Pending",
    "rowid": "1132164",
    "final_x": "3672073.32654",
    "final_y": "519195.803831",
    "longitude": "-90.09825588793635",
    "latitude": "29.92189099923054",
    "geocoded_column": {
      "latitude": "29.92189099923054",
      "longitude": "-90.09825588793635"
    }
  },
  {
    "service_request": "2024-1132163",
    "request_type": "Trash/Recycling",
    "request_reason": "Request a Large Item Pick Up",
    "date_created": "2024-09-16T18:42:11.000",
    "date_modified": "2024-09-16T18:42:12.000",
    "request_status": "Pending",
    "responsible_agency": "Department of Sanitation",
    "final_address": "12340 Carmel Pl",
    "address_councildis": "E",
    "status": "Assigned to Contractor",
    "contractor": "Waste Pro",
    "rowid": "1132163",
    "final_x": "3716000.09029",
    "final_y": "566578.109027",
    "longitude": "-89.9578038179974",
    "latitude": "30.05079926333272",
    "geocoded_column": {
      "latitude": "30.05079926333272",
      "longitude": "-89.9578038179974"
    }
  },
  {
    "service_request": "2024-1132162",
    "request_type": "Roads and Streets",
    "request_reason": "Sidewalk Damaged or Missing",
    "date_created": "2024-09-16T18:40:44.000",
    "date_modified": "2024-09-16T18:40:44.000",
    "request_status": "Pending",
    "responsible_agency": "Department of Public Works",
    "final_address": "3429 Burgundy St",
    "address_councildis": "C",
    "status": "Pending",
    "rowid": "1132162",
    "final_x": "3690230.23568",
    "final_y": "534886.945542",
    "longitude": "-90.0403835089739",
    "latitude": "29.96448565249745",
    "geocoded_column": {
      "latitude": "29.96448565249745",
      "longitude": "-90.0403835089739"
    }
  },
  {
    "service_request": "2024-1132160",
    "request_type": "Roads and Streets",
    "request_reason": "Debris in Driving Lanes",
    "date_created": "2024-09-16T18:32:28.000",
    "date_modified": "2024-09-16T18:32:28.000",
    "request_status": "Pending",
    "responsible_agency": "Department of Public Works",
    "final_address": "3429 Burgundy St",
    "address_councildis": "C",
    "status": "Pending",
    "rowid": "1132160",
    "final_x": "3690230.23568",
    "final_y": "534886.945542",
    "longitude": "-90.0403835089739",
    "latitude": "29.96448565249745",
    "geocoded_column": {
      "latitude": "29.96448565249745",
      "longitude": "-90.0403835089739"
    }
  },
  {
    "service_request": "2024-1132159",
    "request_type": "Trash/Recycling",
    "request_reason": "Request a Large Item Pick Up",
    "date_created": "2024-09-16T18:27:02.000",
    "date_modified": "2024-09-16T18:27:03.000",
    "request_status": "Pending",
    "responsible_agency": "Department of Sanitation",
    "final_address": "7910 Lady Gray St",
    "address_councildis": "E",
    "status": "Assigned to Contractor",
    "contractor": "Waste Pro",
    "rowid": "1132159",
    "final_x": "3709296.71537",
    "final_y": "566304.653795",
    "longitude": "-89.97900091083956",
    "latitude": "30.05026693178168",
    "geocoded_column": {
      "latitude": "30.05026693178168",
      "longitude": "-89.97900091083956"
    }
  },
  {
    "service_request": "2024-1132158",
    "request_type": "Roads and Streets",
    "request_reason": "Pothole",
    "date_created": "2024-09-16T18:19:30.000",
    "date_modified": "2024-09-16T18:19:30.000",
    "request_status": "Pending",
    "responsible_agency": "Department of Public Works",
    "final_address": "625 Olivier St",
    "address_councildis": "C",
    "status": "Pending",
    "rowid": "1132158",
    "final_x": "3687245.97455",
    "final_y": "529272.816577",
    "longitude": "-90.05000611937857",
    "latitude": "29.949140986081456",
    "geocoded_column": {
      "latitude": "29.949140986081456",
      "longitude": "-90.05000611937857"
    }
  },
  {
    "service_request": "2024-1132157",
    "request_type": "Alley Ways",
    "request_reason": "Alley Way Regrading",
    "date_created": "2024-09-16T18:15:42.000",
    "date_modified": "2024-09-16T18:15:42.000",
    "request_status": "Pending",
    "responsible_agency": "Department of Public Works",
    "final_address": "6800 BLK Louisville St",
    "address_councildis": "A",
    "status": "Pending",
    "rowid": "1132157",
    "final_x": "3668267.91408",
    "final_y": "553070.841481",
    "longitude": "-90.1091255784922",
    "latitude": "30.015148289903745",
    "geocoded_column": {
      "latitude": "30.015148289903745",
      "longitude": "-90.1091255784922"
    }
  },
  {
    "service_request": "2024-1132156",
    "request_type": "Trash/Recycling",
    "request_reason": "Request a Large Item Pick Up",
    "date_created": "2024-09-16T18:15:11.000",
    "date_modified": "2024-09-16T18:15:12.000",
    "request_status": "Pending",
    "responsible_agency": "Department of Sanitation",
    "final_address": "11412 Curran Rd",
    "address_councildis": "E",
    "status": "Assigned to Contractor",
    "contractor": "Waste Pro",
    "rowid": "1132156",
    "final_x": "3711473.21016",
    "final_y": "566685.282147",
    "longitude": "-89.97210756963169",
    "latitude": "30.0512425914124",
    "geocoded_column": {
      "latitude": "30.0512425914124",
      "longitude": "-89.97210756963169"
    }
  },
  {
    "service_request": "2024-1132155",
    "request_type": "Abandoned Vehicles",
    "request_reason": "Abandoned/Junk Vehicles",
    "date_created": "2024-09-16T18:14:38.000",
    "date_modified": "2024-09-16T18:14:38.000",
    "request_status": "Pending",
    "responsible_agency": "Department of Public Works",
    "final_address": "1929 N Dorgenois St",
    "address_councildis": "D",
    "status": "Pending",
    "rowid": "1132155",
    "final_x": "3681483.49634",
    "final_y": "541290.281484",
    "longitude": "-90.06778169242138",
    "latitude": "29.982361093887967",
    "geocoded_column": {
      "latitude": "29.982361093887967",
      "longitude": "-90.06778169242138"
    }
  },
  {
    "service_request": "2024-1132154",
    "request_type": "Streetlights",
    "request_reason": "Streetlight Outage/Malfunction",
    "date_created": "2024-09-16T18:12:23.000",
    "date_modified": "2024-09-16T18:12:24.000",
    "request_status": "Pending",
    "responsible_agency": "Department of Public Works",
    "final_address": "4048 S Inwood Ave",
    "address_councildis": "C",
    "status": "Pending",
    "contractor": "Legacy Professional Services",
    "rowid": "1132154",
    "final_x": "3705114.75979",
    "final_y": "513003.385521",
    "longitude": "-89.99418733115928",
    "latitude": "29.903843341783336",
    "geocoded_column": {
      "latitude": "29.903843341783336",
      "longitude": "-89.99418733115928"
    }
  },
  {
    "service_request": "2024-1132153",
    "request_type": "Streetlights",
    "request_reason": "Streetlight Outage/Malfunction",
    "date_created": "2024-09-16T18:10:21.000",
    "date_modified": "2024-09-16T18:10:22.000",
    "request_status": "Pending",
    "responsible_agency": "Department of Public Works",
    "final_address": "4024 S Inwood Ave",
    "address_councildis": "C",
    "status": "Pending",
    "contractor": "Legacy Professional Services",
    "rowid": "1132153",
    "final_x": "3705312.13265",
    "final_y": "513176.755442",
    "longitude": "-89.99355802860697",
    "latitude": "29.90431370580039",
    "geocoded_column": {
      "latitude": "29.90431370580039",
      "longitude": "-89.99355802860697"
    }
  },
  {
    "service_request": "2024-1132152",
    "request_type": "Mosquito, Termite & Rodent Control",
    "request_reason": "Rodent Complaint (Rats)",
    "date_created": "2024-09-16T18:07:16.000",
    "date_modified": "2024-09-16T18:07:16.000",
    "request_status": "Pending",
    "responsible_agency": "Mosquito, Termite & Rodent Control Board",
    "final_address": "6017 Colbert St",
    "address_councildis": "A",
    "status": "Pending",
    "rowid": "1132152",
    "final_x": "3667478.43802",
    "final_y": "547508.868754",
    "longitude": "-90.1118072992673",
    "latitude": "29.999877972759368",
    "geocoded_column": {
      "latitude": "29.999877972759368",
      "longitude": "-90.1118072992673"
    }
  },
  {
    "service_request": "2024-1132151",
    "request_type": "Drainage",
    "request_reason": "Street Flooding",
    "date_created": "2024-09-16T17:59:29.000",
    "date_modified": "2024-09-16T17:59:29.000",
    "request_status": "Pending",
    "responsible_agency": "Department of Public Works",
    "final_address": "2600 BLK S Claiborne Ave",
    "address_councildis": "B",
    "status": "Pending",
    "rowid": "1132151",
    "final_x": "3673586.21086",
    "final_y": "526909.824249",
    "longitude": "-90.09321681074977",
    "latitude": "29.943057130692832",
    "geocoded_column": {
      "latitude": "29.943057130692832",
      "longitude": "-90.09321681074977"
    }
  },
  {
    "service_request": "2024-1132150",
    "request_type": "Property Maintenance",
    "request_reason": "Property Maintenance",
    "date_created": "2024-09-16T17:57:40.000",
    "date_modified": "2024-09-16T17:57:40.000",
    "request_status": "Pending",
    "responsible_agency": "Department of Code Enforcement",
    "final_address": "2120 Mandeville St",
    "address_councildis": "D",
    "status": "Pending",
    "rowid": "1132150",
    "final_x": "3685424.76482",
    "final_y": "540221.306827",
    "longitude": "-90.05537091472392",
    "latitude": "29.979301508390282",
    "geocoded_column": {
      "latitude": "29.979301508390282",
      "longitude": "-90.05537091472392"
    }
  },
  {
    "service_request": "2024-1132149",
    "request_type": "Roads and Streets",
    "request_reason": "Catch Basin Clogged",
    "date_created": "2024-09-16T17:47:56.000",
    "date_modified": "2024-09-16T17:47:56.000",
    "request_status": "Pending",
    "responsible_agency": "Department of Public Works",
    "final_address": "441 Audubon St, New Orleans, Louisiana, 70118",
    "address_councildis": "A",
    "status": "Pending",
    "rowid": "1132149",
    "final_x": "3662365.72871",
    "final_y": "523172.159099",
    "longitude": "-90.1287668705638",
    "latitude": "29.93310887776141",
    "geocoded_column": {
      "latitude": "29.93310887776141",
      "longitude": "-90.1287668705638"
    }
  },
  {
    "service_request": "2024-1132148",
    "request_type": "Trash/Recycling",
    "request_reason": "Request a Large Item Pick Up",
    "date_created": "2024-09-16T17:47:06.000",
    "date_modified": "2024-09-16T17:47:08.000",
    "request_status": "Pending",
    "responsible_agency": "Department of Sanitation",
    "final_address": "7212 Salem Dr, New Orleans, Louisiana, 70127",
    "address_councildis": "E",
    "status": "Assigned to Contractor",
    "contractor": "Waste Pro",
    "rowid": "1132148",
    "final_x": "3706288.21323",
    "final_y": "561510.751583",
    "longitude": "-89.9886874330708",
    "latitude": "30.037183037597",
    "geocoded_column": {
      "latitude": "30.037183037597",
      "longitude": "-89.9886874330708"
    }
  },
  {
    "service_request": "2024-1132147",
    "request_type": "Trash/Recycling",
    "request_reason": "Order Recycling Cart",
    "date_created": "2024-09-16T17:46:26.000",
    "date_modified": "2024-09-16T17:46:26.000",
    "request_status": "Pending",
    "responsible_agency": "Department of Sanitation",
    "final_address": "1800 Richland Rd",
    "address_councildis": "C",
    "status": "Pending",
    "rowid": "1132147",
    "final_x": "3698016.23395",
    "final_y": "524549.520188",
    "longitude": "-90.01617131396266",
    "latitude": "29.935817491687718",
    "geocoded_column": {
      "latitude": "29.935817491687718",
      "longitude": "-90.01617131396266"
    }
  },
  {
    "service_request": "2024-1132146",
    "request_type": "Trash/Recycling",
    "request_reason": "Return Recycling Cart",
    "date_created": "2024-09-16T17:42:57.000",
    "date_modified": "2024-09-16T17:42:57.000",
    "request_status": "Pending",
    "responsible_agency": "Department of Sanitation",
    "final_address": "514 S Scott St",
    "address_councildis": "B",
    "status": "Pending",
    "rowid": "1132146",
    "final_x": "3670762.60199",
    "final_y": "536419.917255",
    "longitude": "-90.10180895187808",
    "latitude": "29.96929046905707",
    "geocoded_column": {
      "latitude": "29.96929046905707",
      "longitude": "-90.10180895187808"
    }
  },
  {
    "service_request": "2024-1132145",
    "request_type": "Trash/Recycling",
    "request_reason": "Request a Large Item Pick Up",
    "date_created": "2024-09-16T17:40:26.000",
    "date_modified": "2024-09-16T17:40:27.000",
    "request_status": "Pending",
    "responsible_agency": "Department of Sanitation",
    "final_address": "5105 Laurel St",
    "address_councildis": "B",
    "status": "Assigned to Contractor",
    "contractor": "IV Waste",
    "rowid": "1132145",
    "final_x": "3668262.45057",
    "final_y": "517887.504822",
    "longitude": "-90.11032932917041",
    "latitude": "29.918405986784673",
    "geocoded_column": {
      "latitude": "29.918405986784673",
      "longitude": "-90.11032932917041"
    }
  },
  {
    "service_request": "2024-1132144",
    "request_type": "Property Maintenance",
    "request_reason": "Property Maintenance",
    "date_created": "2024-09-16T17:37:35.000",
    "date_modified": "2024-09-16T17:37:35.000",
    "request_status": "Pending",
    "responsible_agency": "Department of Code Enforcement",
    "final_address": "CHEF MENTEUR HWY & DOWNMAN RD & CHEF MENTEUR BRIDGE",
    "address_councildis": "D",
    "status": "Pending",
    "rowid": "1132144",
    "final_x": "3696211.9",
    "final_y": "551507.88",
    "longitude": "-90.02089277553281",
    "latitude": "30.010000220946775",
    "geocoded_column": {
      "latitude": "30.010000220946775",
      "longitude": "-90.02089277553281"
    }
  },
  {
    "service_request": "2024-1132143",
    "request_type": "Trash/Recycling",
    "request_reason": "Return Recycling Cart",
    "date_created": "2024-09-16T17:37:32.000",
    "date_modified": "2024-09-16T17:37:32.000",
    "request_status": "Pending",
    "responsible_agency": "Department of Sanitation",
    "final_address": "514 S Scott St",
    "address_councildis": "B",
    "status": "Pending",
    "rowid": "1132143",
    "final_x": "3670762.60199",
    "final_y": "536419.917255",
    "longitude": "-90.10180895187808",
    "latitude": "29.96929046905707",
    "geocoded_column": {
      "latitude": "29.96929046905707",
      "longitude": "-90.10180895187808"
    }
  },
  {
    "service_request": "2024-1132141",
    "request_type": "Trash/Recycling",
    "request_reason": "Request a Large Item Pick Up",
    "date_created": "2024-09-16T17:23:07.000",
    "date_modified": "2024-09-16T17:23:08.000",
    "request_status": "Pending",
    "responsible_agency": "Department of Sanitation",
    "final_address": "627 Delacroix Rd",
    "address_councildis": "C",
    "status": "Assigned to Contractor",
    "contractor": "Richards Disposal",
    "rowid": "1132141",
    "final_x": "3723779.91398",
    "final_y": "514423.845299",
    "longitude": "-89.93522612136945",
    "latitude": "29.907136091834605",
    "geocoded_column": {
      "latitude": "29.907136091834605",
      "longitude": "-89.93522612136945"
    }
  },
  {
    "service_request": "2024-1132140",
    "request_type": "Drainage",
    "request_reason": "Street Flooding",
    "date_created": "2024-09-16T17:14:49.000",
    "date_modified": "2024-09-16T17:14:49.000",
    "request_status": "Pending",
    "responsible_agency": "Department of Public Works",
    "final_address": "900 BLK Dauphine St",
    "address_councildis": "C",
    "status": "Pending",
    "rowid": "1132140",
    "final_x": "3682539.15851",
    "final_y": "533633.404634",
    "longitude": "-90.06471515226373",
    "latitude": "29.961275232498913",
    "geocoded_column": {
      "latitude": "29.961275232498913",
      "longitude": "-90.06471515226373"
    }
  },
  {
    "service_request": "2024-1132137",
    "request_type": "Trash/Recycling",
    "request_reason": "Storm Debris Collection",
    "date_created": "2024-09-16T16:55:42.000",
    "date_modified": "2024-09-16T16:55:43.000",
    "request_status": "Pending",
    "responsible_agency": "Department of Sanitation",
    "final_address": "718 Bartholomew St",
    "address_councildis": "C",
    "status": "Pending",
    "rowid": "1132137",
    "final_x": "3691436.03721",
    "final_y": "533966.157765",
    "longitude": "-90.03660859992547",
    "latitude": "29.961916341660615",
    "geocoded_column": {
      "latitude": "29.961916341660615",
      "longitude": "-90.03660859992547"
    }
  },
  {
    "service_request": "2024-1132136",
    "request_type": "Trash/Recycling",
    "request_reason": "Return Trash Cart",
    "date_created": "2024-09-16T16:53:45.000",
    "date_modified": "2024-09-16T16:53:46.000",
    "request_status": "Pending",
    "responsible_agency": "Department of Sanitation",
    "final_address": "7330 Hansbrough Ave",
    "address_councildis": "E",
    "status": "Assigned to Contractor",
    "contractor": "Waste Pro",
    "rowid": "1132136",
    "final_x": "3708108.51044",
    "final_y": "563544.047008",
    "longitude": "-89.98285920144167",
    "latitude": "30.042714930924113",
    "geocoded_column": {
      "latitude": "30.042714930924113",
      "longitude": "-89.98285920144167"
    }
  },
  {
    "service_request": "2024-1132135",
    "request_type": "Abandoned Vehicles",
    "request_reason": "Abandoned/Junk Vehicles",
    "date_created": "2024-09-16T16:53:44.000",
    "date_modified": "2024-09-16T16:53:45.000",
    "request_status": "Pending",
    "responsible_agency": "Department of Public Works",
    "final_address": "521 St Mary St",
    "address_councildis": "B",
    "status": "Pending",
    "rowid": "1132135",
    "final_x": "3681162.65935",
    "final_y": "521317.974521",
    "longitude": "-90.06949083966333",
    "latitude": "29.927453753653054",
    "geocoded_column": {
      "latitude": "29.927453753653054",
      "longitude": "-90.06949083966333"
    }
  },
  {
    "service_request": "2024-1132134",
    "request_type": "Trash/Recycling",
    "request_reason": "Storm Debris Collection",
    "date_created": "2024-09-16T16:52:08.000",
    "date_modified": "2024-09-16T16:52:09.000",
    "request_status": "Pending",
    "responsible_agency": "Department of Sanitation",
    "final_address": "234 S Olympia St",
    "address_councildis": "A",
    "status": "Pending",
    "rowid": "1132134",
    "final_x": "3669007.1346",
    "final_y": "539028.509514",
    "longitude": "-90.10726471943025",
    "latitude": "29.976514984445043",
    "geocoded_column": {
      "latitude": "29.976514984445043",
      "longitude": "-90.10726471943025"
    }
  },
  {
    "service_request": "2024-1132133",
    "request_type": "Roads and Streets",
    "request_reason": "Pothole",
    "date_created": "2024-09-16T16:50:12.000",
    "date_modified": "2024-09-16T16:50:12.000",
    "request_status": "Pending",
    "responsible_agency": "Department of Public Works",
    "final_address": "2113 Joseph St",
    "address_councildis": "A",
    "status": "Pending",
    "rowid": "1132133",
    "final_x": "3667300.65274",
    "final_y": "523868.041467",
    "longitude": "-90.11316420347997",
    "latitude": "29.93487876066106",
    "geocoded_column": {
      "latitude": "29.93487876066106",
      "longitude": "-90.11316420347997"
    }
  },
  {
    "service_request": "2024-1132132",
    "request_type": "Property Maintenance",
    "request_reason": "Property Maintenance",
    "date_created": "2024-09-16T16:49:05.000",
    "date_modified": "2024-09-16T16:49:06.000",
    "request_status": "Pending",
    "responsible_agency": "Department of Code Enforcement",
    "final_address": "1729 St Andrew St",
    "address_councildis": "B",
    "status": "Pending",
    "rowid": "1132132",
    "final_x": "3677859.27624",
    "final_y": "524869.581116",
    "longitude": "-90.07979615481327",
    "latitude": "29.93731928193974",
    "geocoded_column": {
      "latitude": "29.93731928193974",
      "longitude": "-90.07979615481327"
    }
  },
  {
    "service_request": "2024-1132131",
    "request_type": "Trash/Recycling",
    "request_reason": "Order Recycling Cart",
    "date_created": "2024-09-16T16:47:08.000",
    "date_modified": "2024-09-16T16:47:09.000",
    "request_status": "Pending",
    "responsible_agency": "Department of Sanitation",
    "final_address": "3536 Upperline St A",
    "address_councildis": "B",
    "status": "Pending",
    "rowid": "1132131",
    "final_x": "3669251.04794",
    "final_y": "528005.235455",
    "longitude": "-90.10686701048013",
    "latitude": "29.946197453932704",
    "geocoded_column": {
      "latitude": "29.946197453932704",
      "longitude": "-90.10686701048013"
    }
  },
  {
    "service_request": "2024-1132130",
    "request_type": "Trash/Recycling",
    "request_reason": "Replace Trash Cart",
    "date_created": "2024-09-16T16:46:06.000",
    "date_modified": "2024-09-16T16:46:07.000",
    "request_status": "Pending",
    "responsible_agency": "Department of Sanitation",
    "final_address": "4621 Dart St",
    "address_councildis": "B",
    "status": "Assigned to Contractor",
    "contractor": "IV Waste",
    "rowid": "1132130",
    "final_x": "3669232.52398",
    "final_y": "531644.870339",
    "longitude": "-90.10680248881904",
    "latitude": "29.956205803640206",
    "geocoded_column": {
      "latitude": "29.956205803640206",
      "longitude": "-90.10680248881904"
    }
  },
  {
    "service_request": "2024-1132129",
    "request_type": "Trash/Recycling",
    "request_reason": "Order Recycling Cart",
    "date_created": "2024-09-16T16:42:06.000",
    "date_modified": "2024-09-16T16:42:06.000",
    "request_status": "Pending",
    "responsible_agency": "Department of Sanitation",
    "final_address": "8337 Hickory St",
    "address_councildis": "A",
    "status": "Pending",
    "rowid": "1132129",
    "final_x": "3662637.67879",
    "final_y": "530657.873986",
    "longitude": "-90.1276596791941",
    "latitude": "29.953684341133556",
    "geocoded_column": {
      "latitude": "29.953684341133556",
      "longitude": "-90.1276596791941"
    }
  },
  {
    "service_request": "2024-1132128",
    "request_type": "Trash/Recycling",
    "request_reason": "Request a Large Item Pick Up",
    "date_created": "2024-09-16T16:40:39.000",
    "date_modified": "2024-09-16T16:40:40.000",
    "request_status": "Pending",
    "responsible_agency": "Department of Sanitation",
    "final_address": "7313 Chatelain Dr",
    "address_councildis": "E",
    "status": "Assigned to Contractor",
    "contractor": "Waste Pro",
    "rowid": "1132128",
    "final_x": "3715226.2828",
    "final_y": "567294.008548",
    "longitude": "-89.96022241616326",
    "latitude": "30.052793212964904",
    "geocoded_column": {
      "latitude": "30.052793212964904",
      "longitude": "-89.96022241616326"
    }
  },
  {
    "service_request": "2024-1132127",
    "request_type": "Trash/Recycling",
    "request_reason": "Storm Debris Collection",
    "date_created": "2024-09-16T16:39:48.000",
    "date_modified": "2024-09-16T16:39:49.000",
    "request_status": "Pending",
    "responsible_agency": "Department of Sanitation",
    "final_address": "7313 Chatelain Dr",
    "address_councildis": "E",
    "status": "Pending",
    "rowid": "1132127",
    "final_x": "3715226.2828",
    "final_y": "567294.008548",
    "longitude": "-89.96022241616326",
    "latitude": "30.052793212964904",
    "geocoded_column": {
      "latitude": "30.052793212964904",
      "longitude": "-89.96022241616326"
    }
  },
  {
    "service_request": "2024-1132126",
    "request_type": "Trash/Recycling",
    "request_reason": "Illegal Dumping",
    "date_created": "2024-09-16T16:39:26.000",
    "date_modified": "2024-09-16T16:39:26.000",
    "request_status": "Pending",
    "responsible_agency": "Department of Sanitation",
    "final_address": "2239 General Taylor St",
    "address_councildis": "B",
    "status": "Pending",
    "rowid": "1132126",
    "final_x": "3672109.38203",
    "final_y": "523454.259899",
    "longitude": "-90.09799715525693",
    "latitude": "29.933599317727595",
    "geocoded_column": {
      "latitude": "29.933599317727595",
      "longitude": "-90.09799715525693"
    }
  },
  {
    "service_request": "2024-1132125",
    "request_type": "Trash/Recycling",
    "request_reason": "Storm Debris Collection",
    "date_created": "2024-09-16T16:37:56.000",
    "date_modified": "2024-09-16T16:37:56.000",
    "request_status": "Pending",
    "responsible_agency": "Department of Sanitation",
    "final_address": "1501 Tropic Dr",
    "address_councildis": "C",
    "status": "Pending",
    "rowid": "1132125",
    "final_x": "3699469.82685",
    "final_y": "525502.222461",
    "longitude": "-90.0115476295033",
    "latitude": "29.93839106687814",
    "geocoded_column": {
      "latitude": "29.93839106687814",
      "longitude": "-90.0115476295033"
    }
  },
  {
    "service_request": "2024-1132124",
    "request_type": "Trash/Recycling",
    "request_reason": "Storm Debris Collection",
    "date_created": "2024-09-16T16:37:16.000",
    "date_modified": "2024-09-16T16:37:16.000",
    "request_status": "Pending",
    "responsible_agency": "Department of Sanitation",
    "final_address": "2239 General Taylor St",
    "address_councildis": "B",
    "status": "Pending",
    "rowid": "1132124",
    "final_x": "3672109.38203",
    "final_y": "523454.259899",
    "longitude": "-90.09799715525693",
    "latitude": "29.933599317727595",
    "geocoded_column": {
      "latitude": "29.933599317727595",
      "longitude": "-90.09799715525693"
    }
  },
  {
    "service_request": "2024-1132123",
    "request_type": "Trash/Recycling",
    "request_reason": "Storm Debris Collection",
    "date_created": "2024-09-16T16:36:49.000",
    "date_modified": "2024-09-16T16:36:50.000",
    "request_status": "Pending",
    "responsible_agency": "Department of Sanitation",
    "final_address": "4315 S Liberty St",
    "address_councildis": "B",
    "status": "Pending",
    "rowid": "1132123",
    "final_x": "3670861.30305",
    "final_y": "523420.463995",
    "longitude": "-90.1019384311558",
    "latitude": "29.933543329375276",
    "geocoded_column": {
      "latitude": "29.933543329375276",
      "longitude": "-90.1019384311558"
    }
  },
  {
    "service_request": "2024-1132122",
    "request_type": "Trash/Recycling",
    "request_reason": "Storm Debris Collection",
    "date_created": "2024-09-16T16:35:46.000",
    "date_modified": "2024-09-16T16:35:47.000",
    "request_status": "Pending",
    "responsible_agency": "Department of Sanitation",
    "final_address": "2134 Easter Ln",
    "address_councildis": "C",
    "status": "Pending",
    "rowid": "1132122",
    "final_x": "3699507.89271",
    "final_y": "523363.410299",
    "longitude": "-90.01150534777663",
    "latitude": "29.93250886807917",
    "geocoded_column": {
      "latitude": "29.93250886807917",
      "longitude": "-90.01150534777663"
    }
  },
  {
    "service_request": "2024-1132121",
    "request_type": "Streetlights",
    "request_reason": "Streetlight Outage/Malfunction",
    "date_created": "2024-09-16T16:30:41.000",
    "date_modified": "2024-09-16T16:30:42.000",
    "request_status": "Pending",
    "responsible_agency": "Department of Public Works",
    "final_address": "5030 Mexico St",
    "address_councildis": "D",
    "status": "Pending",
    "contractor": "Legacy Professional Services",
    "rowid": "1132121",
    "final_x": "3691142.95331",
    "final_y": "556558.849178",
    "longitude": "-90.0367267962762",
    "latitude": "30.02404717335266",
    "geocoded_column": {
      "latitude": "30.02404717335266",
      "longitude": "-90.0367267962762"
    }
  },
  {
    "service_request": "2024-1132120",
    "request_type": "Trash/Recycling",
    "request_reason": "Storm Debris Collection",
    "date_created": "2024-09-16T16:28:51.000",
    "date_modified": "2024-09-16T16:30:20.000",
    "request_status": "Pending",
    "responsible_agency": "Department of Sanitation",
    "final_address": "6219 St Anthony Ave",
    "address_councildis": "D",
    "status": "Pending",
    "rowid": "1132120",
    "final_x": "3682029.25064",
    "final_y": "555914.771993",
    "longitude": "-90.06554686236015",
    "latitude": "30.022556614432307",
    "geocoded_column": {
      "latitude": "30.022556614432307",
      "longitude": "-90.06554686236015"
    }
  },
  {
    "service_request": "2024-1132119",
    "request_type": "Property Maintenance",
    "request_reason": "Property Maintenance",
    "date_created": "2024-09-16T16:28:36.000",
    "date_modified": "2024-09-16T16:28:36.000",
    "request_status": "Pending",
    "responsible_agency": "Department of Code Enforcement",
    "final_address": "1455 N Rocheblave St",
    "address_councildis": "D",
    "status": "Pending",
    "rowid": "1132119",
    "final_x": "3679358.13333",
    "final_y": "538798.284041",
    "longitude": "-90.07458109594629",
    "latitude": "29.975573338883947",
    "geocoded_column": {
      "latitude": "29.975573338883947",
      "longitude": "-90.07458109594629"
    }
  },
  {
    "service_request": "2024-1132118",
    "request_type": "Trash/Recycling",
    "request_reason": "Request a Large Item Pick Up",
    "date_created": "2024-09-16T16:27:48.000",
    "date_modified": "2024-09-16T16:27:49.000",
    "request_status": "Pending",
    "responsible_agency": "Department of Sanitation",
    "final_address": "6631 W Laverne St",
    "address_councildis": "D",
    "status": "Assigned to Contractor",
    "contractor": "Waste Pro",
    "rowid": "1132118",
    "final_x": "3696336.88688",
    "final_y": "555589.039385",
    "longitude": "-90.02035015174278",
    "latitude": "30.021217936544954",
    "geocoded_column": {
      "latitude": "30.021217936544954",
      "longitude": "-90.02035015174278"
    }
  },
  {
    "service_request": "2024-1132117",
    "request_type": "Property Maintenance",
    "request_reason": "Property Maintenance",
    "date_created": "2024-09-16T16:27:46.000",
    "date_modified": "2024-09-16T16:27:47.000",
    "request_status": "Pending",
    "responsible_agency": "Department of Code Enforcement",
    "final_address": "2434 Dumaine St",
    "address_councildis": "D",
    "status": "Pending",
    "rowid": "1132117",
    "final_x": "3677996.58139",
    "final_y": "536836.770504",
    "longitude": "-90.07894907186035",
    "latitude": "29.97022090628544",
    "geocoded_column": {
      "latitude": "29.97022090628544",
      "longitude": "-90.07894907186035"
    }
  },
  {
    "service_request": "2024-1132116",
    "request_type": "Trash/Recycling",
    "request_reason": "Start Trash Service",
    "date_created": "2024-09-16T16:25:22.000",
    "date_modified": "2024-09-16T16:25:23.000",
    "request_status": "Pending",
    "responsible_agency": "Department of Sanitation",
    "final_address": "1517 Mandeville St",
    "address_councildis": "C",
    "status": "Assigned to Contractor",
    "contractor": "IV Waste",
    "rowid": "1132116",
    "final_x": "3685680.10774",
    "final_y": "537998.512329",
    "longitude": "-90.05464278708244",
    "latitude": "29.973181770044363",
    "geocoded_column": {
      "latitude": "29.973181770044363",
      "longitude": "-90.05464278708244"
    }
  },
  {
    "service_request": "2024-1132115",
    "request_type": "Roads and Streets",
    "request_reason": "Pothole",
    "date_created": "2024-09-16T16:25:16.000",
    "date_modified": "2024-09-16T16:25:17.000",
    "request_status": "Pending",
    "responsible_agency": "Department of Public Works",
    "final_address": "1201 Farragut St",
    "address_councildis": "C",
    "status": "Pending",
    "rowid": "1132115",
    "final_x": "3692326.33347",
    "final_y": "526881.288766",
    "longitude": "-90.03405088407331",
    "latitude": "29.94240767668299",
    "geocoded_column": {
      "latitude": "29.94240767668299",
      "longitude": "-90.03405088407331"
    }
  },
  {
    "service_request": "2024-1132114",
    "request_type": "Property Maintenance",
    "request_reason": "Property Maintenance",
    "date_created": "2024-09-16T16:22:41.000",
    "date_modified": "2024-09-16T16:22:41.000",
    "request_status": "Pending",
    "responsible_agency": "Department of Code Enforcement",
    "final_address": "4401 Macarthur Blvd",
    "address_councildis": "C",
    "status": "Pending",
    "rowid": "1132114",
    "final_x": "3700130.49642",
    "final_y": "520210.059128",
    "longitude": "-90.00965485347274",
    "latitude": "29.92381847627654",
    "geocoded_column": {
      "latitude": "29.92381847627654",
      "longitude": "-90.00965485347274"
    }
  },
  {
    "service_request": "2024-1132113",
    "request_type": "Trash/Recycling",
    "request_reason": "Request a Large Item Pick Up",
    "date_created": "2024-09-16T16:22:07.000",
    "date_modified": "2024-09-16T16:22:08.000",
    "request_status": "Pending",
    "responsible_agency": "Department of Sanitation",
    "final_address": "8429 Edinburgh St",
    "address_councildis": "A",
    "status": "Assigned to Contractor",
    "contractor": "IV Waste",
    "rowid": "1132113",
    "final_x": "3666552.3705",
    "final_y": "535337.97543",
    "longitude": "-90.11514156104072",
    "latitude": "29.966439240089855",
    "geocoded_column": {
      "latitude": "29.966439240089855",
      "longitude": "-90.11514156104072"
    }
  },
  {
    "service_request": "2024-1132112",
    "request_type": "Trash/Recycling",
    "request_reason": "Return Trash Cart",
    "date_created": "2024-09-16T16:21:17.000",
    "date_modified": "2024-09-16T16:21:18.000",
    "request_status": "Pending",
    "responsible_agency": "Department of Sanitation",
    "final_address": "742 Pleasant St",
    "address_councildis": "B",
    "status": "Assigned to Contractor",
    "contractor": "IV Waste",
    "rowid": "1132112",
    "final_x": "3676078.88897",
    "final_y": "518780.130423",
    "longitude": "-90.08562629739225",
    "latitude": "29.9206287058885",
    "geocoded_column": {
      "latitude": "29.9206287058885",
      "longitude": "-90.08562629739225"
    }
  },
  {
    "service_request": "2024-1132111",
    "request_type": "Trash/Recycling",
    "request_reason": "Change Size of Trash Cart",
    "date_created": "2024-09-16T16:18:37.000",
    "date_modified": "2024-09-16T16:18:38.000",
    "request_status": "Pending",
    "responsible_agency": "Department of Sanitation",
    "final_address": "1331 Eighth St",
    "address_councildis": "B",
    "status": "Assigned to Contractor",
    "contractor": "IV Waste",
    "rowid": "1132111",
    "final_x": "3675593.84264",
    "final_y": "521056.107833",
    "longitude": "-90.08707922791642",
    "latitude": "29.926901423874426",
    "geocoded_column": {
      "latitude": "29.926901423874426",
      "longitude": "-90.08707922791642"
    }
  },
  {
    "service_request": "2024-1132110",
    "request_type": "Property Maintenance",
    "request_reason": "Property Maintenance",
    "date_created": "2024-09-16T16:17:54.000",
    "date_modified": "2024-09-16T16:17:54.000",
    "request_status": "Pending",
    "responsible_agency": "Department of Code Enforcement",
    "final_address": "1457 N Rocheblave St",
    "address_councildis": "D",
    "status": "Pending",
    "rowid": "1132110",
    "final_x": "3679364.5197",
    "final_y": "538811.589001",
    "longitude": "-90.07456046441028",
    "latitude": "29.97560973002275",
    "geocoded_column": {
      "latitude": "29.97560973002275",
      "longitude": "-90.07456046441028"
    }
  },
  {
    "service_request": "2024-1132109",
    "request_type": "Trash/Recycling",
    "request_reason": "Replace Trash Cart",
    "date_created": "2024-09-16T16:16:38.000",
    "date_modified": "2024-09-16T16:16:40.000",
    "request_status": "Pending",
    "responsible_agency": "Department of Sanitation",
    "final_address": "800 Hidalgo St",
    "address_councildis": "A",
    "status": "Assigned to Contractor",
    "contractor": "IV Waste",
    "rowid": "1132109",
    "final_x": "3668746.9097",
    "final_y": "544031.36315",
    "longitude": "-90.10791761304888",
    "latitude": "29.990278786680797",
    "geocoded_column": {
      "latitude": "29.990278786680797",
      "longitude": "-90.10791761304888"
    }
  },
  {
    "service_request": "2024-1132108",
    "request_type": "Trash/Recycling",
    "request_reason": "Request a Large Item Pick Up",
    "date_created": "2024-09-16T16:15:01.000",
    "date_modified": "2024-09-16T16:15:02.000",
    "request_status": "Pending",
    "responsible_agency": "Department of Sanitation",
    "final_address": "13000 N Lake Carmel Dr",
    "address_councildis": "E",
    "status": "Assigned to Contractor",
    "contractor": "Waste Pro",
    "rowid": "1132108",
    "final_x": "3716608.4597",
    "final_y": "568675.093413",
    "longitude": "-89.9558013131371",
    "latitude": "30.0565450125185",
    "geocoded_column": {
      "latitude": "30.0565450125185",
      "longitude": "-89.9558013131371"
    }
  },
  {
    "service_request": "2024-1132107",
    "request_type": "Trash/Recycling",
    "request_reason": "Request a Large Item Pick Up",
    "date_created": "2024-09-16T16:13:07.000",
    "date_modified": "2024-09-16T16:13:08.000",
    "request_status": "Pending",
    "responsible_agency": "Department of Sanitation",
    "final_address": "4719 Virgilian St",
    "address_councildis": "D",
    "status": "Assigned to Contractor",
    "contractor": "Waste Pro",
    "rowid": "1132107",
    "final_x": "3697573.29437",
    "final_y": "553614.334103",
    "longitude": "-90.0165151768813",
    "latitude": "30.01574923102479",
    "geocoded_column": {
      "latitude": "30.01574923102479",
      "longitude": "-90.0165151768813"
    }
  },
  {
    "service_request": "2024-1132106",
    "request_type": "Trash/Recycling",
    "request_reason": "Illegal Dumping",
    "date_created": "2024-09-16T16:11:08.000",
    "date_modified": "2024-09-16T16:11:08.000",
    "request_status": "Pending",
    "responsible_agency": "Department of Sanitation",
    "final_address": "A P TUREAUD AVE & AUBRY ST",
    "address_councildis": "D",
    "status": "Pending",
    "rowid": "1132106",
    "final_x": "3681684.4",
    "final_y": "539558.28",
    "longitude": "-90.06720758844016",
    "latitude": "29.977592591236185",
    "geocoded_column": {
      "latitude": "29.977592591236185",
      "longitude": "-90.06720758844016"
    }
  },
  {
    "service_request": "2024-1132105",
    "request_type": "Abandoned Vehicles",
    "request_reason": "Abandoned/Junk Vehicles",
    "date_created": "2024-09-16T16:11:05.000",
    "date_modified": "2024-09-16T16:11:05.000",
    "request_status": "Pending",
    "responsible_agency": "Department of Public Works",
    "final_address": "6027 Laurel St",
    "address_councildis": "A",
    "status": "Pending",
    "rowid": "1132105",
    "final_x": "3664205.01146",
    "final_y": "518335.35583",
    "longitude": "-90.12312162749483",
    "latitude": "29.919755893766826",
    "geocoded_column": {
      "latitude": "29.919755893766826",
      "longitude": "-90.12312162749483"
    }
  },
  {
    "service_request": "2024-1132104",
    "request_type": "Abandoned Vehicles",
    "request_reason": "Abandoned/Junk Vehicles",
    "date_created": "2024-09-16T16:10:06.000",
    "date_modified": "2024-09-16T16:10:06.000",
    "request_status": "Pending",
    "responsible_agency": "Department of Public Works",
    "final_address": "6027 Laurel St",
    "address_councildis": "A",
    "status": "Pending",
    "rowid": "1132104",
    "final_x": "3664205.01146",
    "final_y": "518335.35583",
    "longitude": "-90.12312162749483",
    "latitude": "29.919755893766826",
    "geocoded_column": {
      "latitude": "29.919755893766826",
      "longitude": "-90.12312162749483"
    }
  },
  {
    "service_request": "2024-1132103",
    "request_type": "Roads and Streets",
    "request_reason": "Street Subsidence (Sinking)",
    "date_created": "2024-09-16T16:08:25.000",
    "date_modified": "2024-09-16T16:08:26.000",
    "request_status": "Pending",
    "responsible_agency": "Department of Public Works",
    "final_address": "2710 Clover St",
    "address_councildis": "D",
    "status": "Pending",
    "rowid": "1132103",
    "final_x": "3687950.98953",
    "final_y": "546614.243921",
    "longitude": "-90.04716548332134",
    "latitude": "29.996802086656253",
    "geocoded_column": {
      "latitude": "29.996802086656253",
      "longitude": "-90.04716548332134"
    }
  },
  {
    "service_request": "2024-1132102",
    "request_type": "Trash/Recycling",
    "request_reason": "Storm Debris Collection",
    "date_created": "2024-09-16T16:04:51.000",
    "date_modified": "2024-09-16T16:04:51.000",
    "request_status": "Pending",
    "responsible_agency": "Department of Sanitation",
    "final_address": "6501 Wales St",
    "address_councildis": "E",
    "status": "Pending",
    "rowid": "1132102",
    "final_x": "3696926.26973",
    "final_y": "560269.432733",
    "longitude": "-90.01831815522675",
    "latitude": "30.034068646920286",
    "geocoded_column": {
      "latitude": "30.034068646920286",
      "longitude": "-90.01831815522675"
    }
  },
  {
    "service_request": "2024-1132101",
    "request_type": "Trash/Recycling",
    "request_reason": "Storm Debris Collection",
    "date_created": "2024-09-16T16:03:55.000",
    "date_modified": "2024-09-16T16:03:55.000",
    "request_status": "Pending",
    "responsible_agency": "Department of Sanitation",
    "final_address": "4373 Genoa St",
    "address_councildis": "E",
    "status": "Pending",
    "rowid": "1132101",
    "final_x": "3760965.93993",
    "final_y": "574035.86865",
    "longitude": "-89.81537372240726",
    "latitude": "30.069743799576845",
    "geocoded_column": {
      "latitude": "30.069743799576845",
      "longitude": "-89.81537372240726"
    }
  },
  {
    "service_request": "2024-1132100",
    "request_type": "Trash/Recycling",
    "request_reason": "Request a Large Item Pick Up",
    "date_created": "2024-09-16T16:03:52.000",
    "date_modified": "2024-09-16T16:03:54.000",
    "request_status": "Pending",
    "responsible_agency": "Department of Sanitation",
    "final_address": "7421 Seven Oaks Rd",
    "address_councildis": "E",
    "status": "Assigned to Contractor",
    "contractor": "Waste Pro",
    "rowid": "1132100",
    "final_x": "3712606.55256",
    "final_y": "565416.611554",
    "longitude": "-89.96857324281245",
    "latitude": "30.047717193329362",
    "geocoded_column": {
      "latitude": "30.047717193329362",
      "longitude": "-89.96857324281245"
    }
  },
  {
    "service_request": "2024-1132099",
    "request_type": "Trash/Recycling",
    "request_reason": "Storm Debris Collection",
    "date_created": "2024-09-16T16:02:36.000",
    "date_modified": "2024-09-16T16:02:37.000",
    "request_status": "Pending",
    "responsible_agency": "Department of Sanitation",
    "final_address": "5122 Pratt Dr",
    "address_councildis": "D",
    "status": "Pending",
    "rowid": "1132099",
    "final_x": "3680391.94671",
    "final_y": "551304.411285",
    "longitude": "-90.07088085526374",
    "latitude": "30.009929505551575",
    "geocoded_column": {
      "latitude": "30.009929505551575",
      "longitude": "-90.07088085526374"
    }
  },
  {
    "service_request": "2024-1132098",
    "request_type": "Trash/Recycling",
    "request_reason": "Return Trash Cart",
    "date_created": "2024-09-16T16:00:38.000",
    "date_modified": "2024-09-16T16:00:39.000",
    "request_status": "Pending",
    "responsible_agency": "Department of Sanitation",
    "final_address": "6909 Fleur-De-Lis Dr",
    "address_councildis": "A",
    "status": "Assigned to Contractor",
    "contractor": "IV Waste",
    "rowid": "1132098",
    "final_x": "3665598.84186",
    "final_y": "553753.024727",
    "longitude": "-90.11753575269998",
    "latitude": "30.017102193715278",
    "geocoded_column": {
      "latitude": "30.017102193715278",
      "longitude": "-90.11753575269998"
    }
  },
  {
    "service_request": "2024-1132097",
    "request_type": "Drainage",
    "request_reason": "Ditch and Culvert Maintenance",
    "date_created": "2024-09-16T15:58:10.000",
    "date_modified": "2024-09-16T15:58:10.000",
    "request_status": "Pending",
    "responsible_agency": "Department of Public Works",
    "final_address": "1730 Dante St",
    "address_councildis": "A",
    "status": "Pending",
    "rowid": "1132097",
    "final_x": "3662750.19226",
    "final_y": "530382.421058",
    "longitude": "-90.1273135613551",
    "latitude": "29.952923678756232",
    "geocoded_column": {
      "latitude": "29.952923678756232",
      "longitude": "-90.1273135613551"
    }
  },
  {
    "service_request": "2024-1132096",
    "request_type": "Drainage",
    "request_reason": "Catch Basin Clogged",
    "date_created": "2024-09-16T15:57:57.000",
    "date_modified": "2024-09-16T15:57:57.000",
    "request_status": "Pending",
    "responsible_agency": "Department of Public Works",
    "final_address": "3637 Desaix Blvd",
    "address_councildis": "D",
    "status": "Pending",
    "rowid": "1132096",
    "final_x": "3675467.35681",
    "final_y": "543794.89915",
    "longitude": "-90.08669756441621",
    "latitude": "29.989429259283128",
    "geocoded_column": {
      "latitude": "29.989429259283128",
      "longitude": "-90.08669756441621"
    }
  },
  {
    "service_request": "2024-1132095",
    "request_type": "Streetlights",
    "request_reason": "Streetlight Outage/Malfunction",
    "date_created": "2024-09-16T15:57:34.000",
    "date_modified": "2024-09-16T15:57:35.000",
    "request_status": "Pending",
    "responsible_agency": "Department of Public Works",
    "final_address": "7028 Lake Willow Dr",
    "address_councildis": "E",
    "status": "Pending",
    "contractor": "Legacy Professional Services",
    "rowid": "1132095",
    "final_x": "3702337.71069",
    "final_y": "558895.66166",
    "longitude": "-90.00126790066801",
    "latitude": "30.030119437590105",
    "geocoded_column": {
      "latitude": "30.030119437590105",
      "longitude": "-90.00126790066801"
    }
  },
  {
    "service_request": "2024-1132093",
    "request_type": "Trash/Recycling",
    "request_reason": "Storm Debris Collection",
    "date_created": "2024-09-16T15:54:21.000",
    "date_modified": "2024-09-16T15:54:21.000",
    "request_status": "Pending",
    "responsible_agency": "Department of Sanitation",
    "final_address": "5006 Touro St",
    "address_councildis": "D",
    "status": "Pending",
    "rowid": "1132093",
    "final_x": "3682977.59688",
    "final_y": "551144.861461",
    "longitude": "-90.06271744631445",
    "latitude": "30.00941221639693",
    "geocoded_column": {
      "latitude": "30.00941221639693",
      "longitude": "-90.06271744631445"
    }
  },
  {
    "service_request": "2024-1132092",
    "request_type": "Trash/Recycling",
    "request_reason": "Request a Large Item Pick Up",
    "date_created": "2024-09-16T15:51:59.000",
    "date_modified": "2024-09-16T15:52:00.000",
    "request_status": "Pending",
    "responsible_agency": "Department of Sanitation",
    "final_address": "2617 Memorial Park Dr",
    "address_councildis": "C",
    "status": "Assigned to Contractor",
    "contractor": "Richards Disposal",
    "rowid": "1132092",
    "final_x": "3692928.80029",
    "final_y": "520917.251769",
    "longitude": "-90.03236255892486",
    "latitude": "29.92598980962947",
    "geocoded_column": {
      "latitude": "29.92598980962947",
      "longitude": "-90.03236255892486"
    }
  },
  {
    "service_request": "2024-1132091",
    "request_type": "Trash/Recycling",
    "request_reason": "Storm Debris Collection",
    "date_created": "2024-09-16T15:51:55.000",
    "date_modified": "2024-09-16T15:51:56.000",
    "request_status": "Pending",
    "responsible_agency": "Department of Sanitation",
    "final_address": "4553 Schindler Dr",
    "address_councildis": "E",
    "status": "Pending",
    "rowid": "1132091",
    "final_x": "3714493.08543",
    "final_y": "555825.723161",
    "longitude": "-89.96297332764877",
    "latitude": "30.021284176287935",
    "geocoded_column": {
      "latitude": "30.021284176287935",
      "longitude": "-89.96297332764877"
    }
  },
  {
    "service_request": "2024-1132090",
    "request_type": "Trash/Recycling",
    "request_reason": "Missed Trash Pick-Up",
    "date_created": "2024-09-16T15:50:56.000",
    "date_modified": "2024-09-16T15:50:57.000",
    "request_status": "Pending",
    "responsible_agency": "Department of Sanitation",
    "final_address": "5520 Rickert Dr",
    "address_councildis": "E",
    "status": "Assigned to Contractor",
    "contractor": "Waste Pro",
    "rowid": "1132090",
    "final_x": "3703180.93662",
    "final_y": "556231.885018",
    "longitude": "-89.99870136836128",
    "latitude": "30.02276810213838",
    "geocoded_column": {
      "latitude": "30.02276810213838",
      "longitude": "-89.99870136836128"
    }
  },
  {
    "service_request": "2024-1132089",
    "request_type": "Trash/Recycling",
    "request_reason": "Illegal Dumping",
    "date_created": "2024-09-16T15:50:23.000",
    "date_modified": "2024-09-16T15:50:23.000",
    "request_status": "Pending",
    "responsible_agency": "Department of Sanitation",
    "final_address": "111 Audubon St",
    "address_councildis": "A",
    "status": "Pending",
    "rowid": "1132089",
    "final_x": "3660916.91347",
    "final_y": "521057.297401",
    "longitude": "-90.13341062217289",
    "latitude": "29.927335469788034",
    "geocoded_column": {
      "latitude": "29.927335469788034",
      "longitude": "-90.13341062217289"
    }
  },
  {
    "service_request": "2024-1132088",
    "request_type": "Trash/Recycling",
    "request_reason": "Request a Large Item Pick Up",
    "date_created": "2024-09-16T15:50:07.000",
    "date_modified": "2024-09-16T15:50:08.000",
    "request_status": "Pending",
    "responsible_agency": "Department of Sanitation",
    "final_address": "1521 St Andrew St",
    "address_councildis": "B",
    "status": "Assigned to Contractor",
    "contractor": "IV Waste",
    "rowid": "1132088",
    "final_x": "3678437.75688",
    "final_y": "523925.83622",
    "longitude": "-90.07800249512528",
    "latitude": "29.934706880168793",
    "geocoded_column": {
      "latitude": "29.934706880168793",
      "longitude": "-90.07800249512528"
    }
  },
  {
    "service_request": "2024-1132087",
    "request_type": "Trash/Recycling",
    "request_reason": "Repair Trash Cart",
    "date_created": "2024-09-16T15:49:39.000",
    "date_modified": "2024-09-16T15:49:40.000",
    "request_status": "Pending",
    "responsible_agency": "Department of Sanitation",
    "final_address": "4461 Franklin Ave",
    "address_councildis": "D",
    "status": "Assigned to Contractor",
    "contractor": "IV Waste",
    "rowid": "1132087",
    "final_x": "3686995.92086",
    "final_y": "549332.113939",
    "longitude": "-90.05008633614976",
    "latitude": "30.004304688269055",
    "geocoded_column": {
      "latitude": "30.004304688269055",
      "longitude": "-90.05008633614976"
    }
  },
  {
    "service_request": "2024-1132086",
    "request_type": "Trash/Recycling",
    "request_reason": "Storm Debris Collection",
    "date_created": "2024-09-16T15:49:06.000",
    "date_modified": "2024-09-16T15:49:07.000",
    "request_status": "Pending",
    "responsible_agency": "Department of Sanitation",
    "final_address": "2636 Somerset Dr",
    "address_councildis": "C",
    "status": "Pending",
    "rowid": "1132086",
    "final_x": "3702913.53508",
    "final_y": "521208.993273",
    "longitude": "-90.00083320359826",
    "latitude": "29.926476504844373",
    "geocoded_column": {
      "latitude": "29.926476504844373",
      "longitude": "-90.00083320359826"
    }
  },
  {
    "service_request": "2024-1132085",
    "request_type": "Trash/Recycling",
    "request_reason": "Order Recycling Cart",
    "date_created": "2024-09-16T15:47:46.000",
    "date_modified": "2024-09-16T15:47:47.000",
    "request_status": "Pending",
    "responsible_agency": "Department of Sanitation",
    "final_address": "237 N Anthony St",
    "address_councildis": "A",
    "status": "Pending",
    "rowid": "1132085",
    "final_x": "3668837.99866",
    "final_y": "540941.987339",
    "longitude": "-90.10773426385384",
    "latitude": "29.981781377002317",
    "geocoded_column": {
      "latitude": "29.981781377002317",
      "longitude": "-90.10773426385384"
    }
  },
  {
    "service_request": "2024-1132084",
    "request_type": "Trash/Recycling",
    "request_reason": "Order Trash Cart",
    "date_created": "2024-09-16T15:47:34.000",
    "date_modified": "2024-09-16T15:47:35.000",
    "request_status": "Pending",
    "responsible_agency": "Department of Sanitation",
    "final_address": "237 N Anthony St",
    "address_councildis": "A",
    "status": "Assigned to Contractor",
    "contractor": "IV Waste",
    "rowid": "1132084",
    "final_x": "3668837.99866",
    "final_y": "540941.987339",
    "longitude": "-90.10773426385384",
    "latitude": "29.981781377002317",
    "geocoded_column": {
      "latitude": "29.981781377002317",
      "longitude": "-90.10773426385384"
    }
  },
  {
    "service_request": "2024-1132082",
    "request_type": "Trash/Recycling",
    "request_reason": "Order Recycling Cart",
    "date_created": "2024-09-16T15:43:06.000",
    "date_modified": "2024-09-16T15:43:06.000",
    "request_status": "Pending",
    "responsible_agency": "Department of Sanitation",
    "final_address": "2306 Octavia St",
    "address_councildis": "A",
    "status": "Pending",
    "rowid": "1132082",
    "final_x": "3667559.69517",
    "final_y": "524147.864892",
    "longitude": "-90.11233699345368",
    "latitude": "29.935640598116837",
    "geocoded_column": {
      "latitude": "29.935640598116837",
      "longitude": "-90.11233699345368"
    }
  },
  {
    "service_request": "2024-1132081",
    "request_type": "Trash/Recycling",
    "request_reason": "Request a Large Item Pick Up",
    "date_created": "2024-09-16T15:42:47.000",
    "date_modified": "2024-09-16T15:42:48.000",
    "request_status": "Pending",
    "responsible_agency": "Department of Sanitation",
    "final_address": "4553 Shalimar Dr",
    "address_councildis": "D",
    "status": "Assigned to Contractor",
    "contractor": "Waste Pro",
    "rowid": "1132081",
    "final_x": "3697329.7864",
    "final_y": "553321.686231",
    "longitude": "-90.01729516730981",
    "latitude": "30.014952252135526",
    "geocoded_column": {
      "latitude": "30.014952252135526",
      "longitude": "-90.01729516730981"
    }
  },
  {
    "service_request": "2024-1132080",
    "request_type": "Trash/Recycling",
    "request_reason": "Order Trash Cart",
    "date_created": "2024-09-16T15:40:25.000",
    "date_modified": "2024-09-16T15:41:16.000",
    "request_status": "Pending",
    "responsible_agency": "Department of Sanitation",
    "final_address": "3536 Upperline St A",
    "address_councildis": "B",
    "contractor": "IV Waste",
    "rowid": "1132080",
    "final_x": "3669251.04794",
    "final_y": "528005.235455",
    "longitude": "-90.10686701048013",
    "latitude": "29.946197453932704",
    "geocoded_column": {
      "latitude": "29.946197453932704",
      "longitude": "-90.10686701048013"
    }
  },
  {
    "service_request": "2024-1132079",
    "request_type": "Roads and Streets",
    "request_reason": "Street Subsidence (Sinking)",
    "date_created": "2024-09-16T15:39:52.000",
    "date_modified": "2024-09-16T15:39:53.000",
    "request_status": "Pending",
    "responsible_agency": "Department of Public Works",
    "final_address": "EARHART BLVD & PINE ST",
    "address_councildis": "B",
    "status": "Pending",
    "rowid": "1132079",
    "final_x": "3667904.6",
    "final_y": "532618.08",
    "longitude": "-90.1109628553282",
    "latitude": "29.958920828259348",
    "geocoded_column": {
      "latitude": "29.958920828259348",
      "longitude": "-90.1109628553282"
    }
  },
  {
    "service_request": "2024-1132078",
    "request_type": "Property Maintenance",
    "request_reason": "Property Maintenance",
    "date_created": "2024-09-16T15:38:50.000",
    "date_modified": "2024-09-16T15:38:50.000",
    "request_status": "Pending",
    "responsible_agency": "Department of Code Enforcement",
    "final_address": "1455 N Rocheblave St",
    "address_councildis": "D",
    "status": "Pending",
    "rowid": "1132078",
    "final_x": "3679358.13333",
    "final_y": "538798.284041",
    "longitude": "-90.07458109594629",
    "latitude": "29.975573338883947",
    "geocoded_column": {
      "latitude": "29.975573338883947",
      "longitude": "-90.07458109594629"
    }
  },
  {
    "service_request": "2024-1132077",
    "request_type": "Mosquito, Termite & Rodent Control",
    "request_reason": "Rodent Complaint (Rats)",
    "date_created": "2024-09-16T15:37:23.000",
    "date_modified": "2024-09-16T15:37:24.000",
    "request_status": "Pending",
    "responsible_agency": "Mosquito, Termite & Rodent Control Board",
    "final_address": "5928 Painters St",
    "address_councildis": "D",
    "status": "Pending",
    "rowid": "1132077",
    "final_x": "3685999.58434",
    "final_y": "555018.759577",
    "longitude": "-90.05303320807157",
    "latitude": "30.019971526051965",
    "geocoded_column": {
      "latitude": "30.019971526051965",
      "longitude": "-90.05303320807157"
    }
  },
  {
    "service_request": "2024-1132076",
    "request_type": "Property Maintenance",
    "request_reason": "Property Maintenance",
    "date_created": "2024-09-16T15:37:01.000",
    "date_modified": "2024-09-16T15:37:02.000",
    "request_status": "Pending",
    "responsible_agency": "Department of Code Enforcement",
    "final_address": "3019 Perdido St",
    "address_councildis": "B",
    "status": "Pending",
    "rowid": "1132076",
    "final_x": "3672454.66228",
    "final_y": "533680.106373",
    "longitude": "-90.09655867731674",
    "latitude": "29.961706794730386",
    "geocoded_column": {
      "latitude": "29.961706794730386",
      "longitude": "-90.09655867731674"
    }
  },
  {
    "service_request": "2024-1132075",
    "request_type": "Trash/Recycling",
    "request_reason": "Repair Trash Cart",
    "date_created": "2024-09-16T15:35:45.000",
    "date_modified": "2024-09-16T15:36:15.000",
    "request_status": "Pending",
    "responsible_agency": "Department of Sanitation",
    "final_address": "6223 Carlisle Ct",
    "address_councildis": "C",
    "status": "Assigned to Contractor",
    "contractor": "Richards Disposal",
    "rowid": "1132075",
    "final_x": "3707102.66385",
    "final_y": "516427.508853",
    "longitude": "-89.98778664832496",
    "latitude": "29.91319447084021",
    "geocoded_column": {
      "latitude": "29.91319447084021",
      "longitude": "-89.98778664832496"
    }
  },
  {
    "service_request": "2024-1132074",
    "request_type": "Streetlights",
    "request_reason": "Streetlight Outage/Malfunction",
    "date_created": "2024-09-16T15:35:30.000",
    "date_modified": "2024-09-16T15:35:32.000",
    "request_status": "Pending",
    "responsible_agency": "Department of Public Works",
    "final_address": "PERDIDO ST & S GAYOSO ST",
    "address_councildis": "B",
    "status": "Pending",
    "contractor": "Legacy Professional Services",
    "rowid": "1132074",
    "final_x": "3672561.6",
    "final_y": "533520.08",
    "longitude": "-90.09622644069105",
    "latitude": "29.96126360144017",
    "geocoded_column": {
      "latitude": "29.96126360144017",
      "longitude": "-90.09622644069105"
    }
  },
  {
    "service_request": "2024-1132073",
    "request_type": "Trash/Recycling",
    "request_reason": "Repair Trash Cart",
    "date_created": "2024-09-16T15:32:42.000",
    "date_modified": "2024-09-16T15:32:44.000",
    "request_status": "Pending",
    "responsible_agency": "Department of Sanitation",
    "final_address": "2527 Gravier St",
    "address_councildis": "B",
    "status": "Assigned to Contractor",
    "contractor": "IV Waste",
    "rowid": "1132073",
    "final_x": "3674722.59444",
    "final_y": "533019.294404",
    "longitude": "-90.08941956224103",
    "latitude": "29.959822279206737",
    "geocoded_column": {
      "latitude": "29.959822279206737",
      "longitude": "-90.08941956224103"
    }
  },
  {
    "service_request": "2024-1132072",
    "request_type": "Trash/Recycling",
    "request_reason": "Request a Large Item Pick Up",
    "date_created": "2024-09-16T15:31:50.000",
    "date_modified": "2024-09-16T15:31:51.000",
    "request_status": "Pending",
    "responsible_agency": "Department of Sanitation",
    "final_address": "7200 Yorktown Dr",
    "address_councildis": "E",
    "status": "Assigned to Contractor",
    "contractor": "Waste Pro",
    "rowid": "1132072",
    "final_x": "3705801.17041",
    "final_y": "561209.723678",
    "longitude": "-89.99023773679654",
    "latitude": "30.036371035809474",
    "geocoded_column": {
      "latitude": "30.036371035809474",
      "longitude": "-89.99023773679654"
    }
  },
  {
    "service_request": "2024-1132071",
    "request_type": "Trash/Recycling",
    "request_reason": "Request a Large Item Pick Up",
    "date_created": "2024-09-16T15:31:39.000",
    "date_modified": "2024-09-16T15:31:40.000",
    "request_status": "Pending",
    "responsible_agency": "Department of Sanitation",
    "final_address": "3509 Calhoun St",
    "address_councildis": "A",
    "status": "Assigned to Contractor",
    "contractor": "IV Waste",
    "rowid": "1132071",
    "final_x": "3667776.49089",
    "final_y": "529475.711489",
    "longitude": "-90.11147320443119",
    "latitude": "29.950284101061143",
    "geocoded_column": {
      "latitude": "29.950284101061143",
      "longitude": "-90.11147320443119"
    }
  },
  {
    "service_request": "2024-1132070",
    "request_type": "Healthy Homes",
    "request_reason": "Healthy Homes",
    "date_created": "2024-09-16T15:30:44.000",
    "date_modified": "2024-09-16T15:30:44.000",
    "request_status": "Pending",
    "responsible_agency": "Department of Code Enforcement",
    "final_address": "2446 Odin St",
    "address_councildis": "D",
    "status": "Pending",
    "rowid": "1132070",
    "final_x": "3685600.21526",
    "final_y": "553139.385303",
    "longitude": "-90.05436136626433",
    "latitude": "30.01481620190926",
    "geocoded_column": {
      "latitude": "30.01481620190926",
      "longitude": "-90.05436136626433"
    }
  },
  {
    "service_request": "2024-1132069",
    "request_type": "Trash/Recycling",
    "request_reason": "Request a Large Item Pick Up",
    "date_created": "2024-09-16T15:30:07.000",
    "date_modified": "2024-09-16T15:30:08.000",
    "request_status": "Pending",
    "responsible_agency": "Department of Sanitation",
    "final_address": "7101 Read Blvd",
    "address_councildis": "E",
    "status": "Assigned to Contractor",
    "contractor": "Waste Pro",
    "rowid": "1132069",
    "final_x": "3709730.78443",
    "final_y": "562564.919456",
    "longitude": "-89.97776882065988",
    "latitude": "30.039970049087138",
    "geocoded_column": {
      "latitude": "30.039970049087138",
      "longitude": "-89.97776882065988"
    }
  },
  {
    "service_request": "2024-1132068",
    "request_type": "Trash/Recycling",
    "request_reason": "Replace Trash Cart",
    "date_created": "2024-09-16T15:29:50.000",
    "date_modified": "2024-09-16T15:29:51.000",
    "request_status": "Pending",
    "responsible_agency": "Department of Sanitation",
    "final_address": "7101 Read Blvd",
    "address_councildis": "E",
    "status": "Assigned to Contractor",
    "contractor": "Waste Pro",
    "rowid": "1132068",
    "final_x": "3709730.78443",
    "final_y": "562564.919456",
    "longitude": "-89.97776882065988",
    "latitude": "30.039970049087138",
    "geocoded_column": {
      "latitude": "30.039970049087138",
      "longitude": "-89.97776882065988"
    }
  },
  {
    "service_request": "2024-1132067",
    "request_type": "Trash/Recycling",
    "request_reason": "Storm Debris Collection",
    "date_created": "2024-09-16T15:26:25.000",
    "date_modified": "2024-09-16T15:26:58.000",
    "request_status": "Pending",
    "responsible_agency": "Department of Sanitation",
    "final_address": "1722 Louisa St",
    "address_councildis": "D",
    "status": "Pending",
    "rowid": "1132067",
    "final_x": "3690134.15702",
    "final_y": "538277.582537",
    "longitude": "-90.0405661138197",
    "latitude": "29.973811692401373",
    "geocoded_column": {
      "latitude": "29.973811692401373",
      "longitude": "-90.0405661138197"
    }
  },
  {
    "service_request": "2024-1132066",
    "request_type": "Trash/Recycling",
    "request_reason": "Missed Trash Pick-Up",
    "date_created": "2024-09-16T15:25:25.000",
    "date_modified": "2024-09-16T15:26:04.000",
    "request_status": "Pending",
    "responsible_agency": "Department of Sanitation",
    "final_address": "5427 St Claude Ave",
    "address_councildis": "E",
    "status": "Assigned to Contractor",
    "contractor": "Waste Pro",
    "rowid": "1132066",
    "final_x": "3697453.07427",
    "final_y": "534017.915973",
    "longitude": "-90.01760597160691",
    "latitude": "29.96187005259772",
    "geocoded_column": {
      "latitude": "29.96187005259772",
      "longitude": "-90.01760597160691"
    }
  },
  {
    "service_request": "2024-1132065",
    "request_type": "Trash/Recycling",
    "request_reason": "Request a Large Item Pick Up",
    "date_created": "2024-09-16T15:25:24.000",
    "date_modified": "2024-09-16T15:26:11.000",
    "request_status": "Pending",
    "responsible_agency": "Department of Sanitation",
    "final_address": "7000 Pinebrook Dr",
    "address_councildis": "E",
    "status": "Assigned to Contractor",
    "contractor": "Waste Pro",
    "rowid": "1132065",
    "final_x": "3719671.18777",
    "final_y": "569500.592102",
    "longitude": "-89.94608905337027",
    "latitude": "30.058713193562415",
    "geocoded_column": {
      "latitude": "30.058713193562415",
      "longitude": "-89.94608905337027"
    }
  },
  {
    "service_request": "2024-1132064",
    "request_type": "Trash/Recycling",
    "request_reason": "Request a Large Item Pick Up",
    "date_created": "2024-09-16T15:25:03.000",
    "date_modified": "2024-09-16T15:25:18.000",
    "request_status": "Pending",
    "responsible_agency": "Department of Sanitation",
    "final_address": "7012 Pinebrook Dr",
    "address_councildis": "E",
    "status": "Assigned to Contractor",
    "contractor": "Waste Pro",
    "rowid": "1132064",
    "final_x": "3719608.83801",
    "final_y": "569584.493222",
    "longitude": "-89.94628292246182",
    "latitude": "30.058945962092324",
    "geocoded_column": {
      "latitude": "30.058945962092324",
      "longitude": "-89.94628292246182"
    }
  },
  {
    "service_request": "2024-1132063",
    "request_type": "Abandoned Vehicles",
    "request_reason": "Abandoned/Junk Vehicles",
    "date_created": "2024-09-16T15:23:08.000",
    "date_modified": "2024-09-16T15:25:34.000",
    "request_status": "Pending",
    "responsible_agency": "Department of Public Works",
    "final_address": "8127 Chef Menteur Hwy",
    "address_councildis": "E",
    "status": "Pending",
    "rowid": "1132063",
    "final_x": "3705584.2003",
    "final_y": "553039.605463",
    "longitude": "-89.99122581649468",
    "latitude": "30.013913376885977",
    "geocoded_column": {
      "latitude": "30.013913376885977",
      "longitude": "-89.99122581649468"
    }
  },
  {
    "service_request": "2024-1132062",
    "request_type": "Trash/Recycling",
    "request_reason": "Repair Trash Cart",
    "date_created": "2024-09-16T15:21:54.000",
    "date_modified": "2024-09-16T15:21:55.000",
    "request_status": "Pending",
    "responsible_agency": "Department of Sanitation",
    "final_address": "2507 Fern St",
    "address_councildis": "A",
    "status": "Assigned to Contractor",
    "contractor": "IV Waste",
    "rowid": "1132062",
    "final_x": "3665792.60992",
    "final_y": "531346.393858",
    "longitude": "-90.1176746185383",
    "latitude": "29.95548588932275",
    "geocoded_column": {
      "latitude": "29.95548588932275",
      "longitude": "-90.1176746185383"
    }
  },
  {
    "service_request": "2024-1132061",
    "request_type": "Trash/Recycling",
    "request_reason": "Repair Trash Cart",
    "date_created": "2024-09-16T15:20:46.000",
    "date_modified": "2024-09-16T15:22:10.000",
    "request_status": "Pending",
    "responsible_agency": "Department of Sanitation",
    "final_address": "2511 Fern St",
    "address_councildis": "A",
    "status": "Assigned to Contractor",
    "contractor": "IV Waste",
    "rowid": "1132061",
    "final_x": "3665792.60992",
    "final_y": "531346.393858",
    "longitude": "-90.1176746185383",
    "latitude": "29.95548588932275",
    "geocoded_column": {
      "latitude": "29.95548588932275",
      "longitude": "-90.1176746185383"
    }
  },
  {
    "service_request": "2024-1132060",
    "request_type": "Trash/Recycling",
    "request_reason": "Storm Debris Collection",
    "date_created": "2024-09-16T15:17:16.000",
    "date_modified": "2024-09-16T15:17:16.000",
    "request_status": "Pending",
    "responsible_agency": "Department of Sanitation",
    "final_address": "2612 Baronne St",
    "address_councildis": "B",
    "status": "Pending",
    "rowid": "1132060",
    "final_x": "3675953.3204",
    "final_y": "523398.585403",
    "longitude": "-90.08586394626346",
    "latitude": "29.933331720273628",
    "geocoded_column": {
      "latitude": "29.933331720273628",
      "longitude": "-90.08586394626346"
    }
  },
  {
    "service_request": "2024-1132059",
    "request_type": "Streetlights",
    "request_reason": "Streetlight Outage/Malfunction",
    "date_created": "2024-09-16T15:16:33.000",
    "date_modified": "2024-09-16T15:16:34.000",
    "request_status": "Pending",
    "responsible_agency": "Department of Public Works",
    "final_address": "938 Race St",
    "address_councildis": "B",
    "status": "Pending",
    "contractor": "Legacy Professional Services",
    "rowid": "1132059",
    "final_x": "3680631.39336",
    "final_y": "523687.489019",
    "longitude": "-90.07108551566782",
    "latitude": "29.933985240428957",
    "geocoded_column": {
      "latitude": "29.933985240428957",
      "longitude": "-90.07108551566782"
    }
  },
  {
    "service_request": "2024-1132057",
    "request_type": "Trash/Recycling",
    "request_reason": "Storm Debris Collection",
    "date_created": "2024-09-16T15:15:38.000",
    "date_modified": "2024-09-16T15:15:38.000",
    "request_status": "Pending",
    "responsible_agency": "Department of Sanitation",
    "final_address": "2021 Cypress Acres Dr",
    "address_councildis": "C",
    "status": "Pending",
    "rowid": "1132057",
    "final_x": "3696186.56854",
    "final_y": "523520.710715",
    "longitude": "-90.02198474027225",
    "latitude": "29.93304632422239",
    "geocoded_column": {
      "latitude": "29.93304632422239",
      "longitude": "-90.02198474027225"
    }
  },
  {
    "service_request": "2024-1132058",
    "request_type": "Trash/Recycling",
    "request_reason": "Storm Debris Collection",
    "date_created": "2024-09-16T15:15:38.000",
    "date_modified": "2024-09-16T15:15:38.000",
    "request_status": "Pending",
    "responsible_agency": "Department of Sanitation",
    "final_address": "DANNEEL ST & CONSTANTINOPLE ST",
    "address_councildis": "B",
    "status": "Pending",
    "rowid": "1132058",
    "final_x": "3672168.5",
    "final_y": "522438.88",
    "longitude": "-90.09784508548837",
    "latitude": "29.930805597990105",
    "geocoded_column": {
      "latitude": "29.930805597990105",
      "longitude": "-90.09784508548837"
    }
  },
  {
    "service_request": "2024-1132056",
    "request_type": "Trash/Recycling",
    "request_reason": "Storm Debris Collection",
    "date_created": "2024-09-16T15:14:58.000",
    "date_modified": "2024-09-16T15:14:59.000",
    "request_status": "Pending",
    "responsible_agency": "Department of Sanitation",
    "final_address": "5531 Burgundy St",
    "address_councildis": "E",
    "status": "Pending",
    "rowid": "1132056",
    "final_x": "3697765.892",
    "final_y": "533057.055236",
    "longitude": "-90.0166530147609",
    "latitude": "29.959218146197905",
    "geocoded_column": {
      "latitude": "29.959218146197905",
      "longitude": "-90.0166530147609"
    }
  },
  {
    "service_request": "2024-1132055",
    "request_type": "Property Maintenance",
    "request_reason": "Property Maintenance",
    "date_created": "2024-09-16T15:10:04.000",
    "date_modified": "2024-09-16T15:10:06.000",
    "request_status": "Pending",
    "responsible_agency": "Department of Code Enforcement",
    "final_address": "1223 Pauline St",
    "address_councildis": "D",
    "status": "Pending",
    "rowid": "1132055",
    "final_x": "3691394.6134",
    "final_y": "535996.397383",
    "longitude": "-90.03666685865622",
    "latitude": "29.967500076863146",
    "geocoded_column": {
      "latitude": "29.967500076863146",
      "longitude": "-90.03666685865622"
    }
  },
  {
    "service_request": "2024-1132054",
    "request_type": "Trash/Recycling",
    "request_reason": "Storm Debris Collection",
    "date_created": "2024-09-16T15:09:22.000",
    "date_modified": "2024-09-16T15:09:22.000",
    "request_status": "Pending",
    "responsible_agency": "Department of Sanitation",
    "final_address": "3314 Carondelet St",
    "address_councildis": "B",
    "status": "Pending",
    "rowid": "1132054",
    "final_x": "3674314.37396",
    "final_y": "521970.988602",
    "longitude": "-90.0910868676804",
    "latitude": "29.929455252765287",
    "geocoded_column": {
      "latitude": "29.929455252765287",
      "longitude": "-90.0910868676804"
    }
  },
  {
    "service_request": "2024-1132053",
    "request_type": "Trash/Recycling",
    "request_reason": "Order Recycling Cart",
    "date_created": "2024-09-16T15:08:46.000",
    "date_modified": "2024-09-16T15:08:46.000",
    "request_status": "Pending",
    "responsible_agency": "Department of Sanitation",
    "final_address": "300 BLK Verret St",
    "address_councildis": "C",
    "status": "Pending",
    "rowid": "1132053",
    "final_x": "3686887.64719",
    "final_y": "530536.094227",
    "longitude": "-90.05109287811567",
    "latitude": "29.952625597895445",
    "geocoded_column": {
      "latitude": "29.952625597895445",
      "longitude": "-90.05109287811567"
    }
  },
  {
    "service_request": "2024-1132052",
    "request_type": "Parks & Parkways",
    "request_reason": "Request Grass Cutting Service (City Owned Property)",
    "date_created": "2024-09-16T15:07:37.000",
    "date_modified": "2024-09-16T15:09:40.000",
    "request_status": "Pending",
    "responsible_agency": "Department of Parks & Parkway",
    "final_address": "N VILLERE ST & MAZANT ST",
    "address_councildis": "D",
    "status": "Pending",
    "rowid": "1132052",
    "final_x": "3692383.8",
    "final_y": "536342.88",
    "longitude": "-90.03353058826963",
    "latitude": "29.96842196519846",
    "geocoded_column": {
      "latitude": "29.96842196519846",
      "longitude": "-90.03353058826963"
    }
  },
  {
    "service_request": "2024-1132051",
    "request_type": "Trash/Recycling",
    "request_reason": "Repair Recycling Cart",
    "date_created": "2024-09-16T15:06:55.000",
    "date_modified": "2024-09-16T15:06:56.000",
    "request_status": "Pending",
    "responsible_agency": "Department of Sanitation",
    "final_address": "10220 Flossmoor Dr",
    "address_councildis": "E",
    "status": "Pending",
    "rowid": "1132051",
    "final_x": "3709870.39333",
    "final_y": "563633.523745",
    "longitude": "-89.97728765031596",
    "latitude": "30.042903741655703",
    "geocoded_column": {
      "latitude": "30.042903741655703",
      "longitude": "-89.97728765031596"
    }
  },
  {
    "service_request": "2024-1132050",
    "request_type": "Street and Traffic Signs",
    "request_reason": "Additional Signage Request",
    "date_created": "2024-09-16T15:06:39.000",
    "date_modified": "2024-09-16T15:06:40.000",
    "request_status": "Pending",
    "responsible_agency": "Department of Public Works",
    "final_address": "CANAL ST & S CARROLLTON AVE",
    "address_councildis": "A",
    "status": "Pending",
    "rowid": "1132050",
    "final_x": "3671073.9",
    "final_y": "538319.38",
    "longitude": "-90.10076131951043",
    "latitude": "29.974504148359255",
    "geocoded_column": {
      "latitude": "29.974504148359255",
      "longitude": "-90.10076131951043"
    }
  },