[
  {
    "service_request": "2022-946861",
    "request_type": "Abandoned Vehicles",
    "request_reason": "Abandoned/Junk Vehicles",
    "date_created": "2022-11-28T01:21:45.000",
    "date_modified": "2022-11-28T01:21:45.000",
    "request_status": "Pending",
    "responsible_agency": "Department of Public Works",
    "final_address": "2238 St Roch Ave",
    "address_councildis": "D",
    "status": "Pending",
    "rowid": "946861",
    "final_x": "3686068.42364",
    "final_y": "540791.432011",
    "longitude": "-90.05331787593526",
    "latitude": "29.98084939682178",
    "geocoded_column": {
      "latitude": "29.98084939682178",
      "longitude": "-90.05331787593526"
    }
  },
  {
    "service_request": "2022-946860",
    "request_type": "Abandoned Vehicles",
    "request_reason": "Abandoned/Junk Vehicles",
    "date_created": "2022-11-27T23:18:23.000",
    "date_modified": "2022-11-27T23:18:24.000",
    "request_status": "Pending",
    "responsible_agency": "Department of Public Works",
    "final_address": "2225 Marais St",
    "address_councildis": "C",
    "status": "Pending",
    "rowid": "946860",
    "final_x": "3685267.09033",
    "final_y": "536724.679047",
    "longitude": "-90.05599202323454",
    "latitude": "29.96969183918792",
    "geocoded_column": {
      "latitude": "29.96969183918792",
      "longitude": "-90.05599202323454"
    }
  },
  {
    "service_request": "2022-946859",
    "request_type": "Abandoned Vehicles",
    "request_reason": "Vehicle Blocking Your Driveway",
    "date_created": "2022-11-27T23:14:33.000",
    "date_modified": "2022-11-27T23:14:33.000",
    "request_status": "Pending",
    "responsible_agency": "Department of Public Works",
    "final_address": "2225 Marais St",
    "address_councildis": "C",
    "status": "Pending",
    "rowid": "946859",
    "final_x": "3685267.09033",
    "final_y": "536724.679047",
    "longitude": "-90.05599202323454",
    "latitude": "29.96969183918792",
    "geocoded_column": {
      "latitude": "29.96969183918792",
      "longitude": "-90.05599202323454"
    }
  },
  {
    "service_request": "2022-946858",
    "request_type": "Health Related Request",
    "request_reason": "Noise Ordinance Complaint",
    "date_created": "2022-11-27T22:16:15.000",
    "date_modified": "2022-11-27T22:16:15.000",
    "request_status": "Pending",
    "responsible_agency": "Health Department",
    "final_address": "1009 N Claiborne Ave, New Orleans, Louisiana, 70116",
    "address_councildis": "D",
    "status": "Pending",
    "rowid": "946858",
    "final_x": "3680417.66101",
    "final_y": "535635.218886",
    "longitude": "-90.07134484150656",
    "latitude": "29.966843952035386",
    "geocoded_column": {
      "latitude": "29.966843952035386",
      "longitude": "-90.07134484150656"
    }
  },
  {
    "service_request": "2022-946857",
    "request_type": "Abandoned Vehicles",
    "request_reason": "Abandoned/Junk Vehicles",
    "date_created": "2022-11-27T22:08:34.000",
    "date_modified": "2022-11-27T22:08:34.000",
    "request_status": "Pending",
    "responsible_agency": "Department of Public Works",
    "final_address": "1618 Columbus St",
    "address_councildis": "D",
    "status": "Pending",
    "rowid": "946857",
    "final_x": "3681485.31682",
    "final_y": "537239.341384",
    "longitude": "-90.06791724320446",
    "latitude": "29.97122236072708",
    "geocoded_column": {
      "latitude": "29.97122236072708",
      "longitude": "-90.06791724320446"
    }
  },
  {
    "service_request": "2022-946856",
    "request_type": "Trash/Recycling",
    "request_reason": "MIssed Recycling Pick-Up",
    "date_created": "2022-11-27T21:58:21.000",
    "date_modified": "2022-11-27T21:58:22.000",
    "request_status": "Pending",
    "responsible_agency": "Department of Sanitation",
    "final_address": "1343 Coliseum St",
    "address_councildis": "B",
    "status": "Assigned to Contractor",
    "contractor": "Richards Disposal",
    "rowid": "946856",
    "final_x": "3679950.59835",
    "final_y": "524964.806397",
    "longitude": "-90.073190410487",
    "latitude": "29.937518045019342",
    "geocoded_column": {
      "latitude": "29.937518045019342",
      "longitude": "-90.073190410487"
    }
  },
  {
    "service_request": "2022-946854",
    "request_type": "Trash/Recycling",
    "request_reason": "Replace Trash Cart",
    "date_created": "2022-11-27T21:31:23.000",
    "date_modified": "2022-11-27T21:31:24.000",
    "request_status": "Pending",
    "responsible_agency": "Department of Sanitation",
    "final_address": "332 Millaudon St",
    "address_councildis": "A",
    "status": "Assigned to Contractor",
    "contractor": "Richards Disposal",
    "rowid": "946854",
    "final_x": "3661581.48211",
    "final_y": "524339.537596",
    "longitude": "-90.13120403261557",
    "latitude": "29.936341446973596",
    "geocoded_column": {
      "latitude": "29.936341446973596",
      "longitude": "-90.13120403261557"
    }
  },
  {
    "service_request": "2022-946853",
    "request_type": "Abandoned Vehicles",
    "request_reason": "Abandoned/Junk Vehicles",
    "date_created": "2022-11-27T20:58:58.000",
    "date_modified": "2022-11-27T20:58:58.000",
    "request_status": "Pending",
    "responsible_agency": "Department of Public Works",
    "final_address": "2123 Humanity St",
    "address_councildis": "D",
    "status": "Pending",
    "rowid": "946853",
    "final_x": "3683736.16604",
    "final_y": "544780.090383",
    "longitude": "-90.06054423001352",
    "latitude": "29.991888230662045",
    "geocoded_column": {
      "latitude": "29.991888230662045",
      "longitude": "-90.06054423001352"
    }
  },
  {
    "service_request": "2022-946852",
    "request_type": "Health Related Request",
    "request_reason": "Noise Ordinance Complaint",
    "date_created": "2022-11-27T20:43:19.000",
    "date_modified": "2022-11-27T20:43:19.000",
    "request_status": "Pending",
    "responsible_agency": "Health Department",
    "final_address": "1009 N Claiborne Ave, New Orleans, Louisiana, 70116",
    "address_councildis": "D",
    "status": "Pending",
    "rowid": "946852",
    "final_x": "3680417.66101",
    "final_y": "535635.218886",
    "longitude": "-90.07134484150656",
    "latitude": "29.966843952035386",
    "geocoded_column": {
      "latitude": "29.966843952035386",
      "longitude": "-90.07134484150656"
    }
  },
  {
    "service_request": "2022-946851",
    "request_type": "Roads/Drainage",
    "request_reason": "Debris in Roadway",
    "date_created": "2022-11-27T20:32:13.000",
    "date_modified": "2022-11-27T20:32:13.000",
    "request_status": "Pending",
    "responsible_agency": "Department of Public Works",
    "final_address": "5325 Magazine St",
    "address_councildis": "B",
    "status": "Pending",
    "rowid": "946851",
    "final_x": "3667299.81364",
    "final_y": "518733.985527",
    "longitude": "-90.11333942339208",
    "latitude": "29.92076175960371",
    "geocoded_column": {
      "latitude": "29.92076175960371",
      "longitude": "-90.11333942339208"
    }
  },
  {
    "service_request": "2022-946850",
    "request_type": "Trash/Recycling",
    "request_reason": "Request a Large Item Pick Up",
    "date_created": "2022-11-27T20:30:09.000",
    "date_modified": "2022-11-27T20:30:09.000",
    "request_status": "Pending",
    "responsible_agency": "Department of Sanitation",
    "final_address": "1433 Toledano St",
    "address_councildis": "B",
    "status": "Assigned to Contractor",
    "contractor": "Richards Disposal",
    "rowid": "946850",
    "final_x": "3674899.49089",
    "final_y": "521012.759673",
    "longitude": "-90.08927260119415",
    "latitude": "29.92680297771542",
    "geocoded_column": {
      "latitude": "29.92680297771542",
      "longitude": "-90.08927260119415"
    }
  },
  {
    "service_request": "2022-946849",
    "request_type": "Trash/Recycling",
    "request_reason": "Missed Trash Pick-Up",
    "date_created": "2022-11-27T20:16:44.000",
    "date_modified": "2022-11-27T20:16:45.000",
    "request_status": "Pending",
    "responsible_agency": "Department of Sanitation",
    "final_address": "4938 St Charles Ave",
    "address_councildis": "B",
    "status": "Assigned to Contractor",
    "contractor": "Richards Disposal",
    "rowid": "946849",
    "final_x": "3668770.57927",
    "final_y": "520679.947001",
    "longitude": "-90.10863122387991",
    "latitude": "29.926069396869472",
    "geocoded_column": {
      "latitude": "29.926069396869472",
      "longitude": "-90.10863122387991"
    }
  },
  {
    "service_request": "2022-946848",
    "request_type": "Trash/Recycling",
    "request_reason": "Order Recycling Cart",
    "date_created": "2022-11-27T20:05:10.000",
    "date_modified": "2022-11-27T20:05:10.000",
    "request_status": "Pending",
    "responsible_agency": "Department of Sanitation",
    "final_address": "613 N Olympia St",
    "address_councildis": "A",
    "status": "Pending",
    "rowid": "946848",
    "final_x": "3670530.98011",
    "final_y": "541170.279244",
    "longitude": "-90.10237926960234",
    "latitude": "29.982359201948665",
    "geocoded_column": {
      "latitude": "29.982359201948665",
      "longitude": "-90.10237926960234"
    }
  },
  {
    "service_request": "2022-946847",
    "request_type": "Trash/Recycling",
    "request_reason": "Request a Large Item Pick Up",
    "date_created": "2022-11-27T19:59:53.000",
    "date_modified": "2022-11-27T19:59:54.000",
    "request_status": "Pending",
    "responsible_agency": "Department of Sanitation",
    "final_address": "512 Emerald St",
    "address_councildis": "D",
    "status": "Assigned to Contractor",
    "contractor": "IV Waste",
    "rowid": "946847",
    "final_x": "3668238.27841",
    "final_y": "554995.74332",
    "longitude": "-90.10915423766393",
    "latitude": "30.020441959764312",
    "geocoded_column": {
      "latitude": "30.020441959764312",
      "longitude": "-90.10915423766393"
    }
  },
  {
    "service_request": "2022-946846",
    "request_type": "Trash/Recycling",
    "request_reason": "Illegal Dumping",
    "date_created": "2022-11-27T19:57:30.000",
    "date_modified": "2022-11-27T19:57:30.000",
    "request_status": "Pending",
    "responsible_agency": "Department of Sanitation",
    "final_address": "1218 N Derbigny St",
    "address_councildis": "D",
    "status": "Pending",
    "rowid": "946846",
    "final_x": "3680707.88738",
    "final_y": "536361.842311",
    "longitude": "-90.07040301572145",
    "latitude": "29.96883312472835",
    "geocoded_column": {
      "latitude": "29.96883312472835",
      "longitude": "-90.07040301572145"
    }
  },
  {
    "service_request": "2022-946845",
    "request_type": "Trash/Recycling",
    "request_reason": "Order Trash Cart",
    "date_created": "2022-11-27T19:57:28.000",
    "date_modified": "2022-11-27T19:57:29.000",
    "request_status": "Pending",
    "responsible_agency": "Department of Sanitation",
    "final_address": "3001 Saint Ann St, New Orleans, LA 70119",
    "status": "Assigned to Contractor",
    "rowid": "946845",
    "longitude": "0.0",
    "latitude": "0.0",
    "geocoded_column": {
      "latitude": "0.0",
      "longitude": "0.0"
    }
  },
  {
    "service_request": "2022-946844",
    "request_type": "Property Maintenance",
    "request_reason": "Property Maintenance",
    "date_created": "2022-11-27T19:55:55.000",
    "date_modified": "2022-11-27T19:55:55.000",
    "request_status": "Pending",
    "responsible_agency": "Department of Code Enforcement",
    "final_address": "7114 Freret St",
    "address_councildis": "A",
    "status": "Pending",
    "rowid": "946844",
    "final_x": "3663879.65933",
    "final_y": "525758.266109",
    "longitude": "-90.123901300593",
    "latitude": "29.940176002229204",
    "geocoded_column": {
      "latitude": "29.940176002229204",
      "longitude": "-90.123901300593"
    }
  },
  {
    "service_request": "2022-946843",
    "request_type": "Trash/Recycling",
    "request_reason": "Order Trash Cart",
    "date_created": "2022-11-27T19:55:42.000",
    "date_modified": "2022-11-27T19:55:43.000",
    "request_status": "Pending",
    "responsible_agency": "Department of Sanitation",
    "final_address": "3001 Saint Ann Street, New Orleans 70119",
    "status": "Assigned to Contractor",
    "rowid": "946843",
    "longitude": "0.0",
    "latitude": "0.0",
    "geocoded_column": {
      "latitude": "0.0",
      "longitude": "0.0"
    }
  },
  {
    "service_request": "2022-946842",
    "request_type": "Mosquito, Termite & Rodent Control",
    "request_reason": "Non-Rodent Complaint (Mice, Possums, Snakes)",
    "date_created": "2022-11-27T19:37:41.000",
    "date_modified": "2022-11-27T19:37:41.000",
    "request_status": "Pending",
    "responsible_agency": "Mosquito, Termite & Rodent Control Board",
    "final_address": "4700 Mark Twain Dr",
    "address_councildis": "D",
    "status": "Pending",
    "rowid": "946842",
    "final_x": "3691359.24022",
    "final_y": "551041.033365",
    "longitude": "-90.03624074017903",
    "latitude": "30.008868503207584",
    "geocoded_column": {
      "latitude": "30.008868503207584",
      "longitude": "-90.03624074017903"
    }
  },
  {
    "service_request": "2022-946841",
    "request_type": "Property Maintenance",
    "request_reason": "Property Maintenance",
    "date_created": "2022-11-27T19:30:07.000",
    "date_modified": "2022-11-27T19:30:07.000",
    "request_status": "Pending",
    "responsible_agency": "Department of Code Enforcement",
    "final_address": "4557 Mark Twain Dr",
    "address_councildis": "D",
    "status": "Pending",
    "rowid": "946841",
    "final_x": "3691518.18633",
    "final_y": "551086.270293",
    "longitude": "-90.0357369604691",
    "latitude": "30.008987939752593",
    "geocoded_column": {
      "latitude": "30.008987939752593",
      "longitude": "-90.0357369604691"
    }
  },
  {
    "service_request": "2022-946840",
    "request_type": "Abandoned Vehicles",
    "request_reason": "Abandoned/Junk Vehicles",
    "date_created": "2022-11-27T19:29:27.000",
    "date_modified": "2022-11-27T19:29:27.000",
    "request_status": "Pending",
    "responsible_agency": "Department of Public Works",
    "final_address": "4323 Iberville St",
    "address_councildis": "A",
    "status": "Pending",
    "rowid": "946840",
    "final_x": "3670409.12321",
    "final_y": "539457.868362",
    "longitude": "-90.10282223746404",
    "latitude": "29.977654252479837",
    "geocoded_column": {
      "latitude": "29.977654252479837",
      "longitude": "-90.10282223746404"
    }
  },
  {
    "service_request": "2022-946839",
    "request_type": "Property Maintenance",
    "request_reason": "Property Maintenance",
    "date_created": "2022-11-27T19:24:53.000",
    "date_modified": "2022-11-27T19:24:53.000",
    "request_status": "Pending",
    "responsible_agency": "Department of Code Enforcement",
    "final_address": "4537 Mark Twain Dr",
    "address_councildis": "D",
    "status": "Pending",
    "rowid": "946839",
    "final_x": "3691559.28899",
    "final_y": "550963.099221",
    "longitude": "-90.03561151114029",
    "latitude": "30.008647984865522",
    "geocoded_column": {
      "latitude": "30.008647984865522",
      "longitude": "-90.03561151114029"
    }
  },
  {
    "service_request": "2022-946838",
    "request_type": "Trash/Recycling",
    "request_reason": "Order Recycling Cart",
    "date_created": "2022-11-27T19:23:47.000",
    "date_modified": "2022-11-27T19:23:47.000",
    "request_status": "Pending",
    "responsible_agency": "Department of Sanitation",
    "final_address": "285 Walnut St",
    "address_councildis": "A",
    "status": "Pending",
    "rowid": "946838",
    "final_x": "3661654.42995",
    "final_y": "521601.890233",
    "longitude": "-90.13106441750759",
    "latitude": "29.928811672692404",
    "geocoded_column": {
      "latitude": "29.928811672692404",
      "longitude": "-90.13106441750759"
    }
  },
  {
    "service_request": "2022-946837",
    "request_type": "Trash/Recycling",
    "request_reason": "Request a Large Item Pick Up",
    "date_created": "2022-11-27T19:18:51.000",
    "date_modified": "2022-11-27T19:18:52.000",
    "request_status": "Pending",
    "responsible_agency": "Department of Sanitation",
    "final_address": "7530 Lady Gray St",
    "address_councildis": "E",
    "status": "Assigned to Contractor",
    "contractor": "Waste Pro",
    "rowid": "946837",
    "final_x": "3710148.29304",
    "final_y": "564907.600738",
    "longitude": "-89.97636169715221",
    "latitude": "30.046397896000524",
    "geocoded_column": {
      "latitude": "30.046397896000524",
      "longitude": "-89.97636169715221"
    }
  },
  {
    "service_request": "2022-946836",
    "request_type": "Trash/Recycling",
    "request_reason": "Repair Recycling Cart",
    "date_created": "2022-11-27T19:18:11.000",
    "date_modified": "2022-11-27T19:18:11.000",
    "request_status": "Pending",
    "responsible_agency": "Department of Sanitation",
    "final_address": "1919 Stephen Girard St",
    "address_councildis": "D",
    "status": "Pending",
    "rowid": "946836",
    "final_x": "3681925.28597",
    "final_y": "548709.777363",
    "longitude": "-90.0661271400447",
    "latitude": "30.00274865515197",
    "geocoded_column": {
      "latitude": "30.00274865515197",
      "longitude": "-90.0661271400447"
    }
  },
  {
    "service_request": "2022-946835",
    "request_type": "Trash/Recycling",
    "request_reason": "Order Recycling Cart",
    "date_created": "2022-11-27T19:15:52.000",
    "date_modified": "2022-11-27T19:15:52.000",
    "request_status": "Pending",
    "responsible_agency": "Department of Sanitation",
    "final_address": "1913 Stephen Girard St",
    "address_councildis": "D",
    "status": "Pending",
    "rowid": "946835",
    "final_x": "3681883.13384",
    "final_y": "548710.211667",
    "longitude": "-90.06626028906531",
    "latitude": "30.00275113106117",
    "geocoded_column": {
      "latitude": "30.00275113106117",
      "longitude": "-90.06626028906531"
    }
  },
  {
    "service_request": "2022-946834",
    "request_type": "Property Maintenance",
    "request_reason": "Property Maintenance",
    "date_created": "2022-11-27T19:11:39.000",
    "date_modified": "2022-11-27T19:11:39.000",
    "request_status": "Pending",
    "responsible_agency": "Department of Code Enforcement",
    "final_address": "14011 Curran Rd",
    "address_councildis": "E",
    "status": "Pending",
    "rowid": "946834",
    "final_x": "3718528.0949",
    "final_y": "572297.295785",
    "longitude": "-89.94959546637737",
    "latitude": "30.066440963980725",
    "geocoded_column": {
      "latitude": "30.066440963980725",
      "longitude": "-89.94959546637737"
    }
  },
  {
    "service_request": "2022-946833",
    "request_type": "Property Maintenance",
    "request_reason": "Property Maintenance",
    "date_created": "2022-11-27T19:10:58.000",
    "date_modified": "2022-11-27T19:10:58.000",
    "request_status": "Pending",
    "responsible_agency": "Department of Code Enforcement",
    "final_address": "14001 Curran Rd",
    "address_councildis": "E",
    "status": "Pending",
    "rowid": "946833",
    "final_x": "3718440.8213",
    "final_y": "572319.798761",
    "longitude": "-89.94987048937683",
    "latitude": "30.066505735337852",
    "geocoded_column": {
      "latitude": "30.066505735337852",
      "longitude": "-89.94987048937683"
    }
  },
  {
    "service_request": "2022-946832",
    "request_type": "Trash/Recycling",
    "request_reason": "Request a Large Item Pick Up",
    "date_created": "2022-11-27T19:08:12.000",
    "date_modified": "2022-11-27T19:08:12.000",
    "request_status": "Pending",
    "responsible_agency": "Department of Sanitation",
    "final_address": "13963 Curran Rd",
    "address_councildis": "E",
    "status": "Assigned to Contractor",
    "contractor": "Waste Pro",
    "rowid": "946832",
    "final_x": "3718419.22572",
    "final_y": "572206.918569",
    "longitude": "-89.94994306359693",
    "latitude": "30.06619607903585",
    "geocoded_column": {
      "latitude": "30.06619607903585",
      "longitude": "-89.94994306359693"
    }
  },
  {
    "service_request": "2022-946830",
    "request_type": "Trash/Recycling",
    "request_reason": "Order Recycling Cart",
    "date_created": "2022-11-27T18:50:27.000",
    "date_modified": "2022-11-27T18:50:27.000",
    "request_status": "Pending",
    "responsible_agency": "Department of Sanitation",
    "final_address": "234 S Olympia St",
    "address_councildis": "A",
    "status": "Pending",
    "rowid": "946830",
    "final_x": "3669007.1346",
    "final_y": "539028.509514",
    "longitude": "-90.10726471943025",
    "latitude": "29.976514984445043",
    "geocoded_column": {
      "latitude": "29.976514984445043",
      "longitude": "-90.10726471943025"
    }
  },
  {
    "service_request": "2022-946828",
    "request_type": "Trash/Recycling",
    "request_reason": "Missed Trash Pick-Up",
    "date_created": "2022-11-27T18:33:09.000",
    "date_modified": "2022-11-27T18:33:10.000",
    "request_status": "Pending",
    "responsible_agency": "Department of Sanitation",
    "final_address": "Nelson St & Pine St, New Orleans, Louisiana, 70125",
    "address_councildis": "A",
    "status": "Assigned to Contractor",
    "contractor": "Richards Disposal",
    "rowid": "946828",
    "final_x": "3666557.0",
    "final_y": "530577.48",
    "longitude": "-90.11528675061777",
    "latitude": "29.9533493061903",
    "geocoded_column": {
      "latitude": "29.9533493061903",
      "longitude": "-90.11528675061777"
    }
  },
  {
    "service_request": "2022-946827",
    "request_type": "Traffic Signals/Signs/Striping/Streetlights",
    "request_reason": "Street Light Outage/Malfunction",
    "date_created": "2022-11-27T18:30:16.000",
    "date_modified": "2022-11-27T18:30:17.000",
    "request_status": "Pending",
    "responsible_agency": "Department of Public Works",
    "final_address": "1434 St Roch Ave",
    "address_councildis": "C",
    "status": "Pending",
    "contractor": "Legacy Professional Services",
    "rowid": "946827",
    "final_x": "3686310.72425",
    "final_y": "537820.846153",
    "longitude": "-90.05265744990949",
    "latitude": "29.972673884997143",
    "geocoded_column": {
      "latitude": "29.972673884997143",
      "longitude": "-90.05265744990949"
    }
  },
  {
    "service_request": "2022-946826",
    "request_type": "Trash/Recycling",
    "request_reason": "Missed Trash Pick-Up",
    "date_created": "2022-11-27T18:24:09.000",
    "date_modified": "2022-11-27T18:24:10.000",
    "request_status": "Pending",
    "responsible_agency": "Department of Sanitation",
    "final_address": "2745 Audubon St",
    "address_councildis": "B",
    "status": "Assigned to Contractor",
    "contractor": "Richards Disposal",
    "rowid": "946826",
    "final_x": "3667439.58663",
    "final_y": "530940.28877",
    "longitude": "-90.1124877041725",
    "latitude": "29.95432108472608",
    "geocoded_column": {
      "latitude": "29.95432108472608",
      "longitude": "-90.1124877041725"
    }
  },
  {
    "service_request": "2022-946825",
    "request_type": "Trash/Recycling",
    "request_reason": "Replace Trash Cart",
    "date_created": "2022-11-27T18:18:10.000",
    "date_modified": "2022-11-27T18:18:11.000",
    "request_status": "Pending",
    "responsible_agency": "Department of Sanitation",
    "final_address": "8419 Green St",
    "address_councildis": "A",
    "status": "Assigned to Contractor",
    "contractor": "Richards Disposal",
    "rowid": "946825",
    "final_x": "3662255.26055",
    "final_y": "530537.154178",
    "longitude": "-90.12887120928099",
    "latitude": "29.953363459380473",
    "geocoded_column": {
      "latitude": "29.953363459380473",
      "longitude": "-90.12887120928099"
    }
  },
  {
    "service_request": "2022-946824",
    "request_type": "Trash/Recycling",
    "request_reason": "Order Recycling Cart",
    "date_created": "2022-11-27T17:57:47.000",
    "date_modified": "2022-11-27T17:57:47.000",
    "request_status": "Pending",
    "responsible_agency": "Department of Sanitation",
    "final_address": "1507 Holiday Pl",
    "address_councildis": "C",
    "status": "Pending",
    "rowid": "946824",
    "final_x": "3698921.97322",
    "final_y": "525566.224957",
    "longitude": "-90.0132749191221",
    "latitude": "29.938584417374503",
    "geocoded_column": {
      "latitude": "29.938584417374503",
      "longitude": "-90.0132749191221"
    }
  },
  {
    "service_request": "2022-946823",
    "request_type": "Parks & Parkways",
    "request_reason": "Request Tree Service (Right of Way/Public Property)",
    "date_created": "2022-11-27T17:57:36.000",
    "date_modified": "2022-11-27T17:57:36.000",
    "request_status": "Pending",
    "responsible_agency": "Department of Parks & Parkway",
    "final_address": "31 Fontainebleau Dr",
    "address_councildis": "A",
    "status": "Pending",
    "rowid": "946823",
    "final_x": "3666039.83098",
    "final_y": "531615.099843",
    "longitude": "-90.11688497285523",
    "latitude": "29.956217528770814",
    "geocoded_column": {
      "latitude": "29.956217528770814",
      "longitude": "-90.11688497285523"
    }
  },
  {
    "service_request": "2022-946822",
    "request_type": "Property Maintenance",
    "request_reason": "Property Maintenance",
    "date_created": "2022-11-27T17:54:16.000",
    "date_modified": "2022-11-27T17:54:16.000",
    "request_status": "Pending",
    "responsible_agency": "Department of Code Enforcement",
    "final_address": "3422 Bienville Ave",
    "address_councildis": "B",
    "status": "Pending",
    "rowid": "946822",
    "final_x": "3673371.65294",
    "final_y": "537393.667848",
    "longitude": "-90.09353608171003",
    "latitude": "29.97189059130898",
    "geocoded_column": {
      "latitude": "29.97189059130898",
      "longitude": "-90.09353608171003"
    }
  },
  {
    "service_request": "2022-946821",
    "request_type": "Trash/Recycling",
    "request_reason": "Request a Large Item Pick Up",
    "date_created": "2022-11-27T17:43:22.000",
    "date_modified": "2022-11-27T17:43:23.000",
    "request_status": "Pending",
    "responsible_agency": "Department of Sanitation",
    "final_address": "719 S Solomon St",
    "address_councildis": "A",
    "status": "Assigned to Contractor",
    "contractor": "Richards Disposal",
    "rowid": "946821",
    "final_x": "3669027.02126",
    "final_y": "536755.584391",
    "longitude": "-90.10727872243477",
    "latitude": "29.970264618481448",
    "geocoded_column": {
      "latitude": "29.970264618481448",
      "longitude": "-90.10727872243477"
    }
  },
  {
    "service_request": "2022-946820",
    "request_type": "Trash/Recycling",
    "request_reason": "Request a Large Item Pick Up",
    "date_created": "2022-11-27T17:41:57.000",
    "date_modified": "2022-11-27T17:41:58.000",
    "request_status": "Pending",
    "responsible_agency": "Department of Sanitation",
    "final_address": "719 S Solomon St",
    "address_councildis": "A",
    "status": "Assigned to Contractor",
    "contractor": "Richards Disposal",
    "rowid": "946820",
    "final_x": "3669027.02126",
    "final_y": "536755.584391",
    "longitude": "-90.10727872243477",
    "latitude": "29.970264618481448",
    "geocoded_column": {
      "latitude": "29.970264618481448",
      "longitude": "-90.10727872243477"
    }
  },
  {
    "service_request": "2022-946819",
    "request_type": "Trash/Recycling",
    "request_reason": "Request a Large Item Pick Up",
    "date_created": "2022-11-27T17:36:38.000",
    "date_modified": "2022-11-27T17:36:39.000",
    "request_status": "Pending",
    "responsible_agency": "Department of Sanitation",
    "final_address": "8910 Dinkins St",
    "address_councildis": "E",
    "status": "Assigned to Contractor",
    "contractor": "Waste Pro",
    "rowid": "946819",
    "final_x": "3704822.0595",
    "final_y": "563415.82192",
    "longitude": "-89.99325036388028",
    "latitude": "30.04246845609774",
    "geocoded_column": {
      "latitude": "30.04246845609774",
      "longitude": "-89.99325036388028"
    }
  },
  {
    "service_request": "2022-946817",
    "request_type": "Property Maintenance",
    "request_reason": "Property Maintenance",
    "date_created": "2022-11-27T17:32:13.000",
    "date_modified": "2022-11-27T17:32:13.000",
    "request_status": "Pending",
    "responsible_agency": "Department of Code Enforcement",
    "final_address": "2527 Perdido St",
    "address_councildis": "B",
    "status": "Pending",
    "rowid": "946817",
    "final_x": "3674419.56033",
    "final_y": "532631.612356",
    "longitude": "-90.09038975729115",
    "latitude": "29.958765325434236",
    "geocoded_column": {
      "latitude": "29.958765325434236",
      "longitude": "-90.09038975729115"
    }
  },
  {
    "service_request": "2022-946816",
    "request_type": "Trash/Recycling",
    "request_reason": "Request a Large Item Pick Up",
    "date_created": "2022-11-27T17:28:35.000",
    "date_modified": "2022-11-27T17:28:36.000",
    "request_status": "Pending",
    "responsible_agency": "Department of Sanitation",
    "final_address": "7640 Jeannette St",
    "address_councildis": "A",
    "status": "Assigned to Contractor",
    "contractor": "Richards Disposal",
    "rowid": "946816",
    "final_x": "3663770.38266",
    "final_y": "528086.000703",
    "longitude": "-90.1241687538833",
    "latitude": "29.946579698549694",
    "geocoded_column": {
      "latitude": "29.946579698549694",
      "longitude": "-90.1241687538833"
    }
  },
  {
    "service_request": "2022-946815",
    "request_type": "Abandoned Vehicles",
    "request_reason": "Abandoned/Junk Vehicles",
    "date_created": "2022-11-27T17:18:05.000",
    "date_modified": "2022-11-27T17:18:05.000",
    "request_status": "Pending",
    "responsible_agency": "Department of Public Works",
    "final_address": "719 S Solomon St",
    "address_councildis": "A",
    "status": "Pending",
    "rowid": "946815",
    "final_x": "3669027.02126",
    "final_y": "536755.584391",
    "longitude": "-90.10727872243477",
    "latitude": "29.970264618481448",
    "geocoded_column": {
      "latitude": "29.970264618481448",
      "longitude": "-90.10727872243477"
    }
  },
  {
    "service_request": "2022-946814",
    "request_type": "Abandoned Vehicles",
    "request_reason": "Abandoned/Junk Vehicles",
    "date_created": "2022-11-27T17:14:51.000",
    "date_modified": "2022-11-27T17:14:51.000",
    "request_status": "Pending",
    "responsible_agency": "Department of Public Works",
    "final_address": "719 S Solomon St",
    "address_councildis": "A",
    "status": "Pending",
    "rowid": "946814",
    "final_x": "3669027.02126",
    "final_y": "536755.584391",
    "longitude": "-90.10727872243477",
    "latitude": "29.970264618481448",
    "geocoded_column": {
      "latitude": "29.970264618481448",
      "longitude": "-90.10727872243477"
    }
  },
  {
    "service_request": "2022-946813",
    "request_type": "Trash/Recycling",
    "request_reason": "Illegal Dumping",
    "date_created": "2022-11-27T17:14:33.000",
    "date_modified": "2022-11-27T17:14:33.000",
    "request_status": "Pending",
    "responsible_agency": "Department of Sanitation",
    "final_address": "6416 Valjean St",
    "address_councildis": "E",
    "status": "Pending",
    "rowid": "946813",
    "final_x": "3701930.13649",
    "final_y": "536235.803399",
    "longitude": "-90.0033869280153",
    "latitude": "29.96782632906498",
    "geocoded_column": {
      "latitude": "29.96782632906498",
      "longitude": "-90.0033869280153"
    }
  },
  {
    "service_request": "2022-946810",
    "request_type": "Property Maintenance",
    "request_reason": "Property Maintenance",
    "date_created": "2022-11-27T16:53:38.000",
    "date_modified": "2022-11-27T16:53:38.000",
    "request_status": "Pending",
    "responsible_agency": "Department of Code Enforcement",
    "final_address": "1709 Marais St",
    "address_councildis": "C",
    "status": "Pending",
    "rowid": "946810",
    "final_x": "3683199.03132",
    "final_y": "536555.745607",
    "longitude": "-90.06252904692543",
    "latitude": "29.969290559099438",
    "geocoded_column": {
      "latitude": "29.969290559099438",
      "longitude": "-90.06252904692543"
    }
  },
  {
    "service_request": "2022-946809",
    "request_type": "Trash/Recycling",
    "request_reason": "Start Trash Service",
    "date_created": "2022-11-27T16:51:55.000",
    "date_modified": "2022-11-27T16:51:56.000",
    "request_status": "Pending",
    "responsible_agency": "Department of Sanitation",
    "final_address": "700 Royal St",
    "address_councildis": "C",
    "status": "Assigned to Contractor",
    "contractor": "Empire Services",
    "rowid": "946809",
    "final_x": "3682566.55029",
    "final_y": "532458.420036",
    "longitude": "-90.06466973506855",
    "latitude": "29.95804359229053",
    "geocoded_column": {
      "latitude": "29.95804359229053",
      "longitude": "-90.06466973506855"
    }
  },
  {
    "service_request": "2022-946808",
    "request_type": "Trash/Recycling",
    "request_reason": "Request a Large Item Pick Up",
    "date_created": "2022-11-27T16:32:29.000",
    "date_modified": "2022-11-27T16:32:29.000",
    "request_status": "Pending",
    "responsible_agency": "Department of Sanitation",
    "final_address": "426 Bermuda St",
    "address_councildis": "C",
    "status": "Assigned to Contractor",
    "contractor": "Richards Disposal",
    "rowid": "946808",
    "final_x": "3686658.94857",
    "final_y": "530316.712514",
    "longitude": "-90.05182275085419",
    "latitude": "29.952029408288926",
    "geocoded_column": {
      "latitude": "29.952029408288926",
      "longitude": "-90.05182275085419"
    }
  },
  {
    "service_request": "2022-946807",
    "request_type": "Traffic Signals/Signs/Striping/Streetlights",
    "request_reason": "Traffic Signal Malfunctioning/Damaged",
    "date_created": "2022-11-27T16:26:48.000",
    "date_modified": "2022-11-27T16:26:49.000",
    "request_status": "Pending",
    "responsible_agency": "Department of Public Works",
    "final_address": "I 10 E & READ BLVD",
    "address_councildis": "E",
    "status": "Pending",
    "rowid": "946807",
    "final_x": "3710246.0",
    "final_y": "561456.68",
    "longitude": "-89.97618207572056",
    "latitude": "30.0369060630307",
    "geocoded_column": {
      "latitude": "30.0369060630307",
      "longitude": "-89.97618207572056"
    }
  },
  {
    "service_request": "2022-946806",
    "request_type": "Trash/Recycling",
    "request_reason": "MIssed Recycling Pick-Up",
    "date_created": "2022-11-27T16:16:16.000",
    "date_modified": "2022-11-27T16:16:16.000",
    "request_status": "Pending",
    "responsible_agency": "Department of Sanitation",
    "final_address": "8401 Apple St",
    "address_councildis": "A",
    "status": "Assigned to Contractor",
    "contractor": "Richards Disposal",
    "rowid": "946806",
    "final_x": "3664554.47917",
    "final_y": "532878.666052",
    "longitude": "-90.12153303731714",
    "latitude": "29.959735199086555",
    "geocoded_column": {
      "latitude": "29.959735199086555",
      "longitude": "-90.12153303731714"
    }
  },
  {
    "service_request": "2022-946805",
    "request_type": "Traffic Signals/Signs/Striping/Streetlights",
    "request_reason": "Street Light Outage/Malfunction",
    "date_created": "2022-11-27T16:05:07.000",
    "date_modified": "2022-11-27T16:05:08.000",
    "request_status": "Pending",
    "responsible_agency": "Department of Public Works",
    "final_address": "6724 Memphis St",
    "address_councildis": "A",
    "status": "Pending",
    "contractor": "Legacy Professional Services",
    "rowid": "946805",
    "final_x": "3669546.57633",
    "final_y": "552191.800022",
    "longitude": "-90.10511536727516",
    "latitude": "30.012693611018793",
    "geocoded_column": {
      "latitude": "30.012693611018793",
      "longitude": "-90.10511536727516"
    }
  },
  {
    "service_request": "2022-946804",
    "request_type": "Traffic Signals/Signs/Striping/Streetlights",
    "request_reason": "Street Light Outage/Malfunction",
    "date_created": "2022-11-27T16:01:12.000",
    "date_modified": "2022-11-27T16:01:13.000",
    "request_status": "Pending",
    "responsible_agency": "Department of Public Works",
    "final_address": "1837 Marais St",
    "address_councildis": "C",
    "status": "Pending",
    "contractor": "Legacy Professional Services",
    "rowid": "946804",
    "final_x": "3683809.42921",
    "final_y": "536607.739591",
    "longitude": "-90.06059954257817",
    "latitude": "29.96941489615889",
    "geocoded_column": {
      "latitude": "29.96941489615889",
      "longitude": "-90.06059954257817"
    }
  },
  {
    "service_request": "2022-946803",
    "request_type": "Property Maintenance",
    "request_reason": "Property Maintenance",
    "date_created": "2022-11-27T15:15:24.000",
    "date_modified": "2022-11-27T15:15:24.000",
    "request_status": "Pending",
    "responsible_agency": "Department of Code Enforcement",
    "final_address": "3502 Metropolitan St",
    "address_councildis": "D",
    "status": "Pending",
    "rowid": "946803",
    "final_x": "3691572.57596",
    "final_y": "545423.48104",
    "longitude": "-90.03576772197282",
    "latitude": "29.993415648344772",
    "geocoded_column": {
      "latitude": "29.993415648344772",
      "longitude": "-90.03576772197282"
    }
  },
  {
    "service_request": "2022-946801",
    "request_type": "Trash/Recycling",
    "request_reason": "Request a Large Item Pick Up",
    "date_created": "2022-11-27T15:07:11.000",
    "date_modified": "2022-11-27T15:07:12.000",
    "request_status": "Pending",
    "responsible_agency": "Department of Sanitation",
    "final_address": "2730 Dumaine St",
    "address_councildis": "A",
    "status": "Assigned to Contractor",
    "contractor": "Richards Disposal",
    "rowid": "946801",
    "final_x": "3676881.44475",
    "final_y": "537684.479624",
    "longitude": "-90.08244156792533",
    "latitude": "29.97258533684468",
    "geocoded_column": {
      "latitude": "29.97258533684468",
      "longitude": "-90.08244156792533"
    }
  },
  {
    "service_request": "2022-946800",
    "request_type": "Trash/Recycling",
    "request_reason": "Request a Large Item Pick Up",
    "date_created": "2022-11-27T15:00:29.000",
    "date_modified": "2022-11-27T15:00:30.000",
    "request_status": "Pending",
    "responsible_agency": "Department of Sanitation",
    "final_address": "4221 Toulouse St",
    "address_councildis": "A",
    "status": "Assigned to Contractor",
    "contractor": "Richards Disposal",
    "rowid": "946800",
    "final_x": "3671570.02945",
    "final_y": "540325.797259",
    "longitude": "-90.09912616490463",
    "latitude": "29.98000643105193",
    "geocoded_column": {
      "latitude": "29.98000643105193",
      "longitude": "-90.09912616490463"
    }
  },
  {
    "service_request": "2022-946799",
    "request_type": "Trash/Recycling",
    "request_reason": "Order Recycling Cart",
    "date_created": "2022-11-27T14:54:34.000",
    "date_modified": "2022-11-27T14:54:34.000",
    "request_status": "Pending",
    "responsible_agency": "Department of Sanitation",
    "final_address": "2624 Jasmine St",
    "address_councildis": "D",
    "status": "Pending",
    "rowid": "946799",
    "final_x": "3687259.10978",
    "final_y": "548066.706962",
    "longitude": "-90.04929967355065",
    "latitude": "30.000817171118005",
    "geocoded_column": {
      "latitude": "30.000817171118005",
      "longitude": "-90.04929967355065"
    }
  },
  {
    "service_request": "2022-946798",
    "request_type": "Traffic Signals/Signs/Striping/Streetlights",
    "request_reason": "Street Light Outage/Malfunction",
    "date_created": "2022-11-27T14:54:20.000",
    "date_modified": "2022-11-27T14:54:20.000",
    "request_status": "Pending",
    "responsible_agency": "Department of Public Works",
    "final_address": "4537 Canal St",
    "address_councildis": "A",
    "status": "Pending",
    "contractor": "Legacy Professional Services",
    "rowid": "946798",
    "final_x": "3669558.67354",
    "final_y": "539699.880714",
    "longitude": "-90.10550006489046",
    "latitude": "29.97834478963538",
    "geocoded_column": {
      "latitude": "29.97834478963538",
      "longitude": "-90.10550006489046"
    }
  },
  {
    "service_request": "2022-946797",
    "request_type": "Trash/Recycling",
    "request_reason": "Missed Trash Pick-Up",
    "date_created": "2022-11-27T14:53:07.000",
    "date_modified": "2022-11-27T14:53:08.000",
    "request_status": "Pending",
    "responsible_agency": "Department of Sanitation",
    "final_address": "11200 Chef Menteur Hwy",
    "address_councildis": "E",
    "status": "Assigned to Contractor",
    "contractor": "Waste Pro",
    "rowid": "946797",
    "final_x": "3716501.04197",
    "final_y": "555743.655193",
    "longitude": "-89.95663193198165",
    "latitude": "30.020992339521815",
    "geocoded_column": {
      "latitude": "30.020992339521815",
      "longitude": "-89.95663193198165"
    }
  },
  {
    "service_request": "2022-946796",
    "request_type": "Trash/Recycling",
    "request_reason": "Replace Trash Cart",
    "date_created": "2022-11-27T14:44:04.000",
    "date_modified": "2022-11-27T14:44:05.000",
    "request_status": "Pending",
    "responsible_agency": "Department of Sanitation",
    "final_address": "249 Broadway St, New Orleans, Louisiana, 70118",
    "address_councildis": "A",
    "status": "Assigned to Contractor",
    "contractor": "Richards Disposal",
    "rowid": "946796",
    "final_x": "3661381.30848",
    "final_y": "522251.350906",
    "longitude": "-90.13190511396525",
    "latitude": "29.930605363184608",
    "geocoded_column": {
      "latitude": "29.930605363184608",
      "longitude": "-90.13190511396525"
    }
  },
  {
    "service_request": "2022-946795",
    "request_type": "Trash/Recycling",
    "request_reason": "Missed Trash Pick-Up",
    "date_created": "2022-11-27T14:41:48.000",
    "date_modified": "2022-11-27T14:41:49.000",
    "request_status": "Pending",
    "responsible_agency": "Department of Sanitation",
    "final_address": "5006 N Galvez St",
    "address_councildis": "E",
    "status": "Assigned to Contractor",
    "contractor": "Waste Pro",
    "rowid": "946795",
    "final_x": "3697065.836",
    "final_y": "537903.945161",
    "longitude": "-90.01868800928291",
    "latitude": "29.972567466573878",
    "geocoded_column": {
      "latitude": "29.972567466573878",
      "longitude": "-90.01868800928291"
    }
  },
  {
    "service_request": "2022-946794",
    "request_type": "Trash/Recycling",
    "request_reason": "Missed Trash Pick-Up",
    "date_created": "2022-11-27T14:38:36.000",
    "date_modified": "2022-11-27T14:38:37.000",
    "request_status": "Pending",
    "responsible_agency": "Department of Sanitation",
    "final_address": "3371 State Street Dr",
    "address_councildis": "A",
    "status": "Assigned to Contractor",
    "contractor": "Richards Disposal",
    "rowid": "946794",
    "final_x": "3667874.07674",
    "final_y": "528857.647488",
    "longitude": "-90.1111858933575",
    "latitude": "29.94858176461156",
    "geocoded_column": {
      "latitude": "29.94858176461156",
      "longitude": "-90.1111858933575"
    }
  },
  {
    "service_request": "2022-946793",
    "request_type": "Trash/Recycling",
    "request_reason": "MIssed Recycling Pick-Up",
    "date_created": "2022-11-27T14:28:38.000",
    "date_modified": "2022-11-27T14:28:39.000",
    "request_status": "Pending",
    "responsible_agency": "Department of Sanitation",
    "final_address": "926 Louisa St",
    "address_councildis": "C",
    "status": "Assigned to Contractor",
    "contractor": "IV Waste",
    "rowid": "946793",
    "final_x": "3689382.34127",
    "final_y": "535313.727622",
    "longitude": "-90.04304591061202",
    "latitude": "29.965685434220003",
    "geocoded_column": {
      "latitude": "29.965685434220003",
      "longitude": "-90.04304591061202"
    }
  },
  {
    "service_request": "2022-946792",
    "request_type": "Trash/Recycling",
    "request_reason": "Order Recycling Cart",
    "date_created": "2022-11-27T14:06:43.000",
    "date_modified": "2022-11-27T14:06:43.000",
    "request_status": "Pending",
    "responsible_agency": "Department of Sanitation",
    "final_address": "7631 Spring Lake Dr",
    "address_councildis": "E",
    "status": "Pending",
    "rowid": "946792",
    "final_x": "3701615.43812",
    "final_y": "559621.172061",
    "longitude": "-90.0035236611405",
    "latitude": "30.032137377545432",
    "geocoded_column": {
      "latitude": "30.032137377545432",
      "longitude": "-90.0035236611405"
    }
  },
  {
    "service_request": "2022-946791",
    "request_type": "Trash/Recycling",
    "request_reason": "Missed Trash Pick-Up",
    "date_created": "2022-11-27T14:04:17.000",
    "date_modified": "2022-11-27T14:04:17.000",
    "request_status": "Pending",
    "responsible_agency": "Department of Sanitation",
    "final_address": "738 English Turn Ln",
    "address_councildis": "C",
    "status": "Assigned to Contractor",
    "contractor": "Richards Disposal",
    "rowid": "946791",
    "final_x": "3720126.79545",
    "final_y": "511539.072944",
    "longitude": "-89.94686578326416",
    "latitude": "29.899326047166955",
    "geocoded_column": {
      "latitude": "29.899326047166955",
      "longitude": "-89.94686578326416"
    }
  },
  {
    "service_request": "2022-946790",
    "request_type": "Trash/Recycling",
    "request_reason": "Replace Trash Cart",
    "date_created": "2022-11-27T14:02:35.000",
    "date_modified": "2022-11-27T14:02:36.000",
    "request_status": "Pending",
    "responsible_agency": "Department of Sanitation",
    "final_address": "1241 Kentucky St",
    "address_councildis": "D",
    "status": "Assigned to Contractor",
    "contractor": "IV Waste",
    "rowid": "946790",
    "final_x": "3693554.78",
    "final_y": "535544.30215",
    "longitude": "-90.0298612812847",
    "latitude": "29.966189582563093",
    "geocoded_column": {
      "latitude": "29.966189582563093",
      "longitude": "-90.0298612812847"
    }
  },
  {
    "service_request": "2022-946789",
    "request_type": "Trash/Recycling",
    "request_reason": "Missed Trash Pick-Up",
    "date_created": "2022-11-27T14:01:08.000",
    "date_modified": "2022-11-27T14:01:11.000",
    "request_status": "Pending",
    "responsible_agency": "Department of Sanitation",
    "final_address": "9 Glen Abbey Way",
    "address_councildis": "C",
    "status": "Assigned to Contractor",
    "contractor": "Richards Disposal",
    "rowid": "946789",
    "final_x": "3716814.38207",
    "final_y": "515364.901044",
    "longitude": "-89.9571741774657",
    "latitude": "29.909955521547126",
    "geocoded_column": {
      "latitude": "29.909955521547126",
      "longitude": "-89.9571741774657"
    }
  },
  {
    "service_request": "2022-946788",
    "request_type": "Trash/Recycling",
    "request_reason": "Missed Trash Pick-Up",
    "date_created": "2022-11-27T13:58:24.000",
    "date_modified": "2022-11-27T13:58:25.000",
    "request_status": "Pending",
    "responsible_agency": "Department of Sanitation",
    "final_address": "3346 Seine St",
    "address_councildis": "C",
    "status": "Assigned to Contractor",
    "contractor": "Richards Disposal",
    "rowid": "946788",
    "final_x": "3696422.71645",
    "final_y": "519621.747064",
    "longitude": "-90.02138017318113",
    "latitude": "29.922318072235107",
    "geocoded_column": {
      "latitude": "29.922318072235107",
      "longitude": "-90.02138017318113"
    }
  },
  {
    "service_request": "2022-946787",
    "request_type": "Trash/Recycling",
    "request_reason": "Return Recycling Cart",
    "date_created": "2022-11-27T13:54:17.000",
    "date_modified": "2022-11-27T13:54:17.000",
    "request_status": "Pending",
    "responsible_agency": "Department of Sanitation",
    "final_address": "3320 N Prieur St",
    "address_councildis": "D",
    "status": "Pending",
    "rowid": "946787",
    "final_x": "3690744.99849",
    "final_y": "538644.460809",
    "longitude": "-90.0386238570071",
    "latitude": "29.97480151383121",
    "geocoded_column": {
      "latitude": "29.97480151383121",
      "longitude": "-90.0386238570071"
    }
  },
  {
    "service_request": "2022-946786",
    "request_type": "Trash/Recycling",
    "request_reason": "Return Recycling Cart",
    "date_created": "2022-11-27T13:53:23.000",
    "date_modified": "2022-11-27T13:53:23.000",
    "request_status": "Pending",
    "responsible_agency": "Department of Sanitation",
    "final_address": "318 N Prieur St",
    "address_councildis": "B",
    "status": "Pending",
    "rowid": "946786",
    "final_x": "3678156.75528",
    "final_y": "534198.217029",
    "longitude": "-90.07853447763287",
    "latitude": "29.962960960507623",
    "geocoded_column": {
      "latitude": "29.962960960507623",
      "longitude": "-90.07853447763287"
    }
  },
  {
    "service_request": "2022-946785",
    "request_type": "Trash/Recycling",
    "request_reason": "Request a Large Item Pick Up",
    "date_created": "2022-11-27T13:49:34.000",
    "date_modified": "2022-11-27T13:49:35.000",
    "request_status": "Pending",
    "responsible_agency": "Department of Sanitation",
    "final_address": "4229 Dale St Apt A",
    "address_councildis": "E",
    "status": "Assigned to Contractor",
    "contractor": "Waste Pro",
    "rowid": "946785",
    "final_x": "3699769.585",
    "final_y": "552244.55503",
    "longitude": "-90.00962593332429",
    "latitude": "30.011913273118058",
    "geocoded_column": {
      "latitude": "30.011913273118058",
      "longitude": "-90.00962593332429"
    }
  },
  {
    "service_request": "2022-946784",
    "request_type": "Roads/Drainage",
    "request_reason": "Catch Basin - Clogged",
    "date_created": "2022-11-27T13:49:31.000",
    "date_modified": "2022-11-27T13:49:31.000",
    "request_status": "Pending",
    "responsible_agency": "Department of Public Works",
    "final_address": "801 Harrison Ave",
    "address_councildis": "A",
    "status": "Pending",
    "rowid": "946784",
    "final_x": "3669481.99642",
    "final_y": "549397.514643",
    "longitude": "-90.10541401304762",
    "latitude": "30.00501220972178",
    "geocoded_column": {
      "latitude": "30.00501220972178",
      "longitude": "-90.10541401304762"
    }
  },
  {
    "service_request": "2022-946783",
    "request_type": "Traffic Signals/Signs/Striping/Streetlights",
    "request_reason": "Street Light Outage/Malfunction",
    "date_created": "2022-11-27T13:44:22.000",
    "date_modified": "2022-11-27T13:44:23.000",
    "request_status": "Pending",
    "responsible_agency": "Department of Public Works",
    "final_address": "9706 W Wheaton Cir",
    "address_councildis": "E",
    "status": "Pending",
    "contractor": "Legacy Professional Services",
    "rowid": "946783",
    "final_x": "3708574.62411",
    "final_y": "562057.734175",
    "longitude": "-89.98144152875413",
    "latitude": "30.038613049098057",
    "geocoded_column": {
      "latitude": "30.038613049098057",
      "longitude": "-89.98144152875413"
    }
  },
  {
    "service_request": "2022-946782",
    "request_type": "Traffic Signals/Signs/Striping/Streetlights",
    "request_reason": "Street Light Outage/Malfunction",
    "date_created": "2022-11-27T13:42:36.000",
    "date_modified": "2022-11-27T13:42:37.000",
    "request_status": "Pending",
    "responsible_agency": "Department of Public Works",
    "final_address": "9706 W Wheaton Cir",
    "address_councildis": "E",
    "status": "Pending",
    "contractor": "Legacy Professional Services",
    "rowid": "946782",
    "final_x": "3708574.62411",
    "final_y": "562057.734175",
    "longitude": "-89.98144152875413",
    "latitude": "30.038613049098057",
    "geocoded_column": {
      "latitude": "30.038613049098057",
      "longitude": "-89.98144152875413"
    }
  },
  {
    "service_request": "2022-946781",
    "request_type": "Traffic Signals/Signs/Striping/Streetlights",
    "request_reason": "Street Light Outage/Malfunction",
    "date_created": "2022-11-27T13:40:57.000",
    "date_modified": "2022-11-27T13:40:57.000",
    "request_status": "Pending",
    "responsible_agency": "Department of Public Works",
    "final_address": "9706 W Wheaton Cir",
    "address_councildis": "E",
    "status": "Pending",
    "contractor": "Legacy Professional Services",
    "rowid": "946781",
    "final_x": "3708574.62411",
    "final_y": "562057.734175",
    "longitude": "-89.98144152875413",
    "latitude": "30.038613049098057",
    "geocoded_column": {
      "latitude": "30.038613049098057",
      "longitude": "-89.98144152875413"
    }
  },
  {
    "service_request": "2022-946780",
    "request_type": "Trash/Recycling",
    "request_reason": "Request a Large Item Pick Up",
    "date_created": "2022-11-27T13:39:34.000",
    "date_modified": "2022-11-27T13:39:35.000",
    "request_status": "Pending",
    "responsible_agency": "Department of Sanitation",
    "final_address": "36 Killdeer St",
    "address_councildis": "D",
    "status": "Assigned to Contractor",
    "contractor": "IV Waste",
    "rowid": "946780",
    "final_x": "3675492.34939",
    "final_y": "555982.367385",
    "longitude": "-90.08619962107323",
    "latitude": "30.022939727162058",
    "geocoded_column": {
      "latitude": "30.022939727162058",
      "longitude": "-90.08619962107323"
    }
  },
  {
    "service_request": "2022-946779",
    "request_type": "Trash/Recycling",
    "request_reason": "MIssed Recycling Pick-Up",
    "date_created": "2022-11-27T13:36:52.000",
    "date_modified": "2022-11-27T13:36:53.000",
    "request_status": "Pending",
    "responsible_agency": "Department of Sanitation",
    "final_address": "128 S Scott St",
    "address_councildis": "A",
    "status": "Assigned to Contractor",
    "contractor": "Richards Disposal",
    "rowid": "946779",
    "final_x": "3671627.00603",
    "final_y": "537557.52404",
    "longitude": "-90.09904039180304",
    "latitude": "29.972392930638364",
    "geocoded_column": {
      "latitude": "29.972392930638364",
      "longitude": "-90.09904039180304"
    }
  },
  {
    "service_request": "2022-946778",
    "request_type": "Trash/Recycling",
    "request_reason": "Missed Trash Pick-Up",
    "date_created": "2022-11-27T13:18:37.000",
    "date_modified": "2022-11-27T13:18:38.000",
    "request_status": "Pending",
    "responsible_agency": "Department of Sanitation",
    "final_address": "4017 State Street Dr, New Orleans, Louisiana, 70125",
    "address_councildis": "B",
    "status": "Assigned to Contractor",
    "contractor": "Richards Disposal",
    "rowid": "946778",
    "final_x": "3668280.02497",
    "final_y": "530392.705666",
    "longitude": "-90.10985238721167",
    "latitude": "29.95279076178802",
    "geocoded_column": {
      "latitude": "29.95279076178802",
      "longitude": "-90.10985238721167"
    }
  },
  {
    "service_request": "2022-946777",
    "request_type": "Trash/Recycling",
    "request_reason": "Missed Trash Pick-Up",
    "date_created": "2022-11-27T13:17:21.000",
    "date_modified": "2022-11-27T13:17:22.000",
    "request_status": "Pending",
    "responsible_agency": "Department of Sanitation",
    "final_address": "4001 State Street Dr, New Orleans, Louisiana, 70125",
    "address_councildis": "B",
    "status": "Assigned to Contractor",
    "contractor": "Richards Disposal",
    "rowid": "946777",
    "final_x": "3668236.65498",
    "final_y": "530244.725121",
    "longitude": "-90.10999431935808",
    "latitude": "29.952385136950358",
    "geocoded_column": {
      "latitude": "29.952385136950358",
      "longitude": "-90.10999431935808"
    }
  },
  {
    "service_request": "2022-946776",
    "request_type": "Trash/Recycling",
    "request_reason": "Missed Trash Pick-Up",
    "date_created": "2022-11-27T13:15:50.000",
    "date_modified": "2022-11-27T13:15:51.000",
    "request_status": "Pending",
    "responsible_agency": "Department of Sanitation",
    "final_address": "4814 Walmsley Ave, New Orleans, Louisiana, 70125",
    "address_councildis": "B",
    "status": "Assigned to Contractor",
    "contractor": "Richards Disposal",
    "rowid": "946776",
    "final_x": "3668219.68052",
    "final_y": "530542.170818",
    "longitude": "-90.11003789024738",
    "latitude": "29.953203513614355",
    "geocoded_column": {
      "latitude": "29.953203513614355",
      "longitude": "-90.11003789024738"
    }
  },
  {
    "service_request": "2022-946775",
    "request_type": "Trash/Recycling",
    "request_reason": "Missed Trash Pick-Up",
    "date_created": "2022-11-27T13:15:04.000",
    "date_modified": "2022-11-27T13:15:04.000",
    "request_status": "Pending",
    "responsible_agency": "Department of Sanitation",
    "final_address": "4072 State Street Dr, New Orleans, Louisiana, 70125",
    "address_councildis": "B",
    "status": "Assigned to Contractor",
    "contractor": "Richards Disposal",
    "rowid": "946775",
    "final_x": "3668233.31969",
    "final_y": "530506.583618",
    "longitude": "-90.109996023198",
    "latitude": "29.953105260071304",
    "geocoded_column": {
      "latitude": "29.953105260071304",
      "longitude": "-90.109996023198"
    }
  },
  {
    "service_request": "2022-946774",
    "request_type": "Traffic Signals/Signs/Striping/Streetlights",
    "request_reason": "Street Light Outage/Malfunction",
    "date_created": "2022-11-27T13:13:06.000",
    "date_modified": "2022-11-27T13:13:07.000",
    "request_status": "Pending",
    "responsible_agency": "Department of Public Works",
    "final_address": "2031 Elysian Fields Ave",
    "address_councildis": "D",
    "status": "Pending",
    "contractor": "Legacy Professional Services",
    "rowid": "946774",
    "final_x": "3684831.37506",
    "final_y": "539868.132746",
    "longitude": "-90.05725749221516",
    "latitude": "29.97834858780583",
    "geocoded_column": {
      "latitude": "29.97834858780583",
      "longitude": "-90.05725749221516"
    }
  },
  {
    "service_request": "2022-946773",
    "request_type": "Trash/Recycling",
    "request_reason": "Request a Large Item Pick Up",
    "date_created": "2022-11-27T13:06:49.000",
    "date_modified": "2022-11-27T13:06:50.000",
    "request_status": "Pending",
    "responsible_agency": "Department of Sanitation",
    "final_address": "6185 Bellaire Dr",
    "address_councildis": "A",
    "status": "Assigned to Contractor",
    "contractor": "IV Waste",
    "rowid": "946773",
    "final_x": "3664408.69389",
    "final_y": "548974.592787",
    "longitude": "-90.12145582974414",
    "latitude": "30.003997835239442",
    "geocoded_column": {
      "latitude": "30.003997835239442",
      "longitude": "-90.12145582974414"
    }
  },
  {
    "service_request": "2022-946772",
    "request_type": "Trash/Recycling",
    "request_reason": "Replace Trash Cart",
    "date_created": "2022-11-27T12:53:06.000",
    "date_modified": "2022-11-27T12:53:07.000",
    "request_status": "Pending",
    "responsible_agency": "Department of Sanitation",
    "final_address": "3038 St Claude Ave",
    "address_councildis": "C",
    "status": "Assigned to Contractor",
    "contractor": "IV Waste",
    "rowid": "946772",
    "final_x": "3688735.88668",
    "final_y": "536029.540679",
    "longitude": "-90.04506196894938",
    "latitude": "29.967673670156106",
    "geocoded_column": {
      "latitude": "29.967673670156106",
      "longitude": "-90.04506196894938"
    }
  },
  {
    "service_request": "2022-946771",
    "request_type": "Trash/Recycling",
    "request_reason": "Order Recycling Cart",
    "date_created": "2022-11-27T12:50:41.000",
    "date_modified": "2022-11-27T12:50:41.000",
    "request_status": "Pending",
    "responsible_agency": "Department of Sanitation",
    "final_address": "25314 Chef Menteur Hwy",
    "address_councildis": "E",
    "status": "Pending",
    "rowid": "946771",
    "final_x": "3779478.68664",
    "final_y": "598681.011905",
    "longitude": "-89.75577952195843",
    "latitude": "30.1368183590205",
    "geocoded_column": {
      "latitude": "30.1368183590205",
      "longitude": "-89.75577952195843"
    }
  },
  {
    "service_request": "2022-946770",
    "request_type": "Trash/Recycling",
    "request_reason": "Order Recycling Cart",
    "date_created": "2022-11-27T12:43:49.000",
    "date_modified": "2022-11-27T12:43:49.000",
    "request_status": "Pending",
    "responsible_agency": "Department of Sanitation",
    "final_address": "1331 Mithra St",
    "address_councildis": "D",
    "status": "Pending",
    "rowid": "946770",
    "final_x": "3677294.70882",
    "final_y": "552162.334038",
    "longitude": "-90.08063652769856",
    "latitude": "30.01238195208545",
    "geocoded_column": {
      "latitude": "30.01238195208545",
      "longitude": "-90.08063652769856"
    }
  },
  {
    "service_request": "2022-946769",
    "request_type": "Property Maintenance",
    "request_reason": "Property Maintenance",
    "date_created": "2022-11-27T12:23:09.000",
    "date_modified": "2022-11-27T12:23:09.000",
    "request_status": "Pending",
    "responsible_agency": "Department of Code Enforcement",
    "final_address": "1703 Shirley Dr",
    "address_councildis": "C",
    "status": "Pending",
    "rowid": "946769",
    "final_x": "3692917.99696",
    "final_y": "523927.446652",
    "longitude": "-90.03228876798997",
    "latitude": "29.934267161411977",
    "geocoded_column": {
      "latitude": "29.934267161411977",
      "longitude": "-90.03228876798997"
    }
  },
  {
    "service_request": "2022-946768",
    "request_type": "Trash/Recycling",
    "request_reason": "Request a Large Item Pick Up",
    "date_created": "2022-11-27T12:15:32.000",
    "date_modified": "2022-11-27T12:15:33.000",
    "request_status": "Pending",
    "responsible_agency": "Department of Sanitation",
    "final_address": "1465 N Galvez St, New Orleans, Louisiana, 70119",
    "address_councildis": "D",
    "status": "Assigned to Contractor",
    "contractor": "IV Waste",
    "rowid": "946768",
    "final_x": "3680186.52507",
    "final_y": "538145.438665",
    "longitude": "-90.07198750463564",
    "latitude": "29.97375319117785",
    "geocoded_column": {
      "latitude": "29.97375319117785",
      "longitude": "-90.07198750463564"
    }
  },
  {
    "service_request": "2022-946767",
    "request_type": "Abandoned Vehicles",
    "request_reason": "Abandoned/Junk Vehicles",
    "date_created": "2022-11-27T12:14:35.000",
    "date_modified": "2022-11-27T12:14:35.000",
    "request_status": "Pending",
    "responsible_agency": "Department of Public Works",
    "final_address": "1703 Shirley Dr",
    "address_councildis": "C",
    "status": "Pending",
    "rowid": "946767",
    "final_x": "3692917.99696",
    "final_y": "523927.446652",
    "longitude": "-90.03228876798997",
    "latitude": "29.934267161411977",
    "geocoded_column": {
      "latitude": "29.934267161411977",
      "longitude": "-90.03228876798997"
    }
  },
  {
    "service_request": "2022-946766",
    "request_type": "Trash/Recycling",
    "request_reason": "Request a Large Item Pick Up",
    "date_created": "2022-11-27T12:13:25.000",
    "date_modified": "2022-11-27T12:13:25.000",
    "request_status": "Pending",
    "responsible_agency": "Department of Sanitation",
    "final_address": "2467 N Galvez St",
    "address_councildis": "D",
    "status": "Assigned to Contractor",
    "contractor": "IV Waste",
    "rowid": "946766",
    "final_x": "3686806.22998",
    "final_y": "540186.128139",
    "longitude": "-90.05100895794133",
    "latitude": "29.97916234166891",
    "geocoded_column": {
      "latitude": "29.97916234166891",
      "longitude": "-90.05100895794133"
    }
  },
  {
    "service_request": "2022-946765",
    "request_type": "Trash/Recycling",
    "request_reason": "Request a Large Item Pick Up",
    "date_created": "2022-11-27T12:11:45.000",
    "date_modified": "2022-11-27T12:11:45.000",
    "request_status": "Pending",
    "responsible_agency": "Department of Sanitation",
    "final_address": "315 N Johnson St",
    "address_councildis": "B",
    "status": "Assigned to Contractor",
    "contractor": "Richards Disposal",
    "rowid": "946765",
    "final_x": "3677792.15285",
    "final_y": "534438.760261",
    "longitude": "-90.0796775366409",
    "latitude": "29.963633346452564",
    "geocoded_column": {
      "latitude": "29.963633346452564",
      "longitude": "-90.0796775366409"
    }
  },
  {
    "service_request": "2022-946764",
    "request_type": "Property Maintenance",
    "request_reason": "Property Maintenance",
    "date_created": "2022-11-27T12:08:57.000",
    "date_modified": "2022-11-27T12:08:57.000",
    "request_status": "Pending",
    "responsible_agency": "Department of Code Enforcement",
    "final_address": "1885 Lauradale Dr",
    "address_councildis": "C",
    "status": "Pending",
    "rowid": "946764",
    "final_x": "3692675.88905",
    "final_y": "524059.009724",
    "longitude": "-90.03304837860915",
    "latitude": "29.934636471692002",
    "geocoded_column": {
      "latitude": "29.934636471692002",
      "longitude": "-90.03304837860915"
    }
  },
  {
    "service_request": "2022-946763",
    "request_type": "Trash/Recycling",
    "request_reason": "Missed Trash Pick-Up",
    "date_created": "2022-11-27T12:03:57.000",
    "date_modified": "2022-11-27T12:03:57.000",
    "request_status": "Pending",
    "responsible_agency": "Department of Sanitation",
    "final_address": "9300 BLK Stroelitz St",
    "address_councildis": "A",
    "status": "Assigned to Contractor",
    "contractor": "Richards Disposal",
    "rowid": "946763",
    "final_x": "3664697.74898",
    "final_y": "537915.788457",
    "longitude": "-90.12091231805826",
    "latitude": "29.973581458224476",
    "geocoded_column": {
      "latitude": "29.973581458224476",
      "longitude": "-90.12091231805826"
    }
  },
  {
    "service_request": "2022-946762",
    "request_type": "Trash/Recycling",
    "request_reason": "Request a Large Item Pick Up",
    "date_created": "2022-11-27T11:37:12.000",
    "date_modified": "2022-11-27T11:37:13.000",
    "request_status": "Pending",
    "responsible_agency": "Department of Sanitation",
    "final_address": "6212 Waldo Dr",
    "address_councildis": "D",
    "status": "Assigned to Contractor",
    "contractor": "IV Waste",
    "rowid": "946762",
    "final_x": "3681038.60399",
    "final_y": "555739.248601",
    "longitude": "-90.0686831906574",
    "latitude": "30.02210409026492",
    "geocoded_column": {
      "latitude": "30.02210409026492",
      "longitude": "-90.0686831906574"
    }
  },
  {
    "service_request": "2022-946761",
    "request_type": "Trash/Recycling",
    "request_reason": "MIssed Recycling Pick-Up",
    "date_created": "2022-11-27T11:35:34.000",
    "date_modified": "2022-11-27T11:35:34.000",
    "request_status": "Pending",
    "responsible_agency": "Department of Sanitation",
    "final_address": "1620 Fourth St",
    "address_councildis": "B",
    "status": "Assigned to Contractor",
    "contractor": "Richards Disposal",
    "rowid": "946761",
    "final_x": "3676043.77665",
    "final_y": "522866.967739",
    "longitude": "-90.08559665644712",
    "latitude": "29.931867236838222",
    "geocoded_column": {
      "latitude": "29.931867236838222",
      "longitude": "-90.08559665644712"
    }
  },
  {
    "service_request": "2022-946760",
    "request_type": "Abandoned Vehicles",
    "request_reason": "Abandoned/Junk Vehicles",
    "date_created": "2022-11-27T11:29:22.000",
    "date_modified": "2022-11-27T11:29:22.000",
    "request_status": "Pending",
    "responsible_agency": "Department of Public Works",
    "final_address": "219 N Derbigny St",
    "address_councildis": "B",
    "status": "Pending",
    "rowid": "946760",
    "final_x": "3678364.37979",
    "final_y": "533551.420229",
    "longitude": "-90.07790120353766",
    "latitude": "29.96117623510421",
    "geocoded_column": {
      "latitude": "29.96117623510421",
      "longitude": "-90.07790120353766"
    }
  },
  {
    "service_request": "2022-946759",
    "request_type": "Traffic Signals/Signs/Striping/Streetlights",
    "request_reason": "Traffic Sign Missing/Damaged",
    "date_created": "2022-11-27T11:24:27.000",
    "date_modified": "2022-11-27T11:24:27.000",
    "request_status": "Pending",
    "responsible_agency": "Department of Public Works",
    "final_address": "902 Julia St",
    "address_councildis": "B",
    "status": "Pending",
    "rowid": "946759",
    "final_x": "3679505.32424",
    "final_y": "528212.366272",
    "longitude": "-90.07448353275456",
    "latitude": "29.946461212840628",
    "geocoded_column": {
      "latitude": "29.946461212840628",
      "longitude": "-90.07448353275456"
    }
  },
  {
    "service_request": "2022-946758",
    "request_type": "Trash/Recycling",
    "request_reason": "Missed Trash Pick-Up",
    "date_created": "2022-11-27T11:14:49.000",
    "date_modified": "2022-11-27T11:14:50.000",
    "request_status": "Pending",
    "responsible_agency": "Department of Sanitation",
    "final_address": "10999 Willow Dr",
    "address_councildis": "C",
    "status": "Assigned to Contractor",
    "contractor": "Richards Disposal",
    "rowid": "946758",
    "final_x": "3725211.08646",
    "final_y": "515485.738676",
    "longitude": "-89.93066822319247",
    "latitude": "29.910007821922186",
    "geocoded_column": {
      "latitude": "29.910007821922186",
      "longitude": "-89.93066822319247"
    }
  },
  {
    "service_request": "2022-946755",
    "request_type": "Parks & Parkways",
    "request_reason": "Request Tree Service (Right of Way/Public Property)",
    "date_created": "2022-11-27T11:11:05.000",
    "date_modified": "2022-11-27T11:11:06.000",
    "request_status": "Pending",
    "responsible_agency": "Department of Parks & Parkway",
    "final_address": "LOUISIANA AVE PKWY & S GALVEZ ST",
    "address_councildis": "B",
    "status": "Pending",
    "rowid": "946755",
    "final_x": "3671645.0",
    "final_y": "527802.68",
    "longitude": "-90.09931534658305",
    "latitude": "29.945569818102356",
    "geocoded_column": {
      "latitude": "29.945569818102356",
      "longitude": "-90.09931534658305"
    }
  },
  {
    "service_request": "2022-946754",
    "request_type": "Trash/Recycling",
    "request_reason": "Order Recycling Cart",
    "date_created": "2022-11-27T11:00:55.000",
    "date_modified": "2022-11-27T11:00:55.000",
    "request_status": "Pending",
    "responsible_agency": "Department of Sanitation",
    "final_address": "616 Fats Domino Ave",
    "address_councildis": "E",
    "status": "Pending",
    "rowid": "946754",
    "final_x": "3697498.90231",
    "final_y": "532124.949955",
    "longitude": "-90.0175298981997",
    "latitude": "29.956663619494044",
    "geocoded_column": {
      "latitude": "29.956663619494044",
      "longitude": "-90.0175298981997"
    }
  },
  {
    "service_request": "2022-946753",
    "request_type": "Trash/Recycling",
    "request_reason": "Replace Trash Cart",
    "date_created": "2022-11-27T10:54:16.000",
    "date_modified": "2022-11-27T10:54:18.000",
    "request_status": "Pending",
    "responsible_agency": "Department of Sanitation",
    "final_address": "7606 Jonlee Dr",
    "address_councildis": "E",
    "status": "Assigned to Contractor",
    "contractor": "Waste Pro",
    "rowid": "946753",
    "final_x": "3717150.20856",
    "final_y": "570322.692647",
    "longitude": "-89.95402626336173",
    "latitude": "30.06105730856802",
    "geocoded_column": {
      "latitude": "30.06105730856802",
      "longitude": "-89.95402626336173"
    }
  },
  {
    "service_request": "2022-946752",
    "request_type": "Trash/Recycling",
    "request_reason": "Request a Large Item Pick Up",
    "date_created": "2022-11-27T10:41:59.000",
    "date_modified": "2022-11-27T10:42:00.000",
    "request_status": "Pending",
    "responsible_agency": "Department of Sanitation",
    "final_address": "233 N.O. Hammond Hwy.",
    "status": "Assigned to Contractor",
    "rowid": "946752",
    "longitude": "0.0",
    "latitude": "0.0",
    "geocoded_column": {
      "latitude": "0.0",
      "longitude": "0.0"
    }
  },
  {
    "service_request": "2022-946751",
    "request_type": "Traffic Signals/Signs/Striping/Streetlights",
    "request_reason": "Traffic Signal Malfunctioning/Damaged",
    "date_created": "2022-11-27T09:53:12.000",
    "date_modified": "2022-11-27T09:53:12.000",
    "request_status": "Pending",
    "responsible_agency": "Department of Public Works",
    "final_address": "CITY PARK AVE & CITY PARK EXIT & I 10 E ONRAMP",
    "address_councildis": "A",
    "status": "Pending",
    "rowid": "946751",
    "final_x": "3667012.0",
    "final_y": "540666.78",
    "longitude": "-90.1135109037396",
    "latitude": "29.98107822687111",
    "geocoded_column": {
      "latitude": "29.98107822687111",
      "longitude": "-90.1135109037396"
    }
  },
  {
    "service_request": "2022-946750",
    "request_type": "Property Maintenance",
    "request_reason": "Property Maintenance",
    "date_created": "2022-11-27T09:51:02.000",
    "date_modified": "2022-11-27T09:51:02.000",
    "request_status": "Pending",
    "responsible_agency": "Department of Code Enforcement",
    "final_address": "714 S Gayoso St",
    "address_councildis": "B",
    "status": "Pending",
    "rowid": "946750",
    "final_x": "3672810.91118",
    "final_y": "533779.418437",
    "longitude": "-90.09543031131383",
    "latitude": "29.961969291868236",
    "geocoded_column": {
      "latitude": "29.961969291868236",
      "longitude": "-90.09543031131383"
    }
  },
  {
    "service_request": "2022-946749",
    "request_type": "Trash/Recycling",
    "request_reason": "Missed Trash Pick-Up",
    "date_created": "2022-11-27T09:32:57.000",
    "date_modified": "2022-11-27T09:32:58.000",
    "request_status": "Pending",
    "responsible_agency": "Department of Sanitation",
    "final_address": "200 S Murat St",
    "address_councildis": "A",
    "status": "Assigned to Contractor",
    "contractor": "Richards Disposal",
    "rowid": "946749",
    "final_x": "3669453.39367",
    "final_y": "539006.379402",
    "longitude": "-90.10585604175023",
    "latitude": "29.976440996812592",
    "geocoded_column": {
      "latitude": "29.976440996812592",
      "longitude": "-90.10585604175023"
    }
  },
  {
    "service_request": "2022-946748",
    "request_type": "Trash/Recycling",
    "request_reason": "MIssed Recycling Pick-Up",
    "date_created": "2022-11-27T09:29:18.000",
    "date_modified": "2022-11-27T09:29:18.000",
    "request_status": "Pending",
    "responsible_agency": "Department of Sanitation",
    "final_address": "200 S Murat St",
    "address_councildis": "A",
    "status": "Assigned to Contractor",
    "contractor": "Richards Disposal",
    "rowid": "946748",
    "final_x": "3669453.39367",
    "final_y": "539006.379402",
    "longitude": "-90.10585604175023",
    "latitude": "29.976440996812592",
    "geocoded_column": {
      "latitude": "29.976440996812592",
      "longitude": "-90.10585604175023"
    }
  },
  {
    "service_request": "2022-946747",
    "request_type": "Trash/Recycling",
    "request_reason": "Missed Trash Pick-Up",
    "date_created": "2022-11-27T09:21:23.000",
    "date_modified": "2022-11-27T09:21:23.000",
    "request_status": "Pending",
    "responsible_agency": "Department of Sanitation",
    "final_address": "134 N Alexander St",
    "address_councildis": "A",
    "status": "Assigned to Contractor",
    "contractor": "Richards Disposal",
    "rowid": "946747",
    "final_x": "3670253.93831",
    "final_y": "539432.27457",
    "longitude": "-90.10331323336244",
    "latitude": "29.97758845966334",
    "geocoded_column": {
      "latitude": "29.97758845966334",
      "longitude": "-90.10331323336244"
    }
  },
  {
    "service_request": "2022-946746",
    "request_type": "Trash/Recycling",
    "request_reason": "Repair Trash Cart",
    "date_created": "2022-11-27T09:20:32.000",
    "date_modified": "2022-11-27T09:20:33.000",
    "request_status": "Pending",
    "responsible_agency": "Department of Sanitation",
    "final_address": "4121 Vendome Pl",
    "address_councildis": "B",
    "status": "Assigned to Contractor",
    "contractor": "Richards Disposal",
    "rowid": "946746",
    "final_x": "3668934.22151",
    "final_y": "530528.000642",
    "longitude": "-90.1077821505662",
    "latitude": "29.953143555332627",
    "geocoded_column": {
      "latitude": "29.953143555332627",
      "longitude": "-90.1077821505662"
    }
  },
  {
    "service_request": "2022-946745",
    "request_type": "Trash/Recycling",
    "request_reason": "MIssed Recycling Pick-Up",
    "date_created": "2022-11-27T09:09:19.000",
    "date_modified": "2022-11-27T09:09:19.000",
    "request_status": "Pending",
    "responsible_agency": "Department of Sanitation",
    "final_address": "8237 Apricot St",
    "address_councildis": "A",
    "status": "Assigned to Contractor",
    "contractor": "Richards Disposal",
    "rowid": "946745",
    "final_x": "3665372.41389",
    "final_y": "533087.166724",
    "longitude": "-90.11894319578644",
    "latitude": "29.960284697163896",
    "geocoded_column": {
      "latitude": "29.960284697163896",
      "longitude": "-90.11894319578644"
    }
  },
  {
    "service_request": "2022-946744",
    "request_type": "Trash/Recycling",
    "request_reason": "Replace Trash Cart",
    "date_created": "2022-11-27T09:02:37.000",
    "date_modified": "2022-11-27T09:02:38.000",
    "request_status": "Pending",
    "responsible_agency": "Department of Sanitation",
    "final_address": "5519 Perrier St",
    "address_councildis": "A",
    "status": "Assigned to Contractor",
    "contractor": "Richards Disposal",
    "rowid": "946744",
    "final_x": "3666567.18138",
    "final_y": "520212.087544",
    "longitude": "-90.11560243180904",
    "latitude": "29.924847503312908",
    "geocoded_column": {
      "latitude": "29.924847503312908",
      "longitude": "-90.11560243180904"
    }
  },
  {
    "service_request": "2022-946743",
    "request_type": "Trash/Recycling",
    "request_reason": "Missed Trash Pick-Up",
    "date_created": "2022-11-27T08:52:52.000",
    "date_modified": "2022-11-27T08:52:52.000",
    "request_status": "Pending",
    "responsible_agency": "Department of Sanitation",
    "final_address": "1400 BLK Lauradale Dr",
    "address_councildis": "C",
    "status": "Assigned to Contractor",
    "contractor": "Richards Disposal",
    "rowid": "946743",
    "final_x": "3692788.8283",
    "final_y": "525828.897933",
    "longitude": "-90.03262840650706",
    "latitude": "29.93949953491766",
    "geocoded_column": {
      "latitude": "29.93949953491766",
      "longitude": "-90.03262840650706"
    }
  },
  {
    "service_request": "2022-946742",
    "request_type": "Trash/Recycling",
    "request_reason": "Request a Large Item Pick Up",
    "date_created": "2022-11-27T08:49:34.000",
    "date_modified": "2022-11-27T08:49:35.000",
    "request_status": "Pending",
    "responsible_agency": "Department of Sanitation",
    "final_address": "501 Crystal St",
    "address_councildis": "D",
    "status": "Assigned to Contractor",
    "contractor": "IV Waste",
    "rowid": "946742",
    "final_x": "3668414.24468",
    "final_y": "556369.236698",
    "longitude": "-90.10855184778688",
    "latitude": "30.024213407476502",
    "geocoded_column": {
      "latitude": "30.024213407476502",
      "longitude": "-90.10855184778688"
    }
  },
  {
    "service_request": "2022-946741",
    "request_type": "Trash/Recycling",
    "request_reason": "Request a Large Item Pick Up",
    "date_created": "2022-11-27T08:46:36.000",
    "date_modified": "2022-11-27T08:46:37.000",
    "request_status": "Pending",
    "responsible_agency": "Department of Sanitation",
    "final_address": "8735 Willow St",
    "address_councildis": "A",
    "status": "Assigned to Contractor",
    "contractor": "Richards Disposal",
    "rowid": "946741",
    "final_x": "3660691.93357",
    "final_y": "530534.388866",
    "longitude": "-90.13380764587993",
    "latitude": "29.953400948572575",
    "geocoded_column": {
      "latitude": "29.953400948572575",
      "longitude": "-90.13380764587993"
    }
  },
  {
    "service_request": "2022-946740",
    "request_type": "Traffic Signals/Signs/Striping/Streetlights",
    "request_reason": "Traffic Signal Malfunctioning/Damaged",
    "date_created": "2022-11-27T08:26:54.000",
    "date_modified": "2022-11-27T08:26:54.000",
    "request_status": "Pending",
    "responsible_agency": "Department of Public Works",
    "final_address": "202 City Park Ave",
    "address_councildis": "A",
    "status": "Pending",
    "rowid": "946740",
    "final_x": "3668200.98023",
    "final_y": "541095.577804",
    "longitude": "-90.1097410949371",
    "latitude": "29.982222418435022",
    "geocoded_column": {
      "latitude": "29.982222418435022",
      "longitude": "-90.1097410949371"
    }
  },
  {
    "service_request": "2022-946739",
    "request_type": "Trash/Recycling",
    "request_reason": "Missed Trash Pick-Up",
    "date_created": "2022-11-27T08:24:43.000",
    "date_modified": "2022-11-27T08:24:44.000",
    "request_status": "Pending",
    "responsible_agency": "Department of Sanitation",
    "final_address": "697 Delacroix Rd",
    "address_councildis": "C",
    "status": "Assigned to Contractor",
    "contractor": "Richards Disposal",
    "rowid": "946739",
    "final_x": "3723399.18438",
    "final_y": "514040.73573",
    "longitude": "-89.93644246958921",
    "latitude": "29.906095445859837",
    "geocoded_column": {
      "latitude": "29.906095445859837",
      "longitude": "-89.93644246958921"
    }
  },
  {
    "service_request": "2022-946738",
    "request_type": "Abandoned Vehicles",
    "request_reason": "Abandoned/Junk Vehicles",
    "date_created": "2022-11-27T08:23:19.000",
    "date_modified": "2022-11-27T08:24:39.000",
    "request_status": "Pending",
    "responsible_agency": "Department of Public Works",
    "final_address": "S TONTI ST & 3RD ST",
    "address_councildis": "B",
    "status": "Pending",
    "rowid": "946738",
    "final_x": "3672375.0",
    "final_y": "529023.98",
    "longitude": "-90.09696888717832",
    "latitude": "29.94890635459174",
    "geocoded_column": {
      "latitude": "29.94890635459174",
      "longitude": "-90.09696888717832"
    }
  },
  {
    "service_request": "2022-946737",
    "request_type": "Property Maintenance",
    "request_reason": "Property Maintenance",
    "date_created": "2022-11-27T07:24:13.000",
    "date_modified": "2022-11-27T07:24:13.000",
    "request_status": "Pending",
    "responsible_agency": "Department of Code Enforcement",
    "final_address": "2808 Pauger St",
    "address_councildis": "D",
    "status": "Pending",
    "rowid": "946737",
    "final_x": "3683537.63957",
    "final_y": "539994.825995",
    "longitude": "-90.06133913135858",
    "latitude": "29.978736502946067",
    "geocoded_column": {
      "latitude": "29.978736502946067",
      "longitude": "-90.06133913135858"
    }
  },
  {
    "service_request": "2022-946736",
    "request_type": "Trash/Recycling",
    "request_reason": "Missed Trash Pick-Up",
    "date_created": "2022-11-27T07:19:16.000",
    "date_modified": "2022-11-27T07:19:16.000",
    "request_status": "Pending",
    "responsible_agency": "Department of Sanitation",
    "final_address": "10301 Willow Dr",
    "address_councildis": "C",
    "status": "Assigned to Contractor",
    "contractor": "Richards Disposal",
    "rowid": "946736",
    "final_x": "3722473.40767",
    "final_y": "516700.422005",
    "longitude": "-89.93926212627677",
    "latitude": "29.913439630372576",
    "geocoded_column": {
      "latitude": "29.913439630372576",
      "longitude": "-89.93926212627677"
    }
  },
  {
    "service_request": "2022-946734",
    "request_type": "Trash/Recycling",
    "request_reason": "Missed Trash Pick-Up",
    "date_created": "2022-11-27T06:41:50.000",
    "date_modified": "2022-11-27T06:41:51.000",
    "request_status": "Pending",
    "responsible_agency": "Department of Sanitation",
    "final_address": "617 N Solomon St, NOLA 70119",
    "status": "Assigned to Contractor",
    "rowid": "946734",
    "longitude": "0.0",
    "latitude": "0.0",
    "geocoded_column": {
      "latitude": "0.0",
      "longitude": "0.0"
    }
  },
  {
    "service_request": "2022-946733",
    "request_type": "Trash/Recycling",
    "request_reason": "Missed Trash Pick-Up",
    "date_created": "2022-11-27T03:11:02.000",
    "date_modified": "2022-11-27T03:11:03.000",
    "request_status": "Pending",
    "responsible_agency": "Department of Sanitation",
    "final_address": "6328 Annunciation St",
    "address_councildis": "A",
    "status": "Assigned to Contractor",
    "contractor": "Richards Disposal",
    "rowid": "946733",
    "final_x": "3662699.03539",
    "final_y": "518456.263478",
    "longitude": "-90.12787126339161",
    "latitude": "29.920132002180992",
    "geocoded_column": {
      "latitude": "29.920132002180992",
      "longitude": "-90.12787126339161"
    }
  },
  {
    "service_request": "2022-946732",
    "request_type": "Trash/Recycling",
    "request_reason": "Order Recycling Cart",
    "date_created": "2022-11-26T22:54:53.000",
    "date_modified": "2022-11-26T22:54:53.000",
    "request_status": "Pending",
    "responsible_agency": "Department of Sanitation",
    "final_address": "2625 Aubry St",
    "address_councildis": "D",
    "status": "Pending",
    "rowid": "946732",
    "final_x": "3679609.81448",
    "final_y": "541220.660108",
    "longitude": "-90.07370211482163",
    "latitude": "29.98222642852406",
    "geocoded_column": {
      "latitude": "29.98222642852406",
      "longitude": "-90.07370211482163"
    }
  },
  {
    "service_request": "2022-946731",
    "request_type": "Abandoned Vehicles",
    "request_reason": "Abandoned/Junk Vehicles",
    "date_created": "2022-11-26T22:27:21.000",
    "date_modified": "2022-11-27T11:03:13.000",
    "case_close_date": "2022-11-27T05:03:13.000",
    "request_status": "Closed",
    "responsible_agency": "Department of Public Works",
    "final_address": "2219 N Derbigny St",
    "address_councildis": "D",
    "status": "Resolved",
    "rowid": "946731",
    "final_x": "3685075.53289",
    "final_y": "538567.851529",
    "longitude": "-90.05653211578425",
    "latitude": "29.974765791205346",
    "geocoded_column": {
      "latitude": "29.974765791205346",
      "longitude": "-90.05653211578425"
    }
  },
  {
    "service_request": "2022-946730",
    "request_type": "Property Maintenance",
    "request_reason": "Property Maintenance",
    "date_created": "2022-11-26T21:58:28.000",
    "date_modified": "2022-11-26T21:58:28.000",
    "request_status": "Pending",
    "responsible_agency": "Department of Code Enforcement",
    "final_address": "2632 Desire St",
    "address_councildis": "D",
    "status": "Pending",
    "rowid": "946730",
    "final_x": "3691605.34646",
    "final_y": "541639.03918",
    "longitude": "-90.03579957591631",
    "latitude": "29.983008777630307",
    "geocoded_column": {
      "latitude": "29.983008777630307",
      "longitude": "-90.03579957591631"
    }
  },
  {
    "service_request": "2022-946729",
    "request_type": "Traffic Signals/Signs/Striping/Streetlights",
    "request_reason": "Street Light Outage/Malfunction",
    "date_created": "2022-11-26T21:51:36.000",
    "date_modified": "2022-11-26T21:51:37.000",
    "request_status": "Pending",
    "responsible_agency": "Department of Public Works",
    "final_address": "76 Audubon Blvd",
    "address_councildis": "A",
    "status": "Pending",
    "contractor": "Legacy Professional Services",
    "rowid": "946729",
    "final_x": "3665685.25613",
    "final_y": "527653.766335",
    "longitude": "-90.11813726209179",
    "latitude": "29.94533549199607",
    "geocoded_column": {
      "latitude": "29.94533549199607",
      "longitude": "-90.11813726209179"
    }
  },
  {
    "service_request": "2022-946728",
    "request_type": "Trash/Recycling",
    "request_reason": "Missed Trash Pick-Up",
    "date_created": "2022-11-26T21:51:35.000",
    "date_modified": "2022-11-26T21:51:36.000",
    "request_status": "Pending",
    "responsible_agency": "Department of Sanitation",
    "final_address": "517 S Murat St",
    "address_councildis": "A",
    "status": "Assigned to Contractor",
    "contractor": "Richards Disposal",
    "rowid": "946728",
    "final_x": "3668602.07079",
    "final_y": "538012.575561",
    "longitude": "-90.10857833471724",
    "latitude": "29.973733419064004",
    "geocoded_column": {
      "latitude": "29.973733419064004",
      "longitude": "-90.10857833471724"
    }
  },
  {
    "service_request": "2022-946727",
    "request_type": "Abandoned Vehicles",
    "request_reason": "Abandoned/Junk Vehicles",
    "date_created": "2022-11-26T21:49:17.000",
    "date_modified": "2022-11-27T11:32:16.000",
    "case_close_date": "2022-11-27T05:32:16.000",
    "request_status": "Closed",
    "responsible_agency": "Department of Public Works",
    "final_address": "2661 Piety St",
    "address_councildis": "D",
    "status": "Resolved",
    "rowid": "946727",
    "final_x": "3691396.23772",
    "final_y": "541902.186508",
    "longitude": "-90.03645063849724",
    "latitude": "29.983738847734603",
    "geocoded_column": {
      "latitude": "29.983738847734603",
      "longitude": "-90.03645063849724"
    }
  },
  {
    "service_request": "2022-946726",
    "request_type": "Abandoned Vehicles",
    "request_reason": "Vehicle Blocking Your Driveway",
    "date_created": "2022-11-26T21:34:31.000",
    "date_modified": "2022-11-26T21:34:31.000",
    "request_status": "Pending",
    "responsible_agency": "Department of Public Works",
    "final_address": "2025 Annette St",
    "address_councildis": "D",
    "status": "Pending",
    "rowid": "946726",
    "final_x": "3682892.76968",
    "final_y": "539695.151498",
    "longitude": "-90.06338636028244",
    "latitude": "29.97793217086312",
    "geocoded_column": {
      "latitude": "29.97793217086312",
      "longitude": "-90.06338636028244"
    }
  },
  {
    "service_request": "2022-946725",
    "request_type": "Traffic Signals/Signs/Striping/Streetlights",
    "request_reason": "Street Light Outage/Malfunction",
    "date_created": "2022-11-26T21:31:43.000",
    "date_modified": "2022-11-26T21:31:44.000",
    "request_status": "Pending",
    "responsible_agency": "Department of Public Works",
    "final_address": "5631 Laurel St",
    "address_councildis": "A",
    "status": "Pending",
    "contractor": "Legacy Professional Services",
    "rowid": "946725",
    "final_x": "3665652.22426",
    "final_y": "517961.777462",
    "longitude": "-90.11856596958134",
    "latitude": "29.918686561506018",
    "geocoded_column": {
      "latitude": "29.918686561506018",
      "longitude": "-90.11856596958134"
    }
  },
  {
    "service_request": "2022-946724",
    "request_type": "Trash/Recycling",
    "request_reason": "Repair Trash Cart",
    "date_created": "2022-11-26T21:26:22.000",
    "date_modified": "2022-11-26T21:26:23.000",
    "request_status": "Pending",
    "responsible_agency": "Department of Sanitation",
    "final_address": "916 N Rendon St",
    "address_councildis": "A",
    "status": "Assigned to Contractor",
    "contractor": "Richards Disposal",
    "rowid": "946724",
    "final_x": "3675532.59304",
    "final_y": "538958.539978",
    "longitude": "-90.08665771204619",
    "latitude": "29.97612898788816",
    "geocoded_column": {
      "latitude": "29.97612898788816",
      "longitude": "-90.08665771204619"
    }
  },
  {
    "service_request": "2022-946723",
    "request_type": "Trash/Recycling",
    "request_reason": "Order Recycling Cart",
    "date_created": "2022-11-26T21:24:52.000",
    "date_modified": "2022-11-26T21:24:52.000",
    "request_status": "Pending",
    "responsible_agency": "Department of Sanitation",
    "final_address": "5737 Bancroft Dr",
    "address_councildis": "D",
    "status": "Pending",
    "rowid": "946723",
    "final_x": "3676585.22318",
    "final_y": "553600.670615",
    "longitude": "-90.08282851305744",
    "latitude": "30.01635816977188",
    "geocoded_column": {
      "latitude": "30.01635816977188",
      "longitude": "-90.08282851305744"
    }
  },
  {
    "service_request": "2022-946720",
    "request_type": "Trash/Recycling",
    "request_reason": "Missed Trash Pick-Up",
    "date_created": "2022-11-26T20:40:05.000",
    "date_modified": "2022-11-26T20:40:06.000",
    "request_status": "Pending",
    "responsible_agency": "Department of Sanitation",
    "final_address": "6226 Patton St",
    "address_councildis": "A",
    "status": "Assigned to Contractor",
    "contractor": "Richards Disposal",
    "rowid": "946720",
    "final_x": "3663293.05984",
    "final_y": "519005.291255",
    "longitude": "-90.1259779431073",
    "latitude": "29.92162446054688",
    "geocoded_column": {
      "latitude": "29.92162446054688",
      "longitude": "-90.1259779431073"
    }
  },
  {
    "service_request": "2022-946719",
    "request_type": "Trash/Recycling",
    "request_reason": "Missed Trash Pick-Up",
    "date_created": "2022-11-26T20:20:56.000",
    "date_modified": "2022-11-26T20:20:57.000",
    "request_status": "Pending",
    "responsible_agency": "Department of Sanitation",
    "final_address": "6300 Laurel St",
    "address_councildis": "A",
    "status": "Assigned to Contractor",
    "contractor": "Richards Disposal",
    "rowid": "946719",
    "final_x": "3662937.88295",
    "final_y": "518747.005495",
    "longitude": "-90.12710767134647",
    "latitude": "29.920924540863524",
    "geocoded_column": {
      "latitude": "29.920924540863524",
      "longitude": "-90.12710767134647"
    }
  },
  {
    "service_request": "2022-946718",
    "request_type": "Abandoned Vehicles",
    "request_reason": "Abandoned/Junk Vehicles",
    "date_created": "2022-11-26T20:19:17.000",
    "date_modified": "2022-11-26T20:19:17.000",
    "request_status": "Pending",
    "responsible_agency": "Department of Public Works",
    "final_address": "3067 St Claude Ave",
    "address_councildis": "C",
    "status": "Pending",
    "rowid": "946718",
    "final_x": "3688984.75798",
    "final_y": "536109.345223",
    "longitude": "-90.04427319419608",
    "latitude": "29.96788540864137",
    "geocoded_column": {
      "latitude": "29.96788540864137",
      "longitude": "-90.04427319419608"
    }
  },
  {
    "service_request": "2022-946717",
    "request_type": "Trash/Recycling",
    "request_reason": "Missed Trash Pick-Up",
    "date_created": "2022-11-26T20:04:26.000",
    "date_modified": "2022-11-26T20:04:27.000",
    "request_status": "Pending",
    "responsible_agency": "Department of Sanitation",
    "status": "Assigned to Contractor",
    "rowid": "946717",
    "longitude": "0.0",
    "latitude": "0.0",
    "geocoded_column": {
      "latitude": "0.0",
      "longitude": "0.0"
    }
  },
  {
    "service_request": "2022-946716",
    "request_type": "Trash/Recycling",
    "request_reason": "Missed Trash Pick-Up",
    "date_created": "2022-11-26T20:04:00.000",
    "date_modified": "2022-11-26T20:04:00.000",
    "request_status": "Pending",
    "responsible_agency": "Department of Sanitation",
    "final_address": "7400 Dalewood Rd",
    "address_councildis": "E",
    "status": "Assigned to Contractor",
    "contractor": "Waste Pro",
    "rowid": "946716",
    "final_x": "3700112.82218",
    "final_y": "559678.814621",
    "longitude": "-90.00826989057227",
    "latitude": "30.032343736472466",
    "geocoded_column": {
      "latitude": "30.032343736472466",
      "longitude": "-90.00826989057227"
    }
  },
  {
    "service_request": "2022-946715",
    "request_type": "Trash/Recycling",
    "request_reason": "Missed Trash Pick-Up",
    "date_created": "2022-11-26T19:50:37.000",
    "date_modified": "2022-11-26T19:50:38.000",
    "request_status": "Pending",
    "responsible_agency": "Department of Sanitation",
    "final_address": "918 Sumner St",
    "address_councildis": "C",
    "status": "Assigned to Contractor",
    "contractor": "Richards Disposal",
    "rowid": "946715",
    "final_x": "3691183.65904",
    "final_y": "528038.415359",
    "longitude": "-90.03761724045557",
    "latitude": "29.945624955713534",
    "geocoded_column": {
      "latitude": "29.945624955713534",
      "longitude": "-90.03761724045557"
    }
  },
  {
    "service_request": "2022-946714",
    "request_type": "Trash/Recycling",
    "request_reason": "Missed Trash Pick-Up",
    "date_created": "2022-11-26T19:48:01.000",
    "date_modified": "2022-11-26T19:48:02.000",
    "request_status": "Pending",
    "responsible_agency": "Department of Sanitation",
    "final_address": "1101 Shirley Dr",
    "address_councildis": "C",
    "status": "Assigned to Contractor",
    "contractor": "Richards Disposal",
    "rowid": "946714",
    "final_x": "3693059.89872",
    "final_y": "527460.619967",
    "longitude": "-90.03171408536657",
    "latitude": "29.943977746009097",
    "geocoded_column": {
      "latitude": "29.943977746009097",
      "longitude": "-90.03171408536657"
    }
  },
  {
    "service_request": "2022-946713",
    "request_type": "Traffic Signals/Signs/Striping/Streetlights",
    "request_reason": "Traffic Signal Malfunctioning/Damaged",
    "date_created": "2022-11-26T19:35:05.000",
    "date_modified": "2022-11-26T19:35:05.000",
    "request_status": "Pending",
    "responsible_agency": "Department of Public Works",
    "final_address": "10020 Chef Menteur Hwy",
    "address_councildis": "E",
    "status": "Pending",
    "rowid": "946713",
    "final_x": "3712773.26808",
    "final_y": "554439.472664",
    "longitude": "-89.96845959076592",
    "latitude": "30.017528973844406",
    "geocoded_column": {
      "latitude": "30.017528973844406",
      "longitude": "-89.96845959076592"
    }
  },
  {
    "service_request": "2022-946712",
    "request_type": "Trash/Recycling",
    "request_reason": "Order Trash Cart",
    "date_created": "2022-11-26T19:32:01.000",
    "date_modified": "2022-11-26T19:32:02.000",
    "request_status": "Pending",
    "responsible_agency": "Department of Sanitation",
    "final_address": "7021 Memphis St",
    "address_councildis": "A",
    "status": "Assigned to Contractor",
    "contractor": "IV Waste",
    "rowid": "946712",
    "final_x": "3669899.5817",
    "final_y": "554102.137432",
    "longitude": "-90.10393530353683",
    "latitude": "30.017935953838",
    "geocoded_column": {
      "latitude": "30.017935953838",
      "longitude": "-90.10393530353683"
    }
  },