[
  {
    "service_request": "2025-1208781",
    "request_type": "Property Maintenance",
    "request_reason": "Property Maintenance",
    "date_created": "2025-07-11T22:22:05.000",
    "date_modified": "2025-07-11T22:22:07.000",
    "request_status": "Pending",
    "responsible_agency": "Department of Code Enforcement",
    "final_address": "4000 BLK Velie St",
    "address_councildis": "D",
    "status": "Pending",
    "rowid": "1208781",
    "final_x": "3689596.64308",
    "final_y": "548270.325819",
    "longitude": "-90.0419080053224",
    "latitude": "30.00130481620698",
    "geocoded_column": {
      "latitude": "30.00130481620698",
      "longitude": "-90.0419080053224"
    }
  },
  {
    "service_request": "2025-1208780",
    "request_type": "Streetlights",
    "request_reason": "Streetlight Outage/Malfunction",
    "date_created": "2025-07-11T22:13:01.000",
    "date_modified": "2025-07-11T22:13:04.000",
    "request_status": "Pending",
    "responsible_agency": "Department of Public Works",
    "final_address": "1436 Louisiana Ave",
    "address_councildis": "B",
    "status": "Pending",
    "contractor": "Legacy Professional Services",
    "rowid": "1208780",
    "final_x": "3674424.1826",
    "final_y": "520826.980025",
    "longitude": "-90.09077938394205",
    "latitude": "29.92630632476651",
    "geocoded_column": {
      "latitude": "29.92630632476651",
      "longitude": "-90.09077938394205"
    }
  },
  {
    "service_request": "2025-1208779",
    "request_type": "Streetlights",
    "request_reason": "Streetlight Outage/Malfunction",
    "date_created": "2025-07-11T22:01:06.000",
    "date_modified": "2025-07-11T22:01:09.000",
    "request_status": "Pending",
    "responsible_agency": "Department of Public Works",
    "final_address": "1324 Barracks St",
    "address_councildis": "C",
    "status": "Pending",
    "contractor": "Legacy Professional Services",
    "rowid": "1208779",
    "final_x": "3681945.5396",
    "final_y": "535653.703302",
    "longitude": "-90.06651916107289",
    "latitude": "29.966848419450212",
    "geocoded_column": {
      "latitude": "29.966848419450212",
      "longitude": "-90.06651916107289"
    }
  },
  {
    "service_request": "2025-1208778",
    "request_type": "General Services",
    "request_reason": "General Service Request",
    "date_created": "2025-07-11T21:48:01.000",
    "date_modified": "2025-07-11T21:48:03.000",
    "request_status": "Pending",
    "responsible_agency": "Orleans Parish Communication District",
    "final_address": "50 Martin Dr",
    "address_councildis": "E",
    "status": "Pending",
    "rowid": "1208778",
    "final_x": "3697911.66007",
    "final_y": "561049.822942",
    "longitude": "-90.01517584372164",
    "latitude": "30.036183286871285",
    "geocoded_column": {
      "latitude": "30.036183286871285",
      "longitude": "-90.01517584372164"
    }
  },
  {
    "service_request": "2025-1208777",
    "request_type": "Trash/Recycling",
    "request_reason": "Order Second Trash Cart",
    "date_created": "2025-07-11T21:41:20.000",
    "date_modified": "2025-07-11T21:41:22.000",
    "request_status": "Pending",
    "responsible_agency": "Department of Sanitation",
    "final_address": "6948 Vicksburg St",
    "address_councildis": "A",
    "status": "Assigned to Contractor",
    "contractor": "IV Waste",
    "rowid": "1208777",
    "final_x": "3669395.89255",
    "final_y": "553706.658775",
    "longitude": "-90.1055401622579",
    "latitude": "30.01686337767306",
    "geocoded_column": {
      "latitude": "30.01686337767306",
      "longitude": "-90.1055401622579"
    }
  },
  {
    "service_request": "2025-1208776",
    "request_type": "Trash/Recycling",
    "request_reason": "Replace Trash Cart",
    "date_created": "2025-07-11T21:30:12.000",
    "date_modified": "2025-07-11T21:30:15.000",
    "request_status": "Pending",
    "responsible_agency": "Department of Sanitation",
    "final_address": "3227 Huntlee Dr",
    "address_councildis": "C",
    "status": "Assigned to Contractor",
    "contractor": "Richards Disposal",
    "rowid": "1208776",
    "final_x": "3701703.58218",
    "final_y": "519269.980599",
    "longitude": "-90.00472363416513",
    "latitude": "29.921183522283037",
    "geocoded_column": {
      "latitude": "29.921183522283037",
      "longitude": "-90.00472363416513"
    }
  },
  {
    "service_request": "2025-1208775",
    "request_type": "General Services",
    "request_reason": "General Service Request",
    "date_created": "2025-07-11T21:28:48.000",
    "date_modified": "2025-07-11T21:28:49.000",
    "request_status": "Pending",
    "responsible_agency": "Orleans Parish Communication District",
    "final_address": "1900 Block of Pine St, Harrisonburg, Louisiana, 71340",
    "status": "Pending",
    "rowid": "1208775",
    "longitude": "0.0",
    "latitude": "0.0",
    "geocoded_column": {
      "latitude": "0.0",
      "longitude": "0.0"
    }
  },
  {
    "service_request": "2025-1208774",
    "request_type": "Property Maintenance",
    "request_reason": "Property Maintenance",
    "date_created": "2025-07-11T21:27:07.000",
    "date_modified": "2025-07-11T21:27:08.000",
    "request_status": "Pending",
    "responsible_agency": "Department of Code Enforcement",
    "final_address": "4568 Laine Ave",
    "address_councildis": "E",
    "status": "Pending",
    "rowid": "1208774",
    "final_x": "3705768.84126",
    "final_y": "554320.558744",
    "longitude": "-89.99059502422291",
    "latitude": "30.017429557885198",
    "geocoded_column": {
      "latitude": "30.017429557885198",
      "longitude": "-89.99059502422291"
    }
  },
  {
    "service_request": "2025-1208773",
    "request_type": "Streetlights",
    "request_reason": "New Streetlight Request",
    "date_created": "2025-07-11T21:24:32.000",
    "date_modified": "2025-07-11T21:24:34.000",
    "request_status": "Pending",
    "responsible_agency": "Department of Public Works",
    "final_address": "50 Martin Dr",
    "address_councildis": "E",
    "status": "Pending",
    "contractor": "Legacy Professional Services",
    "rowid": "1208773",
    "final_x": "3697911.66007",
    "final_y": "561049.822942",
    "longitude": "-90.01517584372164",
    "latitude": "30.036183286871285",
    "geocoded_column": {
      "latitude": "30.036183286871285",
      "longitude": "-90.01517584372164"
    }
  },
  {
    "service_request": "2025-1208772",
    "request_type": "General Services",
    "request_reason": "General Service Request",
    "date_created": "2025-07-11T21:22:12.000",
    "date_modified": "2025-07-11T21:22:14.000",
    "request_status": "Pending",
    "responsible_agency": "Orleans Parish Communication District",
    "final_address": "7200 Block of Spruce St, New Orleans, Louisiana, 70118",
    "status": "Pending",
    "rowid": "1208772",
    "longitude": "0.0",
    "latitude": "0.0",
    "geocoded_column": {
      "latitude": "0.0",
      "longitude": "0.0"
    }
  },
  {
    "service_request": "2025-1208771",
    "request_type": "General Services",
    "request_reason": "General Service Request",
    "date_created": "2025-07-11T21:19:56.000",
    "date_modified": "2025-07-11T21:19:57.000",
    "request_status": "Pending",
    "responsible_agency": "Orleans Parish Communication District",
    "final_address": "1900 Block of Broadway St, New Orleans, Louisiana, 70118",
    "status": "Pending",
    "rowid": "1208771",
    "longitude": "0.0",
    "latitude": "0.0",
    "geocoded_column": {
      "latitude": "0.0",
      "longitude": "0.0"
    }
  },
  {
    "service_request": "2025-1208770",
    "request_type": "Trash/Recycling",
    "request_reason": "Request a Large Item Pick Up",
    "date_created": "2025-07-11T21:18:59.000",
    "date_modified": "2025-07-11T21:19:01.000",
    "request_status": "Pending",
    "responsible_agency": "Department of Sanitation",
    "final_address": "50 Martin Dr",
    "address_councildis": "E",
    "status": "Assigned to Contractor",
    "contractor": "Waste Pro",
    "rowid": "1208770",
    "final_x": "3697911.66007",
    "final_y": "561049.822942",
    "longitude": "-90.01517584372164",
    "latitude": "30.036183286871285",
    "geocoded_column": {
      "latitude": "30.036183286871285",
      "longitude": "-90.01517584372164"
    }
  },
  {
    "service_request": "2025-1208769",
    "request_type": "Property Maintenance",
    "request_reason": "Property Maintenance",
    "date_created": "2025-07-11T21:05:52.000",
    "date_modified": "2025-07-11T21:05:54.000",
    "request_status": "Pending",
    "responsible_agency": "Department of Code Enforcement",
    "final_address": "2300 Jefferson Ave",
    "address_councildis": "A",
    "status": "Pending",
    "rowid": "1208769",
    "final_x": "3667868.54445",
    "final_y": "524062.473084",
    "longitude": "-90.11136482427918",
    "latitude": "29.9353967450289",
    "geocoded_column": {
      "latitude": "29.9353967450289",
      "longitude": "-90.11136482427918"
    }
  },
  {
    "service_request": "2025-1208768",
    "request_type": "Trash/Recycling",
    "request_reason": "Request a Large Item Pick Up",
    "date_created": "2025-07-11T20:40:19.000",
    "date_modified": "2025-07-11T20:40:21.000",
    "request_status": "Pending",
    "responsible_agency": "Department of Sanitation",
    "final_address": "3740 Mansfield Ave",
    "address_councildis": "C",
    "status": "Assigned to Contractor",
    "contractor": "Richards Disposal",
    "rowid": "1208768",
    "final_x": "3708961.49707",
    "final_y": "517139.345077",
    "longitude": "-89.98189316502413",
    "latitude": "29.915091622159395",
    "geocoded_column": {
      "latitude": "29.915091622159395",
      "longitude": "-89.98189316502413"
    }
  },
  {
    "service_request": "2025-1208767",
    "request_type": "Trash/Recycling",
    "request_reason": "Order Trash Cart",
    "date_created": "2025-07-11T20:17:06.000",
    "date_modified": "2025-07-11T20:17:08.000",
    "request_status": "Pending",
    "responsible_agency": "Department of Sanitation",
    "final_address": "3800 N. Johnson Street ",
    "address_councildis": "D",
    "status": "Assigned to Contractor",
    "contractor": "IV Waste",
    "rowid": "1208767",
    "final_x": "3692079.35561",
    "final_y": "538778.227529",
    "longitude": "-90.03440485003506",
    "latitude": "29.975127800255926",
    "geocoded_column": {
      "latitude": "29.975127800255926",
      "longitude": "-90.03440485003506"
    }
  },
  {
    "service_request": "2025-1208766",
    "request_type": "Abandoned Vehicles",
    "request_reason": "Abandoned/Junk Vehicles",
    "date_created": "2025-07-11T20:11:53.000",
    "date_modified": "2025-07-11T20:11:55.000",
    "request_status": "Pending",
    "responsible_agency": "Department of Public Works",
    "final_address": "2652 Orleans Ave",
    "address_councildis": "D",
    "status": "Pending",
    "rowid": "1208766",
    "final_x": "3676857.22241",
    "final_y": "536871.746184",
    "longitude": "-90.08254608498291",
    "latitude": "29.970351324460935",
    "geocoded_column": {
      "latitude": "29.970351324460935",
      "longitude": "-90.08254608498291"
    }
  },
  {
    "service_request": "2025-1208765",
    "request_type": "Safety & Permits",
    "request_reason": "Zoning Enforcement",
    "date_created": "2025-07-11T19:48:51.000",
    "date_modified": "2025-07-11T19:48:53.000",
    "request_status": "Pending",
    "responsible_agency": "Safety and Permits",
    "final_address": "1805 Robert St",
    "address_councildis": "B",
    "status": "Pending",
    "rowid": "1208765",
    "final_x": "3668803.73166",
    "final_y": "522224.801658",
    "longitude": "-90.10847444148813",
    "latitude": "29.93031628080378",
    "geocoded_column": {
      "latitude": "29.93031628080378",
      "longitude": "-90.10847444148813"
    }
  },
  {
    "service_request": "2025-1208764",
    "request_type": "Health Related Request",
    "request_reason": "Homeless Encampment Complaint",
    "date_created": "2025-07-11T19:41:23.000",
    "date_modified": "2025-07-11T19:41:24.000",
    "request_status": "Pending",
    "responsible_agency": "Office Of Homeless Services And Strategy",
    "final_address": "0 BLK Architect St",
    "address_councildis": "C",
    "status": "Pending",
    "rowid": "1208764",
    "final_x": "3687142.46885",
    "final_y": "534686.498656",
    "longitude": "-90.05014150821198",
    "latitude": "29.964029935213947",
    "geocoded_column": {
      "latitude": "29.964029935213947",
      "longitude": "-90.05014150821198"
    }
  },
  {
    "service_request": "2025-1208763",
    "request_type": "Trash/Recycling",
    "request_reason": "Request a Large Item Pick Up",
    "date_created": "2025-07-11T19:38:24.000",
    "date_modified": "2025-07-11T19:38:27.000",
    "request_status": "Pending",
    "responsible_agency": "Department of Sanitation",
    "final_address": "5818 Rhodes Ave",
    "address_councildis": "C",
    "status": "Assigned to Contractor",
    "contractor": "Richards Disposal",
    "rowid": "1208763",
    "final_x": "3704874.61137",
    "final_y": "519661.603832",
    "longitude": "-89.99469974588267",
    "latitude": "29.922158868937263",
    "geocoded_column": {
      "latitude": "29.922158868937263",
      "longitude": "-89.99469974588267"
    }
  },
  {
    "service_request": "2025-1208762",
    "request_type": "Trash/Recycling",
    "request_reason": "Illegal Dumping",
    "date_created": "2025-07-11T19:33:15.000",
    "date_modified": "2025-07-11T19:33:17.000",
    "request_status": "Pending",
    "responsible_agency": "Department of Sanitation",
    "final_address": "8018 Hampson St",
    "address_councildis": "A",
    "status": "Pending",
    "rowid": "1208762",
    "final_x": "3660987.67936",
    "final_y": "526874.986302",
    "longitude": "-90.13299484594656",
    "latitude": "29.94333024490152",
    "geocoded_column": {
      "latitude": "29.94333024490152",
      "longitude": "-90.13299484594656"
    }
  },
  {
    "service_request": "2025-1208761",
    "request_type": "Abandoned Vehicles",
    "request_reason": "Abandoned/Junk Vehicles",
    "date_created": "2025-07-11T19:31:54.000",
    "date_modified": "2025-07-11T19:31:56.000",
    "request_status": "Pending",
    "responsible_agency": "Department of Public Works",
    "final_address": "1901 Robert St",
    "address_councildis": "B",
    "status": "Pending",
    "rowid": "1208761",
    "final_x": "3668812.14977",
    "final_y": "522543.48025",
    "longitude": "-90.10843711246662",
    "latitude": "29.93119229770577",
    "geocoded_column": {
      "latitude": "29.93119229770577",
      "longitude": "-90.10843711246662"
    }
  },
  {
    "service_request": "2025-1208760",
    "request_type": "Street and Traffic Signs",
    "request_reason": "Stop Sign Missing or Damaged",
    "date_created": "2025-07-11T19:29:06.000",
    "date_modified": "2025-07-11T19:29:07.000",
    "request_status": "Pending",
    "responsible_agency": "Department of Public Works",
    "final_address": "3812 N Johnson St",
    "address_councildis": "D",
    "status": "Pending",
    "rowid": "1208760",
    "final_x": "3692158.80227",
    "final_y": "538750.781961",
    "longitude": "-90.03415492052876",
    "latitude": "29.975049858106217",
    "geocoded_column": {
      "latitude": "29.975049858106217",
      "longitude": "-90.03415492052876"
    }
  },
  {
    "service_request": "2025-1208759",
    "request_type": "Roads and Streets",
    "request_reason": "Street Subsidence (Sinking)",
    "date_created": "2025-07-11T19:28:36.000",
    "date_modified": "2025-07-11T19:28:40.000",
    "request_status": "Pending",
    "responsible_agency": "Department of Public Works",
    "final_address": "2474 Mendez St",
    "address_councildis": "D",
    "status": "Pending",
    "rowid": "1208759",
    "final_x": "3685790.83401",
    "final_y": "553532.091223",
    "longitude": "-90.05374524822847",
    "latitude": "30.015890147337082",
    "geocoded_column": {
      "latitude": "30.015890147337082",
      "longitude": "-90.05374524822847"
    }
  },
  {
    "service_request": "2025-1208758",
    "request_type": "General Services",
    "request_reason": "General Service Request",
    "date_created": "2025-07-11T19:20:18.000",
    "date_modified": "2025-07-11T19:20:20.000",
    "request_status": "Pending",
    "responsible_agency": "Orleans Parish Communication District",
    "final_address": "7573 Horizon Ct",
    "address_councildis": "E",
    "status": "Pending",
    "rowid": "1208758",
    "final_x": "3725760.59161",
    "final_y": "569711.011622",
    "longitude": "-89.92683312393648",
    "latitude": "30.05908764260791",
    "geocoded_column": {
      "latitude": "30.05908764260791",
      "longitude": "-89.92683312393648"
    }
  },
  {
    "service_request": "2025-1208757",
    "request_type": "Abandoned Vehicles",
    "request_reason": "Abandoned/Junk Vehicles",
    "date_created": "2025-07-11T19:18:08.000",
    "date_modified": "2025-07-11T19:18:11.000",
    "request_status": "Pending",
    "responsible_agency": "Department of Public Works",
    "final_address": "4904 S Saratoga St",
    "address_councildis": "B",
    "status": "Pending",
    "rowid": "1208757",
    "final_x": "3669050.64122",
    "final_y": "522461.18521",
    "longitude": "-90.10768700231061",
    "latitude": "29.930959000321348",
    "geocoded_column": {
      "latitude": "29.930959000321348",
      "longitude": "-90.10768700231061"
    }
  },
  {
    "service_request": "2025-1208756",
    "request_type": "Abandoned Vehicles",
    "request_reason": "Abandoned/Junk Vehicles",
    "date_created": "2025-07-11T19:11:20.000",
    "date_modified": "2025-07-11T19:11:21.000",
    "request_status": "Pending",
    "responsible_agency": "Department of Public Works",
    "final_address": "3317 Loyola Ave",
    "address_councildis": "B",
    "status": "Pending",
    "rowid": "1208756",
    "final_x": "3673560.61684",
    "final_y": "523640.520187",
    "longitude": "-90.09340931282696",
    "latitude": "29.93406837240181",
    "geocoded_column": {
      "latitude": "29.93406837240181",
      "longitude": "-90.09340931282696"
    }
  },
  {
    "service_request": "2025-1208755",
    "request_type": "Property Maintenance",
    "request_reason": "Property Maintenance",
    "date_created": "2025-07-11T19:06:32.000",
    "date_modified": "2025-07-11T19:06:34.000",
    "request_status": "Pending",
    "responsible_agency": "Department of Code Enforcement",
    "final_address": "2123 Soniat St",
    "address_councildis": "B",
    "status": "Pending",
    "rowid": "1208755",
    "final_x": "3668555.93722",
    "final_y": "523414.748795",
    "longitude": "-90.10921656122541",
    "latitude": "29.93359553615721",
    "geocoded_column": {
      "latitude": "29.93359553615721",
      "longitude": "-90.10921656122541"
    }
  },
  {
    "service_request": "2025-1208754",
    "request_type": "Trash/Recycling",
    "request_reason": "Request a Large Item Pick Up",
    "date_created": "2025-07-11T18:50:36.000",
    "date_modified": "2025-07-11T18:50:38.000",
    "request_status": "Pending",
    "responsible_agency": "Department of Sanitation",
    "final_address": "223 10Th St",
    "address_councildis": "A",
    "status": "Assigned to Contractor",
    "contractor": "IV Waste",
    "rowid": "1208754",
    "final_x": "3665371.78074",
    "final_y": "547570.520082",
    "longitude": "-90.11846028653565",
    "latitude": "30.000109076306636",
    "geocoded_column": {
      "latitude": "30.000109076306636",
      "longitude": "-90.11846028653565"
    }
  },
  {
    "service_request": "2025-1208753",
    "request_type": "Safety & Permits",
    "request_reason": "Licenses & Permits",
    "date_created": "2025-07-11T18:17:36.000",
    "date_modified": "2025-07-11T18:17:37.000",
    "request_status": "Pending",
    "responsible_agency": "Safety and Permits",
    "final_address": "2137 Soniat St",
    "address_councildis": "B",
    "status": "Pending",
    "rowid": "1208753",
    "final_x": "3668532.95585",
    "final_y": "523522.878139",
    "longitude": "-90.10928546584748",
    "latitude": "29.933893532283022",
    "geocoded_column": {
      "latitude": "29.933893532283022",
      "longitude": "-90.10928546584748"
    }
  },
  {
    "service_request": "2025-1208752",
    "request_type": "Trash/Recycling",
    "request_reason": "Request a Large Item Pick Up",
    "date_created": "2025-07-11T18:16:55.000",
    "date_modified": "2025-07-11T18:16:57.000",
    "request_status": "Pending",
    "responsible_agency": "Department of Sanitation",
    "final_address": "5529 St Roch Ave",
    "address_councildis": "D",
    "status": "Assigned to Contractor",
    "contractor": "IV Waste",
    "rowid": "1208752",
    "final_x": "3685220.59049",
    "final_y": "553417.863127",
    "longitude": "-90.05555098365986",
    "latitude": "30.01559355946824",
    "geocoded_column": {
      "latitude": "30.01559355946824",
      "longitude": "-90.05555098365986"
    }
  },
  {
    "service_request": "2025-1208751",
    "request_type": "General Services",
    "request_reason": "General Service Request",
    "date_created": "2025-07-11T18:15:55.000",
    "date_modified": "2025-07-11T18:15:57.000",
    "request_status": "Pending",
    "responsible_agency": "Orleans Parish Communication District",
    "final_address": "5000 Old Gentilly Rd",
    "address_councildis": "D",
    "status": "Pending",
    "rowid": "1208751",
    "final_x": "3692498.22051",
    "final_y": "549568.153683",
    "longitude": "-90.03269516022263",
    "latitude": "30.004783126867185",
    "geocoded_column": {
      "latitude": "30.004783126867185",
      "longitude": "-90.03269516022263"
    }
  },
  {
    "service_request": "2025-1208750",
    "request_type": "Property Maintenance",
    "request_reason": "Property Maintenance",
    "date_created": "2025-07-11T18:13:08.000",
    "date_modified": "2025-07-11T18:13:10.000",
    "request_status": "Pending",
    "responsible_agency": "Department of Code Enforcement",
    "final_address": "2000 Robert St",
    "address_councildis": "B",
    "status": "Pending",
    "rowid": "1208750",
    "final_x": "3668742.68922",
    "final_y": "522893.436411",
    "longitude": "-90.10864458325854",
    "latitude": "29.932156606800774",
    "geocoded_column": {
      "latitude": "29.932156606800774",
      "longitude": "-90.10864458325854"
    }
  },
  {
    "service_request": "2025-1208749",
    "request_type": "Roads and Streets",
    "request_reason": "Street Subsidence (Sinking)",
    "date_created": "2025-07-11T17:49:53.000",
    "date_modified": "2025-07-11T17:49:55.000",
    "request_status": "Pending",
    "responsible_agency": "Department of Public Works",
    "final_address": "2227 Easter Ln",
    "address_councildis": "C",
    "status": "Pending",
    "rowid": "1208749",
    "final_x": "3699216.92746",
    "final_y": "523003.939643",
    "longitude": "-90.01243697585005",
    "latitude": "29.931529674116884",
    "geocoded_column": {
      "latitude": "29.931529674116884",
      "longitude": "-90.01243697585005"
    }
  },
  {
    "service_request": "2025-1208748",
    "request_type": "Property Maintenance",
    "request_reason": "Property Maintenance",
    "date_created": "2025-07-11T17:36:02.000",
    "date_modified": "2025-07-11T17:36:03.000",
    "request_status": "Pending",
    "responsible_agency": "Department of Code Enforcement",
    "final_address": "4317 Magazine St",
    "address_councildis": "B",
    "status": "Pending",
    "rowid": "1208748",
    "final_x": "3671305.51841",
    "final_y": "518875.527223",
    "longitude": "-90.10069041477877",
    "latitude": "29.921033074561752",
    "geocoded_column": {
      "latitude": "29.921033074561752",
      "longitude": "-90.10069041477877"
    }
  },
  {
    "service_request": "2025-1208747",
    "request_type": "Trash/Recycling",
    "request_reason": "Repair Recycling Cart",
    "date_created": "2025-07-11T17:28:40.000",
    "date_modified": "2025-07-11T17:28:42.000",
    "request_status": "Pending",
    "responsible_agency": "Department of Sanitation",
    "final_address": "4200 Washington Ave",
    "address_councildis": "B",
    "status": "Pending",
    "rowid": "1208747",
    "final_x": "3670784.91495",
    "final_y": "530311.955714",
    "longitude": "-90.10194578118096",
    "latitude": "29.952494945216575",
    "geocoded_column": {
      "latitude": "29.952494945216575",
      "longitude": "-90.10194578118096"
    }
  },
  {
    "service_request": "2025-1208746",
    "request_type": "Trash/Recycling",
    "request_reason": "Missed Trash Pick-Up",
    "date_created": "2025-07-11T17:13:40.000",
    "date_modified": "2025-07-11T17:13:42.000",
    "request_status": "Pending",
    "responsible_agency": "Department of Sanitation",
    "final_address": "5335 Royal St",
    "address_councildis": "E",
    "status": "Assigned to Contractor",
    "contractor": "Waste Pro",
    "rowid": "1208746",
    "final_x": "3696664.10883",
    "final_y": "532554.880452",
    "longitude": "-90.02015033356973",
    "latitude": "29.95787210905299",
    "geocoded_column": {
      "latitude": "29.95787210905299",
      "longitude": "-90.02015033356973"
    }
  },
  {
    "service_request": "2025-1208745",
    "request_type": "Streetlights",
    "request_reason": "Streetlight Outage/Malfunction",
    "date_created": "2025-07-11T17:11:27.000",
    "date_modified": "2025-07-11T17:11:29.000",
    "request_status": "Pending",
    "responsible_agency": "Department of Public Works",
    "final_address": "3113 Upperline St",
    "address_councildis": "B",
    "status": "Pending",
    "contractor": "Legacy Professional Services",
    "rowid": "1208745",
    "final_x": "3669301.12615",
    "final_y": "526315.673726",
    "longitude": "-90.10676599943882",
    "latitude": "29.941550233698106",
    "geocoded_column": {
      "latitude": "29.941550233698106",
      "longitude": "-90.10676599943882"
    }
  },
  {
    "service_request": "2025-1208744",
    "request_type": "General Services",
    "request_reason": "General Service Request",
    "date_created": "2025-07-11T17:06:00.000",
    "date_modified": "2025-07-11T17:06:02.000",
    "request_status": "Pending",
    "responsible_agency": "Orleans Parish Communication District",
    "final_address": "8303 Spruce St",
    "address_councildis": "A",
    "status": "Pending",
    "rowid": "1208744",
    "final_x": "3663309.62029",
    "final_y": "530999.08525",
    "longitude": "-90.12552660171667",
    "latitude": "29.954603103615707",
    "geocoded_column": {
      "latitude": "29.954603103615707",
      "longitude": "-90.12552660171667"
    }
  },
  {
    "service_request": "2025-1208743",
    "request_type": "Trash/Recycling",
    "request_reason": "Missed Trash Pick-Up",
    "date_created": "2025-07-11T16:57:32.000",
    "date_modified": "2025-07-11T16:57:34.000",
    "request_status": "Pending",
    "responsible_agency": "Department of Sanitation",
    "final_address": "836 Washington Ave",
    "address_councildis": "B",
    "status": "Assigned to Contractor",
    "contractor": "IV Waste",
    "rowid": "1208743",
    "final_x": "3677464.06427",
    "final_y": "520127.190328",
    "longitude": "-90.0812074734002",
    "latitude": "29.9242911382742",
    "geocoded_column": {
      "latitude": "29.9242911382742",
      "longitude": "-90.0812074734002"
    }
  },
  {
    "service_request": "2025-1208742",
    "request_type": "Drainage",
    "request_reason": "Catch Basin Clogged",
    "date_created": "2025-07-11T16:57:18.000",
    "date_modified": "2025-07-11T16:57:19.000",
    "request_status": "Pending",
    "responsible_agency": "Sewerage & Water Board",
    "final_address": "1130 Josephine St",
    "address_councildis": "B",
    "status": "Pending",
    "rowid": "1208742",
    "final_x": "3678959.77582",
    "final_y": "522515.761018",
    "longitude": "-90.07640332210859",
    "latitude": "29.930813900827896",
    "geocoded_column": {
      "latitude": "29.930813900827896",
      "longitude": "-90.07640332210859"
    }
  },
  {
    "service_request": "2025-1208741",
    "request_type": "Trash/Recycling",
    "request_reason": "Return Trash Cart",
    "date_created": "2025-07-11T16:53:41.000",
    "date_modified": "2025-07-11T16:53:43.000",
    "request_status": "Pending",
    "responsible_agency": "Department of Sanitation",
    "final_address": "3510 Rue Delphine",
    "address_councildis": "C",
    "status": "Assigned to Contractor",
    "contractor": "Richards Disposal",
    "rowid": "1208741",
    "final_x": "3703104.47633",
    "final_y": "517781.247094",
    "longitude": "-90.00035633548376",
    "latitude": "29.917045279159883",
    "geocoded_column": {
      "latitude": "29.917045279159883",
      "longitude": "-90.00035633548376"
    }
  },
  {
    "service_request": "2025-1208740",
    "request_type": "Trash/Recycling",
    "request_reason": "Order Trash Cart",
    "date_created": "2025-07-11T16:52:23.000",
    "date_modified": "2025-07-11T16:52:25.000",
    "request_status": "Pending",
    "responsible_agency": "Department of Sanitation",
    "final_address": "3954 Magazine St",
    "address_councildis": "B",
    "status": "Assigned to Contractor",
    "contractor": "IV Waste",
    "rowid": "1208740",
    "final_x": "3672622.97787",
    "final_y": "518895.266423",
    "longitude": "-90.09653110757483",
    "latitude": "29.921048315170776",
    "geocoded_column": {
      "latitude": "29.921048315170776",
      "longitude": "-90.09653110757483"
    }
  },
  {
    "service_request": "2025-1208739",
    "request_type": "Trash/Recycling",
    "request_reason": "Request a Large Item Pick Up",
    "date_created": "2025-07-11T16:49:50.000",
    "date_modified": "2025-07-11T16:49:51.000",
    "request_status": "Pending",
    "responsible_agency": "Department of Sanitation",
    "final_address": "10211 Lakewood St",
    "address_councildis": "E",
    "status": "Assigned to Contractor",
    "contractor": "Waste Pro",
    "rowid": "1208739",
    "final_x": "3713170.47403",
    "final_y": "557012.071322",
    "longitude": "-89.96710767343303",
    "latitude": "30.024589592175282",
    "geocoded_column": {
      "latitude": "30.024589592175282",
      "longitude": "-89.96710767343303"
    }
  },
  {
    "service_request": "2025-1208738",
    "request_type": "Trash/Recycling",
    "request_reason": "Request a Large Item Pick Up",
    "date_created": "2025-07-11T16:49:13.000",
    "date_modified": "2025-07-11T16:49:15.000",
    "request_status": "Pending",
    "responsible_agency": "Department of Sanitation",
    "final_address": "7095 Edgefield Dr",
    "address_councildis": "E",
    "status": "Assigned to Contractor",
    "contractor": "Waste Pro",
    "rowid": "1208738",
    "final_x": "3718586.25023",
    "final_y": "569528.63703",
    "longitude": "-89.94951732889695",
    "latitude": "30.05882637719464",
    "geocoded_column": {
      "latitude": "30.05882637719464",
      "longitude": "-89.94951732889695"
    }
  },
  {
    "service_request": "2025-1208737",
    "request_type": "Abandoned Vehicles",
    "request_reason": "Abandoned/Junk Vehicles",
    "date_created": "2025-07-11T16:48:55.000",
    "date_modified": "2025-07-11T16:48:56.000",
    "request_status": "Pending",
    "responsible_agency": "Department of Public Works",
    "final_address": "321 N Johnson St",
    "address_councildis": "B",
    "status": "Pending",
    "rowid": "1208737",
    "final_x": "3677789.99733",
    "final_y": "534512.566981",
    "longitude": "-90.07968179351673",
    "latitude": "29.963836354745148",
    "geocoded_column": {
      "latitude": "29.963836354745148",
      "longitude": "-90.07968179351673"
    }
  },
  {
    "service_request": "2025-1208736",
    "request_type": "Trash/Recycling",
    "request_reason": "Replace Trash Cart",
    "date_created": "2025-07-11T16:48:07.000",
    "date_modified": "2025-07-11T16:48:11.000",
    "request_status": "Pending",
    "responsible_agency": "Department of Sanitation",
    "final_address": "4720 N Villere St A",
    "address_councildis": "E",
    "status": "Assigned to Contractor",
    "contractor": "Waste Pro",
    "rowid": "1208736",
    "final_x": "3695138.11664",
    "final_y": "535618.53895",
    "longitude": "-90.02485848599206",
    "latitude": "29.966344086920873",
    "geocoded_column": {
      "latitude": "29.966344086920873",
      "longitude": "-90.02485848599206"
    }
  },
  {
    "service_request": "2025-1208735",
    "request_type": "Property Maintenance",
    "request_reason": "Property Maintenance",
    "date_created": "2025-07-11T16:46:56.000",
    "date_modified": "2025-07-11T16:46:58.000",
    "request_status": "Pending",
    "responsible_agency": "Department of Code Enforcement",
    "final_address": "4955 Mandeville St",
    "address_councildis": "D",
    "status": "Pending",
    "rowid": "1208735",
    "final_x": "3684695.37634",
    "final_y": "551191.722325",
    "longitude": "-90.05728874561595",
    "latitude": "30.009488578755946",
    "geocoded_column": {
      "latitude": "30.009488578755946",
      "longitude": "-90.05728874561595"
    }
  },
  {
    "service_request": "2025-1208734",
    "request_type": "Abandoned Vehicles",
    "request_reason": "Abandoned/Junk Vehicles",
    "date_created": "2025-07-11T16:45:46.000",
    "date_modified": "2025-07-11T16:45:48.000",
    "request_status": "Pending",
    "responsible_agency": "Department of Public Works",
    "final_address": "321 N Johnson St",
    "address_councildis": "B",
    "status": "Pending",
    "rowid": "1208734",
    "final_x": "3677789.99733",
    "final_y": "534512.566981",
    "longitude": "-90.07968179351673",
    "latitude": "29.963836354745148",
    "geocoded_column": {
      "latitude": "29.963836354745148",
      "longitude": "-90.07968179351673"
    }
  },
  {
    "service_request": "2025-1208733",
    "request_type": "Roads and Streets",
    "request_reason": "Sidewalk Damaged or Missing",
    "date_created": "2025-07-11T16:44:11.000",
    "date_modified": "2025-07-11T16:44:13.000",
    "request_status": "Pending",
    "responsible_agency": "Department of Public Works",
    "final_address": "1328 Elysian Fields Ave",
    "address_councildis": "C",
    "status": "Pending",
    "rowid": "1208733",
    "final_x": "3684817.97948",
    "final_y": "537270.586952",
    "longitude": "-90.05739115515576",
    "latitude": "29.9712066546916",
    "geocoded_column": {
      "latitude": "29.9712066546916",
      "longitude": "-90.05739115515576"
    }
  },
  {
    "service_request": "2025-1208732",
    "request_type": "Parks & Parkways",
    "request_reason": "Request Tree Service (Right of Way/Public Property)",
    "date_created": "2025-07-11T16:38:19.000",
    "date_modified": "2025-07-11T16:38:20.000",
    "request_status": "Pending",
    "responsible_agency": "Department of Parks & Parkway",
    "final_address": "1310 Elysian Fields Ave",
    "address_councildis": "C",
    "status": "Pending",
    "rowid": "1208732",
    "final_x": "3684846.97282",
    "final_y": "537141.04148",
    "longitude": "-90.05730414643055",
    "latitude": "29.970849561951958",
    "geocoded_column": {
      "latitude": "29.970849561951958",
      "longitude": "-90.05730414643055"
    }
  },
  {
    "service_request": "2025-1208731",
    "request_type": "Abandoned Vehicles",
    "request_reason": "Abandoned/Junk Vehicles",
    "date_created": "2025-07-11T16:38:16.000",
    "date_modified": "2025-07-11T16:38:18.000",
    "request_status": "Pending",
    "responsible_agency": "Department of Public Works",
    "final_address": "1470 N Miro St",
    "address_councildis": "D",
    "status": "Pending",
    "rowid": "1208731",
    "final_x": "3679968.83989",
    "final_y": "538327.514505",
    "longitude": "-90.07266867507245",
    "latitude": "29.97426042408289",
    "geocoded_column": {
      "latitude": "29.97426042408289",
      "longitude": "-90.07266867507245"
    }
  },
  {
    "service_request": "2025-1208730",
    "request_type": "Trash/Recycling",
    "request_reason": "Missed Trash Pick-Up",
    "date_created": "2025-07-11T16:37:33.000",
    "date_modified": "2025-07-11T16:55:00.000",
    "case_close_date": "2025-07-11T11:54:59.000",
    "request_status": "Closed",
    "responsible_agency": "Department of Sanitation",
    "final_address": "934 Philip St",
    "address_councildis": "B",
    "status": "Invalid Request",
    "contractor": "IV Waste",
    "contractor_action": "Invalid",
    "rowid": "1208730",
    "final_x": "3678759.3355",
    "final_y": "521460.841529",
    "longitude": "-90.07707259559236",
    "latitude": "29.927919261534097",
    "geocoded_column": {
      "latitude": "29.927919261534097",
      "longitude": "-90.07707259559236"
    }
  },
  {
    "service_request": "2025-1208729",
    "request_type": "Trash/Recycling",
    "request_reason": "Repair Trash Cart",
    "date_created": "2025-07-11T16:35:41.000",
    "date_modified": "2025-07-11T16:35:43.000",
    "request_status": "Pending",
    "responsible_agency": "Department of Sanitation",
    "final_address": "2422 Wisteria St",
    "address_councildis": "D",
    "status": "Assigned to Contractor",
    "contractor": "IV Waste",
    "rowid": "1208729",
    "final_x": "3685753.85084",
    "final_y": "548243.207442",
    "longitude": "-90.0540486641625",
    "latitude": "30.001348778794565",
    "geocoded_column": {
      "latitude": "30.001348778794565",
      "longitude": "-90.0540486641625"
    }
  },
  {
    "service_request": "2025-1208728",
    "request_type": "Roads and Streets",
    "request_reason": "ADA Ramps Damaged or Missing",
    "date_created": "2025-07-11T16:27:43.000",
    "date_modified": "2025-07-11T16:27:45.000",
    "request_status": "Pending",
    "responsible_agency": "Department of Public Works",
    "final_address": "1300 Elysian Fields Ave",
    "address_councildis": "C",
    "status": "Pending",
    "rowid": "1208728",
    "final_x": "3684855.47484",
    "final_y": "537062.585032",
    "longitude": "-90.05728005535073",
    "latitude": "29.97063357367015",
    "geocoded_column": {
      "latitude": "29.97063357367015",
      "longitude": "-90.05728005535073"
    }
  },
  {
    "service_request": "2025-1208726",
    "request_type": "Trash/Recycling",
    "request_reason": "Request a Large Item Pick Up",
    "date_created": "2025-07-11T16:27:00.000",
    "date_modified": "2025-07-11T16:27:02.000",
    "request_status": "Pending",
    "responsible_agency": "Department of Sanitation",
    "final_address": "6591 Wuerpel St",
    "address_councildis": "A",
    "status": "Assigned to Contractor",
    "contractor": "IV Waste",
    "rowid": "1208726",
    "final_x": "3667230.70042",
    "final_y": "551607.937301",
    "longitude": "-90.11245194428378",
    "latitude": "30.011156246075018",
    "geocoded_column": {
      "latitude": "30.011156246075018",
      "longitude": "-90.11245194428378"
    }
  },
  {
    "service_request": "2025-1208727",
    "request_type": "Trash/Recycling",
    "request_reason": "Request a Large Item Pick Up",
    "date_created": "2025-07-11T16:27:00.000",
    "date_modified": "2025-07-11T16:27:02.000",
    "request_status": "Pending",
    "responsible_agency": "Department of Sanitation",
    "final_address": "13658 Granville St",
    "address_councildis": "E",
    "status": "Assigned to Contractor",
    "contractor": "Waste Pro",
    "rowid": "1208727",
    "final_x": "3726687.69721",
    "final_y": "562538.426848",
    "longitude": "-89.92418147890847",
    "latitude": "30.039334714487744",
    "geocoded_column": {
      "latitude": "30.039334714487744",
      "longitude": "-89.92418147890847"
    }
  },
  {
    "service_request": "2025-1208725",
    "request_type": "Trash/Recycling",
    "request_reason": "Request a Large Item Pick Up",
    "date_created": "2025-07-11T16:25:26.000",
    "date_modified": "2025-07-11T16:25:27.000",
    "request_status": "Pending",
    "responsible_agency": "Department of Sanitation",
    "final_address": "7533 Mayo Rd",
    "address_councildis": "E",
    "status": "Assigned to Contractor",
    "contractor": "Waste Pro",
    "rowid": "1208725",
    "final_x": "3700957.18609",
    "final_y": "560656.151134",
    "longitude": "-90.00556586869983",
    "latitude": "30.035004157111405",
    "geocoded_column": {
      "latitude": "30.035004157111405",
      "longitude": "-90.00556586869983"
    }
  },
  {
    "service_request": "2025-1208724",
    "request_type": "Trash/Recycling",
    "request_reason": "Replace Trash Cart",
    "date_created": "2025-07-11T16:24:38.000",
    "date_modified": "2025-07-11T16:24:40.000",
    "request_status": "Pending",
    "responsible_agency": "Department of Sanitation",
    "final_address": "1531 Pleasant St",
    "address_councildis": "B",
    "status": "Assigned to Contractor",
    "contractor": "IV Waste",
    "rowid": "1208724",
    "final_x": "3674716.1243",
    "final_y": "521569.420729",
    "longitude": "-90.08983237120857",
    "latitude": "29.928339088676413",
    "geocoded_column": {
      "latitude": "29.928339088676413",
      "longitude": "-90.08983237120857"
    }
  },
  {
    "service_request": "2025-1208723",
    "request_type": "Trash/Recycling",
    "request_reason": "Request a Large Item Pick Up",
    "date_created": "2025-07-11T16:20:53.000",
    "date_modified": "2025-07-11T16:20:54.000",
    "request_status": "Pending",
    "responsible_agency": "Department of Sanitation",
    "final_address": "2209 Bienville Ave",
    "address_councildis": "B",
    "status": "Assigned to Contractor",
    "contractor": "IV Waste",
    "rowid": "1208723",
    "final_x": "3677365.40578",
    "final_y": "534630.44487",
    "longitude": "-90.0810185451714",
    "latitude": "29.964173245454223",
    "geocoded_column": {
      "latitude": "29.964173245454223",
      "longitude": "-90.0810185451714"
    }
  },
  {
    "service_request": "2025-1208721",
    "request_type": "Trash/Recycling",
    "request_reason": "Request a Large Item Pick Up",
    "date_created": "2025-07-11T16:19:59.000",
    "date_modified": "2025-07-11T16:20:01.000",
    "request_status": "Pending",
    "responsible_agency": "Department of Sanitation",
    "final_address": "13071 New Hampshire Dr",
    "address_councildis": "E",
    "status": "Assigned to Contractor",
    "contractor": "Waste Pro",
    "rowid": "1208721",
    "final_x": "3723669.2375",
    "final_y": "564831.91293",
    "longitude": "-89.93363202730049",
    "latitude": "30.045742577137585",
    "geocoded_column": {
      "latitude": "30.045742577137585",
      "longitude": "-89.93363202730049"
    }
  },
  {
    "service_request": "2025-1208720",
    "request_type": "General Services",
    "request_reason": "General Service Request",
    "date_created": "2025-07-11T16:13:28.000",
    "date_modified": "2025-07-11T16:13:30.000",
    "request_status": "Pending",
    "responsible_agency": "Orleans Parish Communication District",
    "final_address": "4116 Eve St",
    "address_councildis": "B",
    "status": "Pending",
    "rowid": "1208720",
    "final_x": "3670787.33153",
    "final_y": "530422.391426",
    "longitude": "-90.1019344032672",
    "latitude": "29.952798535665753",
    "geocoded_column": {
      "latitude": "29.952798535665753",
      "longitude": "-90.1019344032672"
    }
  },
  {
    "service_request": "2025-1208719",
    "request_type": "Drainage",
    "request_reason": "Drainage Manhole Cover Missing or Damaged",
    "date_created": "2025-07-11T16:12:17.000",
    "date_modified": "2025-07-11T16:12:18.000",
    "request_status": "Pending",
    "responsible_agency": "Sewerage & Water Board",
    "final_address": "7300 Mayo Rd",
    "address_councildis": "E",
    "status": "Pending",
    "rowid": "1208719",
    "final_x": "3701018.39492",
    "final_y": "559752.956573",
    "longitude": "-90.00540551847341",
    "latitude": "30.03251877250949",
    "geocoded_column": {
      "latitude": "30.03251877250949",
      "longitude": "-90.00540551847341"
    }
  },
  {
    "service_request": "2025-1208718",
    "request_type": "Roads and Streets",
    "request_reason": "Sidewalk Damaged or Missing",
    "date_created": "2025-07-11T16:10:33.000",
    "date_modified": "2025-07-11T16:10:34.000",
    "request_status": "Pending",
    "responsible_agency": "Department of Public Works",
    "final_address": "1300 Elysian Fields Ave",
    "address_councildis": "C",
    "status": "Pending",
    "rowid": "1208718",
    "final_x": "3684855.47484",
    "final_y": "537062.585032",
    "longitude": "-90.05728005535073",
    "latitude": "29.97063357367015",
    "geocoded_column": {
      "latitude": "29.97063357367015",
      "longitude": "-90.05728005535073"
    }
  },
  {
    "service_request": "2025-1208717",
    "request_type": "Drainage",
    "request_reason": "Street Flooding",
    "date_created": "2025-07-11T16:09:55.000",
    "date_modified": "2025-07-11T16:09:56.000",
    "request_status": "Pending",
    "responsible_agency": "Sewerage & Water Board",
    "final_address": "7300 Mayo Rd",
    "address_councildis": "E",
    "status": "Pending",
    "rowid": "1208717",
    "final_x": "3701018.39492",
    "final_y": "559752.956573",
    "longitude": "-90.00540551847341",
    "latitude": "30.03251877250949",
    "geocoded_column": {
      "latitude": "30.03251877250949",
      "longitude": "-90.00540551847341"
    }
  },
  {
    "service_request": "2025-1208716",
    "request_type": "Drainage",
    "request_reason": "Street Flooding",
    "date_created": "2025-07-11T16:09:54.000",
    "date_modified": "2025-07-11T16:09:56.000",
    "request_status": "Pending",
    "responsible_agency": "Sewerage & Water Board",
    "final_address": "7300 Mayo Rd",
    "address_councildis": "E",
    "status": "Pending",
    "rowid": "1208716",
    "final_x": "3701018.39492",
    "final_y": "559752.956573",
    "longitude": "-90.00540551847341",
    "latitude": "30.03251877250949",
    "geocoded_column": {
      "latitude": "30.03251877250949",
      "longitude": "-90.00540551847341"
    }
  },
  {
    "service_request": "2025-1208715",
    "request_type": "Drainage",
    "request_reason": "Street Flooding",
    "date_created": "2025-07-11T16:09:54.000",
    "date_modified": "2025-07-11T16:09:56.000",
    "request_status": "Pending",
    "responsible_agency": "Sewerage & Water Board",
    "final_address": "7300 Mayo Rd",
    "address_councildis": "E",
    "status": "Pending",
    "rowid": "1208715",
    "final_x": "3701018.39492",
    "final_y": "559752.956573",
    "longitude": "-90.00540551847341",
    "latitude": "30.03251877250949",
    "geocoded_column": {
      "latitude": "30.03251877250949",
      "longitude": "-90.00540551847341"
    }
  },
  {
    "service_request": "2025-1208714",
    "request_type": "Trash/Recycling",
    "request_reason": "Order Trash Cart",
    "date_created": "2025-07-11T15:59:03.000",
    "date_modified": "2025-07-11T15:59:05.000",
    "request_status": "Pending",
    "responsible_agency": "Department of Sanitation",
    "final_address": "4925 Charlene Dr",
    "address_councildis": "E",
    "status": "Assigned to Contractor",
    "contractor": "Waste Pro",
    "rowid": "1208714",
    "final_x": "3707856.1347",
    "final_y": "556688.18089",
    "longitude": "-89.98391197144969",
    "latitude": "30.023872178427776",
    "geocoded_column": {
      "latitude": "30.023872178427776",
      "longitude": "-89.98391197144969"
    }
  },
  {
    "service_request": "2025-1208713",
    "request_type": "Trash/Recycling",
    "request_reason": "Order Recycling Cart",
    "date_created": "2025-07-11T15:57:09.000",
    "date_modified": "2025-07-11T15:57:12.000",
    "request_status": "Pending",
    "responsible_agency": "Department of Sanitation",
    "final_address": "4925 Charlene Dr",
    "address_councildis": "E",
    "status": "Pending",
    "rowid": "1208713",
    "final_x": "3707856.1347",
    "final_y": "556688.18089",
    "longitude": "-89.98391197144969",
    "latitude": "30.023872178427776",
    "geocoded_column": {
      "latitude": "30.023872178427776",
      "longitude": "-89.98391197144969"
    }
  },
  {
    "service_request": "2025-1208712",
    "request_type": "Property Maintenance",
    "request_reason": "Property Maintenance",
    "date_created": "2025-07-11T15:54:24.000",
    "date_modified": "2025-07-11T15:54:26.000",
    "request_status": "Pending",
    "responsible_agency": "Department of Code Enforcement",
    "final_address": "3100 Blair St",
    "address_councildis": "C",
    "status": "Pending",
    "rowid": "1208712",
    "final_x": "3709564.77835",
    "final_y": "519424.303607",
    "longitude": "-89.97990382171014",
    "latitude": "29.921354880669544",
    "geocoded_column": {
      "latitude": "29.921354880669544",
      "longitude": "-89.97990382171014"
    }
  },
  {
    "service_request": "2025-1208711",
    "request_type": "Property Maintenance",
    "request_reason": "Property Maintenance",
    "date_created": "2025-07-11T15:52:46.000",
    "date_modified": "2025-07-11T15:53:11.000",
    "request_status": "Pending",
    "responsible_agency": "Department of Code Enforcement",
    "final_address": "3114 Pittari Pl",
    "address_councildis": "C",
    "status": "Pending",
    "rowid": "1208711",
    "final_x": "3709800.03832",
    "final_y": "519242.362935",
    "longitude": "-89.97916800381721",
    "latitude": "29.92084696475495",
    "geocoded_column": {
      "latitude": "29.92084696475495",
      "longitude": "-89.97916800381721"
    }
  },
  {
    "service_request": "2025-1208710",
    "request_type": "Trash/Recycling",
    "request_reason": "Request a Large Item Pick Up",
    "date_created": "2025-07-11T15:51:38.000",
    "date_modified": "2025-07-11T16:02:54.000",
    "case_close_date": "2025-07-11T11:02:52.000",
    "request_status": "Closed",
    "responsible_agency": "Department of Sanitation",
    "final_address": "8602 Bill St",
    "address_councildis": "E",
    "status": "Duplicate Request",
    "contractor": "Waste Pro",
    "contractor_action": "Duplicate",
    "rowid": "1208710",
    "final_x": "3703771.78756",
    "final_y": "563158.012256",
    "longitude": "-89.99657911711049",
    "latitude": "30.041793313386407",
    "geocoded_column": {
      "latitude": "30.041793313386407",
      "longitude": "-89.99657911711049"
    }
  },
  {
    "service_request": "2025-1208709",
    "request_type": "Trash/Recycling",
    "request_reason": "Request a Large Item Pick Up",
    "date_created": "2025-07-11T15:50:29.000",
    "date_modified": "2025-07-11T15:50:44.000",
    "request_status": "Pending",
    "responsible_agency": "Department of Sanitation",
    "final_address": "10954 S Hardy St",
    "address_councildis": "E",
    "status": "Assigned to Contractor",
    "contractor": "Waste Pro",
    "rowid": "1208709",
    "final_x": "3713226.20312",
    "final_y": "561713.324575",
    "longitude": "-89.96675441269089",
    "latitude": "30.037514339936024",
    "geocoded_column": {
      "latitude": "30.037514339936024",
      "longitude": "-89.96675441269089"
    }
  },
  {
    "service_request": "2025-1208708",
    "request_type": "Trash/Recycling",
    "request_reason": "Request a Large Item Pick Up",
    "date_created": "2025-07-11T15:46:42.000",
    "date_modified": "2025-07-11T15:46:52.000",
    "request_status": "Pending",
    "responsible_agency": "Department of Sanitation",
    "final_address": "7531 Scottwood Dr",
    "address_councildis": "E",
    "status": "Assigned to Contractor",
    "contractor": "Waste Pro",
    "rowid": "1208708",
    "final_x": "3717667.34911",
    "final_y": "570344.897703",
    "longitude": "-89.95239076466447",
    "latitude": "30.061101236553146",
    "geocoded_column": {
      "latitude": "30.061101236553146",
      "longitude": "-89.95239076466447"
    }
  },
  {
    "service_request": "2025-1208707",
    "request_type": "Trash/Recycling",
    "request_reason": "Request a Large Item Pick Up",
    "date_created": "2025-07-11T15:39:38.000",
    "date_modified": "2025-07-11T15:39:39.000",
    "request_status": "Pending",
    "responsible_agency": "Department of Sanitation",
    "final_address": "7501 Vanderkloot Ave",
    "address_councildis": "E",
    "status": "Assigned to Contractor",
    "contractor": "Waste Pro",
    "rowid": "1208707",
    "final_x": "3706203.53879",
    "final_y": "562845.255584",
    "longitude": "-89.98890553889072",
    "latitude": "30.040855127879937",
    "geocoded_column": {
      "latitude": "30.040855127879937",
      "longitude": "-89.98890553889072"
    }
  },
  {
    "service_request": "2025-1208706",
    "request_type": "Drainage",
    "request_reason": "Street Flooding",
    "date_created": "2025-07-11T15:39:26.000",
    "date_modified": "2025-07-11T15:39:29.000",
    "request_status": "Pending",
    "responsible_agency": "Sewerage & Water Board",
    "final_address": "1810 Moss St",
    "address_councildis": "A",
    "status": "Pending",
    "rowid": "1208706",
    "final_x": "3675364.91233",
    "final_y": "543036.295885",
    "longitude": "-90.08704722026397",
    "latitude": "29.987346427830513",
    "geocoded_column": {
      "latitude": "29.987346427830513",
      "longitude": "-90.08704722026397"
    }
  },
  {
    "service_request": "2025-1208705",
    "request_type": "Property Maintenance",
    "request_reason": "Property Maintenance",
    "date_created": "2025-07-11T15:38:15.000",
    "date_modified": "2025-07-11T15:38:17.000",
    "request_status": "Pending",
    "responsible_agency": "Department of Code Enforcement",
    "final_address": "7450 Mayo Rd",
    "address_councildis": "E",
    "status": "Pending",
    "rowid": "1208705",
    "final_x": "3700832.84573",
    "final_y": "560301.438045",
    "longitude": "-90.00597178643922",
    "latitude": "30.034032795083192",
    "geocoded_column": {
      "latitude": "30.034032795083192",
      "longitude": "-90.00597178643922"
    }
  },
  {
    "service_request": "2025-1208704",
    "request_type": "Street and Traffic Signs",
    "request_reason": "Stop Sign Missing or Damaged",
    "date_created": "2025-07-11T15:36:38.000",
    "date_modified": "2025-07-11T15:36:41.000",
    "request_status": "Pending",
    "responsible_agency": "Department of Public Works",
    "final_address": "N JOHNSON ST & PAULINE ST",
    "address_councildis": "D",
    "status": "Pending",
    "rowid": "1208704",
    "final_x": "3692049.1",
    "final_y": "538836.88",
    "longitude": "-90.03449830504604",
    "latitude": "29.97529001672264",
    "geocoded_column": {
      "latitude": "29.97529001672264",
      "longitude": "-90.03449830504604"
    }
  },
  {
    "service_request": "2025-1208703",
    "request_type": "Abandoned Vehicles",
    "request_reason": "Abandoned/Junk Vehicles",
    "date_created": "2025-07-11T15:28:27.000",
    "date_modified": "2025-07-11T15:28:28.000",
    "request_status": "Pending",
    "responsible_agency": "Department of Public Works",
    "final_address": "1400 BLK Tupelo St",
    "address_councildis": "E",
    "status": "Pending",
    "rowid": "1208703",
    "final_x": "3699935.79629",
    "final_y": "534556.467748",
    "longitude": "-90.00974633449565",
    "latitude": "29.963272256139184",
    "geocoded_column": {
      "latitude": "29.963272256139184",
      "longitude": "-90.00974633449565"
    }
  },
  {
    "service_request": "2025-1208702",
    "request_type": "Trash/Recycling",
    "request_reason": "Missed Trash Pick-Up",
    "date_created": "2025-07-11T15:28:12.000",
    "date_modified": "2025-07-11T15:40:08.000",
    "case_close_date": "2025-07-11T10:40:07.000",
    "request_status": "Closed",
    "responsible_agency": "Department of Sanitation",
    "final_address": "2513 Congress St",
    "address_councildis": "D",
    "status": "Invalid Request",
    "contractor": "IV Waste",
    "contractor_action": "Invalid",
    "rowid": "1208702",
    "final_x": "3692100.13923",
    "final_y": "540945.871371",
    "longitude": "-90.03426159542407",
    "latitude": "29.981087399225988",
    "geocoded_column": {
      "latitude": "29.981087399225988",
      "longitude": "-90.03426159542407"
    }
  },
  {
    "service_request": "2025-1208701",
    "request_type": "Roads and Streets",
    "request_reason": "Sidewalk Damaged or Missing",
    "date_created": "2025-07-11T15:19:01.000",
    "date_modified": "2025-07-11T15:19:03.000",
    "request_status": "Pending",
    "responsible_agency": "Department of Public Works",
    "final_address": "2033 Port St",
    "address_councildis": "D",
    "status": "Pending",
    "rowid": "1208701",
    "final_x": "3688384.74889",
    "final_y": "540035.553035",
    "longitude": "-90.04602873819722",
    "latitude": "29.978699645331048",
    "geocoded_column": {
      "latitude": "29.978699645331048",
      "longitude": "-90.04602873819722"
    }
  },
  {
    "service_request": "2025-1208700",
    "request_type": "Trash/Recycling",
    "request_reason": "Request a Large Item Pick Up",
    "date_created": "2025-07-11T15:18:22.000",
    "date_modified": "2025-07-11T15:18:24.000",
    "request_status": "Pending",
    "responsible_agency": "Department of Sanitation",
    "final_address": "8006 Nelson St",
    "address_councildis": "A",
    "status": "Assigned to Contractor",
    "contractor": "IV Waste",
    "rowid": "1208700",
    "final_x": "3665367.32903",
    "final_y": "531563.207747",
    "longitude": "-90.11901025245511",
    "latitude": "29.956094456322788",
    "geocoded_column": {
      "latitude": "29.956094456322788",
      "longitude": "-90.11901025245511"
    }
  },
  {
    "service_request": "2025-1208699",
    "request_type": "Streetlights",
    "request_reason": "Streetlight Outage/Malfunction",
    "date_created": "2025-07-11T15:13:57.000",
    "date_modified": "2025-07-11T15:13:58.000",
    "request_status": "Pending",
    "responsible_agency": "Department of Public Works",
    "final_address": "5400 BLK Marais St",
    "address_councildis": "E",
    "status": "Pending",
    "contractor": "Legacy Professional Services",
    "rowid": "1208699",
    "final_x": "3697528.72105",
    "final_y": "534254.219665",
    "longitude": "-90.01735852236104",
    "latitude": "29.962517415145",
    "geocoded_column": {
      "latitude": "29.962517415145",
      "longitude": "-90.01735852236104"
    }
  },
  {
    "service_request": "2025-1208698",
    "request_type": "Parks & Parkways",
    "request_reason": "Request Tree Service (Right of Way/Public Property)",
    "date_created": "2025-07-11T15:11:38.000",
    "date_modified": "2025-07-11T15:11:40.000",
    "request_status": "Pending",
    "responsible_agency": "Department of Parks & Parkway",
    "final_address": "101 Marais St",
    "address_councildis": "C",
    "status": "Pending",
    "rowid": "1208698",
    "final_x": "3679231.67413",
    "final_y": "532286.317379",
    "longitude": "-90.07520630896921",
    "latitude": "29.957671473737573",
    "geocoded_column": {
      "latitude": "29.957671473737573",
      "longitude": "-90.07520630896921"
    }
  },
  {
    "service_request": "2025-1208697",
    "request_type": "Trash/Recycling",
    "request_reason": "Replace Trash Cart",
    "date_created": "2025-07-11T15:10:06.000",
    "date_modified": "2025-07-11T15:10:08.000",
    "request_status": "Pending",
    "responsible_agency": "Department of Sanitation",
    "final_address": "6019 Berkley Dr",
    "address_councildis": "C",
    "status": "Assigned to Contractor",
    "contractor": "Richards Disposal",
    "rowid": "1208697",
    "final_x": "3706319.28567",
    "final_y": "518058.653366",
    "longitude": "-89.9901988571729",
    "latitude": "29.91770482548265",
    "geocoded_column": {
      "latitude": "29.91770482548265",
      "longitude": "-89.9901988571729"
    }
  },
  {
    "service_request": "2025-1208696",
    "request_type": "Trash/Recycling",
    "request_reason": "Order Trash Cart",
    "date_created": "2025-07-11T15:10:04.000",
    "date_modified": "2025-07-11T15:10:05.000",
    "request_status": "Pending",
    "responsible_agency": "Department of Sanitation",
    "final_address": "7220 Voyageur Ct",
    "address_councildis": "E",
    "status": "Assigned to Contractor",
    "contractor": "Waste Pro",
    "rowid": "1208696",
    "final_x": "3726406.93952",
    "final_y": "568707.062693",
    "longitude": "-89.92482910846316",
    "latitude": "30.0563053764278",
    "geocoded_column": {
      "latitude": "30.0563053764278",
      "longitude": "-89.92482910846316"
    }
  },
  {
    "service_request": "2025-1208695",
    "request_type": "Abandoned Vehicles",
    "request_reason": "Abandoned/Junk Vehicles",
    "date_created": "2025-07-11T15:08:28.000",
    "date_modified": "2025-07-11T15:08:30.000",
    "request_status": "Pending",
    "responsible_agency": "Department of Public Works",
    "final_address": "1600 BLK Choctaw St",
    "address_councildis": "E",
    "status": "Pending",
    "rowid": "1208695",
    "final_x": "3697992.93305",
    "final_y": "535949.668374",
    "longitude": "-90.01583105263215",
    "latitude": "29.967164626559274",
    "geocoded_column": {
      "latitude": "29.967164626559274",
      "longitude": "-90.01583105263215"
    }
  },
  {
    "service_request": "2025-1208694",
    "request_type": "Drainage",
    "request_reason": "Catch Basin Clogged",
    "date_created": "2025-07-11T15:06:50.000",
    "date_modified": "2025-07-11T15:06:52.000",
    "request_status": "Pending",
    "responsible_agency": "Sewerage & Water Board",
    "final_address": "8733 Olive St",
    "address_councildis": "A",
    "status": "Pending",
    "rowid": "1208694",
    "final_x": "3665494.33543",
    "final_y": "535818.129543",
    "longitude": "-90.11846675815569",
    "latitude": "29.967790392166496",
    "geocoded_column": {
      "latitude": "29.967790392166496",
      "longitude": "-90.11846675815569"
    }
  },
  {
    "service_request": "2025-1208693",
    "request_type": "Drainage",
    "request_reason": "Street Flooding",
    "date_created": "2025-07-11T15:06:14.000",
    "date_modified": "2025-07-11T15:06:15.000",
    "request_status": "Pending",
    "responsible_agency": "Sewerage & Water Board",
    "final_address": "101 Marais St",
    "address_councildis": "C",
    "status": "Pending",
    "rowid": "1208693",
    "final_x": "3679231.67413",
    "final_y": "532286.317379",
    "longitude": "-90.07520630896921",
    "latitude": "29.957671473737573",
    "geocoded_column": {
      "latitude": "29.957671473737573",
      "longitude": "-90.07520630896921"
    }
  },
  {
    "service_request": "2025-1208692",
    "request_type": "Trash/Recycling",
    "request_reason": "Request a Large Item Pick Up",
    "date_created": "2025-07-11T15:05:44.000",
    "date_modified": "2025-07-11T15:05:46.000",
    "request_status": "Pending",
    "responsible_agency": "Department of Sanitation",
    "final_address": "4978 Venus St",
    "address_councildis": "D",
    "status": "Assigned to Contractor",
    "contractor": "IV Waste",
    "rowid": "1208692",
    "final_x": "3686332.61801",
    "final_y": "551510.308181",
    "longitude": "-90.05210488417923",
    "latitude": "30.01031433813642",
    "geocoded_column": {
      "latitude": "30.01031433813642",
      "longitude": "-90.05210488417923"
    }
  },
  {
    "service_request": "2025-1208691",
    "request_type": "Abandoned Vehicles",
    "request_reason": "Abandoned/Junk Vehicles",
    "date_created": "2025-07-11T15:04:10.000",
    "date_modified": "2025-07-11T15:04:11.000",
    "request_status": "Pending",
    "responsible_agency": "Department of Public Works",
    "final_address": "1600 BLK Choctaw St",
    "address_councildis": "E",
    "status": "Pending",
    "rowid": "1208691",
    "final_x": "3697992.93305",
    "final_y": "535949.668374",
    "longitude": "-90.01583105263215",
    "latitude": "29.967164626559274",
    "geocoded_column": {
      "latitude": "29.967164626559274",
      "longitude": "-90.01583105263215"
    }
  },
  {
    "service_request": "2025-1208690",
    "request_type": "Trash/Recycling",
    "request_reason": "Request a Large Item Pick Up",
    "date_created": "2025-07-11T15:03:28.000",
    "date_modified": "2025-07-11T15:03:31.000",
    "request_status": "Pending",
    "responsible_agency": "Department of Sanitation",
    "final_address": "1821 Bordeaux St",
    "address_councildis": "B",
    "status": "Assigned to Contractor",
    "contractor": "IV Waste",
    "rowid": "1208690",
    "final_x": "3669336.85191",
    "final_y": "521613.126137",
    "longitude": "-90.10681212866741",
    "latitude": "29.928618687726875",
    "geocoded_column": {
      "latitude": "29.928618687726875",
      "longitude": "-90.10681212866741"
    }
  },
  {
    "service_request": "2025-1208689",
    "request_type": "Trash/Recycling",
    "request_reason": "Request a Large Item Pick Up",
    "date_created": "2025-07-11T15:01:26.000",
    "date_modified": "2025-07-11T15:01:28.000",
    "request_status": "Pending",
    "responsible_agency": "Department of Sanitation",
    "final_address": "4228 S Roman St",
    "address_councildis": "B",
    "status": "Assigned to Contractor",
    "contractor": "IV Waste",
    "rowid": "1208689",
    "final_x": "3670808.17774",
    "final_y": "526574.075646",
    "longitude": "-90.1019991591659",
    "latitude": "29.94221631051673",
    "geocoded_column": {
      "latitude": "29.94221631051673",
      "longitude": "-90.1019991591659"
    }
  },
  {
    "service_request": "2025-1208688",
    "request_type": "Abandoned Vehicles",
    "request_reason": "Abandoned/Junk Vehicles",
    "date_created": "2025-07-11T14:56:59.000",
    "date_modified": "2025-07-11T14:58:44.000",
    "request_status": "Pending",
    "responsible_agency": "Department of Public Works",
    "final_address": "2561 Clover St",
    "address_councildis": "D",
    "status": "Pending",
    "rowid": "1208688",
    "final_x": "3686891.1053",
    "final_y": "546709.536145",
    "longitude": "-90.05051022391892",
    "latitude": "29.997096775464584",
    "geocoded_column": {
      "latitude": "29.997096775464584",
      "longitude": "-90.05051022391892"
    }
  },
  {
    "service_request": "2025-1208687",
    "request_type": "Trash/Recycling",
    "request_reason": "Request a Large Item Pick Up",
    "date_created": "2025-07-11T14:54:48.000",
    "date_modified": "2025-07-11T14:54:49.000",
    "request_status": "Pending",
    "responsible_agency": "Department of Sanitation",
    "final_address": "5858 Bellaire Dr",
    "address_councildis": "A",
    "status": "Assigned to Contractor",
    "contractor": "IV Waste",
    "rowid": "1208687",
    "final_x": "3664152.04045",
    "final_y": "546983.910801",
    "longitude": "-90.12233311209849",
    "latitude": "29.99853160444159",
    "geocoded_column": {
      "latitude": "29.99853160444159",
      "longitude": "-90.12233311209849"
    }
  },
  {
    "service_request": "2025-1208686",
    "request_type": "Trash/Recycling",
    "request_reason": "Missed Trash Pick-Up",
    "date_created": "2025-07-11T14:54:34.000",
    "date_modified": "2025-07-11T15:09:06.000",
    "case_close_date": "2025-07-11T10:09:05.000",
    "request_status": "Closed",
    "responsible_agency": "Department of Sanitation",
    "final_address": "600 BLK S Rocheblave St",
    "address_councildis": "B",
    "status": "Invalid Request",
    "contractor": "IV Waste",
    "contractor_action": "Invalid",
    "rowid": "1208686",
    "final_x": "3674751.81516",
    "final_y": "532682.396037",
    "longitude": "-90.08933883941522",
    "latitude": "29.958895049274606",
    "geocoded_column": {
      "latitude": "29.958895049274606",
      "longitude": "-90.08933883941522"
    }
  },
  {
    "service_request": "2025-1208685",
    "request_type": "Abandoned Vehicles",
    "request_reason": "Abandoned/Junk Vehicles",
    "date_created": "2025-07-11T14:54:03.000",
    "date_modified": "2025-07-11T14:54:05.000",
    "request_status": "Pending",
    "responsible_agency": "Department of Public Works",
    "final_address": "1600 BLK Choctaw St",
    "address_councildis": "E",
    "status": "Pending",
    "rowid": "1208685",
    "final_x": "3697992.93305",
    "final_y": "535949.668374",
    "longitude": "-90.01583105263215",
    "latitude": "29.967164626559274",
    "geocoded_column": {
      "latitude": "29.967164626559274",
      "longitude": "-90.01583105263215"
    }
  },
  {
    "service_request": "2025-1208684",
    "request_type": "Trash/Recycling",
    "request_reason": "Missed Trash Pick-Up",
    "date_created": "2025-07-11T14:53:11.000",
    "date_modified": "2025-07-11T15:08:46.000",
    "case_close_date": "2025-07-11T10:08:45.000",
    "request_status": "Closed",
    "responsible_agency": "Department of Sanitation",
    "final_address": "500 BLK S Rocheblave St",
    "address_councildis": "B",
    "status": "Invalid Request",
    "contractor": "IV Waste",
    "contractor_action": "Invalid",
    "rowid": "1208684",
    "final_x": "3675129.85738",
    "final_y": "533178.639795",
    "longitude": "-90.0881280470796",
    "latitude": "29.96024826245013",
    "geocoded_column": {
      "latitude": "29.96024826245013",
      "longitude": "-90.0881280470796"
    }
  },
  {
    "service_request": "2025-1208683",
    "request_type": "Roads and Streets",
    "request_reason": "Sidewalk Damaged or Missing",
    "date_created": "2025-07-11T14:52:38.000",
    "date_modified": "2025-07-11T14:52:40.000",
    "request_status": "Pending",
    "responsible_agency": "Department of Public Works",
    "final_address": "1100 State St",
    "address_councildis": "A",
    "status": "Pending",
    "rowid": "1208683",
    "final_x": "3664950.20308",
    "final_y": "520257.593592",
    "longitude": "-90.12070520084384",
    "latitude": "29.925019782851088",
    "geocoded_column": {
      "latitude": "29.925019782851088",
      "longitude": "-90.12070520084384"
    }
  },
  {
    "service_request": "2025-1208682",
    "request_type": "Parks & Parkways",
    "request_reason": "Request Tree Service (Right of Way/Public Property)",
    "date_created": "2025-07-11T14:52:03.000",
    "date_modified": "2025-07-11T14:52:05.000",
    "request_status": "Pending",
    "responsible_agency": "Department of Parks & Parkway",
    "final_address": "3941 Piedmont Dr",
    "address_councildis": "D",
    "status": "Pending",
    "rowid": "1208682",
    "final_x": "3685387.14588",
    "final_y": "547243.187025",
    "longitude": "-90.05524235424207",
    "latitude": "29.998610335142036",
    "geocoded_column": {
      "latitude": "29.998610335142036",
      "longitude": "-90.05524235424207"
    }
  },
  {
    "service_request": "2025-1208681",
    "request_type": "Roads and Streets",
    "request_reason": "Sidewalk Damaged or Missing",
    "date_created": "2025-07-11T14:51:33.000",
    "date_modified": "2025-07-11T14:51:34.000",
    "request_status": "Pending",
    "responsible_agency": "Department of Public Works",
    "final_address": "111 State St",
    "address_councildis": "A",
    "status": "Pending",
    "rowid": "1208681",
    "final_x": "3664020.97428",
    "final_y": "516903.308853",
    "longitude": "-90.12375026258844",
    "latitude": "29.915823553289247",
    "geocoded_column": {
      "latitude": "29.915823553289247",
      "longitude": "-90.12375026258844"
    }
  },
  {
    "service_request": "2025-1208680",
    "request_type": "Property Maintenance",
    "request_reason": "Property Maintenance",
    "date_created": "2025-07-11T14:50:39.000",
    "date_modified": "2025-07-11T14:50:40.000",
    "request_status": "Pending",
    "responsible_agency": "Department of Code Enforcement",
    "final_address": "6323 Spain St",
    "address_councildis": "D",
    "status": "Pending",
    "rowid": "1208680",
    "final_x": "3684570.07068",
    "final_y": "556409.966234",
    "longitude": "-90.05750106373696",
    "latitude": "30.023840672408554",
    "geocoded_column": {
      "latitude": "30.023840672408554",
      "longitude": "-90.05750106373696"
    }
  },
  {
    "service_request": "2025-1208678",
    "request_type": "Abandoned Vehicles",
    "request_reason": "Abandoned/Junk Vehicles",
    "date_created": "2025-07-11T14:49:53.000",
    "date_modified": "2025-07-11T14:49:55.000",
    "request_status": "Pending",
    "responsible_agency": "Department of Public Works",
    "final_address": "1600 BLK Choctaw St",
    "address_councildis": "E",
    "status": "Pending",
    "rowid": "1208678",
    "final_x": "3697992.93305",
    "final_y": "535949.668374",
    "longitude": "-90.01583105263215",
    "latitude": "29.967164626559274",
    "geocoded_column": {
      "latitude": "29.967164626559274",
      "longitude": "-90.01583105263215"
    }
  },
  {
    "service_request": "2025-1208679",
    "request_type": "Trash/Recycling",
    "request_reason": "Repair Trash Cart",
    "date_created": "2025-07-11T14:49:53.000",
    "date_modified": "2025-07-11T14:49:56.000",
    "request_status": "Pending",
    "responsible_agency": "Department of Sanitation",
    "final_address": "2454 Hyman Pl",
    "address_councildis": "C",
    "status": "Assigned to Contractor",
    "contractor": "Richards Disposal",
    "rowid": "1208679",
    "final_x": "3701123.46813",
    "final_y": "521971.87929",
    "longitude": "-90.00645602178282",
    "latitude": "29.928631295487172",
    "geocoded_column": {
      "latitude": "29.928631295487172",
      "longitude": "-90.00645602178282"
    }
  },
  {
    "service_request": "2025-1208677",
    "request_type": "Abandoned Vehicles",
    "request_reason": "Abandoned/Junk Vehicles",
    "date_created": "2025-07-11T14:45:54.000",
    "date_modified": "2025-07-11T14:50:06.000",
    "request_status": "Pending",
    "responsible_agency": "Department of Public Works",
    "final_address": "4725 Crowder Blvd",
    "address_councildis": "E",
    "status": "Pending",
    "rowid": "1208677",
    "final_x": "3706512.90871",
    "final_y": "555631.709401",
    "longitude": "-89.98819545579224",
    "latitude": "30.021010719294235",
    "geocoded_column": {
      "latitude": "30.021010719294235",
      "longitude": "-89.98819545579224"
    }
  },
  {
    "service_request": "2025-1208676",
    "request_type": "Roads and Streets",
    "request_reason": "Street Subsidence (Sinking)",
    "date_created": "2025-07-11T14:43:42.000",
    "date_modified": "2025-07-11T14:43:44.000",
    "request_status": "Pending",
    "responsible_agency": "Department of Public Works",
    "final_address": "6010 Coliseum St",
    "address_councildis": "A",
    "status": "Pending",
    "rowid": "1208676",
    "final_x": "3664842.416",
    "final_y": "520208.271032",
    "longitude": "-90.12104709841476",
    "latitude": "29.924887297413267",
    "geocoded_column": {
      "latitude": "29.924887297413267",
      "longitude": "-90.12104709841476"
    }
  },
  {
    "service_request": "2025-1208675",
    "request_type": "Trash/Recycling",
    "request_reason": "Repair Trash Cart",
    "date_created": "2025-07-11T14:41:46.000",
    "date_modified": "2025-07-11T14:41:48.000",
    "request_status": "Pending",
    "responsible_agency": "Department of Sanitation",
    "final_address": "4957 Chantilly Dr",
    "address_councildis": "E",
    "status": "Assigned to Contractor",
    "contractor": "Waste Pro",
    "rowid": "1208675",
    "final_x": "3700838.95633",
    "final_y": "555471.063897",
    "longitude": "-90.00612928265917",
    "latitude": "30.020750933229035",
    "geocoded_column": {
      "latitude": "30.020750933229035",
      "longitude": "-90.00612928265917"
    }
  },
  {
    "service_request": "2025-1208674",
    "request_type": "Trash/Recycling",
    "request_reason": "Request a Large Item Pick Up",
    "date_created": "2025-07-11T14:39:29.000",
    "date_modified": "2025-07-11T14:39:32.000",
    "request_status": "Pending",
    "responsible_agency": "Department of Sanitation",
    "final_address": "1933 Washington Ave",
    "address_councildis": "B",
    "status": "Assigned to Contractor",
    "contractor": "IV Waste",
    "rowid": "1208674",
    "final_x": "3675198.538",
    "final_y": "523697.783419",
    "longitude": "-90.08823648725087",
    "latitude": "29.934176990577708",
    "geocoded_column": {
      "latitude": "29.934176990577708",
      "longitude": "-90.08823648725087"
    }
  },
  {
    "service_request": "2025-1208673",
    "request_type": "Trash/Recycling",
    "request_reason": "Request a Large Item Pick Up",
    "date_created": "2025-07-11T14:37:37.000",
    "date_modified": "2025-07-11T14:37:39.000",
    "request_status": "Pending",
    "responsible_agency": "Department of Sanitation",
    "final_address": "7840 Windward Ct",
    "address_councildis": "E",
    "status": "Assigned to Contractor",
    "contractor": "Waste Pro",
    "rowid": "1208673",
    "final_x": "3715217.0453",
    "final_y": "570164.196135",
    "longitude": "-89.96014289498085",
    "latitude": "30.06068535166173",
    "geocoded_column": {
      "latitude": "30.06068535166173",
      "longitude": "-89.96014289498085"
    }
  },
  {
    "service_request": "2025-1208672",
    "request_type": "Trash/Recycling",
    "request_reason": "Request a Large Item Pick Up",
    "date_created": "2025-07-11T14:37:08.000",
    "date_modified": "2025-07-11T14:37:10.000",
    "request_status": "Pending",
    "responsible_agency": "Department of Sanitation",
    "final_address": "27 Neron Pl",
    "address_councildis": "A",
    "status": "Assigned to Contractor",
    "contractor": "IV Waste",
    "rowid": "1208672",
    "final_x": "3665127.87943",
    "final_y": "530776.048898",
    "longitude": "-90.11979268016171",
    "latitude": "29.953937001089827",
    "geocoded_column": {
      "latitude": "29.953937001089827",
      "longitude": "-90.11979268016171"
    }
  },
  {
    "service_request": "2025-1208671",
    "request_type": "Trash/Recycling",
    "request_reason": "Missed Trash Pick-Up",
    "date_created": "2025-07-11T14:36:34.000",
    "date_modified": "2025-07-11T14:36:35.000",
    "request_status": "Pending",
    "responsible_agency": "Department of Sanitation",
    "final_address": "7925 Danube Rd",
    "address_councildis": "E",
    "status": "Assigned to Contractor",
    "contractor": "Waste Pro",
    "rowid": "1208671",
    "final_x": "3699107.39114",
    "final_y": "561162.620318",
    "longitude": "-90.01139301126035",
    "latitude": "30.036455559216094",
    "geocoded_column": {
      "latitude": "30.036455559216094",
      "longitude": "-90.01139301126035"
    }
  },
  {
    "service_request": "2025-1208670",
    "request_type": "Trash/Recycling",
    "request_reason": "Request a Large Item Pick Up",
    "date_created": "2025-07-11T14:36:15.000",
    "date_modified": "2025-07-11T14:36:17.000",
    "request_status": "Pending",
    "responsible_agency": "Department of Sanitation",
    "final_address": "8327 Belfast St",
    "address_councildis": "A",
    "status": "Assigned to Contractor",
    "contractor": "IV Waste",
    "rowid": "1208670",
    "final_x": "3664932.93236",
    "final_y": "533020.232772",
    "longitude": "-90.12033323020727",
    "latitude": "29.960113450594495",
    "geocoded_column": {
      "latitude": "29.960113450594495",
      "longitude": "-90.12033323020727"
    }
  },
  {
    "service_request": "2025-1208669",
    "request_type": "Trash/Recycling",
    "request_reason": "MIssed Recycling Pick-Up",
    "date_created": "2025-07-11T14:34:48.000",
    "date_modified": "2025-07-11T14:34:51.000",
    "request_status": "Pending",
    "responsible_agency": "Department of Sanitation",
    "final_address": "1515 Tricou St",
    "address_councildis": "E",
    "status": "Assigned to Contractor",
    "contractor": "Waste Pro",
    "rowid": "1208669",
    "final_x": "3700798.99325",
    "final_y": "534587.465989",
    "longitude": "-90.00701934214872",
    "latitude": "29.963330045185128",
    "geocoded_column": {
      "latitude": "29.963330045185128",
      "longitude": "-90.00701934214872"
    }
  },
  {
    "service_request": "2025-1208668",
    "request_type": "Trash/Recycling",
    "request_reason": "Request a Large Item Pick Up",
    "date_created": "2025-07-11T14:34:21.000",
    "date_modified": "2025-07-11T14:34:23.000",
    "request_status": "Pending",
    "responsible_agency": "Department of Sanitation",
    "final_address": "19 Christopher Ct",
    "address_councildis": "E",
    "status": "Assigned to Contractor",
    "contractor": "Waste Pro",
    "rowid": "1208668",
    "final_x": "3716759.4236",
    "final_y": "570395.821159",
    "longitude": "-89.95525873339228",
    "latitude": "30.061271310194538",
    "geocoded_column": {
      "latitude": "30.061271310194538",
      "longitude": "-89.95525873339228"
    }
  },
  {
    "service_request": "2025-1208667",
    "request_type": "Property Maintenance",
    "request_reason": "Property Maintenance",
    "date_created": "2025-07-11T14:28:47.000",
    "date_modified": "2025-07-11T14:28:49.000",
    "request_status": "Pending",
    "responsible_agency": "Department of Code Enforcement",
    "final_address": "8751 Aberdeen Rd",
    "address_councildis": "E",
    "status": "Pending",
    "rowid": "1208667",
    "final_x": "3704830.76753",
    "final_y": "562440.765727",
    "longitude": "-89.99325888244357",
    "latitude": "30.039787156792325",
    "geocoded_column": {
      "latitude": "30.039787156792325",
      "longitude": "-89.99325888244357"
    }
  },
  {
    "service_request": "2025-1208666",
    "request_type": "Trash/Recycling",
    "request_reason": "Request a Large Item Pick Up",
    "date_created": "2025-07-11T14:27:21.000",
    "date_modified": "2025-07-11T14:27:22.000",
    "request_status": "Pending",
    "responsible_agency": "Department of Sanitation",
    "final_address": "529 S Scott St",
    "address_councildis": "B",
    "status": "Assigned to Contractor",
    "contractor": "IV Waste",
    "rowid": "1208666",
    "final_x": "3670617.32263",
    "final_y": "536361.697543",
    "longitude": "-90.10226973175683",
    "latitude": "29.96913467698201",
    "geocoded_column": {
      "latitude": "29.96913467698201",
      "longitude": "-90.10226973175683"
    }
  },
  {
    "service_request": "2025-1208665",
    "request_type": "Trash/Recycling",
    "request_reason": "Request a Large Item Pick Up",
    "date_created": "2025-07-11T14:24:23.000",
    "date_modified": "2025-07-11T14:24:25.000",
    "request_status": "Pending",
    "responsible_agency": "Department of Sanitation",
    "final_address": "519 St Maurice Ave",
    "address_councildis": "E",
    "status": "Assigned to Contractor",
    "contractor": "Waste Pro",
    "rowid": "1208665",
    "final_x": "3699093.19312",
    "final_y": "531221.062914",
    "longitude": "-90.01252857400289",
    "latitude": "29.954127813912343",
    "geocoded_column": {
      "latitude": "29.954127813912343",
      "longitude": "-90.01252857400289"
    }
  },
  {
    "service_request": "2025-1208664",
    "request_type": "Trash/Recycling",
    "request_reason": "Repair Trash Cart",
    "date_created": "2025-07-11T14:21:21.000",
    "date_modified": "2025-07-11T14:21:23.000",
    "request_status": "Pending",
    "responsible_agency": "Department of Sanitation",
    "final_address": "7268 Benson Ct",
    "address_councildis": "E",
    "status": "Assigned to Contractor",
    "contractor": "Waste Pro",
    "rowid": "1208664",
    "final_x": "3704837.05758",
    "final_y": "561314.09251",
    "longitude": "-89.99328064538622",
    "latitude": "30.036689046861454",
    "geocoded_column": {
      "latitude": "30.036689046861454",
      "longitude": "-89.99328064538622"
    }
  },
  {
    "service_request": "2025-1208663",
    "request_type": "Streetlights",
    "request_reason": "Streetlight Outage/Malfunction",
    "date_created": "2025-07-11T14:19:56.000",
    "date_modified": "2025-07-11T14:19:58.000",
    "request_status": "Pending",
    "responsible_agency": "Department of Public Works",
    "final_address": "1401 Bienville St",
    "address_councildis": "C",
    "status": "Pending",
    "contractor": "Legacy Professional Services",
    "rowid": "1208663",
    "final_x": "3679826.08975",
    "final_y": "532759.059332",
    "longitude": "-90.07331290259216",
    "latitude": "29.958953394483906",
    "geocoded_column": {
      "latitude": "29.958953394483906",
      "longitude": "-90.07331290259216"
    }
  },
  {
    "service_request": "2025-1208662",
    "request_type": "Drainage",
    "request_reason": "Catch Basin Clogged",
    "date_created": "2025-07-11T14:18:13.000",
    "date_modified": "2025-07-11T14:18:15.000",
    "request_status": "Pending",
    "responsible_agency": "Sewerage & Water Board",
    "final_address": "1340 Pine St",
    "address_councildis": "A",
    "status": "Pending",
    "rowid": "1208662",
    "final_x": "3664261.49248",
    "final_y": "527228.655743",
    "longitude": "-90.12264673899384",
    "latitude": "29.944208015914178",
    "geocoded_column": {
      "latitude": "29.944208015914178",
      "longitude": "-90.12264673899384"
    }
  },
  {
    "service_request": "2025-1208661",
    "request_type": "Street and Traffic Signs",
    "request_reason": "Stop Sign Missing or Damaged",
    "date_created": "2025-07-11T14:15:35.000",
    "date_modified": "2025-07-11T14:15:37.000",
    "request_status": "Pending",
    "responsible_agency": "Department of Public Works",
    "final_address": "IBERVILLE ST & N ROBERTSON ST",
    "address_councildis": "B",
    "status": "Pending",
    "rowid": "1208661",
    "final_x": "3678960.5",
    "final_y": "532903.58",
    "longitude": "-90.07604121074499",
    "latitude": "29.959376921503516",
    "geocoded_column": {
      "latitude": "29.959376921503516",
      "longitude": "-90.07604121074499"
    }
  },
  {
    "service_request": "2025-1208660",
    "request_type": "Safety & Permits",
    "request_reason": "Licenses & Permits",
    "date_created": "2025-07-11T14:14:45.000",
    "date_modified": "2025-07-11T15:50:27.000",
    "case_close_date": "2025-07-11T10:50:26.000",
    "request_status": "Closed",
    "responsible_agency": "Safety and Permits",
    "final_address": "9 Fortress Rd",
    "address_councildis": "D",
    "status": "Question Answered.",
    "rowid": "1208660",
    "final_x": "3676570.36027",
    "final_y": "554680.282136",
    "longitude": "-90.08283824688196",
    "latitude": "30.019327158244973",
    "geocoded_column": {
      "latitude": "30.019327158244973",
      "longitude": "-90.08283824688196"
    }
  },
  {
    "service_request": "2025-1208659",
    "request_type": "Streetlights",
    "request_reason": "Streetlight Outage/Malfunction",
    "date_created": "2025-07-11T14:11:00.000",
    "date_modified": "2025-07-11T14:11:02.000",
    "request_status": "Pending",
    "responsible_agency": "Department of Public Works",
    "final_address": "2543 Clover St",
    "address_councildis": "D",
    "status": "Pending",
    "contractor": "Legacy Professional Services",
    "rowid": "1208659",
    "final_x": "3686719.91465",
    "final_y": "546660.593041",
    "longitude": "-90.05105273672761",
    "latitude": "29.99696746830436",
    "geocoded_column": {
      "latitude": "29.99696746830436",
      "longitude": "-90.05105273672761"
    }
  },
  {
    "service_request": "2025-1208658",
    "request_type": "Trash/Recycling",
    "request_reason": "Replace Trash Cart",
    "date_created": "2025-07-11T14:10:12.000",
    "date_modified": "2025-07-11T14:10:14.000",
    "request_status": "Pending",
    "responsible_agency": "Department of Sanitation",
    "final_address": "2543 Clover St",
    "address_councildis": "D",
    "status": "Assigned to Contractor",
    "contractor": "IV Waste",
    "rowid": "1208658",
    "final_x": "3686719.91465",
    "final_y": "546660.593041",
    "longitude": "-90.05105273672761",
    "latitude": "29.99696746830436",
    "geocoded_column": {
      "latitude": "29.99696746830436",
      "longitude": "-90.05105273672761"
    }
  },
  {
    "service_request": "2025-1208657",
    "request_type": "Traffic Signals",
    "request_reason": "Traffic Signal Malfunctioning or Damaged",
    "date_created": "2025-07-11T14:10:05.000",
    "date_modified": "2025-07-11T14:10:07.000",
    "request_status": "Pending",
    "responsible_agency": "Department of Public Works",
    "final_address": "ST CHARLES AVE & CALHOUN ST",
    "address_councildis": "A",
    "status": "Pending",
    "rowid": "1208657",
    "final_x": "3664892.5",
    "final_y": "523121.38",
    "longitude": "-90.1207916885978",
    "latitude": "29.932895970642523",
    "geocoded_column": {
      "latitude": "29.932895970642523",
      "longitude": "-90.1207916885978"
    }
  },
  {
    "service_request": "2025-1208656",
    "request_type": "Traffic Signals",
    "request_reason": "Traffic Signal Malfunctioning or Damaged",
    "date_created": "2025-07-11T14:09:34.000",
    "date_modified": "2025-07-11T14:09:37.000",
    "request_status": "Pending",
    "responsible_agency": "Department of Public Works",
    "final_address": "ST CHARLES AVE & CALHOUN ST",
    "address_councildis": "A",
    "status": "Pending",
    "rowid": "1208656",
    "final_x": "3664892.5",
    "final_y": "523121.38",
    "longitude": "-90.1207916885978",
    "latitude": "29.932895970642523",
    "geocoded_column": {
      "latitude": "29.932895970642523",
      "longitude": "-90.1207916885978"
    }
  },
  {
    "service_request": "2025-1208655",
    "request_type": "Trash/Recycling",
    "request_reason": "Request a Large Item Pick Up",
    "date_created": "2025-07-11T14:07:48.000",
    "date_modified": "2025-07-11T14:07:49.000",
    "request_status": "Pending",
    "responsible_agency": "Department of Sanitation",
    "final_address": "2629 Palmyra St",
    "address_councildis": "B",
    "status": "Assigned to Contractor",
    "contractor": "IV Waste",
    "rowid": "1208655",
    "final_x": "3675150.98216",
    "final_y": "534308.137797",
    "longitude": "-90.08802257591546",
    "latitude": "29.9633533709215",
    "geocoded_column": {
      "latitude": "29.9633533709215",
      "longitude": "-90.08802257591546"
    }
  },
  {
    "service_request": "2025-1208654",
    "request_type": "Street and Traffic Signs",
    "request_reason": "Additional Signage Request",
    "date_created": "2025-07-11T14:07:18.000",
    "date_modified": "2025-07-11T14:07:19.000",
    "request_status": "Pending",
    "responsible_agency": "Department of Public Works",
    "final_address": "1900 BLK Tennessee St",
    "address_councildis": "E",
    "status": "Pending",
    "rowid": "1208654",
    "final_x": "3696623.1743",
    "final_y": "537698.920453",
    "longitude": "-90.0200934281498",
    "latitude": "29.972017679487678",
    "geocoded_column": {
      "latitude": "29.972017679487678",
      "longitude": "-90.0200934281498"
    }
  },
  {
    "service_request": "2025-1208653",
    "request_type": "Trash/Recycling",
    "request_reason": "Request a Large Item Pick Up",
    "date_created": "2025-07-11T14:06:40.000",
    "date_modified": "2025-07-11T14:06:42.000",
    "request_status": "Pending",
    "responsible_agency": "Department of Sanitation",
    "final_address": "3930 Palmyra St",
    "address_councildis": "A",
    "status": "Assigned to Contractor",
    "contractor": "IV Waste",
    "rowid": "1208653",
    "final_x": "3671059.70279",
    "final_y": "537247.421704",
    "longitude": "-90.10084257307058",
    "latitude": "29.971557044538482",
    "geocoded_column": {
      "latitude": "29.971557044538482",
      "longitude": "-90.10084257307058"
    }
  },
  {
    "service_request": "2025-1208652",
    "request_type": "Trash/Recycling",
    "request_reason": "Replace Trash Cart",
    "date_created": "2025-07-11T14:02:31.000",
    "date_modified": "2025-07-11T14:02:33.000",
    "request_status": "Pending",
    "responsible_agency": "Department of Sanitation",
    "final_address": "1818 Sixth St",
    "address_councildis": "B",
    "status": "Assigned to Contractor",
    "contractor": "IV Waste",
    "rowid": "1208652",
    "final_x": "3674972.78837",
    "final_y": "522984.455227",
    "longitude": "-90.08897362771442",
    "latitude": "29.932222313264678",
    "geocoded_column": {
      "latitude": "29.932222313264678",
      "longitude": "-90.08897362771442"
    }
  },
  {
    "service_request": "2025-1208651",
    "request_type": "Trash/Recycling",
    "request_reason": "Repair Trash Cart",
    "date_created": "2025-07-11T14:02:29.000",
    "date_modified": "2025-07-11T14:02:31.000",
    "request_status": "Pending",
    "responsible_agency": "Department of Sanitation",
    "final_address": "1935 Napoleon Ave",
    "address_councildis": "B",
    "status": "Assigned to Contractor",
    "contractor": "IV Waste",
    "rowid": "1208651",
    "final_x": "3670801.73646",
    "final_y": "522235.180922",
    "longitude": "-90.10216668530292",
    "latitude": "29.930285941979566",
    "geocoded_column": {
      "latitude": "29.930285941979566",
      "longitude": "-90.10216668530292"
    }
  },
  {
    "service_request": "2025-1208650",
    "request_type": "Parks & Parkways",
    "request_reason": "Request Tree Service (Right of Way/Public Property)",
    "date_created": "2025-07-11T14:02:10.000",
    "date_modified": "2025-07-11T14:02:12.000",
    "request_status": "Pending",
    "responsible_agency": "Department of Parks & Parkway",
    "final_address": "4547 Marque Dr",
    "address_councildis": "E",
    "status": "Pending",
    "rowid": "1208650",
    "final_x": "3710264.09585",
    "final_y": "554508.66748",
    "longitude": "-89.97638491463977",
    "latitude": "30.017801175215176",
    "geocoded_column": {
      "latitude": "30.017801175215176",
      "longitude": "-89.97638491463977"
    }
  },
  {
    "service_request": "2025-1208649",
    "request_type": "Safety & Permits",
    "request_reason": "Zoning Enforcement",
    "date_created": "2025-07-11T14:01:05.000",
    "date_modified": "2025-07-11T14:01:07.000",
    "request_status": "Pending",
    "responsible_agency": "Safety and Permits",
    "final_address": "4940 Sandalwood St",
    "address_councildis": "E",
    "status": "Pending",
    "rowid": "1208649",
    "final_x": "3712030.90821",
    "final_y": "557374.585755",
    "longitude": "-89.9706948456198",
    "latitude": "30.02562367503731",
    "geocoded_column": {
      "latitude": "30.02562367503731",
      "longitude": "-89.9706948456198"
    }
  },
  {
    "service_request": "2025-1208648",
    "request_type": "Utility Poles",
    "request_reason": "Utility Pole Down",
    "date_created": "2025-07-11T14:00:06.000",
    "date_modified": "2025-07-11T14:00:10.000",
    "request_status": "Pending",
    "responsible_agency": "Utility Company Collective",
    "final_address": "N CLAIBORNE AVE & POLAND AVE",
    "address_councildis": "D",
    "status": "Pending",
    "rowid": "1208648",
    "final_x": "3693481.9",
    "final_y": "536875.08",
    "longitude": "-90.0300436334021",
    "latitude": "29.96985102981372",
    "geocoded_column": {
      "latitude": "29.96985102981372",
      "longitude": "-90.0300436334021"
    }
  },
  {
    "service_request": "2025-1208647",
    "request_type": "Trash/Recycling",
    "request_reason": "Order Recycling Cart",
    "date_created": "2025-07-11T13:59:17.000",
    "date_modified": "2025-07-11T13:59:19.000",
    "request_status": "Pending",
    "responsible_agency": "Department of Sanitation",
    "final_address": "1935 Napoleon Ave",
    "address_councildis": "B",
    "status": "Pending",
    "rowid": "1208647",
    "final_x": "3670801.73646",
    "final_y": "522235.180922",
    "longitude": "-90.10216668530292",
    "latitude": "29.930285941979566",
    "geocoded_column": {
      "latitude": "29.930285941979566",
      "longitude": "-90.10216668530292"
    }
  },
  {
    "service_request": "2025-1208646",
    "request_type": "Roads and Streets",
    "request_reason": "Debris in Driving Lanes",
    "date_created": "2025-07-11T13:58:55.000",
    "date_modified": "2025-07-11T13:58:58.000",
    "request_status": "Pending",
    "responsible_agency": "Department of Public Works",
    "final_address": "N DORGENOIS ST & SPAIN ST",
    "address_councildis": "D",
    "status": "Pending",
    "rowid": "1208646",
    "final_x": "3685727.6",
    "final_y": "541544.98",
    "longitude": "-90.0543677800827",
    "latitude": "29.982931852183793",
    "geocoded_column": {
      "latitude": "29.982931852183793",
      "longitude": "-90.0543677800827"
    }
  },
  {
    "service_request": "2025-1208645",
    "request_type": "Abandoned Vehicles",
    "request_reason": "Abandoned/Junk Vehicles",
    "date_created": "2025-07-11T13:56:28.000",
    "date_modified": "2025-07-11T13:56:30.000",
    "request_status": "Pending",
    "responsible_agency": "Department of Public Works",
    "final_address": "1800 BLK Old Prieur St",
    "address_councildis": "D",
    "status": "Pending",
    "rowid": "1208645",
    "final_x": "3682108.39493",
    "final_y": "539456.038986",
    "longitude": "-90.06587204166021",
    "latitude": "29.97729857499815",
    "geocoded_column": {
      "latitude": "29.97729857499815",
      "longitude": "-90.06587204166021"
    }
  },
  {
    "service_request": "2025-1208644",
    "request_type": "Trash/Recycling",
    "request_reason": "Request a Large Item Pick Up",
    "date_created": "2025-07-11T13:55:50.000",
    "date_modified": "2025-07-11T13:55:52.000",
    "request_status": "Pending",
    "responsible_agency": "Department of Sanitation",
    "final_address": "938 Jourdan Ave",
    "address_councildis": "E",
    "status": "Assigned to Contractor",
    "contractor": "Waste Pro",
    "rowid": "1208644",
    "final_x": "3694814.05283",
    "final_y": "534034.842821",
    "longitude": "-90.02593893329619",
    "latitude": "29.9619996542102",
    "geocoded_column": {
      "latitude": "29.9619996542102",
      "longitude": "-90.02593893329619"
    }
  },
  {
    "service_request": "2025-1208643",
    "request_type": "Trash/Recycling",
    "request_reason": "Replace Trash Cart",
    "date_created": "2025-07-11T13:55:25.000",
    "date_modified": "2025-07-11T13:55:33.000",
    "request_status": "Pending",
    "responsible_agency": "Department of Sanitation",
    "final_address": "1816 Sixth St",
    "address_councildis": "B",
    "status": "Assigned to Contractor",
    "contractor": "IV Waste",
    "rowid": "1208643",
    "final_x": "3674980.72763",
    "final_y": "522970.342267",
    "longitude": "-90.08894904805263",
    "latitude": "29.932183270135248",
    "geocoded_column": {
      "latitude": "29.932183270135248",
      "longitude": "-90.08894904805263"
    }
  },
  {
    "service_request": "2025-1208642",
    "request_type": "Abandoned Vehicles",
    "request_reason": "Abandoned/Junk Vehicles",
    "date_created": "2025-07-11T13:53:24.000",
    "date_modified": "2025-07-11T13:53:25.000",
    "request_status": "Pending",
    "responsible_agency": "Department of Public Works",
    "final_address": "100 Aurora Dr",
    "address_councildis": "C",
    "status": "Pending",
    "rowid": "1208642",
    "final_x": "3706942.45419",
    "final_y": "521299.505721",
    "longitude": "-89.98811178210633",
    "latitude": "29.92659593916675",
    "geocoded_column": {
      "latitude": "29.92659593916675",
      "longitude": "-89.98811178210633"
    }
  },