[
  {
    "service_request": "2022-908155",
    "request_type": "Trash/Recycling",
    "request_reason": "MIssed Recycling Pick-Up",
    "date_created": "2022-08-10T01:22:29.000",
    "date_modified": "2022-08-10T01:22:30.000",
    "request_status": "Pending",
    "responsible_agency": "Department of Sanitation",
    "final_address": "212 N Telemachus St",
    "address_councildis": "B",
    "status": "Assigned to Contractor",
    "contractor": "Richards Disposal",
    "rowid": "908155",
    "final_x": "3672702.22414",
    "final_y": "537822.054793",
    "longitude": "-90.0956356345264",
    "latitude": "29.973088409788545",
    "geocoded_column": {
      "latitude": "29.973088409788545",
      "longitude": "-90.0956356345264"
    }
  },
  {
    "service_request": "2022-908154",
    "request_type": "Trash/Recycling",
    "request_reason": "Missed Trash Pick-Up",
    "date_created": "2022-08-09T23:34:16.000",
    "date_modified": "2022-08-09T23:34:17.000",
    "request_status": "Pending",
    "responsible_agency": "Department of Sanitation",
    "final_address": "2116 Chartres St, New Orleans, Louisiana, 70116",
    "address_councildis": "C",
    "status": "Assigned to Contractor",
    "contractor": "Metro Disposal",
    "rowid": "908154",
    "final_x": "3684875.33154",
    "final_y": "534459.265733",
    "longitude": "-90.05730890241797",
    "latitude": "29.963474739350968",
    "geocoded_column": {
      "latitude": "29.963474739350968",
      "longitude": "-90.05730890241797"
    }
  },
  {
    "service_request": "2022-908153",
    "request_type": "Abandoned Vehicles",
    "request_reason": "Abandoned/Junk Vehicles",
    "date_created": "2022-08-09T22:59:29.000",
    "date_modified": "2022-08-09T22:59:29.000",
    "request_status": "Pending",
    "responsible_agency": "Department of Public Works",
    "final_address": "1700 Frenchmen St",
    "address_councildis": "D",
    "status": "Pending",
    "rowid": "908153",
    "final_x": "3684379.23957",
    "final_y": "538511.813833",
    "longitude": "-90.05873314920596",
    "latitude": "29.974633022584438",
    "geocoded_column": {
      "latitude": "29.974633022584438",
      "longitude": "-90.05873314920596"
    }
  },
  {
    "service_request": "2022-908152",
    "request_type": "Health Related Questions",
    "request_reason": "Noise Ordinance Complaint",
    "date_created": "2022-08-09T22:21:54.000",
    "date_modified": "2022-08-09T22:21:54.000",
    "request_status": "Pending",
    "responsible_agency": "Health Department",
    "final_address": "718 Bourbon St, New Orleans, Louisiana, 70116",
    "address_councildis": "C",
    "status": "Pending",
    "rowid": "908152",
    "final_x": "3682364.17781",
    "final_y": "532746.008004",
    "longitude": "-90.06529872053143",
    "latitude": "29.95884052062511",
    "geocoded_column": {
      "latitude": "29.95884052062511",
      "longitude": "-90.06529872053143"
    }
  },
  {
    "service_request": "2022-908150",
    "request_type": "Health Related Questions",
    "request_reason": "Noise Ordinance Complaint",
    "date_created": "2022-08-09T22:15:19.000",
    "date_modified": "2022-08-09T22:15:19.000",
    "request_status": "Pending",
    "responsible_agency": "Health Department",
    "final_address": "718 Bourbon St, New Orleans, Louisiana, 70116",
    "address_councildis": "C",
    "status": "Pending",
    "rowid": "908150",
    "final_x": "3682364.17781",
    "final_y": "532746.008004",
    "longitude": "-90.06529872053143",
    "latitude": "29.95884052062511",
    "geocoded_column": {
      "latitude": "29.95884052062511",
      "longitude": "-90.06529872053143"
    }
  },
  {
    "service_request": "2022-908149",
    "request_type": "Health Related Questions",
    "request_reason": "Noise Ordinance Complaint",
    "date_created": "2022-08-09T22:15:05.000",
    "date_modified": "2022-08-09T22:15:05.000",
    "request_status": "Pending",
    "responsible_agency": "Health Department",
    "final_address": "718 Bourbon St, New Orleans, Louisiana, 70116",
    "address_councildis": "C",
    "status": "Pending",
    "rowid": "908149",
    "final_x": "3682364.17781",
    "final_y": "532746.008004",
    "longitude": "-90.06529872053143",
    "latitude": "29.95884052062511",
    "geocoded_column": {
      "latitude": "29.95884052062511",
      "longitude": "-90.06529872053143"
    }
  },
  {
    "service_request": "2022-908148",
    "request_type": "Trash/Recycling",
    "request_reason": "Order Recycling Cart",
    "date_created": "2022-08-09T21:50:38.000",
    "date_modified": "2022-08-09T21:50:38.000",
    "request_status": "Pending",
    "responsible_agency": "Department of Sanitation",
    "final_address": "2308 Gravier St",
    "address_councildis": "B",
    "status": "Pending",
    "rowid": "908148",
    "final_x": "3675419.42465",
    "final_y": "532550.951812",
    "longitude": "-90.08723520868648",
    "latitude": "29.958513675345614",
    "geocoded_column": {
      "latitude": "29.958513675345614",
      "longitude": "-90.08723520868648"
    }
  },
  {
    "service_request": "2022-908147",
    "request_type": "Trash/Recycling",
    "request_reason": "MIssed Recycling Pick-Up",
    "date_created": "2022-08-09T21:31:06.000",
    "date_modified": "2022-08-09T21:31:07.000",
    "request_status": "Pending",
    "responsible_agency": "Department of Sanitation",
    "final_address": "1528 St Philip St",
    "address_councildis": "C",
    "status": "Assigned to Contractor",
    "contractor": "Richards Disposal",
    "rowid": "908147",
    "final_x": "3680772.24552",
    "final_y": "535182.214022",
    "longitude": "-90.07024083428946",
    "latitude": "29.96558760095176",
    "geocoded_column": {
      "latitude": "29.96558760095176",
      "longitude": "-90.07024083428946"
    }
  },
  {
    "service_request": "2022-908146",
    "request_type": "Abandoned Vehicles",
    "request_reason": "Abandoned/Junk Vehicles",
    "date_created": "2022-08-09T21:29:07.000",
    "date_modified": "2022-08-09T21:29:07.000",
    "request_status": "Pending",
    "responsible_agency": "Department of Public Works",
    "final_address": "4957 Venus St",
    "address_councildis": "D",
    "status": "Pending",
    "rowid": "908146",
    "final_x": "3686505.49826",
    "final_y": "551473.950421",
    "longitude": "-90.05155997673839",
    "latitude": "30.010209051207404",
    "geocoded_column": {
      "latitude": "30.010209051207404",
      "longitude": "-90.05155997673839"
    }
  },
  {
    "service_request": "2022-908145",
    "request_type": "Trash/Recycling",
    "request_reason": "Missed Trash Pick-Up",
    "date_created": "2022-08-09T21:21:00.000",
    "date_modified": "2022-08-09T21:21:01.000",
    "request_status": "Pending",
    "responsible_agency": "Department of Sanitation",
    "final_address": "4957 Venus St",
    "address_councildis": "D",
    "status": "Assigned to Contractor",
    "contractor": "Metro Disposal",
    "rowid": "908145",
    "final_x": "3686505.49826",
    "final_y": "551473.950421",
    "longitude": "-90.05155997673839",
    "latitude": "30.010209051207404",
    "geocoded_column": {
      "latitude": "30.010209051207404",
      "longitude": "-90.05155997673839"
    }
  },
  {
    "service_request": "2022-908144",
    "request_type": "Roads/Drainage",
    "request_reason": "Catch Basin - Clogged",
    "date_created": "2022-08-09T21:19:20.000",
    "date_modified": "2022-08-09T21:19:20.000",
    "request_status": "Pending",
    "responsible_agency": "Department of Public Works",
    "final_address": "7836 Birch St",
    "address_councildis": "A",
    "status": "Pending",
    "rowid": "908144",
    "final_x": "3663492.0256",
    "final_y": "528827.812928",
    "longitude": "-90.12502293218819",
    "latitude": "29.948627517736146",
    "geocoded_column": {
      "latitude": "29.948627517736146",
      "longitude": "-90.12502293218819"
    }
  },
  {
    "service_request": "2022-908143",
    "request_type": "Roads/Drainage",
    "request_reason": "Debris in Roadway",
    "date_created": "2022-08-09T21:15:49.000",
    "date_modified": "2022-08-09T21:15:49.000",
    "request_status": "Pending",
    "responsible_agency": "Department of Public Works",
    "final_address": "HICKORY ST & ADAMS ST",
    "address_councildis": "A",
    "status": "Pending",
    "rowid": "908143",
    "final_x": "3664470.4",
    "final_y": "528938.38",
    "longitude": "-90.1219300864036",
    "latitude": "29.9489031365215",
    "geocoded_column": {
      "latitude": "29.9489031365215",
      "longitude": "-90.1219300864036"
    }
  },
  {
    "service_request": "2022-908142",
    "request_type": "Trash/Recycling",
    "request_reason": "Missed Trash Pick-Up",
    "date_created": "2022-08-09T21:15:17.000",
    "date_modified": "2022-08-09T21:15:17.000",
    "request_status": "Pending",
    "responsible_agency": "Department of Sanitation",
    "final_address": "5610 Chamberlain Dr",
    "address_councildis": "D",
    "status": "Assigned to Contractor",
    "contractor": "Metro Disposal",
    "rowid": "908142",
    "final_x": "3679326.19707",
    "final_y": "553068.697879",
    "longitude": "-90.07418669322648",
    "latitude": "30.014812901303078",
    "geocoded_column": {
      "latitude": "30.014812901303078",
      "longitude": "-90.07418669322648"
    }
  },
  {
    "service_request": "2022-908141",
    "request_type": "Trash/Recycling",
    "request_reason": "Order Recycling Cart",
    "date_created": "2022-08-09T20:58:47.000",
    "date_modified": "2022-08-09T20:58:47.000",
    "request_status": "Pending",
    "responsible_agency": "Department of Sanitation",
    "final_address": "3670 Dickens Dr",
    "address_councildis": "C",
    "status": "Pending",
    "rowid": "908141",
    "final_x": "3708079.72388",
    "final_y": "517275.629685",
    "longitude": "-89.98467127218973",
    "latitude": "29.915494924360946",
    "geocoded_column": {
      "latitude": "29.915494924360946",
      "longitude": "-89.98467127218973"
    }
  },
  {
    "service_request": "2022-908140",
    "request_type": "Trash/Recycling",
    "request_reason": "MIssed Recycling Pick-Up",
    "date_created": "2022-08-09T20:57:27.000",
    "date_modified": "2022-08-09T20:57:27.000",
    "request_status": "Pending",
    "responsible_agency": "Department of Sanitation",
    "final_address": "6501 Peony St",
    "address_councildis": "C",
    "status": "Assigned to Contractor",
    "contractor": "Richards Disposal",
    "rowid": "908140",
    "final_x": "3707858.54328",
    "final_y": "516387.512629",
    "longitude": "-89.98540237101216",
    "latitude": "29.913060066814687",
    "geocoded_column": {
      "latitude": "29.913060066814687",
      "longitude": "-89.98540237101216"
    }
  },
  {
    "service_request": "2022-908139",
    "request_type": "Traffic Signals/Signs/Striping/Streetlights",
    "request_reason": "Street Light Outage/Malfunction",
    "date_created": "2022-08-09T20:43:53.000",
    "date_modified": "2022-08-09T20:43:53.000",
    "request_status": "Pending",
    "responsible_agency": "Department of Public Works",
    "final_address": "2456 N Rampart St",
    "address_councildis": "C",
    "status": "Pending",
    "contractor": "Royal Engineering",
    "rowid": "908139",
    "final_x": "3686296.61404",
    "final_y": "536015.361159",
    "longitude": "-90.05276573736514",
    "latitude": "29.967709864726412",
    "geocoded_column": {
      "latitude": "29.967709864726412",
      "longitude": "-90.05276573736514"
    }
  },
  {
    "service_request": "2022-908138",
    "request_type": "Health Related Questions",
    "request_reason": "Noise Ordinance Complaint",
    "date_created": "2022-08-09T20:18:03.000",
    "date_modified": "2022-08-09T20:18:03.000",
    "request_status": "Pending",
    "responsible_agency": "Health Department",
    "final_address": "5723 Eads St. NOLA 70122",
    "status": "Pending",
    "rowid": "908138",
    "longitude": "0.0",
    "latitude": "0.0",
    "geocoded_column": {
      "latitude": "0.0",
      "longitude": "0.0"
    }
  },
  {
    "service_request": "2022-908137",
    "request_type": "Trash/Recycling",
    "request_reason": "Missed Trash Pick-Up",
    "date_created": "2022-08-09T20:15:11.000",
    "date_modified": "2022-08-09T20:15:12.000",
    "request_status": "Pending",
    "responsible_agency": "Department of Sanitation",
    "final_address": "2701 Octavia St",
    "address_councildis": "A",
    "status": "Assigned to Contractor",
    "contractor": "Richards Disposal",
    "rowid": "908137",
    "final_x": "3667932.02349",
    "final_y": "525386.066045",
    "longitude": "-90.11111984895606",
    "latitude": "29.939034339134572",
    "geocoded_column": {
      "latitude": "29.939034339134572",
      "longitude": "-90.11111984895606"
    }
  },
  {
    "service_request": "2022-908136",
    "request_type": "Trash/Recycling",
    "request_reason": "Missed Trash Pick-Up",
    "date_created": "2022-08-09T20:11:25.000",
    "date_modified": "2022-08-09T20:11:28.000",
    "request_status": "Pending",
    "responsible_agency": "Department of Sanitation",
    "final_address": "1614 N Lopez St",
    "address_councildis": "A",
    "status": "Assigned to Contractor",
    "contractor": "Metro Disposal",
    "rowid": "908136",
    "final_x": "3676639.26958",
    "final_y": "540669.899979",
    "longitude": "-90.08310352683742",
    "latitude": "29.980801485029264",
    "geocoded_column": {
      "latitude": "29.980801485029264",
      "longitude": "-90.08310352683742"
    }
  },
  {
    "service_request": "2022-908135",
    "request_type": "Trash/Recycling",
    "request_reason": "Replace Trash Cart",
    "date_created": "2022-08-09T20:09:32.000",
    "date_modified": "2022-08-09T20:09:32.000",
    "request_status": "Pending",
    "responsible_agency": "Department of Sanitation",
    "final_address": "8006 Nelson St",
    "address_councildis": "A",
    "status": "Assigned to Contractor",
    "contractor": "Richards Disposal",
    "rowid": "908135",
    "final_x": "3665367.32903",
    "final_y": "531563.207747",
    "longitude": "-90.11901025245511",
    "latitude": "29.956094456322788",
    "geocoded_column": {
      "latitude": "29.956094456322788",
      "longitude": "-90.11901025245511"
    }
  },
  {
    "service_request": "2022-908134",
    "request_type": "Trash/Recycling",
    "request_reason": "MIssed Recycling Pick-Up",
    "date_created": "2022-08-09T19:53:41.000",
    "date_modified": "2022-08-09T19:53:42.000",
    "request_status": "Pending",
    "responsible_agency": "Department of Sanitation",
    "final_address": "312 N White St",
    "address_councildis": "B",
    "status": "Assigned to Contractor",
    "contractor": "Richards Disposal",
    "rowid": "908134",
    "final_x": "3675497.84085",
    "final_y": "536191.172103",
    "longitude": "-90.0868625471907",
    "latitude": "29.968520708590212",
    "geocoded_column": {
      "latitude": "29.968520708590212",
      "longitude": "-90.0868625471907"
    }
  },
  {
    "service_request": "2022-908132",
    "request_type": "Trash/Recycling",
    "request_reason": "Missed Trash Pick-Up",
    "date_created": "2022-08-09T19:46:27.000",
    "date_modified": "2022-08-09T19:46:27.000",
    "request_status": "Pending",
    "responsible_agency": "Department of Sanitation",
    "final_address": "4022 Carondelet St",
    "address_councildis": "B",
    "status": "Assigned to Contractor",
    "contractor": "Richards Disposal",
    "rowid": "908132",
    "final_x": "3672097.69287",
    "final_y": "521286.003897",
    "longitude": "-90.09810784786553",
    "latitude": "29.927637658494476",
    "geocoded_column": {
      "latitude": "29.927637658494476",
      "longitude": "-90.09810784786553"
    }
  },
  {
    "service_request": "2022-908131",
    "request_type": "Trash/Recycling",
    "request_reason": "Missed Trash Pick-Up",
    "date_created": "2022-08-09T19:40:58.000",
    "date_modified": "2022-08-09T19:40:59.000",
    "request_status": "Pending",
    "responsible_agency": "Department of Sanitation",
    "final_address": "2535 N Roman St",
    "address_councildis": "D",
    "status": "Assigned to Contractor",
    "contractor": "Metro Disposal",
    "rowid": "908131",
    "final_x": "3687316.64079",
    "final_y": "539113.53537",
    "longitude": "-90.04943484437834",
    "latitude": "29.976197373772532",
    "geocoded_column": {
      "latitude": "29.976197373772532",
      "longitude": "-90.04943484437834"
    }
  },
  {
    "service_request": "2022-908130",
    "request_type": "Trash/Recycling",
    "request_reason": "Missed Trash Pick-Up",
    "date_created": "2022-08-09T19:40:43.000",
    "date_modified": "2022-08-09T19:40:44.000",
    "request_status": "Pending",
    "responsible_agency": "Department of Sanitation",
    "final_address": "2120 Columbus St, New Orleans, Louisiana, 70119",
    "address_councildis": "D",
    "status": "Assigned to Contractor",
    "contractor": "Metro Disposal",
    "rowid": "908130",
    "final_x": "3680150.51183",
    "final_y": "538345.262793",
    "longitude": "-90.07209429580024",
    "latitude": "29.974303728561466",
    "geocoded_column": {
      "latitude": "29.974303728561466",
      "longitude": "-90.07209429580024"
    }
  },
  {
    "service_request": "2022-908129",
    "request_type": "Trash/Recycling",
    "request_reason": "MIssed Recycling Pick-Up",
    "date_created": "2022-08-09T19:39:36.000",
    "date_modified": "2022-08-09T19:39:36.000",
    "request_status": "Pending",
    "responsible_agency": "Department of Sanitation",
    "final_address": "3430 Bienville Ave",
    "address_councildis": "B",
    "status": "Assigned to Contractor",
    "contractor": "Richards Disposal",
    "rowid": "908129",
    "final_x": "3673371.61659",
    "final_y": "537511.879368",
    "longitude": "-90.09353215706241",
    "latitude": "29.97221563401953",
    "geocoded_column": {
      "latitude": "29.97221563401953",
      "longitude": "-90.09353215706241"
    }
  },
  {
    "service_request": "2022-908128",
    "request_type": "Mosquito, Termite & Rodent Control",
    "request_reason": "Rodent Complaint (Rats)",
    "date_created": "2022-08-09T19:38:41.000",
    "date_modified": "2022-08-09T19:38:42.000",
    "request_status": "Pending",
    "responsible_agency": "Mosquito, Termite & Rodent Control Board",
    "final_address": "2733 Baronne St",
    "address_councildis": "B",
    "status": "Pending",
    "rowid": "908128",
    "final_x": "3675536.63201",
    "final_y": "523200.872123",
    "longitude": "-90.08718619553441",
    "latitude": "29.932800540360336",
    "geocoded_column": {
      "latitude": "29.932800540360336",
      "longitude": "-90.08718619553441"
    }
  },
  {
    "service_request": "2022-908127",
    "request_type": "Roads/Drainage",
    "request_reason": "Street Flooding / Drainage",
    "date_created": "2022-08-09T19:36:40.000",
    "date_modified": "2022-08-09T19:36:40.000",
    "request_status": "Pending",
    "responsible_agency": "Department of Public Works",
    "final_address": "6026 Patton St",
    "address_councildis": "A",
    "status": "Pending",
    "rowid": "908127",
    "final_x": "3664248.37172",
    "final_y": "518550.087863",
    "longitude": "-90.12297760013952",
    "latitude": "29.920345080561273",
    "geocoded_column": {
      "latitude": "29.920345080561273",
      "longitude": "-90.12297760013952"
    }
  },
  {
    "service_request": "2022-908126",
    "request_type": "Property Maintenance",
    "request_reason": "Property Maintenance",
    "date_created": "2022-08-09T19:34:47.000",
    "date_modified": "2022-08-09T19:34:47.000",
    "request_status": "Pending",
    "responsible_agency": "Department of Code Enforcement",
    "final_address": "5535 Wimbledon Ct",
    "address_councildis": "C",
    "status": "Pending",
    "rowid": "908126",
    "final_x": "3704553.43748",
    "final_y": "518981.781111",
    "longitude": "-89.99573860096585",
    "latitude": "29.920299905063672",
    "geocoded_column": {
      "latitude": "29.920299905063672",
      "longitude": "-89.99573860096585"
    }
  },
  {
    "service_request": "2022-908125",
    "request_type": "Trash/Recycling",
    "request_reason": "MIssed Recycling Pick-Up",
    "date_created": "2022-08-09T19:31:34.000",
    "date_modified": "2022-08-09T19:31:35.000",
    "request_status": "Pending",
    "responsible_agency": "Department of Sanitation",
    "final_address": "312 N White St",
    "address_councildis": "B",
    "status": "Assigned to Contractor",
    "contractor": "Richards Disposal",
    "rowid": "908125",
    "final_x": "3675497.84085",
    "final_y": "536191.172103",
    "longitude": "-90.0868625471907",
    "latitude": "29.968520708590212",
    "geocoded_column": {
      "latitude": "29.968520708590212",
      "longitude": "-90.0868625471907"
    }
  },
  {
    "service_request": "2022-908124",
    "request_type": "Traffic Signals/Signs/Striping/Streetlights",
    "request_reason": "Traffic Sign Missing/Damaged",
    "date_created": "2022-08-09T19:30:58.000",
    "date_modified": "2022-08-09T19:30:58.000",
    "request_status": "Pending",
    "responsible_agency": "Department of Public Works",
    "final_address": "637 Tchoupitoulas St",
    "address_councildis": "B",
    "status": "Pending",
    "rowid": "908124",
    "final_x": "3681718.23752",
    "final_y": "528319.389568",
    "longitude": "-90.06749285435136",
    "latitude": "29.946688456574048",
    "geocoded_column": {
      "latitude": "29.946688456574048",
      "longitude": "-90.06749285435136"
    }
  },
  {
    "service_request": "2022-908123",
    "request_type": "Trash/Recycling",
    "request_reason": "Request a Large Item Pick Up",
    "date_created": "2022-08-09T19:26:30.000",
    "date_modified": "2022-08-09T19:26:31.000",
    "request_status": "Pending",
    "responsible_agency": "Department of Sanitation",
    "final_address": "1606 Pine St",
    "address_councildis": "A",
    "status": "Assigned to Contractor",
    "contractor": "Richards Disposal",
    "rowid": "908123",
    "final_x": "3664688.65664",
    "final_y": "527955.244159",
    "longitude": "-90.12127378889897",
    "latitude": "29.94619348328941",
    "geocoded_column": {
      "latitude": "29.94619348328941",
      "longitude": "-90.12127378889897"
    }
  },
  {
    "service_request": "2022-908122",
    "request_type": "Trash/Recycling",
    "request_reason": "Missed Trash Pick-Up",
    "date_created": "2022-08-09T19:14:52.000",
    "date_modified": "2022-08-09T19:14:53.000",
    "request_status": "Pending",
    "responsible_agency": "Department of Sanitation",
    "final_address": "7716 St Charles Ave",
    "address_councildis": "A",
    "status": "Assigned to Contractor",
    "contractor": "Richards Disposal",
    "rowid": "908122",
    "final_x": "3661506.94182",
    "final_y": "525890.618621",
    "longitude": "-90.13138799415552",
    "latitude": "29.940608579161307",
    "geocoded_column": {
      "latitude": "29.940608579161307",
      "longitude": "-90.13138799415552"
    }
  },
  {
    "service_request": "2022-908121",
    "request_type": "Trash/Recycling",
    "request_reason": "Missed Trash Pick-Up",
    "date_created": "2022-08-09T19:05:19.000",
    "date_modified": "2022-08-09T19:05:20.000",
    "request_status": "Pending",
    "responsible_agency": "Department of Sanitation",
    "final_address": "1616 N Lopez St",
    "address_councildis": "A",
    "status": "Assigned to Contractor",
    "contractor": "Metro Disposal",
    "rowid": "908121",
    "final_x": "3676638.01966",
    "final_y": "540688.326987",
    "longitude": "-90.08310683961177",
    "latitude": "29.98085219044317",
    "geocoded_column": {
      "latitude": "29.98085219044317",
      "longitude": "-90.08310683961177"
    }
  },
  {
    "service_request": "2022-908120",
    "request_type": "Trash/Recycling",
    "request_reason": "Request a Large Item Pick Up",
    "date_created": "2022-08-09T19:01:25.000",
    "date_modified": "2022-08-09T19:03:14.000",
    "request_status": "Pending",
    "responsible_agency": "Department of Sanitation",
    "final_address": "827 Navarre Ave, New Orleans, Louisiana, 70124",
    "status": "Assigned to Contractor",
    "rowid": "908120",
    "longitude": "0.0",
    "latitude": "0.0",
    "geocoded_column": {
      "latitude": "0.0",
      "longitude": "0.0"
    }
  },
  {
    "service_request": "2022-908119",
    "request_type": "Traffic Signals/Signs/Striping/Streetlights",
    "request_reason": "Street Light Outage/Malfunction",
    "date_created": "2022-08-09T18:58:33.000",
    "date_modified": "2022-08-09T18:58:34.000",
    "request_status": "Pending",
    "responsible_agency": "Department of Public Works",
    "final_address": "3120 Law St",
    "address_councildis": "D",
    "status": "Pending",
    "contractor": "Royal Engineering",
    "rowid": "908119",
    "final_x": "3690608.47235",
    "final_y": "541563.707084",
    "longitude": "-90.03895089024414",
    "latitude": "29.9828326429549",
    "geocoded_column": {
      "latitude": "29.9828326429549",
      "longitude": "-90.03895089024414"
    }
  },
  {
    "service_request": "2022-908118",
    "request_type": "Trash/Recycling",
    "request_reason": "Request a Large Item Pick Up",
    "date_created": "2022-08-09T18:54:39.000",
    "date_modified": "2022-08-09T18:54:39.000",
    "request_status": "Pending",
    "responsible_agency": "Department of Sanitation",
    "final_address": "4507 Bienville Ave",
    "address_councildis": "A",
    "status": "Assigned to Contractor",
    "contractor": "Richards Disposal",
    "rowid": "908118",
    "final_x": "3670161.34753",
    "final_y": "540119.012299",
    "longitude": "-90.1035823893728",
    "latitude": "29.979479488408757",
    "geocoded_column": {
      "latitude": "29.979479488408757",
      "longitude": "-90.1035823893728"
    }
  },
  {
    "service_request": "2022-908117",
    "request_type": "Trash/Recycling",
    "request_reason": "Missed Trash Pick-Up",
    "date_created": "2022-08-09T18:52:12.000",
    "date_modified": "2022-08-09T18:52:13.000",
    "request_status": "Pending",
    "responsible_agency": "Department of Sanitation",
    "final_address": "6035 Laurel St",
    "address_councildis": "A",
    "status": "Assigned to Contractor",
    "contractor": "Richards Disposal",
    "rowid": "908117",
    "final_x": "3664125.28244",
    "final_y": "518362.145334",
    "longitude": "-90.12337240109211",
    "latitude": "29.91983187176312",
    "geocoded_column": {
      "latitude": "29.91983187176312",
      "longitude": "-90.12337240109211"
    }
  },
  {
    "service_request": "2022-908116",
    "request_type": "Trash/Recycling",
    "request_reason": "Missed Trash Pick-Up",
    "date_created": "2022-08-09T18:44:41.000",
    "date_modified": "2022-08-09T18:44:41.000",
    "request_status": "Pending",
    "responsible_agency": "Department of Sanitation",
    "final_address": "7500 Canal Blvd",
    "address_councildis": "D",
    "status": "Assigned to Contractor",
    "contractor": "Metro Disposal",
    "rowid": "908116",
    "final_x": "3669155.09582",
    "final_y": "556387.647514",
    "longitude": "-90.10621026465695",
    "latitude": "30.02424223570285",
    "geocoded_column": {
      "latitude": "30.02424223570285",
      "longitude": "-90.10621026465695"
    }
  },
  {
    "service_request": "2022-908115",
    "request_type": "Property Maintenance",
    "request_reason": "Property Maintenance",
    "date_created": "2022-08-09T18:26:51.000",
    "date_modified": "2022-08-09T18:26:51.000",
    "request_status": "Pending",
    "responsible_agency": "Department of Code Enforcement",
    "final_address": "3511 Rue Michelle",
    "address_councildis": "C",
    "status": "Pending",
    "rowid": "908115",
    "final_x": "3703555.40714",
    "final_y": "517746.918134",
    "longitude": "-89.99893427943526",
    "latitude": "29.916936454516144",
    "geocoded_column": {
      "latitude": "29.916936454516144",
      "longitude": "-89.99893427943526"
    }
  },
  {
    "service_request": "2022-908114",
    "request_type": "Roads/Drainage",
    "request_reason": "Street Subsidence (Sinking)",
    "date_created": "2022-08-09T18:25:10.000",
    "date_modified": "2022-08-09T18:25:10.000",
    "request_status": "Pending",
    "responsible_agency": "Department of Public Works",
    "final_address": "1445 Philip St",
    "address_councildis": "B",
    "status": "Pending",
    "rowid": "908114",
    "final_x": "3677746.97864",
    "final_y": "522973.396347",
    "longitude": "-90.08021615418409",
    "latitude": "29.932108773663956",
    "geocoded_column": {
      "latitude": "29.932108773663956",
      "longitude": "-90.08021615418409"
    }
  },
  {
    "service_request": "2022-908113",
    "request_type": "Property Maintenance",
    "request_reason": "Property Maintenance",
    "date_created": "2022-08-09T18:13:56.000",
    "date_modified": "2022-08-09T18:13:56.000",
    "request_status": "Pending",
    "responsible_agency": "Department of Code Enforcement",
    "final_address": "1334 Lamanche St",
    "address_councildis": "E",
    "status": "Pending",
    "rowid": "908113",
    "final_x": "3698588.20292",
    "final_y": "534693.950022",
    "longitude": "-90.01399685624351",
    "latitude": "29.9636930166528",
    "geocoded_column": {
      "latitude": "29.9636930166528",
      "longitude": "-90.01399685624351"
    }
  },
  {
    "service_request": "2022-908112",
    "request_type": "Property Maintenance",
    "request_reason": "Property Maintenance",
    "date_created": "2022-08-09T18:12:58.000",
    "date_modified": "2022-08-09T18:12:59.000",
    "request_status": "Pending",
    "responsible_agency": "Department of Code Enforcement",
    "final_address": "1340 Lamanche St",
    "address_councildis": "E",
    "status": "Pending",
    "rowid": "908112",
    "final_x": "3698603.18423",
    "final_y": "534746.925254",
    "longitude": "-90.01394762078645",
    "latitude": "29.963838205318805",
    "geocoded_column": {
      "latitude": "29.963838205318805",
      "longitude": "-90.01394762078645"
    }
  },
  {
    "service_request": "2022-908111",
    "request_type": "Property Maintenance",
    "request_reason": "Property Maintenance",
    "date_created": "2022-08-09T18:01:31.000",
    "date_modified": "2022-08-09T18:01:32.000",
    "request_status": "Pending",
    "responsible_agency": "Department of Code Enforcement",
    "final_address": "2607 Laharpe St",
    "address_councildis": "D",
    "status": "Pending",
    "rowid": "908111",
    "final_x": "3678827.53512",
    "final_y": "539955.959691",
    "longitude": "-90.07621675806553",
    "latitude": "29.978772563727347",
    "geocoded_column": {
      "latitude": "29.978772563727347",
      "longitude": "-90.07621675806553"
    }
  },
  {
    "service_request": "2022-908110",
    "request_type": "Trash/Recycling",
    "request_reason": "Missed Trash Pick-Up",
    "date_created": "2022-08-09T17:56:41.000",
    "date_modified": "2022-08-09T17:56:42.000",
    "request_status": "Pending",
    "responsible_agency": "Department of Sanitation",
    "final_address": "1008 Soniat St",
    "address_councildis": "B",
    "status": "Assigned to Contractor",
    "contractor": "Richards Disposal",
    "rowid": "908110",
    "final_x": "3668265.20013",
    "final_y": "519049.641079",
    "longitude": "-90.11028149594952",
    "latitude": "29.921601414576692",
    "geocoded_column": {
      "latitude": "29.921601414576692",
      "longitude": "-90.11028149594952"
    }
  },
  {
    "service_request": "2022-908109",
    "request_type": "Traffic Signals/Signs/Striping/Streetlights",
    "request_reason": "Street Light Outage/Malfunction",
    "date_created": "2022-08-09T17:54:29.000",
    "date_modified": "2022-08-09T17:54:30.000",
    "request_status": "Pending",
    "responsible_agency": "Department of Public Works",
    "final_address": "5401 Chatham Dr",
    "address_councildis": "D",
    "status": "Pending",
    "contractor": "Royal Engineering",
    "rowid": "908109",
    "final_x": "3679857.45915",
    "final_y": "552341.544214",
    "longitude": "-90.0725334410401",
    "latitude": "30.01279742860288",
    "geocoded_column": {
      "latitude": "30.01279742860288",
      "longitude": "-90.0725334410401"
    }
  },
  {
    "service_request": "2022-908108",
    "request_type": "Trash/Recycling",
    "request_reason": "Missed Trash Pick-Up",
    "date_created": "2022-08-09T17:51:42.000",
    "date_modified": "2022-08-09T17:51:43.000",
    "request_status": "Pending",
    "responsible_agency": "Department of Sanitation",
    "final_address": "1015 Marigny St",
    "address_councildis": "C",
    "status": "Assigned to Contractor",
    "contractor": "Metro Disposal",
    "rowid": "908108",
    "final_x": "3685466.89455",
    "final_y": "536113.714695",
    "longitude": "-90.05538254428967",
    "latitude": "29.968005773652962",
    "geocoded_column": {
      "latitude": "29.968005773652962",
      "longitude": "-90.05538254428967"
    }
  },
  {
    "service_request": "2022-908107",
    "request_type": "Roads/Drainage",
    "request_reason": "Street Subsidence (Sinking)",
    "date_created": "2022-08-09T17:50:37.000",
    "date_modified": "2022-08-09T17:50:37.000",
    "request_status": "Pending",
    "responsible_agency": "Department of Public Works",
    "final_address": "1534 Adams St",
    "address_councildis": "A",
    "status": "Pending",
    "rowid": "908107",
    "final_x": "3663917.26586",
    "final_y": "528391.012672",
    "longitude": "-90.12369482242971",
    "latitude": "29.947414120590413",
    "geocoded_column": {
      "latitude": "29.947414120590413",
      "longitude": "-90.12369482242971"
    }
  },
  {
    "service_request": "2022-908106",
    "request_type": "Property Maintenance",
    "request_reason": "Property Maintenance",
    "date_created": "2022-08-09T17:48:27.000",
    "date_modified": "2022-08-09T17:48:27.000",
    "request_status": "Pending",
    "responsible_agency": "Department of Code Enforcement",
    "final_address": "1720 N Dupre St",
    "address_councildis": "D",
    "status": "Pending",
    "rowid": "908106",
    "final_x": "3679074.04379",
    "final_y": "541286.1211",
    "longitude": "-90.07539206921618",
    "latitude": "29.982422607431584",
    "geocoded_column": {
      "latitude": "29.982422607431584",
      "longitude": "-90.07539206921618"
    }
  },
  {
    "service_request": "2022-908105",
    "request_type": "Abandoned Vehicles",
    "request_reason": "Abandoned/Junk Vehicles",
    "date_created": "2022-08-09T17:42:40.000",
    "date_modified": "2022-08-09T17:44:01.000",
    "request_status": "Pending",
    "responsible_agency": "Department of Public Works",
    "final_address": "5827 Tchoupitoulas St",
    "address_councildis": "A",
    "status": "Pending",
    "rowid": "908105",
    "final_x": "3664916.34247",
    "final_y": "517356.285621",
    "longitude": "-90.12090899521898",
    "latitude": "29.917043078728508",
    "geocoded_column": {
      "latitude": "29.917043078728508",
      "longitude": "-90.12090899521898"
    }
  },
  {
    "service_request": "2022-908104",
    "request_type": "Trash/Recycling",
    "request_reason": "Request a Large Item Pick Up",
    "date_created": "2022-08-09T17:38:17.000",
    "date_modified": "2022-08-09T17:38:18.000",
    "request_status": "Pending",
    "responsible_agency": "Department of Sanitation",
    "final_address": "3127 College Ct",
    "address_councildis": "B",
    "status": "Assigned to Contractor",
    "contractor": "Richards Disposal",
    "rowid": "908104",
    "final_x": "3668528.58106",
    "final_y": "531889.393539",
    "longitude": "-90.10901705993847",
    "latitude": "29.956898862398017",
    "geocoded_column": {
      "latitude": "29.956898862398017",
      "longitude": "-90.10901705993847"
    }
  },
  {
    "service_request": "2022-908103",
    "request_type": "Roads/Drainage",
    "request_reason": "Accessibility Ramps, Curbs and Sidewalk Repair",
    "date_created": "2022-08-09T17:34:54.000",
    "date_modified": "2022-08-09T17:34:54.000",
    "request_status": "Pending",
    "responsible_agency": "Department of Public Works",
    "final_address": "5226 Paris Ave",
    "address_councildis": "D",
    "status": "Pending",
    "rowid": "908103",
    "final_x": "3679073.39989",
    "final_y": "551496.960917",
    "longitude": "-90.07503994335944",
    "latitude": "30.010498826949778",
    "geocoded_column": {
      "latitude": "30.010498826949778",
      "longitude": "-90.07503994335944"
    }
  },
  {
    "service_request": "2022-908102",
    "request_type": "Trash/Recycling",
    "request_reason": "Missed Trash Pick-Up",
    "date_created": "2022-08-09T17:30:26.000",
    "date_modified": "2022-08-09T17:30:27.000",
    "request_status": "Pending",
    "responsible_agency": "Department of Sanitation",
    "final_address": "5330 Camp St",
    "address_councildis": "B",
    "status": "Assigned to Contractor",
    "contractor": "Richards Disposal",
    "rowid": "908102",
    "final_x": "3667254.12948",
    "final_y": "519003.313463",
    "longitude": "-90.11347457721239",
    "latitude": "29.921503664049855",
    "geocoded_column": {
      "latitude": "29.921503664049855",
      "longitude": "-90.11347457721239"
    }
  },
  {
    "service_request": "2022-908101",
    "request_type": "Trash/Recycling",
    "request_reason": "Missed Trash Pick-Up",
    "date_created": "2022-08-09T17:27:59.000",
    "date_modified": "2022-08-09T17:28:00.000",
    "request_status": "Pending",
    "responsible_agency": "Department of Sanitation",
    "final_address": "5330 Camp St",
    "address_councildis": "B",
    "status": "Assigned to Contractor",
    "contractor": "Richards Disposal",
    "rowid": "908101",
    "final_x": "3667254.12948",
    "final_y": "519003.313463",
    "longitude": "-90.11347457721239",
    "latitude": "29.921503664049855",
    "geocoded_column": {
      "latitude": "29.921503664049855",
      "longitude": "-90.11347457721239"
    }
  },
  {
    "service_request": "2022-908100",
    "request_type": "Traffic Signals/Signs/Striping/Streetlights",
    "request_reason": "Street Light Outage/Malfunction",
    "date_created": "2022-08-09T17:24:38.000",
    "date_modified": "2022-08-09T17:24:39.000",
    "request_status": "Pending",
    "responsible_agency": "Department of Public Works",
    "final_address": "3741 Kent Dr",
    "address_councildis": "C",
    "status": "Pending",
    "contractor": "Royal Engineering",
    "rowid": "908100",
    "final_x": "3708517.86897",
    "final_y": "517186.765877",
    "longitude": "-89.983291639524",
    "latitude": "29.915236392482434",
    "geocoded_column": {
      "latitude": "29.915236392482434",
      "longitude": "-89.983291639524"
    }
  },
  {
    "service_request": "2022-908099",
    "request_type": "Trash/Recycling",
    "request_reason": "Request a Large Item Pick Up",
    "date_created": "2022-08-09T17:20:57.000",
    "date_modified": "2022-08-09T17:20:58.000",
    "request_status": "Pending",
    "responsible_agency": "Department of Sanitation",
    "final_address": "4729 Carondelet St",
    "address_councildis": "B",
    "status": "Assigned to Contractor",
    "contractor": "Richards Disposal",
    "rowid": "908099",
    "final_x": "3669435.18503",
    "final_y": "521189.971449",
    "longitude": "-90.10651601291735",
    "latitude": "29.927452252703794",
    "geocoded_column": {
      "latitude": "29.927452252703794",
      "longitude": "-90.10651601291735"
    }
  },
  {
    "service_request": "2022-908098",
    "request_type": "Trash/Recycling",
    "request_reason": "MIssed Recycling Pick-Up",
    "date_created": "2022-08-09T17:18:46.000",
    "date_modified": "2022-08-09T17:18:47.000",
    "request_status": "Pending",
    "responsible_agency": "Department of Sanitation",
    "final_address": "127 N Clark St",
    "address_councildis": "B",
    "status": "Assigned to Contractor",
    "contractor": "Richards Disposal",
    "rowid": "908098",
    "final_x": "3673008.54158",
    "final_y": "537267.729224",
    "longitude": "-90.09468714664344",
    "latitude": "29.97155510072872",
    "geocoded_column": {
      "latitude": "29.97155510072872",
      "longitude": "-90.09468714664344"
    }
  },
  {
    "service_request": "2022-908097",
    "request_type": "Trash/Recycling",
    "request_reason": "Order Recycling Cart",
    "date_created": "2022-08-09T17:16:25.000",
    "date_modified": "2022-08-09T17:16:26.000",
    "request_status": "Pending",
    "responsible_agency": "Department of Sanitation",
    "final_address": "3421 Prytania St",
    "address_councildis": "B",
    "status": "Pending",
    "rowid": "908097",
    "final_x": "3674220.47406",
    "final_y": "520998.611513",
    "longitude": "-90.091416562829",
    "latitude": "29.926784328565155",
    "geocoded_column": {
      "latitude": "29.926784328565155",
      "longitude": "-90.091416562829"
    }
  },
  {
    "service_request": "2022-908096",
    "request_type": "Trash/Recycling",
    "request_reason": "MIssed Recycling Pick-Up",
    "date_created": "2022-08-09T17:14:13.000",
    "date_modified": "2022-08-09T17:14:13.000",
    "request_status": "Pending",
    "responsible_agency": "Department of Sanitation",
    "final_address": "3104 Dumaine St",
    "address_councildis": "A",
    "status": "Assigned to Contractor",
    "contractor": "Richards Disposal",
    "rowid": "908096",
    "final_x": "3675629.24091",
    "final_y": "538644.852425",
    "longitude": "-90.08636325099864",
    "latitude": "29.975263562735798",
    "geocoded_column": {
      "latitude": "29.975263562735798",
      "longitude": "-90.08636325099864"
    }
  },
  {
    "service_request": "2022-908095",
    "request_type": "Trash/Recycling",
    "request_reason": "Start Trash Service",
    "date_created": "2022-08-09T17:13:18.000",
    "date_modified": "2022-08-09T17:13:18.000",
    "request_status": "Pending",
    "responsible_agency": "Department of Sanitation",
    "final_address": "8643 Bill St",
    "address_councildis": "E",
    "status": "Assigned to Contractor",
    "contractor": "Metro Disposal",
    "rowid": "908095",
    "final_x": "3703936.3825",
    "final_y": "563355.78736",
    "longitude": "-89.9960516450514",
    "latitude": "30.042331836036247",
    "geocoded_column": {
      "latitude": "30.042331836036247",
      "longitude": "-89.9960516450514"
    }
  },
  {
    "service_request": "2022-908094",
    "request_type": "Trash/Recycling",
    "request_reason": "Order Trash Cart",
    "date_created": "2022-08-09T17:12:59.000",
    "date_modified": "2022-08-09T17:13:00.000",
    "request_status": "Pending",
    "responsible_agency": "Department of Sanitation",
    "final_address": "8643 Bill St",
    "address_councildis": "E",
    "status": "Assigned to Contractor",
    "contractor": "Metro Disposal",
    "rowid": "908094",
    "final_x": "3703936.3825",
    "final_y": "563355.78736",
    "longitude": "-89.9960516450514",
    "latitude": "30.042331836036247",
    "geocoded_column": {
      "latitude": "30.042331836036247",
      "longitude": "-89.9960516450514"
    }
  },
  {
    "service_request": "2022-908093",
    "request_type": "Trash/Recycling",
    "request_reason": "MIssed Recycling Pick-Up",
    "date_created": "2022-08-09T17:12:31.000",
    "date_modified": "2022-08-09T17:12:32.000",
    "request_status": "Pending",
    "responsible_agency": "Department of Sanitation",
    "final_address": "2821 Saint Peter St, New Orleans, Louisiana, 70119",
    "status": "Assigned to Contractor",
    "rowid": "908093",
    "longitude": "0.0",
    "latitude": "0.0",
    "geocoded_column": {
      "latitude": "0.0",
      "longitude": "0.0"
    }
  },
  {
    "service_request": "2022-908092",
    "request_type": "Trash/Recycling",
    "request_reason": "Replace Trash Cart",
    "date_created": "2022-08-09T17:12:20.000",
    "date_modified": "2022-08-09T17:12:21.000",
    "request_status": "Pending",
    "responsible_agency": "Department of Sanitation",
    "final_address": "6939 Memphis St, New Orleans, Louisiana, 70124",
    "address_councildis": "A",
    "status": "Assigned to Contractor",
    "contractor": "Metro Disposal",
    "rowid": "908092",
    "final_x": "3669858.07342",
    "final_y": "553566.090263",
    "longitude": "-90.10408462410246",
    "latitude": "30.016463238761073",
    "geocoded_column": {
      "latitude": "30.016463238761073",
      "longitude": "-90.10408462410246"
    }
  },
  {
    "service_request": "2022-908091",
    "request_type": "Property Maintenance",
    "request_reason": "Property Maintenance",
    "date_created": "2022-08-09T17:06:45.000",
    "date_modified": "2022-08-09T17:06:46.000",
    "request_status": "Pending",
    "responsible_agency": "Department of Code Enforcement",
    "final_address": "SAN REMO ST & OLD SPANISH TRL",
    "address_councildis": "E",
    "status": "Pending",
    "rowid": "908091",
    "final_x": "3760433.2",
    "final_y": "572551.68",
    "longitude": "-89.81711988986397",
    "latitude": "30.065682358159858",
    "geocoded_column": {
      "latitude": "30.065682358159858",
      "longitude": "-89.81711988986397"
    }
  },
  {
    "service_request": "2022-908090",
    "request_type": "Traffic Signals/Signs/Striping/Streetlights",
    "request_reason": "Street Light Outage/Malfunction",
    "date_created": "2022-08-09T17:06:17.000",
    "date_modified": "2022-08-09T17:06:18.000",
    "request_status": "Pending",
    "responsible_agency": "Department of Public Works",
    "final_address": "265 Audubon Blvd",
    "address_councildis": "A",
    "status": "Pending",
    "contractor": "Royal Engineering",
    "rowid": "908090",
    "final_x": "3666882.23738",
    "final_y": "529289.022657",
    "longitude": "-90.11430306908531",
    "latitude": "29.949796957487123",
    "geocoded_column": {
      "latitude": "29.949796957487123",
      "longitude": "-90.11430306908531"
    }
  },
  {
    "service_request": "2022-908089",
    "request_type": "Trash/Recycling",
    "request_reason": "Illegal Dumping",
    "date_created": "2022-08-09T17:05:32.000",
    "date_modified": "2022-08-09T17:05:32.000",
    "request_status": "Pending",
    "responsible_agency": "Department of Sanitation",
    "final_address": "1821 Orleans Ave",
    "address_councildis": "D",
    "status": "Pending",
    "rowid": "908089",
    "final_x": "3679410.63957",
    "final_y": "535205.517126",
    "longitude": "-90.07453992168658",
    "latitude": "29.965692876929314",
    "geocoded_column": {
      "latitude": "29.965692876929314",
      "longitude": "-90.07453992168658"
    }
  },
  {
    "service_request": "2022-908088",
    "request_type": "Abandoned Vehicles",
    "request_reason": "Abandoned/Junk Vehicles",
    "date_created": "2022-08-09T17:03:57.000",
    "date_modified": "2022-08-09T17:06:03.000",
    "request_status": "Pending",
    "responsible_agency": "Department of Public Works",
    "final_address": "SAN REMO ST & OLD SPANISH TRL",
    "address_councildis": "E",
    "status": "Pending",
    "rowid": "908088",
    "final_x": "3760433.2",
    "final_y": "572551.68",
    "longitude": "-89.81711988986397",
    "latitude": "30.065682358159858",
    "geocoded_column": {
      "latitude": "30.065682358159858",
      "longitude": "-89.81711988986397"
    }
  },
  {
    "service_request": "2022-908087",
    "request_type": "Trash/Recycling",
    "request_reason": "Illegal Dumping",
    "date_created": "2022-08-09T17:02:50.000",
    "date_modified": "2022-08-09T17:02:50.000",
    "request_status": "Pending",
    "responsible_agency": "Department of Sanitation",
    "final_address": "2414 St Ann St",
    "address_councildis": "D",
    "status": "Pending",
    "rowid": "908087",
    "final_x": "3677868.58926",
    "final_y": "536419.755207",
    "longitude": "-90.07936769725389",
    "latitude": "29.969078108763366",
    "geocoded_column": {
      "latitude": "29.969078108763366",
      "longitude": "-90.07936769725389"
    }
  },
  {
    "service_request": "2022-908086",
    "request_type": "Trash/Recycling",
    "request_reason": "Request a Large Item Pick Up",
    "date_created": "2022-08-09T16:59:57.000",
    "date_modified": "2022-08-09T16:59:58.000",
    "request_status": "Pending",
    "responsible_agency": "Department of Sanitation",
    "final_address": "2528 St Ann St",
    "address_councildis": "D",
    "status": "Assigned to Contractor",
    "contractor": "Richards Disposal",
    "rowid": "908086",
    "final_x": "3677518.13602",
    "final_y": "536674.005831",
    "longitude": "-90.08046567418307",
    "latitude": "29.96978775215208",
    "geocoded_column": {
      "latitude": "29.96978775215208",
      "longitude": "-90.08046567418307"
    }
  },
  {
    "service_request": "2022-908085",
    "request_type": "Property Maintenance",
    "request_reason": "Property Maintenance",
    "date_created": "2022-08-09T16:59:05.000",
    "date_modified": "2022-08-09T16:59:05.000",
    "request_status": "Pending",
    "responsible_agency": "Department of Code Enforcement",
    "final_address": "6442 Peoples Ave",
    "address_councildis": "D",
    "status": "Pending",
    "rowid": "908085",
    "final_x": "3687614.41596",
    "final_y": "557185.599323",
    "longitude": "-90.04785405920322",
    "latitude": "30.02587981809933",
    "geocoded_column": {
      "latitude": "30.02587981809933",
      "longitude": "-90.04785405920322"
    }
  },
  {
    "service_request": "2022-908084",
    "request_type": "Property Maintenance",
    "request_reason": "Property Maintenance",
    "date_created": "2022-08-09T16:58:13.000",
    "date_modified": "2022-08-09T16:58:13.000",
    "request_status": "Pending",
    "responsible_agency": "Department of Code Enforcement",
    "final_address": "6309 Franklin Ave",
    "address_councildis": "D",
    "status": "Pending",
    "rowid": "908084",
    "final_x": "3686412.98492",
    "final_y": "556481.809498",
    "longitude": "-90.05167528977196",
    "latitude": "30.023981663832885",
    "geocoded_column": {
      "latitude": "30.023981663832885",
      "longitude": "-90.05167528977196"
    }
  },
  {
    "service_request": "2022-908083",
    "request_type": "Property Maintenance",
    "request_reason": "Property Maintenance",
    "date_created": "2022-08-09T16:57:42.000",
    "date_modified": "2022-08-09T16:57:42.000",
    "request_status": "Pending",
    "responsible_agency": "Department of Code Enforcement",
    "final_address": "6219 Providence Pl",
    "address_councildis": "D",
    "status": "Pending",
    "rowid": "908083",
    "final_x": "3688301.31324",
    "final_y": "556393.771162",
    "longitude": "-90.04571167681564",
    "latitude": "30.023681379593313",
    "geocoded_column": {
      "latitude": "30.023681379593313",
      "longitude": "-90.04571167681564"
    }
  },
  {
    "service_request": "2022-908082",
    "request_type": "Property Maintenance",
    "request_reason": "Property Maintenance",
    "date_created": "2022-08-09T16:57:22.000",
    "date_modified": "2022-08-09T16:57:22.000",
    "request_status": "Pending",
    "responsible_agency": "Department of Code Enforcement",
    "final_address": "2321 Laharpe St",
    "address_councildis": "D",
    "status": "Pending",
    "rowid": "908082",
    "final_x": "3679867.12597",
    "final_y": "539144.440458",
    "longitude": "-90.07296153205647",
    "latitude": "29.97650976485463",
    "geocoded_column": {
      "latitude": "29.97650976485463",
      "longitude": "-90.07296153205647"
    }
  },
  {
    "service_request": "2022-908081",
    "request_type": "Property Maintenance",
    "request_reason": "Property Maintenance",
    "date_created": "2022-08-09T16:57:01.000",
    "date_modified": "2022-08-09T16:57:01.000",
    "request_status": "Pending",
    "responsible_agency": "Department of Code Enforcement",
    "final_address": "5924 Press Dr",
    "address_councildis": "D",
    "status": "Pending",
    "rowid": "908081",
    "final_x": "3688789.0038",
    "final_y": "555248.207513",
    "longitude": "-90.04421140104489",
    "latitude": "30.02051642846343",
    "geocoded_column": {
      "latitude": "30.02051642846343",
      "longitude": "-90.04421140104489"
    }
  },
  {
    "service_request": "2022-908080",
    "request_type": "Property Maintenance",
    "request_reason": "Property Maintenance",
    "date_created": "2022-08-09T16:56:27.000",
    "date_modified": "2022-08-09T16:56:27.000",
    "request_status": "Pending",
    "responsible_agency": "Department of Code Enforcement",
    "final_address": "2655 Prentiss Ave",
    "address_councildis": "D",
    "status": "Pending",
    "rowid": "908080",
    "final_x": "3687035.82185",
    "final_y": "554171.295384",
    "longitude": "-90.0497890307537",
    "latitude": "30.01760943586043",
    "geocoded_column": {
      "latitude": "30.01760943586043",
      "longitude": "-90.0497890307537"
    }
  },
  {
    "service_request": "2022-908079",
    "request_type": "Trash/Recycling",
    "request_reason": "Request a Large Item Pick Up",
    "date_created": "2022-08-09T16:56:15.000",
    "date_modified": "2022-08-09T16:56:16.000",
    "request_status": "Pending",
    "responsible_agency": "Department of Sanitation",
    "final_address": "829 N Rocheblave St",
    "address_councildis": "D",
    "status": "Assigned to Contractor",
    "contractor": "Richards Disposal",
    "rowid": "908079",
    "final_x": "3677838.00046",
    "final_y": "536820.659528",
    "longitude": "-90.07945044421399",
    "latitude": "29.970181379144364",
    "geocoded_column": {
      "latitude": "29.970181379144364",
      "longitude": "-90.07945044421399"
    }
  },
  {
    "service_request": "2022-908078",
    "request_type": "Traffic Signals/Signs/Striping/Streetlights",
    "request_reason": "Striping/Road Surface Markings",
    "date_created": "2022-08-09T16:53:54.000",
    "date_modified": "2022-08-09T16:53:54.000",
    "request_status": "Pending",
    "responsible_agency": "Department of Public Works",
    "final_address": "1565 Cleveland Ave",
    "address_councildis": "B",
    "status": "Pending",
    "rowid": "908078",
    "final_x": "3678500.66562",
    "final_y": "532221.128003",
    "longitude": "-90.07751687748936",
    "latitude": "29.957514274689533",
    "geocoded_column": {
      "latitude": "29.957514274689533",
      "longitude": "-90.07751687748936"
    }
  },
  {
    "service_request": "2022-908077",
    "request_type": "Trash/Recycling",
    "request_reason": "MIssed Recycling Pick-Up",
    "date_created": "2022-08-09T16:48:57.000",
    "date_modified": "2022-08-09T16:48:58.000",
    "request_status": "Pending",
    "responsible_agency": "Department of Sanitation",
    "final_address": "324 N Lopez St",
    "address_councildis": "B",
    "status": "Assigned to Contractor",
    "contractor": "Richards Disposal",
    "rowid": "908077",
    "final_x": "3674516.97198",
    "final_y": "537005.445064",
    "longitude": "-90.08993228187892",
    "latitude": "29.970788986061788",
    "geocoded_column": {
      "latitude": "29.970788986061788",
      "longitude": "-90.08993228187892"
    }
  },
  {
    "service_request": "2022-908076",
    "request_type": "Trash/Recycling",
    "request_reason": "Missed Trash Pick-Up",
    "date_created": "2022-08-09T16:48:25.000",
    "date_modified": "2022-08-09T16:48:25.000",
    "request_status": "Pending",
    "responsible_agency": "Department of Sanitation",
    "final_address": "102 E Park Pl, New Orleans, Louisiana, 70124",
    "address_councildis": "A",
    "status": "Assigned to Contractor",
    "contractor": "Metro Disposal",
    "rowid": "908076",
    "final_x": "3670265.19162",
    "final_y": "544455.143055",
    "longitude": "-90.1031073691305",
    "latitude": "29.991399301625474",
    "geocoded_column": {
      "latitude": "29.991399301625474",
      "longitude": "-90.1031073691305"
    }
  },
  {
    "service_request": "2022-908075",
    "request_type": "Trash/Recycling",
    "request_reason": "Missed Trash Pick-Up",
    "date_created": "2022-08-09T16:45:16.000",
    "date_modified": "2022-08-09T16:45:17.000",
    "request_status": "Pending",
    "responsible_agency": "Department of Sanitation",
    "final_address": "6058 Laurel St",
    "address_councildis": "A",
    "status": "Assigned to Contractor",
    "contractor": "Richards Disposal",
    "rowid": "908075",
    "final_x": "3663896.0272",
    "final_y": "518327.180214",
    "longitude": "-90.12409721600534",
    "latitude": "29.919742383126607",
    "geocoded_column": {
      "latitude": "29.919742383126607",
      "longitude": "-90.12409721600534"
    }
  },
  {
    "service_request": "2022-908074",
    "request_type": "Trash/Recycling",
    "request_reason": "MIssed Recycling Pick-Up",
    "date_created": "2022-08-09T16:42:25.000",
    "date_modified": "2022-08-09T16:42:26.000",
    "request_status": "Pending",
    "responsible_agency": "Department of Sanitation",
    "final_address": "2309 Iberville St, New Orleans, Louisiana, 70119",
    "address_councildis": "B",
    "status": "Assigned to Contractor",
    "contractor": "Richards Disposal",
    "rowid": "908074",
    "final_x": "3676907.40226",
    "final_y": "534519.047429",
    "longitude": "-90.08246872239917",
    "latitude": "29.963880696021",
    "geocoded_column": {
      "latitude": "29.963880696021",
      "longitude": "-90.08246872239917"
    }
  },
  {
    "service_request": "2022-908073",
    "request_type": "Trash/Recycling",
    "request_reason": "Repair Trash Cart",
    "date_created": "2022-08-09T16:34:11.000",
    "date_modified": "2022-08-09T16:34:12.000",
    "request_status": "Pending",
    "responsible_agency": "Department of Sanitation",
    "final_address": "1909 Chippewa St",
    "address_councildis": "B",
    "status": "Assigned to Contractor",
    "contractor": "Richards Disposal",
    "rowid": "908073",
    "final_x": "3680691.44123",
    "final_y": "521653.047545",
    "longitude": "-90.07096670505065",
    "latitude": "29.928389377402418",
    "geocoded_column": {
      "latitude": "29.928389377402418",
      "longitude": "-90.07096670505065"
    }
  },
  {
    "service_request": "2022-908072",
    "request_type": "Trash/Recycling",
    "request_reason": "Missed Trash Pick-Up",
    "date_created": "2022-08-09T16:31:52.000",
    "date_modified": "2022-08-09T19:04:27.000",
    "request_status": "Pending",
    "responsible_agency": "Department of Sanitation",
    "final_address": "New Orleans,LA",
    "status": "Assigned to Contractor",
    "rowid": "908072",
    "longitude": "0.0",
    "latitude": "0.0",
    "geocoded_column": {
      "latitude": "0.0",
      "longitude": "0.0"
    }
  },
  {
    "service_request": "2022-908071",
    "request_type": "Roads/Drainage",
    "request_reason": "Catch Basin - Clogged",
    "date_created": "2022-08-09T16:31:32.000",
    "date_modified": "2022-08-09T16:31:32.000",
    "request_status": "Pending",
    "responsible_agency": "Department of Public Works",
    "final_address": "1571 N Dorgenois St",
    "address_councildis": "D",
    "status": "Pending",
    "rowid": "908071",
    "final_x": "3679457.75029",
    "final_y": "539750.899402",
    "longitude": "-90.07423341812915",
    "latitude": "29.978189692333125",
    "geocoded_column": {
      "latitude": "29.978189692333125",
      "longitude": "-90.07423341812915"
    }
  },
  {
    "service_request": "2022-908070",
    "request_type": "Property Maintenance",
    "request_reason": "Property Maintenance",
    "date_created": "2022-08-09T16:22:48.000",
    "date_modified": "2022-08-09T16:22:48.000",
    "request_status": "Pending",
    "responsible_agency": "Department of Code Enforcement",
    "final_address": "4137 General Meyer Ave",
    "address_councildis": "C",
    "status": "Pending",
    "rowid": "908070",
    "final_x": "3699378.8842",
    "final_y": "524448.046844",
    "longitude": "-90.01187312486405",
    "latitude": "29.93549533443439",
    "geocoded_column": {
      "latitude": "29.93549533443439",
      "longitude": "-90.01187312486405"
    }
  },
  {
    "service_request": "2022-908069",
    "request_type": "Trash/Recycling",
    "request_reason": "MIssed Recycling Pick-Up",
    "date_created": "2022-08-09T16:20:39.000",
    "date_modified": "2022-08-09T16:20:40.000",
    "request_status": "Pending",
    "responsible_agency": "Department of Sanitation",
    "final_address": "36 Neron Pl, New Orleans, Louisiana, 70118",
    "address_councildis": "A",
    "status": "Assigned to Contractor",
    "contractor": "Richards Disposal",
    "rowid": "908069",
    "final_x": "3665256.8601",
    "final_y": "530548.513666",
    "longitude": "-90.11939302196377",
    "latitude": "29.953307596450543",
    "geocoded_column": {
      "latitude": "29.953307596450543",
      "longitude": "-90.11939302196377"
    }
  },
  {
    "service_request": "2022-908068",
    "request_type": "Trash/Recycling",
    "request_reason": "MIssed Recycling Pick-Up",
    "date_created": "2022-08-09T16:17:48.000",
    "date_modified": "2022-08-09T16:17:49.000",
    "request_status": "Pending",
    "responsible_agency": "Department of Sanitation",
    "final_address": "2053 Easter Ln",
    "address_councildis": "C",
    "status": "Assigned to Contractor",
    "contractor": "Richards Disposal",
    "rowid": "908068",
    "final_x": "3699444.50576",
    "final_y": "523783.587067",
    "longitude": "-90.0116901538607",
    "latitude": "29.933666219259134",
    "geocoded_column": {
      "latitude": "29.933666219259134",
      "longitude": "-90.0116901538607"
    }
  },
  {
    "service_request": "2022-908067",
    "request_type": "Abandoned Vehicles",
    "request_reason": "Abandoned/Junk Vehicles",
    "date_created": "2022-08-09T16:17:26.000",
    "date_modified": "2022-08-09T16:17:26.000",
    "request_status": "Pending",
    "responsible_agency": "Department of Public Works",
    "final_address": "3924 Baudin St",
    "address_councildis": "B",
    "status": "Pending",
    "rowid": "908067",
    "final_x": "3670608.07739",
    "final_y": "536642.813895",
    "longitude": "-90.10228939094951",
    "latitude": "29.96990792573911",
    "geocoded_column": {
      "latitude": "29.96990792573911",
      "longitude": "-90.10228939094951"
    }
  },
  {
    "service_request": "2022-908066",
    "request_type": "Property Maintenance",
    "request_reason": "Property Maintenance",
    "date_created": "2022-08-09T16:16:18.000",
    "date_modified": "2022-08-09T16:16:19.000",
    "request_status": "Pending",
    "responsible_agency": "Department of Code Enforcement",
    "final_address": "4958 Sherwood Dr",
    "address_councildis": "E",
    "status": "Pending",
    "rowid": "908066",
    "final_x": "3717800.34585",
    "final_y": "558241.864988",
    "longitude": "-89.95243142499976",
    "latitude": "30.027818431019814",
    "geocoded_column": {
      "latitude": "30.027818431019814",
      "longitude": "-89.95243142499976"
    }
  },
  {
    "service_request": "2022-908065",
    "request_type": "Trash/Recycling",
    "request_reason": "Missed Trash Pick-Up",
    "date_created": "2022-08-09T16:12:33.000",
    "date_modified": "2022-08-09T19:05:39.000",
    "request_status": "Pending",
    "responsible_agency": "Department of Sanitation",
    "final_address": "New Orleans,LA",
    "status": "Assigned to Contractor",
    "rowid": "908065",
    "longitude": "0.0",
    "latitude": "0.0",
    "geocoded_column": {
      "latitude": "0.0",
      "longitude": "0.0"
    }
  },
  {
    "service_request": "2022-908063",
    "request_type": "Mosquito, Termite & Rodent Control",
    "request_reason": "Non-Rodent Complaint (Mice, Possums, Snakes)",
    "date_created": "2022-08-09T15:59:32.000",
    "date_modified": "2022-08-09T15:59:32.000",
    "request_status": "Pending",
    "responsible_agency": "Mosquito, Termite & Rodent Control Board",
    "final_address": "7900 Sycamore St",
    "address_councildis": "A",
    "status": "Pending",
    "rowid": "908063",
    "final_x": "3664853.35533",
    "final_y": "530445.789122",
    "longitude": "-90.12067055498666",
    "latitude": "29.953036885568316",
    "geocoded_column": {
      "latitude": "29.953036885568316",
      "longitude": "-90.12067055498666"
    }
  },
  {
    "service_request": "2022-908062",
    "request_type": "Trash/Recycling",
    "request_reason": "Request a Large Item Pick Up",
    "date_created": "2022-08-09T15:58:49.000",
    "date_modified": "2022-08-09T15:58:50.000",
    "request_status": "Pending",
    "responsible_agency": "Department of Sanitation",
    "final_address": "3305 Banks St",
    "address_councildis": "B",
    "status": "Assigned to Contractor",
    "contractor": "Richards Disposal",
    "rowid": "908062",
    "final_x": "3672824.12987",
    "final_y": "535570.82471",
    "longitude": "-90.0953274486141",
    "latitude": "29.966894665677692",
    "geocoded_column": {
      "latitude": "29.966894665677692",
      "longitude": "-90.0953274486141"
    }
  },
  {
    "service_request": "2022-908061",
    "request_type": "Trash/Recycling",
    "request_reason": "Repair Trash Cart",
    "date_created": "2022-08-09T15:57:29.000",
    "date_modified": "2022-08-09T15:57:29.000",
    "request_status": "Pending",
    "responsible_agency": "Department of Sanitation",
    "final_address": "4017 Octavia St",
    "address_councildis": "B",
    "status": "Assigned to Contractor",
    "contractor": "Richards Disposal",
    "rowid": "908061",
    "final_x": "3668972.69178",
    "final_y": "530143.595457",
    "longitude": "-90.10767366117872",
    "latitude": "29.952085435582326",
    "geocoded_column": {
      "latitude": "29.952085435582326",
      "longitude": "-90.10767366117872"
    }
  },
  {
    "service_request": "2022-908060",
    "request_type": "Abandoned Vehicles",
    "request_reason": "Abandoned/Junk Vehicles",
    "date_created": "2022-08-09T15:54:37.000",
    "date_modified": "2022-08-09T15:54:37.000",
    "request_status": "Pending",
    "responsible_agency": "Department of Public Works",
    "final_address": "2606 Royal St",
    "address_councildis": "C",
    "status": "Pending",
    "rowid": "908060",
    "final_x": "3686806.00156",
    "final_y": "534919.913798",
    "longitude": "-90.05119579133462",
    "latitude": "29.964682102268313",
    "geocoded_column": {
      "latitude": "29.964682102268313",
      "longitude": "-90.05119579133462"
    }
  },
  {
    "service_request": "2022-908059",
    "request_type": "Property Maintenance",
    "request_reason": "Property Maintenance",
    "date_created": "2022-08-09T15:54:04.000",
    "date_modified": "2022-08-09T15:54:05.000",
    "request_status": "Pending",
    "responsible_agency": "Department of Code Enforcement",
    "final_address": "2800 Metropolitan St",
    "address_councildis": "D",
    "status": "Pending",
    "rowid": "908059",
    "final_x": "3690962.61865",
    "final_y": "542763.373581",
    "longitude": "-90.03778947940748",
    "latitude": "29.986120290776608",
    "geocoded_column": {
      "latitude": "29.986120290776608",
      "longitude": "-90.03778947940748"
    }
  },
  {
    "service_request": "2022-908058",
    "request_type": "Property Maintenance",
    "request_reason": "Property Maintenance",
    "date_created": "2022-08-09T15:52:07.000",
    "date_modified": "2022-08-09T15:52:07.000",
    "request_status": "Pending",
    "responsible_agency": "Department of Code Enforcement",
    "final_address": "2749 Metropolitan St",
    "address_councildis": "D",
    "status": "Pending",
    "rowid": "908058",
    "final_x": "3691010.41296",
    "final_y": "542667.265677",
    "longitude": "-90.03764194907662",
    "latitude": "29.98585454260624",
    "geocoded_column": {
      "latitude": "29.98585454260624",
      "longitude": "-90.03764194907662"
    }
  },
  {
    "service_request": "2022-908057",
    "request_type": "Trash/Recycling",
    "request_reason": "MIssed Recycling Pick-Up",
    "date_created": "2022-08-09T15:51:45.000",
    "date_modified": "2022-08-09T15:51:46.000",
    "request_status": "Pending",
    "responsible_agency": "Department of Sanitation",
    "final_address": "1212 N Gayoso St",
    "address_councildis": "A",
    "status": "Assigned to Contractor",
    "contractor": "Richards Disposal",
    "rowid": "908057",
    "final_x": "3676763.55048",
    "final_y": "539421.960906",
    "longitude": "-90.08275401098841",
    "latitude": "29.977366353180507",
    "geocoded_column": {
      "latitude": "29.977366353180507",
      "longitude": "-90.08275401098841"
    }
  },
  {
    "service_request": "2022-908056",
    "request_type": "Property Maintenance",
    "request_reason": "Property Maintenance",
    "date_created": "2022-08-09T15:51:21.000",
    "date_modified": "2022-08-09T15:51:22.000",
    "request_status": "Pending",
    "responsible_agency": "Department of Code Enforcement",
    "final_address": "220 N Tonti St",
    "address_councildis": "B",
    "status": "Pending",
    "rowid": "908056",
    "final_x": "3676846.66177",
    "final_y": "534728.711174",
    "longitude": "-90.08265330847087",
    "latitude": "29.964459023433466",
    "geocoded_column": {
      "latitude": "29.964459023433466",
      "longitude": "-90.08265330847087"
    }
  },
  {
    "service_request": "2022-908055",
    "request_type": "Abandoned Vehicles",
    "request_reason": "Abandoned/Junk Vehicles",
    "date_created": "2022-08-09T15:49:03.000",
    "date_modified": "2022-08-09T15:50:21.000",
    "request_status": "Pending",
    "responsible_agency": "Department of Public Works",
    "final_address": "JENA ST & DANNEEL ST",
    "address_councildis": "B",
    "status": "Pending",
    "rowid": "908055",
    "final_x": "3670309.5",
    "final_y": "522255.38",
    "longitude": "-90.10371991811115",
    "latitude": "29.93035601658399",
    "geocoded_column": {
      "latitude": "29.93035601658399",
      "longitude": "-90.10371991811115"
    }
  },
  {
    "service_request": "2022-908054",
    "request_type": "Property Maintenance",
    "request_reason": "Property Maintenance",
    "date_created": "2022-08-09T15:48:59.000",
    "date_modified": "2022-08-09T15:48:59.000",
    "request_status": "Pending",
    "responsible_agency": "Department of Code Enforcement",
    "final_address": "2219 Annette St",
    "address_councildis": "D",
    "status": "Pending",
    "rowid": "908054",
    "final_x": "3682837.40143",
    "final_y": "540386.653835",
    "longitude": "-90.06353702970915",
    "latitude": "29.979835247895437",
    "geocoded_column": {
      "latitude": "29.979835247895437",
      "longitude": "-90.06353702970915"
    }
  },
  {
    "service_request": "2022-908053",
    "request_type": "Roads/Drainage",
    "request_reason": "Accessibility Ramps, Curbs and Sidewalk Repair",
    "date_created": "2022-08-09T15:48:21.000",
    "date_modified": "2022-08-09T15:48:21.000",
    "request_status": "Pending",
    "responsible_agency": "Department of Public Works",
    "final_address": "3025 Serantine St",
    "address_councildis": "D",
    "status": "Pending",
    "rowid": "908053",
    "final_x": "3679165.83573",
    "final_y": "543021.065421",
    "longitude": "-90.07504196921981",
    "latitude": "29.987190328086964",
    "geocoded_column": {
      "latitude": "29.987190328086964",
      "longitude": "-90.07504196921981"
    }
  },
  {
    "service_request": "2022-908051",
    "request_type": "Trash/Recycling",
    "request_reason": "Request a Large Item Pick Up",
    "date_created": "2022-08-09T15:48:04.000",
    "date_modified": "2022-08-09T15:48:05.000",
    "request_status": "Pending",
    "responsible_agency": "Department of Sanitation",
    "final_address": "2330 Burgundy St",
    "address_councildis": "C",
    "status": "Assigned to Contractor",
    "contractor": "Metro Disposal",
    "rowid": "908051",
    "final_x": "3685743.35158",
    "final_y": "535609.060998",
    "longitude": "-90.0545272713467",
    "latitude": "29.966609670273318",
    "geocoded_column": {
      "latitude": "29.966609670273318",
      "longitude": "-90.0545272713467"
    }
  },
  {
    "service_request": "2022-908049",
    "request_type": "Roads/Drainage",
    "request_reason": "Catch Basin - Clogged",
    "date_created": "2022-08-09T15:47:32.000",
    "date_modified": "2022-08-09T15:47:32.000",
    "request_status": "Pending",
    "responsible_agency": "Department of Public Works",
    "final_address": "1900 Gentilly Blvd",
    "address_councildis": "D",
    "status": "Pending",
    "rowid": "908049",
    "final_x": "3679083.68034",
    "final_y": "543040.608077",
    "longitude": "-90.07530079106067",
    "latitude": "29.98724654398129",
    "geocoded_column": {
      "latitude": "29.98724654398129",
      "longitude": "-90.07530079106067"
    }
  },
  {
    "service_request": "2022-908048",
    "request_type": "Roads/Drainage",
    "request_reason": "Street Flooding / Drainage",
    "date_created": "2022-08-09T15:45:54.000",
    "date_modified": "2022-08-09T15:45:54.000",
    "request_status": "Pending",
    "responsible_agency": "Department of Public Works",
    "final_address": "3025 Serantine St",
    "address_councildis": "D",
    "status": "Pending",
    "rowid": "908048",
    "final_x": "3679165.83573",
    "final_y": "543021.065421",
    "longitude": "-90.07504196921981",
    "latitude": "29.987190328086964",
    "geocoded_column": {
      "latitude": "29.987190328086964",
      "longitude": "-90.07504196921981"
    }
  },
  {
    "service_request": "2022-908047",
    "request_type": "Roads/Drainage",
    "request_reason": "Catch Basin - Clogged",
    "date_created": "2022-08-09T15:45:30.000",
    "date_modified": "2022-08-09T15:45:30.000",
    "request_status": "Pending",
    "responsible_agency": "Department of Public Works",
    "final_address": "3025 Serantine St",
    "address_councildis": "D",
    "status": "Pending",
    "rowid": "908047",
    "final_x": "3679165.83573",
    "final_y": "543021.065421",
    "longitude": "-90.07504196921981",
    "latitude": "29.987190328086964",
    "geocoded_column": {
      "latitude": "29.987190328086964",
      "longitude": "-90.07504196921981"
    }
  },
  {
    "service_request": "2022-908046",
    "request_type": "Roads/Drainage",
    "request_reason": "Damaged Sidewalk",
    "date_created": "2022-08-09T15:45:00.000",
    "date_modified": "2022-08-09T15:45:00.000",
    "request_status": "Pending",
    "responsible_agency": "Department of Public Works",
    "final_address": "3025 Serantine St",
    "address_councildis": "D",
    "status": "Pending",
    "rowid": "908046",
    "final_x": "3679165.83573",
    "final_y": "543021.065421",
    "longitude": "-90.07504196921981",
    "latitude": "29.987190328086964",
    "geocoded_column": {
      "latitude": "29.987190328086964",
      "longitude": "-90.07504196921981"
    }
  },
  {
    "service_request": "2022-908045",
    "request_type": "Roads/Drainage",
    "request_reason": "Catch Basin - Clogged",
    "date_created": "2022-08-09T15:44:39.000",
    "date_modified": "2022-08-09T15:44:40.000",
    "request_status": "Pending",
    "responsible_agency": "Department of Public Works",
    "final_address": "201 S Alexander St",
    "address_councildis": "A",
    "status": "Pending",
    "rowid": "908045",
    "final_x": "3669694.63297",
    "final_y": "538844.247945",
    "longitude": "-90.10509962164365",
    "latitude": "29.975988081965586",
    "geocoded_column": {
      "latitude": "29.975988081965586",
      "longitude": "-90.10509962164365"
    }
  },
  {
    "service_request": "2022-908044",
    "request_type": "Roads/Drainage",
    "request_reason": "Street Subsidence (Sinking)",
    "date_created": "2022-08-09T15:44:05.000",
    "date_modified": "2022-08-09T15:44:05.000",
    "request_status": "Pending",
    "responsible_agency": "Department of Public Works",
    "final_address": "3025 Serantine St",
    "address_councildis": "D",
    "status": "Pending",
    "rowid": "908044",
    "final_x": "3679165.83573",
    "final_y": "543021.065421",
    "longitude": "-90.07504196921981",
    "latitude": "29.987190328086964",
    "geocoded_column": {
      "latitude": "29.987190328086964",
      "longitude": "-90.07504196921981"
    }
  },
  {
    "service_request": "2022-908043",
    "request_type": "Abandoned Vehicles",
    "request_reason": "Abandoned/Junk Vehicles",
    "date_created": "2022-08-09T15:42:10.000",
    "date_modified": "2022-08-09T15:42:10.000",
    "request_status": "Pending",
    "responsible_agency": "Department of Public Works",
    "final_address": "739 Mandeville St",
    "address_councildis": "C",
    "status": "Pending",
    "rowid": "908043",
    "final_x": "3685920.94562",
    "final_y": "535253.942214",
    "longitude": "-90.0539789533553",
    "latitude": "29.96562776573422",
    "geocoded_column": {
      "latitude": "29.96562776573422",
      "longitude": "-90.0539789533553"
    }
  },
  {
    "service_request": "2022-908042",
    "request_type": "Property Maintenance",
    "request_reason": "Property Maintenance",
    "date_created": "2022-08-09T15:33:33.000",
    "date_modified": "2022-08-09T15:33:34.000",
    "request_status": "Pending",
    "responsible_agency": "Department of Code Enforcement",
    "final_address": "5019 Dreux Ave",
    "address_councildis": "D",
    "status": "Pending",
    "rowid": "908042",
    "final_x": "3691998.21533",
    "final_y": "553463.857047",
    "longitude": "-90.0341352256285",
    "latitude": "30.015510465129516",
    "geocoded_column": {
      "latitude": "30.015510465129516",
      "longitude": "-90.0341352256285"
    }
  },
  {
    "service_request": "2022-908041",
    "request_type": "Trash/Recycling",
    "request_reason": "Request a Large Item Pick Up",
    "date_created": "2022-08-09T15:28:11.000",
    "date_modified": "2022-08-09T15:28:12.000",
    "request_status": "Pending",
    "responsible_agency": "Department of Sanitation",
    "final_address": "5820 Hurst St",
    "address_councildis": "A",
    "status": "Assigned to Contractor",
    "contractor": "Richards Disposal",
    "rowid": "908041",
    "final_x": "3665881.5394",
    "final_y": "521666.973177",
    "longitude": "-90.11771806353475",
    "latitude": "29.928867997550743",
    "geocoded_column": {
      "latitude": "29.928867997550743",
      "longitude": "-90.11771806353475"
    }
  },
  {
    "service_request": "2022-908040",
    "request_type": "Roads/Drainage",
    "request_reason": "Pothole",
    "date_created": "2022-08-09T15:25:18.000",
    "date_modified": "2022-08-09T15:25:18.000",
    "request_status": "Pending",
    "responsible_agency": "Department of Public Works",
    "final_address": "5011 Dreux Ave",
    "address_councildis": "D",
    "status": "Pending",
    "rowid": "908040",
    "final_x": "3691940.28771",
    "final_y": "553448.476887",
    "longitude": "-90.03431880044442",
    "latitude": "30.01546998126646",
    "geocoded_column": {
      "latitude": "30.01546998126646",
      "longitude": "-90.03431880044442"
    }
  },
  {
    "service_request": "2022-908039",
    "request_type": "Roads/Drainage",
    "request_reason": "Street Flooding / Drainage",
    "date_created": "2022-08-09T15:23:10.000",
    "date_modified": "2022-08-09T15:23:10.000",
    "request_status": "Pending",
    "responsible_agency": "Department of Public Works",
    "final_address": "5011 Dreux Ave",
    "address_councildis": "D",
    "status": "Pending",
    "rowid": "908039",
    "final_x": "3691940.28771",
    "final_y": "553448.476887",
    "longitude": "-90.03431880044442",
    "latitude": "30.01546998126646",
    "geocoded_column": {
      "latitude": "30.01546998126646",
      "longitude": "-90.03431880044442"
    }
  },
  {
    "service_request": "2022-908038",
    "request_type": "Trash/Recycling",
    "request_reason": "Missed Trash Pick-Up",
    "date_created": "2022-08-09T15:22:23.000",
    "date_modified": "2022-08-09T15:22:24.000",
    "request_status": "Pending",
    "responsible_agency": "Department of Sanitation",
    "final_address": "700 Block of Jefferson Ave, New Orleans, Louisiana, 70115",
    "status": "Assigned to Contractor",
    "rowid": "908038",
    "longitude": "0.0",
    "latitude": "0.0",
    "geocoded_column": {
      "latitude": "0.0",
      "longitude": "0.0"
    }
  },
  {
    "service_request": "2022-908037",
    "request_type": "Trash/Recycling",
    "request_reason": "Repair Trash Cart",
    "date_created": "2022-08-09T15:21:10.000",
    "date_modified": "2022-08-09T15:21:11.000",
    "request_status": "Pending",
    "responsible_agency": "Department of Sanitation",
    "final_address": "1120 S Salcedo St",
    "address_councildis": "B",
    "status": "Assigned to Contractor",
    "contractor": "Richards Disposal",
    "rowid": "908037",
    "final_x": "3671168.53787",
    "final_y": "531901.788099",
    "longitude": "-90.100680468658",
    "latitude": "29.956855117809056",
    "geocoded_column": {
      "latitude": "29.956855117809056",
      "longitude": "-90.100680468658"
    }
  },
  {
    "service_request": "2022-908036",
    "request_type": "Trash/Recycling",
    "request_reason": "Order Trash Cart",
    "date_created": "2022-08-09T15:19:59.000",
    "date_modified": "2022-08-09T15:20:00.000",
    "request_status": "Pending",
    "responsible_agency": "Department of Sanitation",
    "final_address": "1120 S Salcedo St",
    "address_councildis": "B",
    "status": "Assigned to Contractor",
    "contractor": "Richards Disposal",
    "rowid": "908036",
    "final_x": "3671168.53787",
    "final_y": "531901.788099",
    "longitude": "-90.100680468658",
    "latitude": "29.956855117809056",
    "geocoded_column": {
      "latitude": "29.956855117809056",
      "longitude": "-90.100680468658"
    }
  },
  {
    "service_request": "2022-908035",
    "request_type": "Roads/Drainage",
    "request_reason": "Street Subsidence (Sinking)",
    "date_created": "2022-08-09T15:15:15.000",
    "date_modified": "2022-08-09T15:15:15.000",
    "request_status": "Pending",
    "responsible_agency": "Department of Public Works",
    "final_address": "1900 BLK N Roman St",
    "address_councildis": "D",
    "status": "Pending",
    "rowid": "908035",
    "final_x": "3683845.88982",
    "final_y": "538804.744357",
    "longitude": "-90.06040731875268",
    "latitude": "29.97545478182952",
    "geocoded_column": {
      "latitude": "29.97545478182952",
      "longitude": "-90.06040731875268"
    }
  },
  {
    "service_request": "2022-908034",
    "request_type": "Trash/Recycling",
    "request_reason": "Illegal Dumping",
    "date_created": "2022-08-09T15:14:09.000",
    "date_modified": "2022-08-09T15:14:10.000",
    "request_status": "Pending",
    "responsible_agency": "Department of Code Enforcement",
    "final_address": "1817 Alvar St",
    "address_councildis": "D",
    "status": "Pending",
    "rowid": "908034",
    "final_x": "3692231.44157",
    "final_y": "538152.919817",
    "longitude": "-90.03394691999594",
    "latitude": "29.97340368494384",
    "geocoded_column": {
      "latitude": "29.97340368494384",
      "longitude": "-90.03394691999594"
    }
  },
  {
    "service_request": "2022-908033",
    "request_type": "Trash/Recycling",
    "request_reason": "Request a Large Item Pick Up",
    "date_created": "2022-08-09T15:12:04.000",
    "date_modified": "2022-08-09T15:12:05.000",
    "request_status": "Pending",
    "responsible_agency": "Department of Sanitation",
    "final_address": "1278 Casa Calvo St",
    "address_councildis": "C",
    "status": "Assigned to Contractor",
    "contractor": "Richards Disposal",
    "rowid": "908033",
    "final_x": "3692115.61993",
    "final_y": "526321.146814",
    "longitude": "-90.03473619423914",
    "latitude": "29.94087404646885",
    "geocoded_column": {
      "latitude": "29.94087404646885",
      "longitude": "-90.03473619423914"
    }
  },
  {
    "service_request": "2022-908032",
    "request_type": "Trash/Recycling",
    "request_reason": "Request a Large Item Pick Up",
    "date_created": "2022-08-09T15:10:57.000",
    "date_modified": "2022-08-09T15:10:58.000",
    "request_status": "Pending",
    "responsible_agency": "Department of Sanitation",
    "final_address": "4113 Toulouse St",
    "address_councildis": "A",
    "status": "Assigned to Contractor",
    "contractor": "Richards Disposal",
    "rowid": "908032",
    "final_x": "3672188.15035",
    "final_y": "539808.46561",
    "longitude": "-90.09719150525025",
    "latitude": "29.978565623875003",
    "geocoded_column": {
      "latitude": "29.978565623875003",
      "longitude": "-90.09719150525025"
    }
  },
  {
    "service_request": "2022-908031",
    "request_type": "Roads/Drainage",
    "request_reason": "Catch Basin - Clogged",
    "date_created": "2022-08-09T15:04:57.000",
    "date_modified": "2022-08-09T15:04:57.000",
    "request_status": "Pending",
    "responsible_agency": "Department of Public Works",
    "final_address": "1334 State St",
    "address_councildis": "A",
    "status": "Pending",
    "rowid": "908031",
    "final_x": "3665225.53511",
    "final_y": "521135.199161",
    "longitude": "-90.1198067235895",
    "latitude": "29.927424906926657",
    "geocoded_column": {
      "latitude": "29.927424906926657",
      "longitude": "-90.1198067235895"
    }
  },
  {
    "service_request": "2022-908030",
    "request_type": "Trash/Recycling",
    "request_reason": "Order Recycling Cart",
    "date_created": "2022-08-09T15:03:56.000",
    "date_modified": "2022-08-09T15:03:57.000",
    "request_status": "Pending",
    "responsible_agency": "Department of Sanitation",
    "final_address": "9018 Marks St",
    "address_councildis": "A",
    "status": "Pending",
    "rowid": "908030",
    "final_x": "3666400.66983",
    "final_y": "538207.313289",
    "longitude": "-90.11552432678342",
    "latitude": "29.974333398960677",
    "geocoded_column": {
      "latitude": "29.974333398960677",
      "longitude": "-90.11552432678342"
    }
  },
  {
    "service_request": "2022-908029",
    "request_type": "Trash/Recycling",
    "request_reason": "Start Trash Service",
    "date_created": "2022-08-09T15:03:47.000",
    "date_modified": "2022-08-09T15:03:48.000",
    "request_status": "Pending",
    "responsible_agency": "Department of Sanitation",
    "final_address": "9018 Marks St",
    "address_councildis": "A",
    "status": "Assigned to Contractor",
    "contractor": "Richards Disposal",
    "rowid": "908029",
    "final_x": "3666400.66983",
    "final_y": "538207.313289",
    "longitude": "-90.11552432678342",
    "latitude": "29.974333398960677",
    "geocoded_column": {
      "latitude": "29.974333398960677",
      "longitude": "-90.11552432678342"
    }
  },
  {
    "service_request": "2022-908028",
    "request_type": "Property Maintenance",
    "request_reason": "Property Maintenance",
    "date_created": "2022-08-09T15:03:46.000",
    "date_modified": "2022-08-09T15:05:12.000",
    "request_status": "Pending",
    "responsible_agency": "Department of Code Enforcement",
    "final_address": "7520 Wave Dr",
    "address_councildis": "E",
    "status": "Pending",
    "rowid": "908028",
    "final_x": "3715257.74514",
    "final_y": "568252.083237",
    "longitude": "-89.9600866818157",
    "latitude": "30.05542648839007",
    "geocoded_column": {
      "latitude": "30.05542648839007",
      "longitude": "-89.9600866818157"
    }
  },
  {
    "service_request": "2022-908027",
    "request_type": "Trash/Recycling",
    "request_reason": "Order Trash Cart",
    "date_created": "2022-08-09T15:03:41.000",
    "date_modified": "2022-08-09T15:03:42.000",
    "request_status": "Pending",
    "responsible_agency": "Department of Sanitation",
    "final_address": "9018 Marks St",
    "address_councildis": "A",
    "status": "Assigned to Contractor",
    "contractor": "Richards Disposal",
    "rowid": "908027",
    "final_x": "3666400.66983",
    "final_y": "538207.313289",
    "longitude": "-90.11552432678342",
    "latitude": "29.974333398960677",
    "geocoded_column": {
      "latitude": "29.974333398960677",
      "longitude": "-90.11552432678342"
    }
  },
  {
    "service_request": "2022-908026",
    "request_type": "Roads/Drainage",
    "request_reason": "Street Flooding / Drainage",
    "date_created": "2022-08-09T15:02:15.000",
    "date_modified": "2022-08-09T15:02:16.000",
    "request_status": "Pending",
    "responsible_agency": "Department of Public Works",
    "final_address": "9000 BLK Marks St",
    "address_councildis": "A",
    "status": "Pending",
    "rowid": "908026",
    "final_x": "3666417.39482",
    "final_y": "538244.803875",
    "longitude": "-90.11547024664914",
    "latitude": "29.97443599677202",
    "geocoded_column": {
      "latitude": "29.97443599677202",
      "longitude": "-90.11547024664914"
    }
  },
  {
    "service_request": "2022-908025",
    "request_type": "Roads/Drainage",
    "request_reason": "Catch Basin - Clogged",
    "date_created": "2022-08-09T15:01:45.000",
    "date_modified": "2022-08-09T15:01:45.000",
    "request_status": "Pending",
    "responsible_agency": "Department of Public Works",
    "final_address": "6963 Salem Dr",
    "address_councildis": "E",
    "status": "Pending",
    "rowid": "908025",
    "final_x": "3706804.06859",
    "final_y": "560618.045534",
    "longitude": "-89.98709037280047",
    "latitude": "30.034711793025984",
    "geocoded_column": {
      "latitude": "30.034711793025984",
      "longitude": "-89.98709037280047"
    }
  },
  {
    "service_request": "2022-908024",
    "request_type": "Property Maintenance",
    "request_reason": "Property Maintenance",
    "date_created": "2022-08-09T14:55:41.000",
    "date_modified": "2022-08-09T14:55:42.000",
    "request_status": "Pending",
    "responsible_agency": "Department of Code Enforcement",
    "final_address": "1700 Pace Blvd",
    "address_councildis": "C",
    "status": "Pending",
    "rowid": "908024",
    "final_x": "3694431.06602",
    "final_y": "524559.436092",
    "longitude": "-90.02748934158275",
    "latitude": "29.93595758957815",
    "geocoded_column": {
      "latitude": "29.93595758957815",
      "longitude": "-90.02748934158275"
    }
  },
  {
    "service_request": "2022-908023",
    "request_type": "Parks & Parkways",
    "request_reason": "Request Grass Cutting Service (City Owned Property)",
    "date_created": "2022-08-09T14:53:57.000",
    "date_modified": "2022-08-09T14:53:57.000",
    "request_status": "Pending",
    "responsible_agency": "Department of Parks & Parkway",
    "final_address": "E HERMES ST & DWYER RD",
    "address_councildis": "D",
    "status": "Pending",
    "rowid": "908023",
    "final_x": "3698011.9",
    "final_y": "555251.88",
    "longitude": "-90.01506986514686",
    "latitude": "30.02023799506008",
    "geocoded_column": {
      "latitude": "30.02023799506008",
      "longitude": "-90.01506986514686"
    }
  },
  {
    "service_request": "2022-908022",
    "request_type": "Trash/Recycling",
    "request_reason": "Request a Large Item Pick Up",
    "date_created": "2022-08-09T14:53:15.000",
    "date_modified": "2022-08-09T14:53:16.000",
    "request_status": "Pending",
    "responsible_agency": "Department of Code Enforcement",
    "final_address": "24 Vivian Ct",
    "address_councildis": "C",
    "status": "Assigned to Contractor",
    "contractor": "Richards Disposal",
    "rowid": "908022",
    "final_x": "3702373.33565",
    "final_y": "521264.333177",
    "longitude": "-90.00253642180954",
    "latitude": "29.926645932744744",
    "geocoded_column": {
      "latitude": "29.926645932744744",
      "longitude": "-90.00253642180954"
    }
  },
  {
    "service_request": "2022-908021",
    "request_type": "Trash/Recycling",
    "request_reason": "Order Trash Cart",
    "date_created": "2022-08-09T14:53:14.000",
    "date_modified": "2022-08-09T14:53:15.000",
    "request_status": "Pending",
    "responsible_agency": "Department of Sanitation",
    "final_address": "4518 General Early Dr",
    "address_councildis": "D",
    "status": "Assigned to Contractor",
    "contractor": "Metro Disposal",
    "rowid": "908021",
    "final_x": "3691244.6534",
    "final_y": "550628.709588",
    "longitude": "-90.03661749826989",
    "latitude": "30.007738330991106",
    "geocoded_column": {
      "latitude": "30.007738330991106",
      "longitude": "-90.03661749826989"
    }
  },
  {
    "service_request": "2022-908020",
    "request_type": "Roads/Drainage",
    "request_reason": "Catch Basin - Clogged",
    "date_created": "2022-08-09T14:49:19.000",
    "date_modified": "2022-08-09T14:49:19.000",
    "request_status": "Pending",
    "responsible_agency": "Department of Public Works",
    "final_address": "S CLARK ST & BAUDIN ST",
    "address_councildis": "B",
    "status": "Pending",
    "rowid": "908020",
    "final_x": "3671892.4",
    "final_y": "535721.88",
    "longitude": "-90.09826471676912",
    "latitude": "29.967337664226555",
    "geocoded_column": {
      "latitude": "29.967337664226555",
      "longitude": "-90.09826471676912"
    }
  },
  {
    "service_request": "2022-908019",
    "request_type": "Abandoned Vehicles",
    "request_reason": "Abandoned/Junk Vehicles",
    "date_created": "2022-08-09T14:49:14.000",
    "date_modified": "2022-08-09T14:49:14.000",
    "request_status": "Pending",
    "responsible_agency": "Department of Public Works",
    "final_address": "2650 St Philip St",
    "address_councildis": "D",
    "status": "Pending",
    "rowid": "908019",
    "final_x": "3677479.21896",
    "final_y": "537743.040328",
    "longitude": "-90.08055166588781",
    "latitude": "29.97272840151881",
    "geocoded_column": {
      "latitude": "29.97272840151881",
      "longitude": "-90.08055166588781"
    }
  },
  {
    "service_request": "2022-908018",
    "request_type": "Roads/Drainage",
    "request_reason": "Pothole",
    "date_created": "2022-08-09T14:45:56.000",
    "date_modified": "2022-08-09T14:45:56.000",
    "request_status": "Pending",
    "responsible_agency": "Department of Public Works",
    "final_address": "4035 Fairmont Dr",
    "address_councildis": "D",
    "status": "Pending",
    "rowid": "908018",
    "final_x": "3684791.65737",
    "final_y": "547199.378513",
    "longitude": "-90.0571250434006",
    "latitude": "29.99850812767199",
    "geocoded_column": {
      "latitude": "29.99850812767199",
      "longitude": "-90.0571250434006"
    }
  },
  {
    "service_request": "2022-908017",
    "request_type": "Abandoned Vehicles",
    "request_reason": "Vehicle Blocking Your Driveway",
    "date_created": "2022-08-09T14:45:08.000",
    "date_modified": "2022-08-09T14:45:08.000",
    "request_status": "Pending",
    "responsible_agency": "Department of Public Works",
    "final_address": "7651 Pineridge St",
    "address_councildis": "E",
    "status": "Pending",
    "rowid": "908017",
    "final_x": "3718916.74745",
    "final_y": "572204.613481",
    "longitude": "-89.94837043247651",
    "latitude": "30.066173215703",
    "geocoded_column": {
      "latitude": "30.066173215703",
      "longitude": "-89.94837043247651"
    }
  },
  {
    "service_request": "2022-908016",
    "request_type": "Traffic Signals/Signs/Striping/Streetlights",
    "request_reason": "Traffic Signal Malfunctioning/Damaged",
    "date_created": "2022-08-09T14:44:04.000",
    "date_modified": "2022-08-09T14:44:04.000",
    "request_status": "Pending",
    "responsible_agency": "Department of Public Works",
    "final_address": "100 W Harrison Ave HM",
    "address_councildis": "A",
    "status": "Pending",
    "rowid": "908016",
    "final_x": "3666151.46407",
    "final_y": "549533.215123",
    "longitude": "-90.11593134175698",
    "latitude": "30.00548305629861",
    "geocoded_column": {
      "latitude": "30.00548305629861",
      "longitude": "-90.11593134175698"
    }
  },
  {
    "service_request": "2022-908015",
    "request_type": "Roads/Drainage",
    "request_reason": "Debris in Roadway",
    "date_created": "2022-08-09T14:43:13.000",
    "date_modified": "2022-08-09T14:43:13.000",
    "request_status": "Pending",
    "responsible_agency": "Department of Public Works",
    "final_address": "3027 St Philip St",
    "address_councildis": "A",
    "status": "Pending",
    "rowid": "908015",
    "final_x": "3676201.38049",
    "final_y": "538819.900041",
    "longitude": "-90.08455025551443",
    "latitude": "29.975727750986355",
    "geocoded_column": {
      "latitude": "29.975727750986355",
      "longitude": "-90.08455025551443"
    }
  },
  {
    "service_request": "2022-908014",
    "request_type": "Abandoned Vehicles",
    "request_reason": "Abandoned/Junk Vehicles",
    "date_created": "2022-08-09T14:42:06.000",
    "date_modified": "2022-08-09T14:42:06.000",
    "request_status": "Pending",
    "responsible_agency": "Department of Public Works",
    "final_address": "7420 Chadbourne Dr",
    "address_councildis": "E",
    "status": "Pending",
    "rowid": "908014",
    "final_x": "3701546.66941",
    "final_y": "557517.999195",
    "longitude": "-90.0038180884462",
    "latitude": "30.026356660080115",
    "geocoded_column": {
      "latitude": "30.026356660080115",
      "longitude": "-90.0038180884462"
    }
  },
  {
    "service_request": "2022-908013",
    "request_type": "Trash/Recycling",
    "request_reason": "Request a Large Item Pick Up",
    "date_created": "2022-08-09T14:41:34.000",
    "date_modified": "2022-08-09T14:41:34.000",
    "request_status": "Pending",
    "responsible_agency": "Department of Sanitation",
    "final_address": "11141 N Forest Park Ct",
    "address_councildis": "E",
    "status": "Assigned to Contractor",
    "contractor": "Metro Disposal",
    "rowid": "908013",
    "final_x": "3716737.74098",
    "final_y": "558758.280476",
    "longitude": "-89.95576952360054",
    "latitude": "30.029273535568873",
    "geocoded_column": {
      "latitude": "30.029273535568873",
      "longitude": "-89.95576952360054"
    }
  },
  {
    "service_request": "2022-908012",
    "request_type": "Trash/Recycling",
    "request_reason": "Replace Trash Cart",
    "date_created": "2022-08-09T14:40:10.000",
    "date_modified": "2022-08-09T14:40:11.000",
    "request_status": "Pending",
    "responsible_agency": "Department of Sanitation",
    "final_address": "3703 S Saratoga St",
    "address_councildis": "B",
    "status": "Assigned to Contractor",
    "contractor": "Richards Disposal",
    "rowid": "908012",
    "final_x": "3672636.80801",
    "final_y": "522952.191099",
    "longitude": "-90.09634920680692",
    "latitude": "29.93220314510709",
    "geocoded_column": {
      "latitude": "29.93220314510709",
      "longitude": "-90.09634920680692"
    }
  },
  {
    "service_request": "2022-908011",
    "request_type": "Trash/Recycling",
    "request_reason": "Illegal Dumping",
    "date_created": "2022-08-09T14:33:21.000",
    "date_modified": "2022-08-09T14:33:21.000",
    "request_status": "Pending",
    "responsible_agency": "Department of Sanitation",
    "final_address": "6317 N Rampart St",
    "address_councildis": "E",
    "status": "Pending",
    "rowid": "908011",
    "final_x": "3700104.05911",
    "final_y": "532608.74042",
    "longitude": "-90.00928605587106",
    "latitude": "29.957911355860332",
    "geocoded_column": {
      "latitude": "29.957911355860332",
      "longitude": "-90.00928605587106"
    }
  },