[
  {
    "service_request": "2023-1016990",
    "request_type": "Property Maintenance",
    "request_reason": "Property Maintenance",
    "date_created": "2023-07-14T01:41:36.000",
    "date_modified": "2023-07-14T01:41:36.000",
    "request_status": "Pending",
    "responsible_agency": "Department of Code Enforcement",
    "final_address": "4118 N Roman St",
    "address_councildis": "D",
    "status": "Pending",
    "rowid": "1016990",
    "final_x": "3692951.8223",
    "final_y": "537764.63604",
    "longitude": "-90.03168574865765",
    "latitude": "29.972313560670244",
    "geocoded_column": {
      "latitude": "29.972313560670244",
      "longitude": "-90.03168574865765"
    }
  },
  {
    "service_request": "2023-1016989",
    "request_type": "Property Maintenance",
    "request_reason": "Property Maintenance",
    "date_created": "2023-07-14T01:40:54.000",
    "date_modified": "2023-07-14T01:40:54.000",
    "request_status": "Pending",
    "responsible_agency": "Department of Code Enforcement",
    "final_address": "4118 N Roman St",
    "address_councildis": "D",
    "status": "Pending",
    "rowid": "1016989",
    "final_x": "3692951.8223",
    "final_y": "537764.63604",
    "longitude": "-90.03168574865765",
    "latitude": "29.972313560670244",
    "geocoded_column": {
      "latitude": "29.972313560670244",
      "longitude": "-90.03168574865765"
    }
  },
  {
    "service_request": "2023-1016988",
    "request_type": "Trash/Recycling",
    "request_reason": "Illegal Dumping",
    "date_created": "2023-07-14T01:29:18.000",
    "date_modified": "2023-07-14T01:29:18.000",
    "request_status": "Pending",
    "responsible_agency": "Department of Sanitation",
    "final_address": "4227 Tulane Ave",
    "address_councildis": "A",
    "status": "Pending",
    "rowid": "1016988",
    "final_x": "3668773.98676",
    "final_y": "536667.534279",
    "longitude": "-90.10808080845725",
    "latitude": "29.970029952334652",
    "geocoded_column": {
      "latitude": "29.970029952334652",
      "longitude": "-90.10808080845725"
    }
  },
  {
    "service_request": "2023-1016987",
    "request_type": "Roads/Drainage",
    "request_reason": "WaterMain Break",
    "date_created": "2023-07-14T01:17:03.000",
    "date_modified": "2023-07-14T01:17:03.000",
    "request_status": "Pending",
    "responsible_agency": "Department of Public Works",
    "final_address": "3038 St Philip St",
    "address_councildis": "A",
    "status": "Pending",
    "rowid": "1016987",
    "final_x": "3676102.71937",
    "final_y": "538803.861257",
    "longitude": "-90.08486240718794",
    "latitude": "29.975686606018545",
    "geocoded_column": {
      "latitude": "29.975686606018545",
      "longitude": "-90.08486240718794"
    }
  },
  {
    "service_request": "2023-1016986",
    "request_type": "Roads/Drainage",
    "request_reason": "Pothole",
    "date_created": "2023-07-14T01:00:51.000",
    "date_modified": "2023-07-14T01:00:51.000",
    "request_status": "Pending",
    "responsible_agency": "Department of Public Works",
    "final_address": "6138 Magazine St",
    "address_councildis": "A",
    "status": "Pending",
    "rowid": "1016986",
    "final_x": "3663865.84992",
    "final_y": "519494.220663",
    "longitude": "-90.12415359720005",
    "latitude": "29.92295225582307",
    "geocoded_column": {
      "latitude": "29.92295225582307",
      "longitude": "-90.12415359720005"
    }
  },
  {
    "service_request": "2023-1016985",
    "request_type": "Roads/Drainage",
    "request_reason": "Road Shoulder Repair",
    "date_created": "2023-07-14T00:46:15.000",
    "date_modified": "2023-07-14T00:46:15.000",
    "request_status": "Pending",
    "responsible_agency": "Department of Public Works",
    "final_address": "3943 Magazine St",
    "address_councildis": "B",
    "status": "Pending",
    "rowid": "1016985",
    "final_x": "3672704.49147",
    "final_y": "518994.317751",
    "longitude": "-90.09627042977078",
    "latitude": "29.92131825516887",
    "geocoded_column": {
      "latitude": "29.92131825516887",
      "longitude": "-90.09627042977078"
    }
  },
  {
    "service_request": "2023-1016984",
    "request_type": "Traffic Signals/Signs/Striping/Streetlights",
    "request_reason": "Traffic Sign Missing/Damaged",
    "date_created": "2023-07-14T00:26:09.000",
    "date_modified": "2023-07-14T00:26:09.000",
    "request_status": "Pending",
    "responsible_agency": "Department of Public Works",
    "final_address": "3712 Chestnut St",
    "address_councildis": "B",
    "status": "Pending",
    "rowid": "1016984",
    "final_x": "3673371.5572",
    "final_y": "519774.015416",
    "longitude": "-90.09413817704272",
    "latitude": "29.923442354892405",
    "geocoded_column": {
      "latitude": "29.923442354892405",
      "longitude": "-90.09413817704272"
    }
  },
  {
    "service_request": "2023-1016983",
    "request_type": "Roads/Drainage",
    "request_reason": "Damaged Sidewalk",
    "date_created": "2023-07-14T00:22:00.000",
    "date_modified": "2023-07-14T00:22:00.000",
    "request_status": "Pending",
    "responsible_agency": "Department of Public Works",
    "final_address": "1406 Henry Clay Ave",
    "address_councildis": "A",
    "status": "Pending",
    "rowid": "1016983",
    "final_x": "3664495.86836",
    "final_y": "521559.920569",
    "longitude": "-90.12209593796135",
    "latitude": "29.928613985517877",
    "geocoded_column": {
      "latitude": "29.928613985517877",
      "longitude": "-90.12209593796135"
    }
  },
  {
    "service_request": "2023-1016982",
    "request_type": "Roads/Drainage",
    "request_reason": "Road Shoulder Repair",
    "date_created": "2023-07-14T00:18:26.000",
    "date_modified": "2023-07-14T00:18:26.000",
    "request_status": "Pending",
    "responsible_agency": "Department of Public Works",
    "final_address": "3629 Prytania St",
    "address_councildis": "B",
    "status": "Pending",
    "rowid": "1016982",
    "final_x": "3673410.74836",
    "final_y": "520712.326393",
    "longitude": "-90.09398242884356",
    "latitude": "29.926021243402264",
    "geocoded_column": {
      "latitude": "29.926021243402264",
      "longitude": "-90.09398242884356"
    }
  },
  {
    "service_request": "2023-1016981",
    "request_type": "Roads/Drainage",
    "request_reason": "Pothole",
    "date_created": "2023-07-14T00:17:56.000",
    "date_modified": "2023-07-14T00:17:56.000",
    "request_status": "Pending",
    "responsible_agency": "Department of Public Works",
    "final_address": "1221 Henry Clay Ave",
    "address_councildis": "A",
    "status": "Pending",
    "rowid": "1016981",
    "final_x": "3664415.3465",
    "final_y": "520988.190073",
    "longitude": "-90.122369203775",
    "latitude": "29.927044246855406",
    "geocoded_column": {
      "latitude": "29.927044246855406",
      "longitude": "-90.122369203775"
    }
  },
  {
    "service_request": "2023-1016980",
    "request_type": "Roads/Drainage",
    "request_reason": "Road Shoulder Repair",
    "date_created": "2023-07-14T00:02:27.000",
    "date_modified": "2023-07-14T00:02:27.000",
    "request_status": "Pending",
    "responsible_agency": "Department of Public Works",
    "final_address": "5065 Perrier St",
    "address_councildis": "A",
    "status": "Pending",
    "rowid": "1016980",
    "final_x": "3664706.06445",
    "final_y": "520724.100345",
    "longitude": "-90.12146029592604",
    "latitude": "29.926309631861734",
    "geocoded_column": {
      "latitude": "29.926309631861734",
      "longitude": "-90.12146029592604"
    }
  },
  {
    "service_request": "2023-1016979",
    "request_type": "Traffic Signals/Signs/Striping/Streetlights",
    "request_reason": "Street Light Outage/Malfunction",
    "date_created": "2023-07-13T23:41:25.000",
    "date_modified": "2023-07-13T23:41:26.000",
    "request_status": "Pending",
    "responsible_agency": "Department of Public Works",
    "final_address": "3501 White Oak Ave",
    "address_councildis": "C",
    "status": "Assigned to Contractor",
    "contractor": "Legacy Professional Services",
    "rowid": "1016979",
    "final_x": "3703122.45732",
    "final_y": "514421.443699",
    "longitude": "-90.00042294326816",
    "latitude": "29.907806393443558",
    "geocoded_column": {
      "latitude": "29.907806393443558",
      "longitude": "-90.00042294326816"
    }
  },
  {
    "service_request": "2023-1016978",
    "request_type": "Trash/Recycling",
    "request_reason": "Request a Large Item Pick Up",
    "date_created": "2023-07-13T23:41:00.000",
    "date_modified": "2023-07-13T23:41:00.000",
    "request_status": "Pending",
    "responsible_agency": "Department of Sanitation",
    "final_address": "7551 Dominique Pl",
    "address_councildis": "E",
    "status": "Assigned to Contractor",
    "contractor": "Waste Pro",
    "rowid": "1016978",
    "final_x": "3725467.55577",
    "final_y": "570135.617895",
    "longitude": "-89.9277429094619",
    "latitude": "30.06026501745676",
    "geocoded_column": {
      "latitude": "30.06026501745676",
      "longitude": "-89.9277429094619"
    }
  },
  {
    "service_request": "2023-1016977",
    "request_type": "Parks & Parkways",
    "request_reason": "Request Tree Service (Right of Way/Public Property)",
    "date_created": "2023-07-13T23:13:07.000",
    "date_modified": "2023-07-13T23:13:07.000",
    "request_status": "Pending",
    "responsible_agency": "Department of Parks & Parkway",
    "final_address": "7903 Plum St",
    "address_councildis": "A",
    "status": "Pending",
    "rowid": "1016977",
    "final_x": "3662757.28013",
    "final_y": "528177.268416",
    "longitude": "-90.1273644637923",
    "latitude": "29.946860013110612",
    "geocoded_column": {
      "latitude": "29.946860013110612",
      "longitude": "-90.1273644637923"
    }
  },
  {
    "service_request": "2023-1016976",
    "request_type": "Traffic Signals/Signs/Striping/Streetlights",
    "request_reason": "Traffic Signal Malfunctioning/Damaged",
    "date_created": "2023-07-13T23:10:45.000",
    "date_modified": "2023-07-13T23:10:46.000",
    "request_status": "Pending",
    "responsible_agency": "Department of Public Works",
    "final_address": "BROADWAY ST & EARHART BLVD",
    "address_councildis": "B",
    "status": "Pending",
    "rowid": "1016976",
    "final_x": "3668178.0",
    "final_y": "532499.98",
    "longitude": "-90.11010350528686",
    "latitude": "29.958588069648037",
    "geocoded_column": {
      "latitude": "29.958588069648037",
      "longitude": "-90.11010350528686"
    }
  },
  {
    "service_request": "2023-1016975",
    "request_type": "Trash/Recycling",
    "request_reason": "Request a Large Item Pick Up",
    "date_created": "2023-07-13T22:59:48.000",
    "date_modified": "2023-07-13T22:59:49.000",
    "request_status": "Pending",
    "responsible_agency": "Department of Sanitation",
    "final_address": "1428 Richland Rd",
    "address_councildis": "C",
    "status": "Assigned to Contractor",
    "contractor": "Richards Disposal",
    "rowid": "1016975",
    "final_x": "3698053.11869",
    "final_y": "525858.602173",
    "longitude": "-90.01600735591963",
    "latitude": "29.939415847655745",
    "geocoded_column": {
      "latitude": "29.939415847655745",
      "longitude": "-90.01600735591963"
    }
  },
  {
    "service_request": "2023-1016974",
    "request_type": "Roads/Drainage",
    "request_reason": "Pothole",
    "date_created": "2023-07-13T22:43:25.000",
    "date_modified": "2023-07-13T22:43:25.000",
    "request_status": "Pending",
    "responsible_agency": "Department of Public Works",
    "final_address": "2522 Cambronne St",
    "address_councildis": "A",
    "status": "Pending",
    "rowid": "1016974",
    "final_x": "3664427.41376",
    "final_y": "532740.615556",
    "longitude": "-90.12193889166069",
    "latitude": "29.959359299702985",
    "geocoded_column": {
      "latitude": "29.959359299702985",
      "longitude": "-90.12193889166069"
    }
  },
  {
    "service_request": "2023-1016973",
    "request_type": "Roads/Drainage",
    "request_reason": "Pothole",
    "date_created": "2023-07-13T22:39:22.000",
    "date_modified": "2023-07-13T22:39:22.000",
    "request_status": "Pending",
    "responsible_agency": "Department of Public Works",
    "final_address": "2400 BLK Cambronne St",
    "address_councildis": "A",
    "status": "Pending",
    "rowid": "1016973",
    "final_x": "3664201.37989",
    "final_y": "532432.916221",
    "longitude": "-90.12266292220997",
    "latitude": "29.95851979572865",
    "geocoded_column": {
      "latitude": "29.95851979572865",
      "longitude": "-90.12266292220997"
    }
  },
  {
    "service_request": "2023-1016971",
    "request_type": "Trash/Recycling",
    "request_reason": "MIssed Recycling Pick-Up",
    "date_created": "2023-07-13T22:25:05.000",
    "date_modified": "2023-07-13T22:25:06.000",
    "request_status": "Pending",
    "responsible_agency": "Department of Sanitation",
    "final_address": "2445 Charbonnet St",
    "address_councildis": "E",
    "status": "Assigned to Contractor",
    "contractor": "Waste Pro",
    "rowid": "1016971",
    "final_x": "3700065.72612",
    "final_y": "538809.251465",
    "longitude": "-90.00918083681147",
    "latitude": "29.974961751697144",
    "geocoded_column": {
      "latitude": "29.974961751697144",
      "longitude": "-90.00918083681147"
    }
  },
  {
    "service_request": "2023-1016970",
    "request_type": "Trash/Recycling",
    "request_reason": "Missed Trash Pick-Up",
    "date_created": "2023-07-13T22:02:04.000",
    "date_modified": "2023-07-13T22:02:05.000",
    "request_status": "Pending",
    "responsible_agency": "Department of Sanitation",
    "final_address": "2015 Sixth St",
    "address_councildis": "B",
    "status": "Assigned to Contractor",
    "contractor": "Richards Disposal",
    "rowid": "1016970",
    "final_x": "3674655.1611",
    "final_y": "523585.780283",
    "longitude": "-90.08995574861271",
    "latitude": "29.933885242539358",
    "geocoded_column": {
      "latitude": "29.933885242539358",
      "longitude": "-90.08995574861271"
    }
  },
  {
    "service_request": "2023-1016969",
    "request_type": "Trash/Recycling",
    "request_reason": "Request a Large Item Pick Up",
    "date_created": "2023-07-13T21:28:24.000",
    "date_modified": "2023-07-13T21:28:25.000",
    "request_status": "Pending",
    "responsible_agency": "Department of Sanitation",
    "final_address": "5736 St Anthony Ave",
    "address_councildis": "D",
    "status": "Assigned to Contractor",
    "contractor": "IV Waste",
    "rowid": "1016969",
    "final_x": "3681959.24956",
    "final_y": "554188.881816",
    "longitude": "-90.06582837342799",
    "latitude": "30.017813177588426",
    "geocoded_column": {
      "latitude": "30.017813177588426",
      "longitude": "-90.06582837342799"
    }
  },
  {
    "service_request": "2023-1016968",
    "request_type": "Traffic Signals/Signs/Striping/Streetlights",
    "request_reason": "Street Light Outage/Malfunction",
    "date_created": "2023-07-13T21:13:37.000",
    "date_modified": "2023-07-13T21:13:37.000",
    "request_status": "Pending",
    "responsible_agency": "Department of Public Works",
    "final_address": "4827 Savoie Ct",
    "address_councildis": "E",
    "status": "Assigned to Contractor",
    "contractor": "Legacy Professional Services",
    "rowid": "1016968",
    "final_x": "3725416.9616",
    "final_y": "561005.393374",
    "longitude": "-89.92825672780393",
    "latitude": "30.035162412439746",
    "geocoded_column": {
      "latitude": "30.035162412439746",
      "longitude": "-89.92825672780393"
    }
  },
  {
    "service_request": "2023-1016967",
    "request_type": "Traffic Signals/Signs/Striping/Streetlights",
    "request_reason": "Street Light Outage/Malfunction",
    "date_created": "2023-07-13T21:09:45.000",
    "date_modified": "2023-07-13T21:09:46.000",
    "request_status": "Pending",
    "responsible_agency": "Department of Public Works",
    "final_address": "4827 Savoie Ct",
    "address_councildis": "E",
    "status": "Assigned to Contractor",
    "contractor": "Legacy Professional Services",
    "rowid": "1016967",
    "final_x": "3725416.9616",
    "final_y": "561005.393374",
    "longitude": "-89.92825672780393",
    "latitude": "30.035162412439746",
    "geocoded_column": {
      "latitude": "30.035162412439746",
      "longitude": "-89.92825672780393"
    }
  },
  {
    "service_request": "2023-1016966",
    "request_type": "Trash/Recycling",
    "request_reason": "Repair Recycling Cart",
    "date_created": "2023-07-13T21:02:16.000",
    "date_modified": "2023-07-13T21:02:16.000",
    "request_status": "Pending",
    "responsible_agency": "Department of Sanitation",
    "final_address": "4829 Dreux Ave",
    "address_councildis": "D",
    "status": "Pending",
    "rowid": "1016966",
    "final_x": "3691313.13014",
    "final_y": "553273.996823",
    "longitude": "-90.03630656181487",
    "latitude": "30.0150097608185",
    "geocoded_column": {
      "latitude": "30.0150097608185",
      "longitude": "-90.03630656181487"
    }
  },
  {
    "service_request": "2023-1016965",
    "request_type": "Property Maintenance",
    "request_reason": "Property Maintenance",
    "date_created": "2023-07-13T20:41:17.000",
    "date_modified": "2023-07-13T20:41:17.000",
    "request_status": "Pending",
    "responsible_agency": "Department of Code Enforcement",
    "final_address": "3230 Pine St",
    "address_councildis": "B",
    "status": "Pending",
    "rowid": "1016965",
    "final_x": "3668063.22503",
    "final_y": "532888.151748",
    "longitude": "-90.11045285416333",
    "latitude": "29.95965878265978",
    "geocoded_column": {
      "latitude": "29.95965878265978",
      "longitude": "-90.11045285416333"
    }
  },
  {
    "service_request": "2023-1016964",
    "request_type": "Trash/Recycling",
    "request_reason": "Replace Recycling Cart",
    "date_created": "2023-07-13T20:38:35.000",
    "date_modified": "2023-07-13T20:38:35.000",
    "request_status": "Pending",
    "responsible_agency": "Department of Sanitation",
    "final_address": "159 Country Club Dr",
    "address_councildis": "A",
    "status": "Pending",
    "rowid": "1016964",
    "final_x": "3665345.77684",
    "final_y": "544429.106383",
    "longitude": "-90.11864763614156",
    "latitude": "29.991472020922032",
    "geocoded_column": {
      "latitude": "29.991472020922032",
      "longitude": "-90.11864763614156"
    }
  },
  {
    "service_request": "2023-1016963",
    "request_type": "Parks & Parkways",
    "request_reason": "Request Tree Service (Right of Way/Public Property)",
    "date_created": "2023-07-13T20:34:24.000",
    "date_modified": "2023-07-13T20:34:24.000",
    "request_status": "Pending",
    "responsible_agency": "Department of Parks & Parkway",
    "final_address": "119 Country Club Dr",
    "address_councildis": "A",
    "status": "Pending",
    "rowid": "1016963",
    "final_x": "3665656.24205",
    "final_y": "544412.388879",
    "longitude": "-90.11766750156006",
    "latitude": "29.991417000200485",
    "geocoded_column": {
      "latitude": "29.991417000200485",
      "longitude": "-90.11766750156006"
    }
  },
  {
    "service_request": "2023-1016962",
    "request_type": "Abandoned Vehicles",
    "request_reason": "Abandoned/Junk Vehicles",
    "date_created": "2023-07-13T20:29:11.000",
    "date_modified": "2023-07-13T20:29:11.000",
    "request_status": "Pending",
    "responsible_agency": "Department of Public Works",
    "final_address": "4623 S Derbigny St",
    "address_councildis": "B",
    "status": "Pending",
    "rowid": "1016962",
    "final_x": "3669289.66906",
    "final_y": "526180.381694",
    "longitude": "-90.10680674407845",
    "latitude": "29.94117856162485",
    "geocoded_column": {
      "latitude": "29.94117856162485",
      "longitude": "-90.10680674407845"
    }
  },
  {
    "service_request": "2023-1016961",
    "request_type": "Roads/Drainage",
    "request_reason": "Pothole",
    "date_created": "2023-07-13T20:15:05.000",
    "date_modified": "2023-07-13T20:15:05.000",
    "request_status": "Pending",
    "responsible_agency": "Department of Public Works",
    "final_address": "7752 Lakeshore Dr, New Orleans, Louisiana, 70124",
    "status": "Pending",
    "rowid": "1016961",
    "longitude": "0.0",
    "latitude": "0.0",
    "geocoded_column": {
      "latitude": "0.0",
      "longitude": "0.0"
    }
  },
  {
    "service_request": "2023-1016960",
    "request_type": "Trash/Recycling",
    "request_reason": "Order Trash Cart",
    "date_created": "2023-07-13T20:11:08.000",
    "date_modified": "2023-07-13T20:11:09.000",
    "request_status": "Pending",
    "responsible_agency": "Department of Sanitation",
    "final_address": "4945 Wright Rd",
    "address_councildis": "E",
    "status": "Assigned to Contractor",
    "contractor": "Waste Pro",
    "rowid": "1016960",
    "final_x": "3716694.34412",
    "final_y": "557904.820059",
    "longitude": "-89.95593907400654",
    "latitude": "30.026928295221392",
    "geocoded_column": {
      "latitude": "30.026928295221392",
      "longitude": "-89.95593907400654"
    }
  },
  {
    "service_request": "2023-1016959",
    "request_type": "Property Maintenance",
    "request_reason": "Property Maintenance",
    "date_created": "2023-07-13T20:07:23.000",
    "date_modified": "2023-07-13T20:07:23.000",
    "request_status": "Pending",
    "responsible_agency": "Department of Code Enforcement",
    "final_address": "3324 Octavia St",
    "address_councildis": "A",
    "status": "Pending",
    "rowid": "1016959",
    "final_x": "3668388.43604",
    "final_y": "527935.548095",
    "longitude": "-90.10959293312362",
    "latitude": "29.94603119606775",
    "geocoded_column": {
      "latitude": "29.94603119606775",
      "longitude": "-90.10959293312362"
    }
  },
  {
    "service_request": "2023-1016958",
    "request_type": "Parks & Parkways",
    "request_reason": "Request Tree Service (Right of Way/Public Property)",
    "date_created": "2023-07-13T20:02:47.000",
    "date_modified": "2023-07-13T20:02:47.000",
    "request_status": "Pending",
    "responsible_agency": "Department of Parks & Parkway",
    "final_address": "4528 Elba St",
    "address_councildis": "B",
    "status": "Pending",
    "rowid": "1016958",
    "final_x": "3669272.89255",
    "final_y": "530661.622658",
    "longitude": "-90.10670825473696",
    "latitude": "29.95350100754141",
    "geocoded_column": {
      "latitude": "29.95350100754141",
      "longitude": "-90.10670825473696"
    }
  },
  {
    "service_request": "2023-1016957",
    "request_type": "Property Maintenance",
    "request_reason": "Property Maintenance",
    "date_created": "2023-07-13T20:02:30.000",
    "date_modified": "2023-07-13T20:02:30.000",
    "request_status": "Pending",
    "responsible_agency": "Department of Code Enforcement",
    "final_address": "5542 Pratt Dr",
    "address_councildis": "D",
    "status": "Pending",
    "rowid": "1016957",
    "final_x": "3680244.85423",
    "final_y": "552965.284759",
    "longitude": "-90.07128777912374",
    "latitude": "30.014500763127213",
    "geocoded_column": {
      "latitude": "30.014500763127213",
      "longitude": "-90.07128777912374"
    }
  },
  {
    "service_request": "2023-1016956",
    "request_type": "Roads/Drainage",
    "request_reason": "Damaged Sidewalk",
    "date_created": "2023-07-13T20:00:49.000",
    "date_modified": "2023-07-13T20:00:49.000",
    "request_status": "Pending",
    "responsible_agency": "Department of Public Works",
    "final_address": "5519 Pratt Dr",
    "address_councildis": "D",
    "status": "Pending",
    "rowid": "1016956",
    "final_x": "3680448.44879",
    "final_y": "552813.821398",
    "longitude": "-90.07064979420579",
    "latitude": "30.01407812632547",
    "geocoded_column": {
      "latitude": "30.01407812632547",
      "longitude": "-90.07064979420579"
    }
  },
  {
    "service_request": "2023-1016955",
    "request_type": "Trash/Recycling",
    "request_reason": "Replace Trash Cart",
    "date_created": "2023-07-13T19:52:14.000",
    "date_modified": "2023-07-13T19:52:14.000",
    "request_status": "Pending",
    "responsible_agency": "Department of Sanitation",
    "final_address": "718 Whitney Ave",
    "address_councildis": "C",
    "status": "Assigned to Contractor",
    "contractor": "Richards Disposal",
    "rowid": "1016955",
    "final_x": "3690286.7128",
    "final_y": "528827.57344",
    "longitude": "-90.04042106960118",
    "latitude": "29.947822728043988",
    "geocoded_column": {
      "latitude": "29.947822728043988",
      "longitude": "-90.04042106960118"
    }
  },
  {
    "service_request": "2023-1016954",
    "request_type": "Property Maintenance",
    "request_reason": "Property Maintenance",
    "date_created": "2023-07-13T19:50:54.000",
    "date_modified": "2023-07-13T19:50:54.000",
    "request_status": "Pending",
    "responsible_agency": "Department of Code Enforcement",
    "final_address": "5542 Pratt Dr",
    "address_councildis": "D",
    "status": "Pending",
    "rowid": "1016954",
    "final_x": "3680244.85423",
    "final_y": "552965.284759",
    "longitude": "-90.07128777912374",
    "latitude": "30.014500763127213",
    "geocoded_column": {
      "latitude": "30.014500763127213",
      "longitude": "-90.07128777912374"
    }
  },
  {
    "service_request": "2023-1016953",
    "request_type": "Trash/Recycling",
    "request_reason": "Order Recycling Cart",
    "date_created": "2023-07-13T19:48:11.000",
    "date_modified": "2023-07-13T19:48:11.000",
    "request_status": "Pending",
    "responsible_agency": "Department of Sanitation",
    "final_address": "6370 Colbert St",
    "address_councildis": "A",
    "status": "Pending",
    "rowid": "1016953",
    "final_x": "3667584.06669",
    "final_y": "549978.592916",
    "longitude": "-90.11139041083848",
    "latitude": "30.00666576077523",
    "geocoded_column": {
      "latitude": "30.00666576077523",
      "longitude": "-90.11139041083848"
    }
  },
  {
    "service_request": "2023-1016952",
    "request_type": "Trash/Recycling",
    "request_reason": "Missed Trash Pick-Up",
    "date_created": "2023-07-13T19:33:14.000",
    "date_modified": "2023-07-13T19:33:15.000",
    "request_status": "Pending",
    "responsible_agency": "Department of Sanitation",
    "final_address": "1716 Sixth St",
    "address_councildis": "B",
    "status": "Assigned to Contractor",
    "contractor": "Richards Disposal",
    "rowid": "1016952",
    "final_x": "3675164.96219",
    "final_y": "522683.141562",
    "longitude": "-90.08837728773",
    "latitude": "29.931388058726576",
    "geocoded_column": {
      "latitude": "29.931388058726576",
      "longitude": "-90.08837728773"
    }
  },
  {
    "service_request": "2023-1016951",
    "request_type": "Property Maintenance",
    "request_reason": "Property Maintenance",
    "date_created": "2023-07-13T19:32:23.000",
    "date_modified": "2023-07-13T19:32:24.000",
    "request_status": "Pending",
    "responsible_agency": "Department of Code Enforcement",
    "final_address": "2544 Dubreuil St",
    "address_councildis": "E",
    "status": "Pending",
    "rowid": "1016951",
    "final_x": "3702808.69937",
    "final_y": "538117.000393",
    "longitude": "-90.00054331898447",
    "latitude": "29.97297086944777",
    "geocoded_column": {
      "latitude": "29.97297086944777",
      "longitude": "-90.00054331898447"
    }
  },
  {
    "service_request": "2023-1016950",
    "request_type": "Trash/Recycling",
    "request_reason": "Replace Trash Cart",
    "date_created": "2023-07-13T19:18:12.000",
    "date_modified": "2023-07-13T19:18:13.000",
    "request_status": "Pending",
    "responsible_agency": "Department of Sanitation",
    "final_address": "1236 Gardena Dr",
    "address_councildis": "D",
    "status": "Assigned to Contractor",
    "contractor": "IV Waste",
    "rowid": "1016950",
    "final_x": "3677087.1243",
    "final_y": "551306.657429",
    "longitude": "-90.08132191870654",
    "latitude": "30.010035386280492",
    "geocoded_column": {
      "latitude": "30.010035386280492",
      "longitude": "-90.08132191870654"
    }
  },
  {
    "service_request": "2023-1016949",
    "request_type": "Roads/Drainage",
    "request_reason": "Street Subsidence (Sinking)",
    "date_created": "2023-07-13T19:14:46.000",
    "date_modified": "2023-07-13T19:14:46.000",
    "request_status": "Pending",
    "responsible_agency": "Department of Public Works",
    "final_address": "1528 Franklin Ave",
    "address_councildis": "C",
    "status": "Pending",
    "rowid": "1016949",
    "final_x": "3687458.27036",
    "final_y": "538224.000329",
    "longitude": "-90.0490190268025",
    "latitude": "29.97374710099205",
    "geocoded_column": {
      "latitude": "29.97374710099205",
      "longitude": "-90.0490190268025"
    }
  },
  {
    "service_request": "2023-1016948",
    "request_type": "Property Maintenance",
    "request_reason": "Property Maintenance",
    "date_created": "2023-07-13T18:59:20.000",
    "date_modified": "2023-07-13T18:59:20.000",
    "request_status": "Pending",
    "responsible_agency": "Department of Code Enforcement",
    "final_address": "1810 Lamanche St",
    "address_councildis": "E",
    "status": "Pending",
    "rowid": "1016948",
    "final_x": "3699012.80388",
    "final_y": "536414.139207",
    "longitude": "-90.01259340409382",
    "latitude": "29.968409471173732",
    "geocoded_column": {
      "latitude": "29.968409471173732",
      "longitude": "-90.01259340409382"
    }
  },
  {
    "service_request": "2023-1016947",
    "request_type": "Trash/Recycling",
    "request_reason": "Request a Large Item Pick Up",
    "date_created": "2023-07-13T18:46:05.000",
    "date_modified": "2023-07-13T18:46:06.000",
    "request_status": "Pending",
    "responsible_agency": "Department of Sanitation",
    "final_address": "8330 Willow St, New Orleans, Louisiana, 70118",
    "address_councildis": "A",
    "status": "Assigned to Contractor",
    "contractor": "Richards Disposal",
    "rowid": "1016947",
    "final_x": "3661681.63674",
    "final_y": "529525.801217",
    "longitude": "-90.13071599402335",
    "latitude": "29.950599131185538",
    "geocoded_column": {
      "latitude": "29.950599131185538",
      "longitude": "-90.13071599402335"
    }
  },
  {
    "service_request": "2023-1016946",
    "request_type": "Traffic Signals/Signs/Striping/Streetlights",
    "request_reason": "Street Light Outage/Malfunction",
    "date_created": "2023-07-13T18:35:00.000",
    "date_modified": "2023-07-13T18:35:00.000",
    "request_status": "Pending",
    "responsible_agency": "Department of Public Works",
    "final_address": "1742 Bartholomew St",
    "address_councildis": "D",
    "status": "Assigned to Contractor",
    "contractor": "Legacy Professional Services",
    "rowid": "1016946",
    "final_x": "3692409.04873",
    "final_y": "537906.025225",
    "longitude": "-90.03339484822973",
    "latitude": "29.972719273324078",
    "geocoded_column": {
      "latitude": "29.972719273324078",
      "longitude": "-90.03339484822973"
    }
  },
  {
    "service_request": "2023-1016945",
    "request_type": "Trash/Recycling",
    "request_reason": "Start Trash Service",
    "date_created": "2023-07-13T18:29:57.000",
    "date_modified": "2023-07-13T18:29:57.000",
    "request_status": "Pending",
    "responsible_agency": "Department of Sanitation",
    "final_address": "3748 Virgil Blvd",
    "address_councildis": "D",
    "status": "Assigned to Contractor",
    "contractor": "IV Waste",
    "rowid": "1016945",
    "final_x": "3680792.8141",
    "final_y": "546239.4132",
    "longitude": "-90.06979082944922",
    "latitude": "29.995990421971022",
    "geocoded_column": {
      "latitude": "29.995990421971022",
      "longitude": "-90.06979082944922"
    }
  },
  {
    "service_request": "2023-1016944",
    "request_type": "Trash/Recycling",
    "request_reason": "MIssed Recycling Pick-Up",
    "date_created": "2023-07-13T18:15:34.000",
    "date_modified": "2023-07-13T18:15:35.000",
    "request_status": "Pending",
    "responsible_agency": "Department of Sanitation",
    "final_address": "7839 Means Ave",
    "address_councildis": "E",
    "status": "Assigned to Contractor",
    "contractor": "Waste Pro",
    "rowid": "1016944",
    "final_x": "3707719.02398",
    "final_y": "565457.385634",
    "longitude": "-89.98401891734659",
    "latitude": "30.04798846375072",
    "geocoded_column": {
      "latitude": "30.04798846375072",
      "longitude": "-89.98401891734659"
    }
  },
  {
    "service_request": "2023-1016943",
    "request_type": "Trash/Recycling",
    "request_reason": "MIssed Recycling Pick-Up",
    "date_created": "2023-07-13T18:14:17.000",
    "date_modified": "2023-07-13T18:14:17.000",
    "request_status": "Pending",
    "responsible_agency": "Department of Sanitation",
    "final_address": "7841 Means Ave",
    "address_councildis": "E",
    "status": "Assigned to Contractor",
    "contractor": "Waste Pro",
    "rowid": "1016943",
    "final_x": "3707710.93016",
    "final_y": "565471.862498",
    "longitude": "-89.98404395940597",
    "latitude": "30.04802853138983",
    "geocoded_column": {
      "latitude": "30.04802853138983",
      "longitude": "-89.98404395940597"
    }
  },
  {
    "service_request": "2023-1016942",
    "request_type": "Safety & Permits",
    "request_reason": "Licenses & Permits",
    "date_created": "2023-07-13T18:12:23.000",
    "date_modified": "2023-07-13T18:12:23.000",
    "request_status": "Pending",
    "responsible_agency": "Safety and Permits",
    "final_address": "7819 St Charles Ave",
    "address_councildis": "A",
    "status": "Pending",
    "rowid": "1016942",
    "final_x": "3661329.49382",
    "final_y": "526225.123326",
    "longitude": "-90.1319371574893",
    "latitude": "29.94153347795166",
    "geocoded_column": {
      "latitude": "29.94153347795166",
      "longitude": "-90.1319371574893"
    }
  },
  {
    "service_request": "2023-1016940",
    "request_type": "Trash/Recycling",
    "request_reason": "MIssed Recycling Pick-Up",
    "date_created": "2023-07-13T18:07:42.000",
    "date_modified": "2023-07-13T18:07:43.000",
    "request_status": "Pending",
    "responsible_agency": "Department of Sanitation",
    "final_address": "2510 Dumaine St",
    "address_councildis": "D",
    "status": "Assigned to Contractor",
    "contractor": "Richards Disposal",
    "rowid": "1016940",
    "final_x": "3677855.29461",
    "final_y": "536942.021768",
    "longitude": "-90.07939163311904",
    "latitude": "29.970514563439806",
    "geocoded_column": {
      "latitude": "29.970514563439806",
      "longitude": "-90.07939163311904"
    }
  },
  {
    "service_request": "2023-1016939",
    "request_type": "Trash/Recycling",
    "request_reason": "MIssed Recycling Pick-Up",
    "date_created": "2023-07-13T18:05:41.000",
    "date_modified": "2023-07-13T18:05:41.000",
    "request_status": "Closed",
    "responsible_agency": "Department of Sanitation",
    "final_address": "2510 Dumaine St",
    "address_councildis": "D",
    "status": "Resolved",
    "rowid": "1016939",
    "final_x": "3677855.29461",
    "final_y": "536942.021768",
    "longitude": "-90.07939163311904",
    "latitude": "29.970514563439806",
    "geocoded_column": {
      "latitude": "29.970514563439806",
      "longitude": "-90.07939163311904"
    }
  },
  {
    "service_request": "2023-1016938",
    "request_type": "Trash/Recycling",
    "request_reason": "Request a Large Item Pick Up",
    "date_created": "2023-07-13T18:03:23.000",
    "date_modified": "2023-07-13T18:03:23.000",
    "request_status": "Pending",
    "responsible_agency": "Department of Sanitation",
    "final_address": "5019 Michoud Blvd",
    "address_councildis": "E",
    "status": "Assigned to Contractor",
    "contractor": "Waste Pro",
    "rowid": "1016938",
    "final_x": "3724963.13868",
    "final_y": "561873.868511",
    "longitude": "-89.92965724026449",
    "latitude": "30.037565655624523",
    "geocoded_column": {
      "latitude": "30.037565655624523",
      "longitude": "-89.92965724026449"
    }
  },
  {
    "service_request": "2023-1016936",
    "request_type": "Traffic Signals/Signs/Striping/Streetlights",
    "request_reason": "Traffic Sign Missing/Damaged",
    "date_created": "2023-07-13T17:53:24.000",
    "date_modified": "2023-07-13T17:53:24.000",
    "request_status": "Pending",
    "responsible_agency": "Department of Public Works",
    "final_address": "N PETERS ST & BIENVILLE ST",
    "address_councildis": "C",
    "status": "Pending",
    "rowid": "1016936",
    "final_x": "3682447.3",
    "final_y": "530707.28",
    "longitude": "-90.06510749596413",
    "latitude": "29.953232182373185",
    "geocoded_column": {
      "latitude": "29.953232182373185",
      "longitude": "-90.06510749596413"
    }
  },
  {
    "service_request": "2023-1016935",
    "request_type": "Roads/Drainage",
    "request_reason": "Debris in Roadway",
    "date_created": "2023-07-13T17:53:18.000",
    "date_modified": "2023-07-13T17:53:19.000",
    "request_status": "Pending",
    "responsible_agency": "Department of Public Works",
    "final_address": "4400 Canal St",
    "address_councildis": "A",
    "status": "Pending",
    "rowid": "1016935",
    "final_x": "3669921.30778",
    "final_y": "539132.76897",
    "longitude": "-90.10437394188354",
    "latitude": "29.976774734441904",
    "geocoded_column": {
      "latitude": "29.976774734441904",
      "longitude": "-90.10437394188354"
    }
  },
  {
    "service_request": "2023-1016934",
    "request_type": "Traffic Signals/Signs/Striping/Streetlights",
    "request_reason": "Street Light Outage/Malfunction",
    "date_created": "2023-07-13T17:43:55.000",
    "date_modified": "2023-07-13T17:43:55.000",
    "request_status": "Pending",
    "responsible_agency": "Department of Public Works",
    "final_address": "4510 Longfellow Dr",
    "address_councildis": "E",
    "status": "Assigned to Contractor",
    "contractor": "Legacy Professional Services",
    "rowid": "1016934",
    "final_x": "3709687.00497",
    "final_y": "554503.526424",
    "longitude": "-89.9782084728539",
    "latitude": "30.017805818012075",
    "geocoded_column": {
      "latitude": "30.017805818012075",
      "longitude": "-89.9782084728539"
    }
  },
  {
    "service_request": "2023-1016933",
    "request_type": "Traffic Signals/Signs/Striping/Streetlights",
    "request_reason": "Street Light Outage/Malfunction",
    "date_created": "2023-07-13T17:42:41.000",
    "date_modified": "2023-07-13T17:42:42.000",
    "request_status": "Pending",
    "responsible_agency": "Department of Public Works",
    "final_address": "2133 S Liberty St",
    "address_councildis": "B",
    "status": "Assigned to Contractor",
    "contractor": "Legacy Professional Services",
    "rowid": "1016933",
    "final_x": "3676047.70625",
    "final_y": "525919.966909",
    "longitude": "-90.08547929052807",
    "latitude": "29.940261867751722",
    "geocoded_column": {
      "latitude": "29.940261867751722",
      "longitude": "-90.08547929052807"
    }
  },
  {
    "service_request": "2023-1016932",
    "request_type": "Abandoned Vehicles",
    "request_reason": "Abandoned/Junk Vehicles",
    "date_created": "2023-07-13T17:41:14.000",
    "date_modified": "2023-07-13T17:42:44.000",
    "request_status": "Pending",
    "responsible_agency": "Department of Public Works",
    "final_address": "803 Adele St",
    "address_councildis": "B",
    "status": "Pending",
    "rowid": "1016932",
    "final_x": "3680019.79605",
    "final_y": "521669.771193",
    "longitude": "-90.07308636161243",
    "latitude": "29.928455691015483",
    "geocoded_column": {
      "latitude": "29.928455691015483",
      "longitude": "-90.07308636161243"
    }
  },
  {
    "service_request": "2023-1016931",
    "request_type": "Trash/Recycling",
    "request_reason": "Request a Large Item Pick Up",
    "date_created": "2023-07-13T17:41:00.000",
    "date_modified": "2023-07-13T17:41:00.000",
    "request_status": "Pending",
    "responsible_agency": "Department of Sanitation",
    "final_address": "5019 Michoud Blvd",
    "address_councildis": "E",
    "status": "Assigned to Contractor",
    "contractor": "Waste Pro",
    "rowid": "1016931",
    "final_x": "3724963.13868",
    "final_y": "561873.868511",
    "longitude": "-89.92965724026449",
    "latitude": "30.037565655624523",
    "geocoded_column": {
      "latitude": "30.037565655624523",
      "longitude": "-89.92965724026449"
    }
  },
  {
    "service_request": "2023-1016930",
    "request_type": "Roads/Drainage",
    "request_reason": "Street Flooding / Drainage",
    "date_created": "2023-07-13T17:40:27.000",
    "date_modified": "2023-07-13T17:40:27.000",
    "request_status": "Pending",
    "responsible_agency": "Department of Public Works",
    "final_address": "2801 Franklin Ave",
    "address_councildis": "D",
    "status": "Pending",
    "rowid": "1016930",
    "final_x": "3687463.88873",
    "final_y": "543219.95611",
    "longitude": "-90.04882440505301",
    "latitude": "29.987484037612635",
    "geocoded_column": {
      "latitude": "29.987484037612635",
      "longitude": "-90.04882440505301"
    }
  },
  {
    "service_request": "2023-1016929",
    "request_type": "Parks & Parkways",
    "request_reason": "Request Tree Service (Right of Way/Public Property)",
    "date_created": "2023-07-13T17:39:11.000",
    "date_modified": "2023-07-13T17:41:28.000",
    "request_status": "Pending",
    "responsible_agency": "Department of Parks & Parkway",
    "final_address": "20213 Old Spanish Trl",
    "address_councildis": "E",
    "status": "Pending",
    "rowid": "1016929",
    "final_x": "3759725.16112",
    "final_y": "572725.757865",
    "longitude": "-89.81935076203963",
    "latitude": "30.06618673437259",
    "geocoded_column": {
      "latitude": "30.06618673437259",
      "longitude": "-89.81935076203963"
    }
  },
  {
    "service_request": "2023-1016928",
    "request_type": "Property Maintenance",
    "request_reason": "Property Maintenance",
    "date_created": "2023-07-13T17:37:45.000",
    "date_modified": "2023-07-13T17:37:46.000",
    "request_status": "Pending",
    "responsible_agency": "Department of Code Enforcement",
    "final_address": "922 Jackson Ave",
    "address_councildis": "B",
    "status": "Pending",
    "rowid": "1016928",
    "final_x": "3679136.62479",
    "final_y": "521608.627513",
    "longitude": "-90.07587646126022",
    "latitude": "29.928314245336406",
    "geocoded_column": {
      "latitude": "29.928314245336406",
      "longitude": "-90.07587646126022"
    }
  },
  {
    "service_request": "2023-1016927",
    "request_type": "Trash/Recycling",
    "request_reason": "MIssed Recycling Pick-Up",
    "date_created": "2023-07-13T17:25:00.000",
    "date_modified": "2023-07-13T17:25:01.000",
    "request_status": "Pending",
    "responsible_agency": "Department of Sanitation",
    "final_address": "1032 Valmont St",
    "address_councildis": "B",
    "status": "Assigned to Contractor",
    "contractor": "Richards Disposal",
    "rowid": "1016927",
    "final_x": "3667501.80557",
    "final_y": "519323.747319",
    "longitude": "-90.11268199378449",
    "latitude": "29.922377503608473",
    "geocoded_column": {
      "latitude": "29.922377503608473",
      "longitude": "-90.11268199378449"
    }
  },
  {
    "service_request": "2023-1016926",
    "request_type": "Trash/Recycling",
    "request_reason": "Missed Trash Pick-Up",
    "date_created": "2023-07-13T17:23:13.000",
    "date_modified": "2023-07-13T17:23:13.000",
    "request_status": "Pending",
    "responsible_agency": "Department of Sanitation",
    "final_address": "1032 Valmont St",
    "address_councildis": "B",
    "status": "Assigned to Contractor",
    "contractor": "Richards Disposal",
    "rowid": "1016926",
    "final_x": "3667501.80557",
    "final_y": "519323.747319",
    "longitude": "-90.11268199378449",
    "latitude": "29.922377503608473",
    "geocoded_column": {
      "latitude": "29.922377503608473",
      "longitude": "-90.11268199378449"
    }
  },
  {
    "service_request": "2023-1016925",
    "request_type": "Property Maintenance",
    "request_reason": "Property Maintenance",
    "date_created": "2023-07-13T17:21:55.000",
    "date_modified": "2023-07-13T17:21:55.000",
    "request_status": "Pending",
    "responsible_agency": "Department of Code Enforcement",
    "final_address": "607 Lang St",
    "address_councildis": "C",
    "status": "Pending",
    "rowid": "1016925",
    "final_x": "3702005.96106",
    "final_y": "520722.266937",
    "longitude": "-90.0037159709561",
    "latitude": "29.92516716499408",
    "geocoded_column": {
      "latitude": "29.92516716499408",
      "longitude": "-90.0037159709561"
    }
  },
  {
    "service_request": "2023-1016924",
    "request_type": "Roads/Drainage",
    "request_reason": "Leaking Hydrant",
    "date_created": "2023-07-13T17:20:16.000",
    "date_modified": "2023-07-13T17:20:17.000",
    "request_status": "Pending",
    "responsible_agency": "Department of Public Works",
    "final_address": "8201 Chef Menteur Hwy",
    "address_councildis": "E",
    "status": "Pending",
    "rowid": "1016924",
    "final_x": "3705697.98123",
    "final_y": "553095.810263",
    "longitude": "-89.99086424932696",
    "latitude": "30.014064253586685",
    "geocoded_column": {
      "latitude": "30.014064253586685",
      "longitude": "-89.99086424932696"
    }
  },
  {
    "service_request": "2023-1016923",
    "request_type": "Property Maintenance",
    "request_reason": "Property Maintenance",
    "date_created": "2023-07-13T17:16:03.000",
    "date_modified": "2023-07-13T17:16:03.000",
    "request_status": "Pending",
    "responsible_agency": "Department of Code Enforcement",
    "final_address": "7850 Hayne Blvd",
    "address_councildis": "E",
    "status": "Pending",
    "rowid": "1016923",
    "final_x": "3701298.11274",
    "final_y": "562374.775135",
    "longitude": "-90.00442550593341",
    "latitude": "30.039718835408507",
    "geocoded_column": {
      "latitude": "30.039718835408507",
      "longitude": "-90.00442550593341"
    }
  },
  {
    "service_request": "2023-1016922",
    "request_type": "Roads/Drainage",
    "request_reason": "Pothole",
    "date_created": "2023-07-13T17:12:54.000",
    "date_modified": "2023-07-13T17:12:54.000",
    "request_status": "Pending",
    "responsible_agency": "Department of Public Works",
    "final_address": "5000 BLK Pontchartrain Blvd",
    "address_councildis": "A",
    "status": "Pending",
    "rowid": "1016922",
    "final_x": "3666939.22776",
    "final_y": "540401.179812",
    "longitude": "-90.11374968077287",
    "latitude": "29.980350045854163",
    "geocoded_column": {
      "latitude": "29.980350045854163",
      "longitude": "-90.11374968077287"
    }
  },
  {
    "service_request": "2023-1016921",
    "request_type": "Abandoned Vehicles",
    "request_reason": "Abandoned/Junk Vehicles",
    "date_created": "2023-07-13T17:04:59.000",
    "date_modified": "2023-07-13T17:04:59.000",
    "request_status": "Pending",
    "responsible_agency": "Department of Public Works",
    "final_address": "1813 Elysian Fields Ave",
    "address_councildis": "D",
    "status": "Pending",
    "rowid": "1016921",
    "final_x": "3684911.03714",
    "final_y": "539019.848394",
    "longitude": "-90.05703573308968",
    "latitude": "29.9760136634919",
    "geocoded_column": {
      "latitude": "29.9760136634919",
      "longitude": "-90.05703573308968"
    }
  },
  {
    "service_request": "2023-1016920",
    "request_type": "Roads/Drainage",
    "request_reason": "Catch Basin - Broken/Damage",
    "date_created": "2023-07-13T16:59:52.000",
    "date_modified": "2023-07-13T16:59:52.000",
    "request_status": "Pending",
    "responsible_agency": "Department of Public Works",
    "final_address": "614 Napoleon Ave",
    "address_councildis": "B",
    "status": "Pending",
    "rowid": "1016920",
    "final_x": "3671052.70727",
    "final_y": "517883.358262",
    "longitude": "-90.10152209579502",
    "latitude": "29.9183124003833",
    "geocoded_column": {
      "latitude": "29.9183124003833",
      "longitude": "-90.10152209579502"
    }
  },
  {
    "service_request": "2023-1016919",
    "request_type": "Property Maintenance",
    "request_reason": "Property Maintenance",
    "date_created": "2023-07-13T16:53:52.000",
    "date_modified": "2023-07-13T16:53:52.000",
    "request_status": "Pending",
    "responsible_agency": "Department of Code Enforcement",
    "final_address": "5929 Music St",
    "address_councildis": "D",
    "status": "Pending",
    "rowid": "1016919",
    "final_x": "3685409.85404",
    "final_y": "554968.454296",
    "longitude": "-90.05489833777102",
    "latitude": "30.01985131014029",
    "geocoded_column": {
      "latitude": "30.01985131014029",
      "longitude": "-90.05489833777102"
    }
  },
  {
    "service_request": "2023-1016918",
    "request_type": "Trash/Recycling",
    "request_reason": "Order Recycling Cart",
    "date_created": "2023-07-13T16:53:19.000",
    "date_modified": "2023-07-13T16:53:19.000",
    "request_status": "Pending",
    "responsible_agency": "Department of Sanitation",
    "final_address": "2336 Iberville St",
    "address_councildis": "B",
    "status": "Pending",
    "rowid": "1016918",
    "final_x": "3676694.84264",
    "final_y": "534584.041541",
    "longitude": "-90.08313772666804",
    "latitude": "29.96406578649667",
    "geocoded_column": {
      "latitude": "29.96406578649667",
      "longitude": "-90.08313772666804"
    }
  },
  {
    "service_request": "2023-1016917",
    "request_type": "Trash/Recycling",
    "request_reason": "Order Recycling Cart",
    "date_created": "2023-07-13T16:51:37.000",
    "date_modified": "2023-07-13T16:51:37.000",
    "request_status": "Pending",
    "responsible_agency": "Department of Sanitation",
    "final_address": "2420 Columbus St",
    "address_councildis": "D",
    "status": "Pending",
    "rowid": "1016917",
    "final_x": "3679326.55592",
    "final_y": "538999.56641",
    "longitude": "-90.07467384313264",
    "latitude": "29.976127749699366",
    "geocoded_column": {
      "latitude": "29.976127749699366",
      "longitude": "-90.07467384313264"
    }
  },
  {
    "service_request": "2023-1016916",
    "request_type": "Trash/Recycling",
    "request_reason": "Order Trash Cart",
    "date_created": "2023-07-13T16:51:07.000",
    "date_modified": "2023-07-13T16:51:07.000",
    "request_status": "Pending",
    "responsible_agency": "Department of Sanitation",
    "final_address": "2420 Columbus St",
    "address_councildis": "D",
    "status": "Assigned to Contractor",
    "contractor": "IV Waste",
    "rowid": "1016916",
    "final_x": "3679326.55592",
    "final_y": "538999.56641",
    "longitude": "-90.07467384313264",
    "latitude": "29.976127749699366",
    "geocoded_column": {
      "latitude": "29.976127749699366",
      "longitude": "-90.07467384313264"
    }
  },
  {
    "service_request": "2023-1016915",
    "request_type": "Trash/Recycling",
    "request_reason": "Request a Large Item Pick Up",
    "date_created": "2023-07-13T16:46:02.000",
    "date_modified": "2023-07-13T16:46:03.000",
    "request_status": "Pending",
    "responsible_agency": "Department of Sanitation",
    "final_address": "1517 St Maurice Ave",
    "address_councildis": "E",
    "status": "Assigned to Contractor",
    "contractor": "Waste Pro",
    "rowid": "1016915",
    "final_x": "3700540.83473",
    "final_y": "534797.78791",
    "longitude": "-90.0078268892603",
    "latitude": "29.963916569030143",
    "geocoded_column": {
      "latitude": "29.963916569030143",
      "longitude": "-90.0078268892603"
    }
  },
  {
    "service_request": "2023-1016914",
    "request_type": "Trash/Recycling",
    "request_reason": "Replace Trash Cart",
    "date_created": "2023-07-13T16:25:58.000",
    "date_modified": "2023-07-13T16:25:59.000",
    "request_status": "Pending",
    "responsible_agency": "Department of Sanitation",
    "final_address": "2912 General Ogden St",
    "address_councildis": "A",
    "status": "Assigned to Contractor",
    "contractor": "Richards Disposal",
    "rowid": "1016914",
    "final_x": "3664039.63725",
    "final_y": "534914.493254",
    "longitude": "-90.12309089891468",
    "latitude": "29.965348018428802",
    "geocoded_column": {
      "latitude": "29.965348018428802",
      "longitude": "-90.12309089891468"
    }
  },
  {
    "service_request": "2023-1016912",
    "request_type": "Roads/Drainage",
    "request_reason": "Street Flooding / Drainage",
    "date_created": "2023-07-13T16:14:17.000",
    "date_modified": "2023-07-13T16:14:17.000",
    "request_status": "Pending",
    "responsible_agency": "Department of Public Works",
    "final_address": "2100 BLK dAbadie St",
    "address_councildis": "D",
    "status": "Pending",
    "rowid": "1016912",
    "final_x": "3681078.19194",
    "final_y": "539553.404933",
    "longitude": "-90.06912236792546",
    "latitude": "29.97759759098966",
    "geocoded_column": {
      "latitude": "29.97759759098966",
      "longitude": "-90.06912236792546"
    }
  },
  {
    "service_request": "2023-1016911",
    "request_type": "Trash/Recycling",
    "request_reason": "Request a Large Item Pick Up",
    "date_created": "2023-07-13T16:12:14.000",
    "date_modified": "2023-07-13T16:12:15.000",
    "request_status": "Pending",
    "responsible_agency": "Department of Sanitation",
    "final_address": "3701 Canal St",
    "address_councildis": "B",
    "status": "Assigned to Contractor",
    "contractor": "Richards Disposal",
    "rowid": "1016911",
    "final_x": "3672362.74459",
    "final_y": "537516.817352",
    "longitude": "-90.09671818360438",
    "latitude": "29.97225918853493",
    "geocoded_column": {
      "latitude": "29.97225918853493",
      "longitude": "-90.09671818360438"
    }
  },
  {
    "service_request": "2023-1016910",
    "request_type": "Trash/Recycling",
    "request_reason": "Replace Recycling Cart",
    "date_created": "2023-07-13T16:11:34.000",
    "date_modified": "2023-07-13T16:11:35.000",
    "request_status": "Pending",
    "responsible_agency": "Department of Sanitation",
    "final_address": "12611 N Lake Carmel Dr",
    "address_councildis": "E",
    "status": "Pending",
    "rowid": "1016910",
    "final_x": "3715899.46418",
    "final_y": "568072.282853",
    "longitude": "-89.95806517768749",
    "latitude": "30.05491094911809",
    "geocoded_column": {
      "latitude": "30.05491094911809",
      "longitude": "-89.95806517768749"
    }
  },
  {
    "service_request": "2023-1016909",
    "request_type": "Trash/Recycling",
    "request_reason": "Repair Trash Cart",
    "date_created": "2023-07-13T16:10:50.000",
    "date_modified": "2023-07-13T16:10:51.000",
    "request_status": "Pending",
    "responsible_agency": "Department of Sanitation",
    "final_address": "12611 N Lake Carmel Dr",
    "address_councildis": "E",
    "status": "Assigned to Contractor",
    "contractor": "Waste Pro",
    "rowid": "1016909",
    "final_x": "3715899.46418",
    "final_y": "568072.282853",
    "longitude": "-89.95806517768749",
    "latitude": "30.05491094911809",
    "geocoded_column": {
      "latitude": "30.05491094911809",
      "longitude": "-89.95806517768749"
    }
  },
  {
    "service_request": "2023-1016908",
    "request_type": "Traffic Signals/Signs/Striping/Streetlights",
    "request_reason": "Disabled Parking Sign ",
    "date_created": "2023-07-13T16:09:37.000",
    "date_modified": "2023-07-13T16:09:38.000",
    "request_status": "Pending",
    "responsible_agency": "Department of Public Works",
    "final_address": "2016 Seventh St",
    "address_councildis": "B",
    "status": "Pending",
    "rowid": "1016908",
    "final_x": "3674350.60334",
    "final_y": "523387.842683",
    "longitude": "-90.09092400098878",
    "latitude": "29.933350062137272",
    "geocoded_column": {
      "latitude": "29.933350062137272",
      "longitude": "-90.09092400098878"
    }
  },
  {
    "service_request": "2023-1016907",
    "request_type": "Trash/Recycling",
    "request_reason": "Order Recycling Cart",
    "date_created": "2023-07-13T16:06:44.000",
    "date_modified": "2023-07-13T16:23:39.000",
    "request_status": "Pending",
    "responsible_agency": "Department of Sanitation",
    "final_address": "1036 Broadway Street, 70118",
    "address_councildis": "A",
    "status": "Pending",
    "rowid": "1016907",
    "final_x": "3663894.94759",
    "final_y": "526179.77811",
    "longitude": "-90.12383898587831",
    "latitude": "29.9413345820031",
    "geocoded_column": {
      "latitude": "29.9413345820031",
      "longitude": "-90.12383898587831"
    }
  },
  {
    "service_request": "2023-1016906",
    "request_type": "Trash/Recycling",
    "request_reason": "Order Trash Cart",
    "date_created": "2023-07-13T16:04:24.000",
    "date_modified": "2023-07-13T16:23:15.000",
    "request_status": "Pending",
    "responsible_agency": "Department of Sanitation",
    "final_address": "1036 Broadway Street, 70118",
    "address_councildis": "A",
    "status": "Assigned to Contractor",
    "contractor": "Richards Disposal",
    "rowid": "1016906",
    "final_x": "3663894.94759",
    "final_y": "526179.77811",
    "longitude": "-90.12383898587831",
    "latitude": "29.9413345820031",
    "geocoded_column": {
      "latitude": "29.9413345820031",
      "longitude": "-90.12383898587831"
    }
  },
  {
    "service_request": "2023-1016905",
    "request_type": "Property Maintenance",
    "request_reason": "Property Maintenance",
    "date_created": "2023-07-13T16:02:59.000",
    "date_modified": "2023-07-13T16:04:28.000",
    "request_status": "Pending",
    "responsible_agency": "Department of Code Enforcement",
    "final_address": "7030 Manchester St",
    "address_councildis": "E",
    "status": "Pending",
    "rowid": "1016905",
    "final_x": "3699127.05892",
    "final_y": "559963.708253",
    "longitude": "-90.01137456891179",
    "latitude": "30.033158391366563",
    "geocoded_column": {
      "latitude": "30.033158391366563",
      "longitude": "-90.01137456891179"
    }
  },
  {
    "service_request": "2023-1016904",
    "request_type": "Trash/Recycling",
    "request_reason": "MIssed Recycling Pick-Up",
    "date_created": "2023-07-13T16:02:18.000",
    "date_modified": "2023-07-13T16:02:19.000",
    "request_status": "Pending",
    "responsible_agency": "Department of Sanitation",
    "final_address": "1337 Arabella St",
    "address_councildis": "A",
    "status": "Assigned to Contractor",
    "contractor": "Richards Disposal",
    "rowid": "1016904",
    "final_x": "3666299.80327",
    "final_y": "520848.850105",
    "longitude": "-90.11642511242589",
    "latitude": "29.926606210005854",
    "geocoded_column": {
      "latitude": "29.926606210005854",
      "longitude": "-90.11642511242589"
    }
  },
  {
    "service_request": "2023-1016903",
    "request_type": "Roads/Drainage",
    "request_reason": "Pothole",
    "date_created": "2023-07-13T15:53:11.000",
    "date_modified": "2023-07-13T15:53:12.000",
    "request_status": "Pending",
    "responsible_agency": "Department of Public Works",
    "final_address": "WEST END BLVD & ROBERT E LEE BLVD & LAKESHORE DR & NO HAMMOND HWY",
    "address_councildis": "A",
    "status": "Pending",
    "rowid": "1016903",
    "final_x": "3666851.7",
    "final_y": "554849.28",
    "longitude": "-90.11354034685367",
    "latitude": "30.02007989703266",
    "geocoded_column": {
      "latitude": "30.02007989703266",
      "longitude": "-90.11354034685367"
    }
  },
  {
    "service_request": "2023-1016902",
    "request_type": "Trash/Recycling",
    "request_reason": "Order Trash Cart",
    "date_created": "2023-07-13T15:49:57.000",
    "date_modified": "2023-07-13T15:49:57.000",
    "request_status": "Pending",
    "responsible_agency": "Department of Sanitation",
    "final_address": "1608 St Philip St",
    "address_councildis": "C",
    "status": "Assigned to Contractor",
    "contractor": "Richards Disposal",
    "rowid": "1016902",
    "final_x": "3680644.15746",
    "final_y": "535287.239366",
    "longitude": "-90.07064167610207",
    "latitude": "29.965880266455613",
    "geocoded_column": {
      "latitude": "29.965880266455613",
      "longitude": "-90.07064167610207"
    }
  },
  {
    "service_request": "2023-1016901",
    "request_type": "Abandoned Vehicles",
    "request_reason": "Abandoned/Junk Vehicles",
    "date_created": "2023-07-13T15:49:11.000",
    "date_modified": "2023-07-13T15:49:11.000",
    "request_status": "Pending",
    "responsible_agency": "Department of Public Works",
    "final_address": "4400 BLK Saint Roch Ave",
    "address_councildis": "D",
    "status": "Pending",
    "rowid": "1016901",
    "final_x": "3685443.97422",
    "final_y": "549110.112853",
    "longitude": "-90.05499703781302",
    "latitude": "30.003741964559364",
    "geocoded_column": {
      "latitude": "30.003741964559364",
      "longitude": "-90.05499703781302"
    }
  },
  {
    "service_request": "2023-1016900",
    "request_type": "Trash/Recycling",
    "request_reason": "Repair Trash Cart",
    "date_created": "2023-07-13T15:48:11.000",
    "date_modified": "2023-07-13T15:48:13.000",
    "request_status": "Pending",
    "responsible_agency": "Department of Sanitation",
    "final_address": "331 State St",
    "address_councildis": "A",
    "status": "Assigned to Contractor",
    "contractor": "Richards Disposal",
    "rowid": "1016900",
    "final_x": "3664286.4601",
    "final_y": "517749.434934",
    "longitude": "-90.12288407046042",
    "latitude": "29.91814242820444",
    "geocoded_column": {
      "latitude": "29.91814242820444",
      "longitude": "-90.12288407046042"
    }
  },
  {
    "service_request": "2023-1016899",
    "request_type": "Property Maintenance",
    "request_reason": "Property Maintenance",
    "date_created": "2023-07-13T15:48:01.000",
    "date_modified": "2023-07-13T15:48:02.000",
    "request_status": "Pending",
    "responsible_agency": "Department of Code Enforcement",
    "final_address": "7141 E Hermes St",
    "address_councildis": "D",
    "status": "Pending",
    "rowid": "1016899",
    "final_x": "3697329.13066",
    "final_y": "557442.349275",
    "longitude": "-90.01714769108331",
    "latitude": "30.026282533031125",
    "geocoded_column": {
      "latitude": "30.026282533031125",
      "longitude": "-90.01714769108331"
    }
  },
  {
    "service_request": "2023-1016898",
    "request_type": "Trash/Recycling",
    "request_reason": "Request a Large Item Pick Up",
    "date_created": "2023-07-13T15:45:43.000",
    "date_modified": "2023-07-13T15:45:44.000",
    "request_status": "Pending",
    "responsible_agency": "Department of Sanitation",
    "final_address": "2013 Flood St",
    "address_councildis": "E",
    "status": "Assigned to Contractor",
    "contractor": "Waste Pro",
    "rowid": "1016898",
    "final_x": "3698683.27562",
    "final_y": "537325.120456",
    "longitude": "-90.01360092889115",
    "latitude": "29.970924782108494",
    "geocoded_column": {
      "latitude": "29.970924782108494",
      "longitude": "-90.01360092889115"
    }
  },
  {
    "service_request": "2023-1016896",
    "request_type": "Property Maintenance",
    "request_reason": "Property Maintenance",
    "date_created": "2023-07-13T15:40:52.000",
    "date_modified": "2023-07-13T15:40:52.000",
    "request_status": "Pending",
    "responsible_agency": "Department of Code Enforcement",
    "final_address": "3012 Lowerline St",
    "address_councildis": "B",
    "status": "Pending",
    "rowid": "1016896",
    "final_x": "3667349.26599",
    "final_y": "532362.342723",
    "longitude": "-90.11272506903293",
    "latitude": "29.95823391279332",
    "geocoded_column": {
      "latitude": "29.95823391279332",
      "longitude": "-90.11272506903293"
    }
  },
  {
    "service_request": "2023-1016895",
    "request_type": "Trash/Recycling",
    "request_reason": "Missed Trash Pick-Up",
    "date_created": "2023-07-13T15:40:33.000",
    "date_modified": "2023-07-13T15:40:34.000",
    "request_status": "Pending",
    "responsible_agency": "Department of Sanitation",
    "final_address": "3004 College Ct",
    "address_councildis": "B",
    "status": "Assigned to Contractor",
    "contractor": "Richards Disposal",
    "rowid": "1016895",
    "final_x": "3668266.77197",
    "final_y": "531463.975875",
    "longitude": "-90.10985811661057",
    "latitude": "29.95573679288478",
    "geocoded_column": {
      "latitude": "29.95573679288478",
      "longitude": "-90.10985811661057"
    }
  },
  {
    "service_request": "2023-1016894",
    "request_type": "Abandoned Vehicles",
    "request_reason": "Abandoned/Junk Vehicles",
    "date_created": "2023-07-13T15:40:06.000",
    "date_modified": "2023-07-13T15:40:06.000",
    "request_status": "Pending",
    "responsible_agency": "Department of Public Works",
    "final_address": "PRENTISS AVE & CORONADO DR",
    "address_councildis": "E",
    "status": "Pending",
    "rowid": "1016894",
    "final_x": "3714151.0",
    "final_y": "556157.18",
    "longitude": "-89.96404169542764",
    "latitude": "30.022206796425355",
    "geocoded_column": {
      "latitude": "30.022206796425355",
      "longitude": "-89.96404169542764"
    }
  },
  {
    "service_request": "2023-1016893",
    "request_type": "Trash/Recycling",
    "request_reason": "Repair Trash Cart",
    "date_created": "2023-07-13T15:39:16.000",
    "date_modified": "2023-07-13T15:39:17.000",
    "request_status": "Pending",
    "responsible_agency": "Department of Sanitation",
    "final_address": "5836 Oxford Pl",
    "address_councildis": "C",
    "status": "Assigned to Contractor",
    "contractor": "Richards Disposal",
    "rowid": "1016893",
    "final_x": "3705114.32343",
    "final_y": "519867.6094",
    "longitude": "-89.99393547922955",
    "latitude": "29.922717610247723",
    "geocoded_column": {
      "latitude": "29.922717610247723",
      "longitude": "-89.99393547922955"
    }
  },
  {
    "service_request": "2023-1016892",
    "request_type": "Trash/Recycling",
    "request_reason": "Order Trash Cart",
    "date_created": "2023-07-13T15:36:39.000",
    "date_modified": "2023-07-13T15:36:40.000",
    "request_status": "Pending",
    "responsible_agency": "Department of Sanitation",
    "final_address": "7124 Downman Rd",
    "address_councildis": "D",
    "status": "Assigned to Contractor",
    "contractor": "Waste Pro",
    "rowid": "1016892",
    "final_x": "3695079.70819",
    "final_y": "556645.334042",
    "longitude": "-90.02428433607885",
    "latitude": "30.024161897472055",
    "geocoded_column": {
      "latitude": "30.024161897472055",
      "longitude": "-90.02428433607885"
    }
  },
  {
    "service_request": "2023-1016891",
    "request_type": "Trash/Recycling",
    "request_reason": "Illegal Dumping",
    "date_created": "2023-07-13T15:35:14.000",
    "date_modified": "2023-07-13T15:35:14.000",
    "request_status": "Pending",
    "responsible_agency": "Department of Sanitation",
    "final_address": "1826 N Villere St",
    "address_councildis": "C",
    "status": "Pending",
    "rowid": "1016891",
    "final_x": "3683656.7277",
    "final_y": "537224.960712",
    "longitude": "-90.06106014244102",
    "latitude": "29.971116703150354",
    "geocoded_column": {
      "latitude": "29.971116703150354",
      "longitude": "-90.06106014244102"
    }
  },
  {
    "service_request": "2023-1016890",
    "request_type": "Trash/Recycling",
    "request_reason": "Missed Trash Pick-Up",
    "date_created": "2023-07-13T15:35:09.000",
    "date_modified": "2023-07-13T15:35:09.000",
    "request_status": "Pending",
    "responsible_agency": "Department of Sanitation",
    "final_address": " & SHADE TREE LN",
    "address_councildis": "C",
    "status": "Assigned to Contractor",
    "contractor": "Richards Disposal",
    "rowid": "1016890",
    "final_x": "3695620.33",
    "final_y": "522834.78",
    "longitude": "-90.02379705437441",
    "latitude": "29.93117805604866",
    "geocoded_column": {
      "latitude": "29.93117805604866",
      "longitude": "-90.02379705437441"
    }
  },
  {
    "service_request": "2023-1016889",
    "request_type": "Traffic Signals/Signs/Striping/Streetlights",
    "request_reason": "Street Light Knocked Down/Leaning",
    "date_created": "2023-07-13T15:33:51.000",
    "date_modified": "2023-07-13T15:33:52.000",
    "request_status": "Pending",
    "responsible_agency": "Department of Public Works",
    "final_address": "6 Shepard Ct",
    "address_councildis": "C",
    "status": "Pending",
    "contractor": "Legacy Professional Services",
    "rowid": "1016889",
    "final_x": "3692519.11113",
    "final_y": "524424.446972",
    "longitude": "-90.03353023442467",
    "latitude": "29.9356461905722",
    "geocoded_column": {
      "latitude": "29.9356461905722",
      "longitude": "-90.03353023442467"
    }
  },
  {
    "service_request": "2023-1016888",
    "request_type": "Trash/Recycling",
    "request_reason": "Repair Trash Cart",
    "date_created": "2023-07-13T15:32:03.000",
    "date_modified": "2023-07-13T15:32:04.000",
    "request_status": "Pending",
    "responsible_agency": "Department of Sanitation",
    "final_address": "3534 Herald St",
    "address_councildis": "C",
    "status": "Assigned to Contractor",
    "contractor": "Richards Disposal",
    "rowid": "1016888",
    "final_x": "3702270.23217",
    "final_y": "517901.532726",
    "longitude": "-90.00298513659874",
    "latitude": "29.917402682361445",
    "geocoded_column": {
      "latitude": "29.917402682361445",
      "longitude": "-90.00298513659874"
    }
  },
  {
    "service_request": "2023-1016887",
    "request_type": "Trash/Recycling",
    "request_reason": "Missed Trash Pick-Up",
    "date_created": "2023-07-13T15:30:56.000",
    "date_modified": "2023-07-13T15:30:57.000",
    "request_status": "Pending",
    "responsible_agency": "Department of Sanitation",
    "final_address": "5000 BLK Marais St",
    "address_councildis": "E",
    "status": "Assigned to Contractor",
    "contractor": "Waste Pro",
    "rowid": "1016887",
    "final_x": "3696204.8733",
    "final_y": "534582.914218",
    "longitude": "-90.02152714589893",
    "latitude": "29.96346294833723",
    "geocoded_column": {
      "latitude": "29.96346294833723",
      "longitude": "-90.02152714589893"
    }
  },
  {
    "service_request": "2023-1016885",
    "request_type": "Roads/Drainage",
    "request_reason": "Catch Basin - Clogged",
    "date_created": "2023-07-13T15:21:41.000",
    "date_modified": "2023-07-13T15:21:41.000",
    "request_status": "Pending",
    "responsible_agency": "Department of Public Works",
    "final_address": "3916 Baudin St",
    "address_councildis": "B",
    "status": "Pending",
    "rowid": "1016885",
    "final_x": "3670652.69659",
    "final_y": "536611.943559",
    "longitude": "-90.10214952640055",
    "latitude": "29.969821724498104",
    "geocoded_column": {
      "latitude": "29.969821724498104",
      "longitude": "-90.10214952640055"
    }
  },
  {
    "service_request": "2023-1016884",
    "request_type": "Property Maintenance",
    "request_reason": "Property Maintenance",
    "date_created": "2023-07-13T15:19:24.000",
    "date_modified": "2023-07-13T15:19:26.000",
    "request_status": "Pending",
    "responsible_agency": "Department of Code Enforcement",
    "final_address": "5501 Bundy Rd",
    "address_councildis": "E",
    "status": "Pending",
    "rowid": "1016884",
    "final_x": "3709937.84766",
    "final_y": "558061.934683",
    "longitude": "-89.97728285709977",
    "latitude": "30.027581888538652",
    "geocoded_column": {
      "latitude": "30.027581888538652",
      "longitude": "-89.97728285709977"
    }
  },
  {
    "service_request": "2023-1016883",
    "request_type": "Traffic Signals/Signs/Striping/Streetlights",
    "request_reason": "Request for Traffic Calming due to Speeding",
    "date_created": "2023-07-13T15:19:00.000",
    "date_modified": "2023-07-13T15:19:00.000",
    "request_status": "Pending",
    "responsible_agency": "Department of Public Works",
    "final_address": "LEAKE AVE & S CARROLLTON AVE",
    "address_councildis": "A",
    "status": "Pending",
    "rowid": "1016883",
    "final_x": "3660454.2",
    "final_y": "526673.38",
    "longitude": "-90.1346858442484",
    "latitude": "29.942791247360123",
    "geocoded_column": {
      "latitude": "29.942791247360123",
      "longitude": "-90.1346858442484"
    }
  },
  {
    "service_request": "2023-1016882",
    "request_type": "Abandoned Vehicles",
    "request_reason": "Abandoned/Junk Vehicles",
    "date_created": "2023-07-13T15:15:16.000",
    "date_modified": "2023-07-13T16:08:38.000",
    "request_status": "Pending",
    "responsible_agency": "Department of Public Works",
    "final_address": "PRENTISS AVE & CORONADO DR",
    "address_councildis": "E",
    "status": "Inspected",
    "rowid": "1016882",
    "final_x": "3714151.0",
    "final_y": "556157.18",
    "longitude": "-89.96404169542764",
    "latitude": "30.022206796425355",
    "geocoded_column": {
      "latitude": "30.022206796425355",
      "longitude": "-89.96404169542764"
    }
  },
  {
    "service_request": "2023-1016881",
    "request_type": "Trash/Recycling",
    "request_reason": "Replace Trash Cart",
    "date_created": "2023-07-13T15:14:01.000",
    "date_modified": "2023-07-13T15:14:01.000",
    "request_status": "Pending",
    "responsible_agency": "Department of Sanitation",
    "final_address": "1725 Esplanade Ave Apt B",
    "address_councildis": "D",
    "status": "Assigned to Contractor",
    "contractor": "IV Waste",
    "rowid": "1016881",
    "final_x": "3680899.55432",
    "final_y": "537004.667976",
    "longitude": "-90.06977533353138",
    "latitude": "29.970594863983496",
    "geocoded_column": {
      "latitude": "29.970594863983496",
      "longitude": "-90.06977533353138"
    }
  },
  {
    "service_request": "2023-1016880",
    "request_type": "Trash/Recycling",
    "request_reason": "Replace Trash Cart",
    "date_created": "2023-07-13T15:12:23.000",
    "date_modified": "2023-07-13T15:12:23.000",
    "request_status": "Pending",
    "responsible_agency": "Department of Sanitation",
    "final_address": "1725 Esplanade Ave",
    "address_councildis": "D",
    "status": "Assigned to Contractor",
    "contractor": "IV Waste",
    "rowid": "1016880",
    "final_x": "3680872.08443",
    "final_y": "536980.504008",
    "longitude": "-90.0698629281018",
    "latitude": "29.97052925429154",
    "geocoded_column": {
      "latitude": "29.97052925429154",
      "longitude": "-90.0698629281018"
    }
  },
  {
    "service_request": "2023-1016879",
    "request_type": "Abandoned Vehicles",
    "request_reason": "Abandoned/Junk Vehicles",
    "date_created": "2023-07-13T15:11:00.000",
    "date_modified": "2023-07-13T15:38:49.000",
    "request_status": "Pending",
    "responsible_agency": "Department of Public Works",
    "final_address": "PRENTISS AVE & SIERRA MADRE DR",
    "address_councildis": "E",
    "status": "Inspected",
    "rowid": "1016879",
    "final_x": "3713934.4",
    "final_y": "556049.98",
    "longitude": "-89.96473013598093",
    "latitude": "30.02191915407418",
    "geocoded_column": {
      "latitude": "30.02191915407418",
      "longitude": "-89.96473013598093"
    }
  },
  {
    "service_request": "2023-1016878",
    "request_type": "Abandoned Vehicles",
    "request_reason": "Abandoned/Junk Vehicles",
    "date_created": "2023-07-13T15:10:52.000",
    "date_modified": "2023-07-13T15:10:52.000",
    "request_status": "Pending",
    "responsible_agency": "Department of Public Works",
    "final_address": "4357 America St",
    "address_councildis": "E",
    "status": "Pending",
    "rowid": "1016878",
    "final_x": "3699949.0408",
    "final_y": "553031.989783",
    "longitude": "-90.00903020652657",
    "latitude": "30.01407271923393",
    "geocoded_column": {
      "latitude": "30.01407271923393",
      "longitude": "-90.00903020652657"
    }
  },
  {
    "service_request": "2023-1016877",
    "request_type": "Trash/Recycling",
    "request_reason": "Request a Large Item Pick Up",
    "date_created": "2023-07-13T15:10:16.000",
    "date_modified": "2023-07-13T15:10:17.000",
    "request_status": "Pending",
    "responsible_agency": "Department of Sanitation",
    "final_address": "5620 Red Maple Dr",
    "address_councildis": "E",
    "status": "Assigned to Contractor",
    "contractor": "Waste Pro",
    "rowid": "1016877",
    "final_x": "3723325.78879",
    "final_y": "564176.835489",
    "longitude": "-89.93474275137726",
    "latitude": "30.043952916343304",
    "geocoded_column": {
      "latitude": "30.043952916343304",
      "longitude": "-89.93474275137726"
    }
  },
  {
    "service_request": "2023-1016876",
    "request_type": "Traffic Signals/Signs/Striping/Streetlights",
    "request_reason": "Street Name Sign Damaged or Missing",
    "date_created": "2023-07-13T15:06:50.000",
    "date_modified": "2023-07-13T15:06:50.000",
    "request_status": "Pending",
    "responsible_agency": "Department of Public Works",
    "final_address": "10100 Rosewood Pl",
    "address_councildis": "E",
    "status": "Pending",
    "rowid": "1016876",
    "final_x": "3712724.7027",
    "final_y": "557594.016091",
    "longitude": "-89.96849431622478",
    "latitude": "30.026204317317674",
    "geocoded_column": {
      "latitude": "30.026204317317674",
      "longitude": "-89.96849431622478"
    }
  },
  {
    "service_request": "2023-1016875",
    "request_type": "Traffic Signals/Signs/Striping/Streetlights",
    "request_reason": "Street Light Outage/Malfunction",
    "date_created": "2023-07-13T15:05:58.000",
    "date_modified": "2023-07-13T15:05:58.000",
    "request_status": "Pending",
    "responsible_agency": "Department of Public Works",
    "final_address": "2658 Mexico St",
    "address_councildis": "D",
    "status": "Assigned to Contractor",
    "contractor": "Legacy Professional Services",
    "rowid": "1016875",
    "final_x": "3686891.3821",
    "final_y": "556373.261402",
    "longitude": "-90.05016749088384",
    "latitude": "30.023668474906817",
    "geocoded_column": {
      "latitude": "30.023668474906817",
      "longitude": "-90.05016749088384"
    }
  },
  {
    "service_request": "2023-1016874",
    "request_type": "Property Maintenance",
    "request_reason": "Property Maintenance",
    "date_created": "2023-07-13T15:00:48.000",
    "date_modified": "2023-07-13T15:01:17.000",
    "request_status": "Pending",
    "responsible_agency": "Department of Code Enforcement",
    "final_address": "3418 Bryson St",
    "address_councildis": "C",
    "status": "Pending",
    "rowid": "1016874",
    "final_x": "3714799.61087",
    "final_y": "517565.887542",
    "longitude": "-89.96345007603752",
    "latitude": "29.916073839759374",
    "geocoded_column": {
      "latitude": "29.916073839759374",
      "longitude": "-89.96345007603752"
    }
  },
  {
    "service_request": "2023-1016873",
    "request_type": "Abandoned Vehicles",
    "request_reason": "Abandoned/Junk Vehicles",
    "date_created": "2023-07-13T14:58:00.000",
    "date_modified": "2023-07-13T14:58:00.000",
    "request_status": "Pending",
    "responsible_agency": "Department of Public Works",
    "final_address": "CORINNE ST & PRENTISS AVE",
    "address_councildis": "E",
    "status": "Inspected",
    "rowid": "1016873",
    "final_x": "3715065.2",
    "final_y": "556557.48",
    "longitude": "-89.9611379357499",
    "latitude": "30.023277392127948",
    "geocoded_column": {
      "latitude": "30.023277392127948",
      "longitude": "-89.9611379357499"
    }
  },
  {
    "service_request": "2023-1016872",
    "request_type": "Trash/Recycling",
    "request_reason": "Order Trash Cart",
    "date_created": "2023-07-13T14:57:15.000",
    "date_modified": "2023-07-13T14:57:16.000",
    "request_status": "Pending",
    "responsible_agency": "Department of Sanitation",
    "final_address": "4306 Magazine St",
    "address_councildis": "B",
    "status": "Assigned to Contractor",
    "contractor": "Richards Disposal",
    "rowid": "1016872",
    "final_x": "3671389.66113",
    "final_y": "518733.393783",
    "longitude": "-90.100429640878",
    "latitude": "29.920639763602814",
    "geocoded_column": {
      "latitude": "29.920639763602814",
      "longitude": "-90.100429640878"
    }
  },
  {
    "service_request": "2023-1016871",
    "request_type": "Property Maintenance",
    "request_reason": "Property Maintenance",
    "date_created": "2023-07-13T14:54:45.000",
    "date_modified": "2023-07-13T14:54:45.000",
    "request_status": "Pending",
    "responsible_agency": "Department of Code Enforcement",
    "final_address": "1119 S Gayoso St",
    "address_councildis": "B",
    "status": "Pending",
    "rowid": "1016871",
    "final_x": "3671357.17902",
    "final_y": "531776.330243",
    "longitude": "-90.10008906206994",
    "latitude": "29.956504568921094",
    "geocoded_column": {
      "latitude": "29.956504568921094",
      "longitude": "-90.10008906206994"
    }
  },
  {
    "service_request": "2023-1016870",
    "request_type": "Roads/Drainage",
    "request_reason": "Debris in Roadway",
    "date_created": "2023-07-13T14:50:47.000",
    "date_modified": "2023-07-13T15:14:02.000",
    "request_status": "Pending",
    "responsible_agency": "Department of Public Works",
    "final_address": "New Orleans,LA",
    "address_councildis": "D",
    "rowid": "1016870",
    "final_x": "3682678.79663",
    "final_y": "549385.725395",
    "longitude": "-90.06372303939195",
    "latitude": "30.004584334349794",
    "geocoded_column": {
      "latitude": "30.004584334349794",
      "longitude": "-90.06372303939195"
    }
  },
  {
    "service_request": "2023-1016869",
    "request_type": "Trash/Recycling",
    "request_reason": "Return Trash Cart",
    "date_created": "2023-07-13T14:49:03.000",
    "date_modified": "2023-07-13T14:49:03.000",
    "request_status": "Pending",
    "responsible_agency": "Department of Sanitation",
    "final_address": "LAW ST & PAUGER ST",
    "address_councildis": "D",
    "status": "Assigned to Contractor",
    "contractor": "IV Waste",
    "rowid": "1016869",
    "final_x": "3683429.6",
    "final_y": "541737.78",
    "longitude": "-90.06161926415488",
    "latitude": "29.983532312360953",
    "geocoded_column": {
      "latitude": "29.983532312360953",
      "longitude": "-90.06161926415488"
    }
  },
  {
    "service_request": "2023-1016868",
    "request_type": "Trash/Recycling",
    "request_reason": "Repair Trash Cart",
    "date_created": "2023-07-13T14:44:19.000",
    "date_modified": "2023-07-13T14:44:19.000",
    "request_status": "Pending",
    "responsible_agency": "Department of Sanitation",
    "final_address": "3838 Delachaise St",
    "address_councildis": "B",
    "status": "Assigned to Contractor",
    "contractor": "Richards Disposal",
    "rowid": "1016868",
    "final_x": "3670986.91873",
    "final_y": "528896.273664",
    "longitude": "-90.1013560047442",
    "latitude": "29.948596313986396",
    "geocoded_column": {
      "latitude": "29.948596313986396",
      "longitude": "-90.1013560047442"
    }
  },
  {
    "service_request": "2023-1016867",
    "request_type": "Trash/Recycling",
    "request_reason": "Order Trash Cart",
    "date_created": "2023-07-13T14:43:33.000",
    "date_modified": "2023-07-13T14:43:33.000",
    "request_status": "Pending",
    "responsible_agency": "Department of Sanitation",
    "final_address": "3710 S Dorgenois St",
    "address_councildis": "B",
    "status": "Assigned to Contractor",
    "contractor": "Richards Disposal",
    "rowid": "1016867",
    "final_x": "3670926.93569",
    "final_y": "528884.538944",
    "longitude": "-90.10154579526692",
    "latitude": "29.948565820536373",
    "geocoded_column": {
      "latitude": "29.948565820536373",
      "longitude": "-90.10154579526692"
    }
  },
  {
    "service_request": "2023-1016865",
    "request_type": "Trash/Recycling",
    "request_reason": "Repair Trash Cart",
    "date_created": "2023-07-13T14:42:39.000",
    "date_modified": "2023-07-13T14:42:40.000",
    "request_status": "Pending",
    "responsible_agency": "Department of Sanitation",
    "final_address": "4900 Royal St",
    "address_councildis": "E",
    "status": "Assigned to Contractor",
    "contractor": "Waste Pro",
    "rowid": "1016865",
    "final_x": "3694989.39696",
    "final_y": "532869.47482",
    "longitude": "-90.02542723173862",
    "latitude": "29.958789800641274",
    "geocoded_column": {
      "latitude": "29.958789800641274",
      "longitude": "-90.02542723173862"
    }
  },
  {
    "service_request": "2023-1016864",
    "request_type": "Property Maintenance",
    "request_reason": "Property Maintenance",
    "date_created": "2023-07-13T14:40:52.000",
    "date_modified": "2023-07-13T14:40:52.000",
    "request_status": "Pending",
    "responsible_agency": "Department of Code Enforcement",
    "final_address": "3012 Lowerline St",
    "address_councildis": "B",
    "status": "Pending",
    "rowid": "1016864",
    "final_x": "3667349.26599",
    "final_y": "532362.342723",
    "longitude": "-90.11272506903293",
    "latitude": "29.95823391279332",
    "geocoded_column": {
      "latitude": "29.95823391279332",
      "longitude": "-90.11272506903293"
    }
  },
  {
    "service_request": "2023-1016863",
    "request_type": "Abandoned Vehicles",
    "request_reason": "Abandoned/Junk Vehicles",
    "date_created": "2023-07-13T14:40:28.000",
    "date_modified": "2023-07-13T14:40:28.000",
    "request_status": "Pending",
    "responsible_agency": "Department of Public Works",
    "final_address": "540 Turquoise St",
    "address_councildis": "D",
    "status": "Pending",
    "rowid": "1016863",
    "final_x": "3668496.03751",
    "final_y": "555292.160025",
    "longitude": "-90.10832978166168",
    "latitude": "30.02124942589741",
    "geocoded_column": {
      "latitude": "30.02124942589741",
      "longitude": "-90.10832978166168"
    }
  },
  {
    "service_request": "2023-1016862",
    "request_type": "Trash/Recycling",
    "request_reason": "Replace Trash Cart",
    "date_created": "2023-07-13T14:39:12.000",
    "date_modified": "2023-07-13T14:39:13.000",
    "request_status": "Pending",
    "responsible_agency": "Department of Sanitation",
    "final_address": "5521 Wickfield Dr",
    "address_councildis": "D",
    "status": "Assigned to Contractor",
    "contractor": "IV Waste",
    "rowid": "1016862",
    "final_x": "3681166.26888",
    "final_y": "553420.519639",
    "longitude": "-90.06836068531442",
    "latitude": "30.01572455657725",
    "geocoded_column": {
      "latitude": "30.01572455657725",
      "longitude": "-90.06836068531442"
    }
  },
  {
    "service_request": "2023-1016861",
    "request_type": "Property Maintenance",
    "request_reason": "Property Maintenance",
    "date_created": "2023-07-13T14:37:04.000",
    "date_modified": "2023-07-13T14:37:04.000",
    "request_status": "Pending",
    "responsible_agency": "Department of Code Enforcement",
    "final_address": "6901 Pritchard Pl",
    "address_councildis": "B",
    "status": "Pending",
    "rowid": "1016861",
    "final_x": "3668093.09537",
    "final_y": "531119.838786",
    "longitude": "-90.11041812550769",
    "latitude": "29.954795626696427",
    "geocoded_column": {
      "latitude": "29.954795626696427",
      "longitude": "-90.11041812550769"
    }
  },
  {
    "service_request": "2023-1016860",
    "request_type": "Trash/Recycling",
    "request_reason": "Order Recycling Cart",
    "date_created": "2023-07-13T14:29:16.000",
    "date_modified": "2023-07-13T14:29:16.000",
    "request_status": "Pending",
    "responsible_agency": "Department of Sanitation",
    "final_address": "11257 Notaway Ln",
    "address_councildis": "E",
    "status": "Pending",
    "rowid": "1016860",
    "final_x": "3717839.89714",
    "final_y": "559591.181981",
    "longitude": "-89.95225505661223",
    "latitude": "30.03152720011892",
    "geocoded_column": {
      "latitude": "30.03152720011892",
      "longitude": "-89.95225505661223"
    }
  },
  {
    "service_request": "2023-1016859",
    "request_type": "Trash/Recycling",
    "request_reason": "Repair Trash Cart",
    "date_created": "2023-07-13T14:28:35.000",
    "date_modified": "2023-07-13T14:28:36.000",
    "request_status": "Pending",
    "responsible_agency": "Department of Sanitation",
    "final_address": "11257 Notaway Ln",
    "address_councildis": "E",
    "status": "Assigned to Contractor",
    "contractor": "Waste Pro",
    "rowid": "1016859",
    "final_x": "3717839.89714",
    "final_y": "559591.181981",
    "longitude": "-89.95225505661223",
    "latitude": "30.03152720011892",
    "geocoded_column": {
      "latitude": "30.03152720011892",
      "longitude": "-89.95225505661223"
    }
  },
  {
    "service_request": "2023-1016858",
    "request_type": "Roads/Drainage",
    "request_reason": "Pothole",
    "date_created": "2023-07-13T14:26:54.000",
    "date_modified": "2023-07-13T14:26:54.000",
    "request_status": "Pending",
    "responsible_agency": "Department of Public Works",
    "final_address": "ST CHARLES AVE & BORDEAUX ST",
    "address_councildis": "B",
    "status": "Pending",
    "rowid": "1016858",
    "final_x": "3669381.8",
    "final_y": "520750.28",
    "longitude": "-90.1066993954228",
    "latitude": "29.92624481279154",
    "geocoded_column": {
      "latitude": "29.92624481279154",
      "longitude": "-90.1066993954228"
    }
  },
  {
    "service_request": "2023-1016857",
    "request_type": "Roads/Drainage",
    "request_reason": "Pothole",
    "date_created": "2023-07-13T14:25:56.000",
    "date_modified": "2023-07-13T14:25:56.000",
    "request_status": "Pending",
    "responsible_agency": "Department of Public Works",
    "final_address": "2204 Music St",
    "address_councildis": "D",
    "status": "Pending",
    "rowid": "1016857",
    "final_x": "3686488.3039",
    "final_y": "540566.251147",
    "longitude": "-90.05199966450509",
    "latitude": "29.980217325125405",
    "geocoded_column": {
      "latitude": "29.980217325125405",
      "longitude": "-90.05199966450509"
    }
  },
  {
    "service_request": "2023-1016856",
    "request_type": "Trash/Recycling",
    "request_reason": "Order Trash Cart",
    "date_created": "2023-07-13T14:23:11.000",
    "date_modified": "2023-07-13T14:23:12.000",
    "request_status": "Pending",
    "responsible_agency": "Department of Sanitation",
    "final_address": "6056 Beechcraft St",
    "address_councildis": "D",
    "status": "Assigned to Contractor",
    "contractor": "Waste Pro",
    "rowid": "1016856",
    "final_x": "3696729.19568",
    "final_y": "553298.429271",
    "longitude": "-90.01919357952458",
    "latitude": "30.014907257536297",
    "geocoded_column": {
      "latitude": "30.014907257536297",
      "longitude": "-90.01919357952458"
    }
  },
  {
    "service_request": "2023-1016855",
    "request_type": "Traffic Signals/Signs/Striping/Streetlights",
    "request_reason": "Street Light Outage/Malfunction",
    "date_created": "2023-07-13T14:21:17.000",
    "date_modified": "2023-07-13T14:21:17.000",
    "request_status": "Pending",
    "responsible_agency": "Department of Public Works",
    "final_address": "8221 Curran Rd",
    "address_councildis": "E",
    "status": "Assigned to Contractor",
    "contractor": "Legacy Professional Services",
    "rowid": "1016855",
    "final_x": "3702843.94372",
    "final_y": "562033.958815",
    "longitude": "-89.9995527788093",
    "latitude": "30.03873233837447",
    "geocoded_column": {
      "latitude": "30.03873233837447",
      "longitude": "-89.9995527788093"
    }
  },
  {
    "service_request": "2023-1016854",
    "request_type": "Abandoned Vehicles",
    "request_reason": "Abandoned/Junk Vehicles",
    "date_created": "2023-07-13T14:19:49.000",
    "date_modified": "2023-07-13T14:19:49.000",
    "request_status": "Pending",
    "responsible_agency": "Department of Public Works",
    "final_address": "200 BLK S dOrgenois St",
    "address_councildis": "B",
    "status": "Pending",
    "rowid": "1016854",
    "final_x": "3675436.83314",
    "final_y": "534275.242917",
    "longitude": "-90.087121019133",
    "latitude": "29.96325437574059",
    "geocoded_column": {
      "latitude": "29.96325437574059",
      "longitude": "-90.087121019133"
    }
  },
  {
    "service_request": "2023-1016853",
    "request_type": "Property Maintenance",
    "request_reason": "Property Maintenance",
    "date_created": "2023-07-13T14:17:31.000",
    "date_modified": "2023-07-13T14:17:32.000",
    "request_status": "Pending",
    "responsible_agency": "Department of Code Enforcement",
    "final_address": "NIE PKWY & GENERAL MEYER AVE",
    "address_councildis": "C",
    "status": "Pending",
    "rowid": "1016853",
    "final_x": "3701101.9",
    "final_y": "523714.38",
    "longitude": "-90.00646040981074",
    "latitude": "29.933423254956576",
    "geocoded_column": {
      "latitude": "29.933423254956576",
      "longitude": "-90.00646040981074"
    }
  },
  {
    "service_request": "2023-1016852",
    "request_type": "Abandoned Vehicles",
    "request_reason": "Abandoned/Junk Vehicles",
    "date_created": "2023-07-13T14:15:01.000",
    "date_modified": "2023-07-13T14:15:01.000",
    "request_status": "Pending",
    "responsible_agency": "Department of Public Works",
    "final_address": "419 Jewel St",
    "address_councildis": "D",
    "status": "Pending",
    "rowid": "1016852",
    "final_x": "3667946.10253",
    "final_y": "555947.783321",
    "longitude": "-90.11004531296189",
    "latitude": "30.02306831143944",
    "geocoded_column": {
      "latitude": "30.02306831143944",
      "longitude": "-90.11004531296189"
    }
  },
  {
    "service_request": "2023-1016851",
    "request_type": "Trash/Recycling",
    "request_reason": "Illegal Dumping",
    "date_created": "2023-07-13T14:14:56.000",
    "date_modified": "2023-07-13T14:14:56.000",
    "request_status": "Pending",
    "responsible_agency": "Department of Sanitation",
    "final_address": "5700 BLK Press Dr",
    "address_councildis": "D",
    "status": "Pending",
    "rowid": "1016851",
    "final_x": "3689005.96906",
    "final_y": "554732.36178",
    "longitude": "-90.04354420505112",
    "latitude": "30.01909133097564",
    "geocoded_column": {
      "latitude": "30.01909133097564",
      "longitude": "-90.04354420505112"
    }
  },
  {
    "service_request": "2023-1016850",
    "request_type": "Trash/Recycling",
    "request_reason": "Request a Large Item Pick Up",
    "date_created": "2023-07-13T14:12:30.000",
    "date_modified": "2023-07-13T14:12:31.000",
    "request_status": "Pending",
    "responsible_agency": "Department of Sanitation",
    "final_address": "823 Esplanade Ave",
    "address_councildis": "C",
    "status": "Assigned to Contractor",
    "contractor": "IV Waste",
    "rowid": "1016850",
    "final_x": "3683646.08207",
    "final_y": "534808.17575",
    "longitude": "-90.06117850189773",
    "latitude": "29.96447170490551",
    "geocoded_column": {
      "latitude": "29.96447170490551",
      "longitude": "-90.06117850189773"
    }
  },
  {
    "service_request": "2023-1016848",
    "request_type": "Trash/Recycling",
    "request_reason": "Missed Trash Pick-Up",
    "date_created": "2023-07-13T14:11:03.000",
    "date_modified": "2023-07-13T14:11:03.000",
    "request_status": "Pending",
    "responsible_agency": "Department of Sanitation",
    "final_address": "3100 BLK Saint Philip St",
    "address_councildis": "A",
    "status": "Assigned to Contractor",
    "contractor": "Richards Disposal",
    "rowid": "1016848",
    "final_x": "3675812.83206",
    "final_y": "539078.94722",
    "longitude": "-90.08576849381738",
    "latitude": "29.97645167987778",
    "geocoded_column": {
      "latitude": "29.97645167987778",
      "longitude": "-90.08576849381738"
    }
  },
  {
    "service_request": "2023-1016847",
    "request_type": "Trash/Recycling",
    "request_reason": "Repair Recycling Cart",
    "date_created": "2023-07-13T14:08:51.000",
    "date_modified": "2023-07-13T14:08:51.000",
    "request_status": "Pending",
    "responsible_agency": "Department of Sanitation",
    "final_address": "1635 State St",
    "address_councildis": "A",
    "status": "Pending",
    "rowid": "1016847",
    "final_x": "3665963.82074",
    "final_y": "522895.309691",
    "longitude": "-90.11741716941198",
    "latitude": "29.932243133030973",
    "geocoded_column": {
      "latitude": "29.932243133030973",
      "longitude": "-90.11741716941198"
    }
  },
  {
    "service_request": "2023-1016846",
    "request_type": "Traffic Signals/Signs/Striping/Streetlights",
    "request_reason": "Street Light Outage/Malfunction",
    "date_created": "2023-07-13T14:05:23.000",
    "date_modified": "2023-07-13T14:05:24.000",
    "request_status": "Pending",
    "responsible_agency": "Department of Public Works",
    "final_address": "5445 Wimbledon Ct",
    "address_councildis": "C",
    "status": "Assigned to Contractor",
    "contractor": "Legacy Professional Services",
    "rowid": "1016846",
    "final_x": "3704270.3873",
    "final_y": "519080.949623",
    "longitude": "-89.99662839773454",
    "latitude": "29.920581666552575",
    "geocoded_column": {
      "latitude": "29.920581666552575",
      "longitude": "-89.99662839773454"
    }
  },
  {
    "service_request": "2023-1016845",
    "request_type": "Roads/Drainage",
    "request_reason": "Street Subsidence (Sinking)",
    "date_created": "2023-07-13T14:02:26.000",
    "date_modified": "2023-07-13T14:02:26.000",
    "request_status": "Pending",
    "responsible_agency": "Department of Public Works",
    "final_address": "1631 Painters St",
    "address_councildis": "D",
    "status": "Pending",
    "rowid": "1016845",
    "final_x": "3687428.14166",
    "final_y": "538623.626185",
    "longitude": "-90.04910003415748",
    "latitude": "29.9748468601697",
    "geocoded_column": {
      "latitude": "29.9748468601697",
      "longitude": "-90.04910003415748"
    }
  },
  {
    "service_request": "2023-1016844",
    "request_type": "Roads/Drainage",
    "request_reason": "Catch Basin - Broken/Damage",
    "date_created": "2023-07-13T13:52:30.000",
    "date_modified": "2023-07-13T13:52:30.000",
    "request_status": "Pending",
    "responsible_agency": "Department of Public Works",
    "final_address": "4382 Randolph Ave",
    "address_councildis": "D",
    "status": "Pending",
    "rowid": "1016844",
    "final_x": "3677618.90062",
    "final_y": "548878.874771",
    "longitude": "-90.07972575807018",
    "latitude": "30.003343862141257",
    "geocoded_column": {
      "latitude": "30.003343862141257",
      "longitude": "-90.07972575807018"
    }
  },