[
  {
    "service_request": "2023-988330",
    "request_type": "Roads/Drainage",
    "request_reason": "Street Subsidence (Sinking)",
    "date_created": "2023-04-03T23:45:35.000",
    "date_modified": "2023-04-03T23:45:35.000",
    "request_status": "Pending",
    "responsible_agency": "Department of Public Works",
    "final_address": "5600 BLK Perrier St",
    "address_councildis": "A",
    "status": "Pending",
    "rowid": "988330",
    "final_x": "3666263.98929",
    "final_y": "520234.992454",
    "longitude": "-90.11655874521382",
    "latitude": "29.92491934097202",
    "geocoded_column": {
      "latitude": "29.92491934097202",
      "longitude": "-90.11655874521382"
    }
  },
  {
    "service_request": "2023-988329",
    "request_type": "Trash/Recycling",
    "request_reason": "Request a Large Item Pick Up",
    "date_created": "2023-04-03T23:14:31.000",
    "date_modified": "2023-04-03T23:14:31.000",
    "request_status": "Pending",
    "responsible_agency": "Department of Sanitation",
    "final_address": "5656 Tullis Dr",
    "address_councildis": "C",
    "status": "Assigned to Contractor",
    "contractor": "Richards Disposal",
    "rowid": "988329",
    "final_x": "3704877.57604",
    "final_y": "512557.587121",
    "longitude": "-89.99495231212946",
    "latitude": "29.902625167781785",
    "geocoded_column": {
      "latitude": "29.902625167781785",
      "longitude": "-89.99495231212946"
    }
  },
  {
    "service_request": "2023-988328",
    "request_type": "Roads/Drainage",
    "request_reason": "Street Flooding / Drainage",
    "date_created": "2023-04-03T23:13:11.000",
    "date_modified": "2023-04-03T23:13:11.000",
    "request_status": "Pending",
    "responsible_agency": "Department of Public Works",
    "final_address": "1501 Gordon St",
    "address_councildis": "E",
    "status": "Pending",
    "rowid": "988328",
    "final_x": "3699771.84221",
    "final_y": "534865.909894",
    "longitude": "-90.01025279615467",
    "latitude": "29.964128317766107",
    "geocoded_column": {
      "latitude": "29.964128317766107",
      "longitude": "-90.01025279615467"
    }
  },
  {
    "service_request": "2023-988327",
    "request_type": "Roads/Drainage",
    "request_reason": "Leaking Hydrant",
    "date_created": "2023-04-03T22:53:37.000",
    "date_modified": "2023-04-03T22:53:37.000",
    "request_status": "Pending",
    "responsible_agency": "Department of Public Works",
    "final_address": "3701 Constance Street ",
    "address_councildis": "B",
    "status": "Pending",
    "rowid": "988327",
    "final_x": "3673708.29953",
    "final_y": "518787.867831",
    "longitude": "-90.09310889881522",
    "latitude": "29.920720746888186",
    "geocoded_column": {
      "latitude": "29.920720746888186",
      "longitude": "-90.09310889881522"
    }
  },
  {
    "service_request": "2023-988326",
    "request_type": "Traffic Signals/Signs/Striping/Streetlights",
    "request_reason": "Street Light Outage/Malfunction",
    "date_created": "2023-04-03T22:35:54.000",
    "date_modified": "2023-04-03T22:35:54.000",
    "request_status": "Pending",
    "responsible_agency": "Department of Public Works",
    "final_address": "Interstate 610 & Orleans Avenue",
    "address_councildis": "A",
    "status": "Assigned to Contractor",
    "contractor": "Legacy Professional Services",
    "rowid": "988326",
    "final_x": "3670761.8626",
    "final_y": "545732.125456",
    "longitude": "-90.10149512819247",
    "latitude": "29.99489589055346",
    "geocoded_column": {
      "latitude": "29.99489589055346",
      "longitude": "-90.10149512819247"
    }
  },
  {
    "service_request": "2023-988325",
    "request_type": "Trash/Recycling",
    "request_reason": "Request a Large Item Pick Up",
    "date_created": "2023-04-03T22:21:10.000",
    "date_modified": "2023-04-03T22:21:11.000",
    "request_status": "Pending",
    "responsible_agency": "Department of Sanitation",
    "status": "Assigned to Contractor",
    "rowid": "988325",
    "longitude": "0.0",
    "latitude": "0.0",
    "geocoded_column": {
      "latitude": "0.0",
      "longitude": "0.0"
    }
  },
  {
    "service_request": "2023-988324",
    "request_type": "Traffic Signals/Signs/Striping/Streetlights",
    "request_reason": "Street Light Outage/Malfunction",
    "date_created": "2023-04-03T22:17:27.000",
    "date_modified": "2023-04-03T22:17:27.000",
    "request_status": "Pending",
    "responsible_agency": "Department of Public Works",
    "final_address": "4970 Arts St",
    "address_councildis": "D",
    "status": "Assigned to Contractor",
    "contractor": "Legacy Professional Services",
    "rowid": "988324",
    "final_x": "3685767.01999",
    "final_y": "551414.500885",
    "longitude": "-90.05389519688953",
    "latitude": "30.010068280359565",
    "geocoded_column": {
      "latitude": "30.010068280359565",
      "longitude": "-90.05389519688953"
    }
  },
  {
    "service_request": "2023-988323",
    "request_type": "Trash/Recycling",
    "request_reason": "Request a Large Item Pick Up",
    "date_created": "2023-04-03T22:12:37.000",
    "date_modified": "2023-04-03T22:12:37.000",
    "request_status": "Pending",
    "responsible_agency": "Department of Sanitation",
    "final_address": "1020 Fourth St",
    "address_councildis": "B",
    "status": "Assigned to Contractor",
    "contractor": "Richards Disposal",
    "rowid": "988323",
    "final_x": "3677362.98414",
    "final_y": "520811.947257",
    "longitude": "-90.08150293363734",
    "latitude": "29.926177034470616",
    "geocoded_column": {
      "latitude": "29.926177034470616",
      "longitude": "-90.08150293363734"
    }
  },
  {
    "service_request": "2023-988322",
    "request_type": "Trash/Recycling",
    "request_reason": "Replace Recycling Cart",
    "date_created": "2023-04-03T21:46:41.000",
    "date_modified": "2023-04-03T21:46:41.000",
    "request_status": "Pending",
    "responsible_agency": "Department of Sanitation",
    "final_address": "5231 Forest Park Ln",
    "address_councildis": "C",
    "status": "Pending",
    "rowid": "988322",
    "final_x": "3703891.14922",
    "final_y": "510439.442991",
    "longitude": "-89.9981433139317",
    "latitude": "29.896832632279605",
    "geocoded_column": {
      "latitude": "29.896832632279605",
      "longitude": "-89.9981433139317"
    }
  },
  {
    "service_request": "2023-988321",
    "request_type": "Trash/Recycling",
    "request_reason": "Order Recycling Cart",
    "date_created": "2023-04-03T21:17:35.000",
    "date_modified": "2023-04-03T21:17:35.000",
    "request_status": "Pending",
    "responsible_agency": "Department of Sanitation",
    "final_address": "7430 Burke Ave",
    "address_councildis": "E",
    "status": "Pending",
    "rowid": "988321",
    "final_x": "3705772.94411",
    "final_y": "562263.231007",
    "longitude": "-89.99028791410657",
    "latitude": "30.039268675107483",
    "geocoded_column": {
      "latitude": "30.039268675107483",
      "longitude": "-89.99028791410657"
    }
  },
  {
    "service_request": "2023-988320",
    "request_type": "Traffic Signals/Signs/Striping/Streetlights",
    "request_reason": "Street Light Outage/Malfunction",
    "date_created": "2023-04-03T20:50:49.000",
    "date_modified": "2023-04-03T20:50:50.000",
    "request_status": "Pending",
    "responsible_agency": "Department of Public Works",
    "final_address": "7700 Arcadia Ln",
    "address_councildis": "E",
    "status": "Assigned to Contractor",
    "contractor": "Legacy Professional Services",
    "rowid": "988320",
    "final_x": "3712195.02347",
    "final_y": "567290.986404",
    "longitude": "-89.9698033966784",
    "latitude": "30.052884434247066",
    "geocoded_column": {
      "latitude": "30.052884434247066",
      "longitude": "-89.9698033966784"
    }
  },
  {
    "service_request": "2023-988319",
    "request_type": "Mosquito, Termite & Rodent Control",
    "request_reason": "Mosquito Complaint",
    "date_created": "2023-04-03T20:39:24.000",
    "date_modified": "2023-04-03T20:39:24.000",
    "request_status": "Pending",
    "responsible_agency": "Mosquito, Termite & Rodent Control Board",
    "status": "Pending",
    "rowid": "988319",
    "longitude": "0.0",
    "latitude": "0.0",
    "geocoded_column": {
      "latitude": "0.0",
      "longitude": "0.0"
    }
  },
  {
    "service_request": "2023-988318",
    "request_type": "Trash/Recycling",
    "request_reason": "Request a Large Item Pick Up",
    "date_created": "2023-04-03T20:36:24.000",
    "date_modified": "2023-04-03T20:36:25.000",
    "request_status": "Pending",
    "responsible_agency": "Department of Sanitation",
    "final_address": "8540 Cohn St. ",
    "status": "Assigned to Contractor",
    "rowid": "988318",
    "longitude": "0.0",
    "latitude": "0.0",
    "geocoded_column": {
      "latitude": "0.0",
      "longitude": "0.0"
    }
  },
  {
    "service_request": "2023-988317",
    "request_type": "Trash/Recycling",
    "request_reason": "Replace Trash Cart",
    "date_created": "2023-04-03T20:24:14.000",
    "date_modified": "2023-04-03T20:24:15.000",
    "request_status": "Pending",
    "responsible_agency": "Department of Sanitation",
    "final_address": "69 Versailles Blvd",
    "address_councildis": "B",
    "status": "Assigned to Contractor",
    "contractor": "Richards Disposal",
    "rowid": "988317",
    "final_x": "3667826.70113",
    "final_y": "530449.134786",
    "longitude": "-90.11128188642664",
    "latitude": "29.952959225137956",
    "geocoded_column": {
      "latitude": "29.952959225137956",
      "longitude": "-90.11128188642664"
    }
  },
  {
    "service_request": "2023-988316",
    "request_type": "Trash/Recycling",
    "request_reason": "Dead Animal Pick Up",
    "date_created": "2023-04-03T20:18:09.000",
    "date_modified": "2023-04-03T20:18:10.000",
    "request_status": "Pending",
    "responsible_agency": "Department of Sanitation",
    "final_address": "8540 Panola St.",
    "address_councildis": "A",
    "status": "Assigned to Contractor",
    "contractor": "Richards Disposal",
    "rowid": "988316",
    "final_x": "3662793.07111",
    "final_y": "531847.037123",
    "longitude": "-90.12712948576562",
    "latitude": "29.956949657997036",
    "geocoded_column": {
      "latitude": "29.956949657997036",
      "longitude": "-90.12712948576562"
    }
  },
  {
    "service_request": "2023-988315",
    "request_type": "Traffic Signals/Signs/Striping/Streetlights",
    "request_reason": "Street Light Outage/Malfunction",
    "date_created": "2023-04-03T20:17:32.000",
    "date_modified": "2023-04-03T20:17:33.000",
    "request_status": "Pending",
    "responsible_agency": "Department of Public Works",
    "final_address": "8939 Nelson St",
    "address_councildis": "A",
    "status": "Assigned to Contractor",
    "contractor": "Legacy Professional Services",
    "rowid": "988315",
    "final_x": "3662829.8144",
    "final_y": "533977.219461",
    "longitude": "-90.12694264236245",
    "latitude": "29.962805902438298",
    "geocoded_column": {
      "latitude": "29.962805902438298",
      "longitude": "-90.12694264236245"
    }
  },
  {
    "service_request": "2023-988314",
    "request_type": "Trash/Recycling",
    "request_reason": "Request a Large Item Pick Up",
    "date_created": "2023-04-03T20:13:23.000",
    "date_modified": "2023-04-03T20:13:23.000",
    "request_status": "Pending",
    "responsible_agency": "Department of Sanitation",
    "final_address": "3018 Carondelet St",
    "address_councildis": "B",
    "status": "Assigned to Contractor",
    "contractor": "Richards Disposal",
    "rowid": "988314",
    "final_x": "3674894.44987",
    "final_y": "522281.27833",
    "longitude": "-90.08924503713837",
    "latitude": "29.930291144046446",
    "geocoded_column": {
      "latitude": "29.930291144046446",
      "longitude": "-90.08924503713837"
    }
  },
  {
    "service_request": "2023-988313",
    "request_type": "Traffic Signals/Signs/Striping/Streetlights",
    "request_reason": "Street Light Outage/Malfunction",
    "date_created": "2023-04-03T19:57:39.000",
    "date_modified": "2023-04-03T19:57:39.000",
    "request_status": "Pending",
    "responsible_agency": "Department of Public Works",
    "final_address": "611 OKeefe Ave",
    "address_councildis": "B",
    "status": "Assigned to Contractor",
    "contractor": "Legacy Professional Services",
    "rowid": "988313",
    "final_x": "3679355.91375",
    "final_y": "529017.045504",
    "longitude": "-90.07492737207814",
    "latitude": "29.948678324365698",
    "geocoded_column": {
      "latitude": "29.948678324365698",
      "longitude": "-90.07492737207814"
    }
  },
  {
    "service_request": "2023-988312",
    "request_type": "Mosquito, Termite & Rodent Control",
    "request_reason": "Mosquito Complaint",
    "date_created": "2023-04-03T19:56:56.000",
    "date_modified": "2023-04-03T19:56:57.000",
    "request_status": "Pending",
    "responsible_agency": "Mosquito, Termite & Rodent Control Board",
    "final_address": "3631 Mansfield Ave",
    "address_councildis": "C",
    "status": "Pending",
    "rowid": "988312",
    "final_x": "3708953.87736",
    "final_y": "517445.390646",
    "longitude": "-89.98190582230932",
    "latitude": "29.915933388026193",
    "geocoded_column": {
      "latitude": "29.915933388026193",
      "longitude": "-89.98190582230932"
    }
  },
  {
    "service_request": "2023-988311",
    "request_type": "Abandoned Vehicles",
    "request_reason": "Abandoned/Junk Vehicles",
    "date_created": "2023-04-03T19:56:45.000",
    "date_modified": "2023-04-03T19:56:45.000",
    "request_status": "Pending",
    "responsible_agency": "Department of Public Works",
    "final_address": "4304 Pauger St",
    "address_councildis": "D",
    "status": "Pending",
    "rowid": "988311",
    "final_x": "3682847.08213",
    "final_y": "548453.52341",
    "longitude": "-90.06322403743552",
    "latitude": "30.002015985868834",
    "geocoded_column": {
      "latitude": "30.002015985868834",
      "longitude": "-90.06322403743552"
    }
  },
  {
    "service_request": "2023-988310",
    "request_type": "Abandoned Vehicles",
    "request_reason": "Abandoned/Junk Vehicles",
    "date_created": "2023-04-03T19:53:48.000",
    "date_modified": "2023-04-03T19:53:48.000",
    "request_status": "Pending",
    "responsible_agency": "Department of Public Works",
    "status": "Pending",
    "rowid": "988310",
    "longitude": "0.0",
    "latitude": "0.0",
    "geocoded_column": {
      "latitude": "0.0",
      "longitude": "0.0"
    }
  },
  {
    "service_request": "2023-988309",
    "request_type": "Abandoned Vehicles",
    "request_reason": "Abandoned/Junk Vehicles",
    "date_created": "2023-04-03T19:52:40.000",
    "date_modified": "2023-04-03T19:52:40.000",
    "request_status": "Pending",
    "responsible_agency": "Department of Public Works",
    "final_address": "1938 Stephen Girard St",
    "address_councildis": "D",
    "status": "Pending",
    "rowid": "988309",
    "final_x": "3682089.08796",
    "final_y": "548624.135315",
    "longitude": "-90.06561266110566",
    "latitude": "30.002508188187832",
    "geocoded_column": {
      "latitude": "30.002508188187832",
      "longitude": "-90.06561266110566"
    }
  },
  {
    "service_request": "2023-988308",
    "request_type": "Abandoned Vehicles",
    "request_reason": "Abandoned/Junk Vehicles",
    "date_created": "2023-04-03T19:49:18.000",
    "date_modified": "2023-04-03T19:49:18.000",
    "request_status": "Pending",
    "responsible_agency": "Department of Public Works",
    "final_address": "126 N Alexander St",
    "address_councildis": "A",
    "status": "Pending",
    "rowid": "988308",
    "final_x": "3670218.053",
    "final_y": "539378.446346",
    "longitude": "-90.10342839645045",
    "latitude": "29.977441509427496",
    "geocoded_column": {
      "latitude": "29.977441509427496",
      "longitude": "-90.10342839645045"
    }
  },
  {
    "service_request": "2023-988307",
    "request_type": "Abandoned Vehicles",
    "request_reason": "Abandoned/Junk Vehicles",
    "date_created": "2023-04-03T19:33:16.000",
    "date_modified": "2023-04-03T19:33:16.000",
    "request_status": "Pending",
    "responsible_agency": "Department of Public Works",
    "final_address": "1218 St Mary St",
    "address_councildis": "B",
    "status": "Pending",
    "rowid": "988307",
    "final_x": "3679346.67362",
    "final_y": "523214.533499",
    "longitude": "-90.07515771841543",
    "latitude": "29.932723620166904",
    "geocoded_column": {
      "latitude": "29.932723620166904",
      "longitude": "-90.07515771841543"
    }
  },
  {
    "service_request": "2023-988306",
    "request_type": "Trash/Recycling",
    "request_reason": "Repair Trash Cart",
    "date_created": "2023-04-03T19:28:35.000",
    "date_modified": "2023-04-03T19:28:36.000",
    "request_status": "Pending",
    "responsible_agency": "Department of Sanitation",
    "final_address": "3311 St Ann St",
    "address_councildis": "A",
    "status": "Assigned to Contractor",
    "contractor": "Richards Disposal",
    "rowid": "988306",
    "final_x": "3674836.62312",
    "final_y": "538845.117961",
    "longitude": "-90.08885968234804",
    "latitude": "29.975837918563485",
    "geocoded_column": {
      "latitude": "29.975837918563485",
      "longitude": "-90.08885968234804"
    }
  },
  {
    "service_request": "2023-988305",
    "request_type": "Trash/Recycling",
    "request_reason": "Request a Large Item Pick Up",
    "date_created": "2023-04-03T19:05:02.000",
    "date_modified": "2023-04-03T19:05:03.000",
    "request_status": "Pending",
    "responsible_agency": "Department of Sanitation",
    "final_address": "26 Grand Canyon Dr",
    "address_councildis": "C",
    "status": "Assigned to Contractor",
    "contractor": "Richards Disposal",
    "rowid": "988305",
    "final_x": "3699750.71332",
    "final_y": "517157.420853",
    "longitude": "-90.01096488939694",
    "latitude": "29.915436821529568",
    "geocoded_column": {
      "latitude": "29.915436821529568",
      "longitude": "-90.01096488939694"
    }
  },
  {
    "service_request": "2023-988304",
    "request_type": "Trash/Recycling",
    "request_reason": "Return Trash Cart",
    "date_created": "2023-04-03T19:01:49.000",
    "date_modified": "2023-04-03T19:01:50.000",
    "request_status": "Pending",
    "responsible_agency": "Department of Sanitation",
    "final_address": "26 Grand Canyon Dr",
    "address_councildis": "C",
    "status": "Assigned to Contractor",
    "contractor": "Richards Disposal",
    "rowid": "988304",
    "final_x": "3699750.71332",
    "final_y": "517157.420853",
    "longitude": "-90.01096488939694",
    "latitude": "29.915436821529568",
    "geocoded_column": {
      "latitude": "29.915436821529568",
      "longitude": "-90.01096488939694"
    }
  },
  {
    "service_request": "2023-988303",
    "request_type": "Trash/Recycling",
    "request_reason": "Return Trash Cart",
    "date_created": "2023-04-03T18:58:09.000",
    "date_modified": "2023-04-03T18:58:10.000",
    "request_status": "Pending",
    "responsible_agency": "Department of Sanitation",
    "final_address": "7260 Queensway Dr",
    "address_councildis": "E",
    "status": "Assigned to Contractor",
    "contractor": "Waste Pro",
    "rowid": "988303",
    "final_x": "3718445.06041",
    "final_y": "570294.039463",
    "longitude": "-89.94993440255294",
    "latitude": "30.06093560309904",
    "geocoded_column": {
      "latitude": "30.06093560309904",
      "longitude": "-89.94993440255294"
    }
  },
  {
    "service_request": "2023-988302",
    "request_type": "Trash/Recycling",
    "request_reason": "Replace Trash Cart",
    "date_created": "2023-04-03T18:55:13.000",
    "date_modified": "2023-04-03T18:55:14.000",
    "request_status": "Pending",
    "responsible_agency": "Department of Sanitation",
    "final_address": "1121 Valence St",
    "address_councildis": "B",
    "status": "Assigned to Contractor",
    "contractor": "Richards Disposal",
    "rowid": "988302",
    "final_x": "3669909.31137",
    "final_y": "519621.00172",
    "longitude": "-90.10507240022332",
    "latitude": "29.923124118629712",
    "geocoded_column": {
      "latitude": "29.923124118629712",
      "longitude": "-90.10507240022332"
    }
  },
  {
    "service_request": "2023-988301",
    "request_type": "Trash/Recycling",
    "request_reason": "Request a Large Item Pick Up",
    "date_created": "2023-04-03T18:50:27.000",
    "date_modified": "2023-04-03T18:50:27.000",
    "request_status": "Pending",
    "responsible_agency": "Department of Sanitation",
    "final_address": "4978 De Montluzin St",
    "address_councildis": "D",
    "status": "Assigned to Contractor",
    "contractor": "IV Waste",
    "rowid": "988301",
    "final_x": "3687023.66191",
    "final_y": "551565.239509",
    "longitude": "-90.0499196784599",
    "latitude": "30.010444114761707",
    "geocoded_column": {
      "latitude": "30.010444114761707",
      "longitude": "-90.0499196784599"
    }
  },
  {
    "service_request": "2023-988300",
    "request_type": "Trash/Recycling",
    "request_reason": "Change Size of Trash Cart",
    "date_created": "2023-04-03T18:48:56.000",
    "date_modified": "2023-04-03T18:48:57.000",
    "request_status": "Pending",
    "responsible_agency": "Department of Sanitation",
    "final_address": "5200 St Charles Ave",
    "address_councildis": "B",
    "status": "Assigned to Contractor",
    "contractor": "Richards Disposal",
    "rowid": "988300",
    "final_x": "3668054.63706",
    "final_y": "521069.473017",
    "longitude": "-90.11087813429576",
    "latitude": "29.927161491374722",
    "geocoded_column": {
      "latitude": "29.927161491374722",
      "longitude": "-90.11087813429576"
    }
  },
  {
    "service_request": "2023-988299",
    "request_type": "Trash/Recycling",
    "request_reason": "MIssed Recycling Pick-Up",
    "date_created": "2023-04-03T18:47:49.000",
    "date_modified": "2023-04-03T18:47:49.000",
    "request_status": "Pending",
    "responsible_agency": "Department of Sanitation",
    "final_address": "4510 St Claude Ave",
    "address_councildis": "C",
    "status": "Assigned to Contractor",
    "contractor": "IV Waste",
    "rowid": "988299",
    "final_x": "3693422.97622",
    "final_y": "534854.618054",
    "longitude": "-90.03030228084882",
    "latitude": "29.964297316806743",
    "geocoded_column": {
      "latitude": "29.964297316806743",
      "longitude": "-90.03030228084882"
    }
  },
  {
    "service_request": "2023-988298",
    "request_type": "Trash/Recycling",
    "request_reason": "Repair Trash Cart",
    "date_created": "2023-04-03T18:41:48.000",
    "date_modified": "2023-04-03T18:41:48.000",
    "request_status": "Pending",
    "responsible_agency": "Department of Sanitation",
    "final_address": "1015 N Rendon St",
    "address_councildis": "A",
    "status": "Assigned to Contractor",
    "contractor": "Richards Disposal",
    "rowid": "988298",
    "final_x": "3675742.72155",
    "final_y": "539345.327306",
    "longitude": "-90.08598076586532",
    "latitude": "29.977186232592004",
    "geocoded_column": {
      "latitude": "29.977186232592004",
      "longitude": "-90.08598076586532"
    }
  },
  {
    "service_request": "2023-988297",
    "request_type": "Trash/Recycling",
    "request_reason": "Illegal Dumping",
    "date_created": "2023-04-03T18:41:10.000",
    "date_modified": "2023-04-03T18:41:10.000",
    "request_status": "Pending",
    "responsible_agency": "Department of Sanitation",
    "final_address": "4217 Orleans Ave",
    "address_councildis": "A",
    "status": "Pending",
    "rowid": "988297",
    "final_x": "3671948.06715",
    "final_y": "540850.627211",
    "longitude": "-90.09791428990914",
    "latitude": "29.981438332606853",
    "geocoded_column": {
      "latitude": "29.981438332606853",
      "longitude": "-90.09791428990914"
    }
  },
  {
    "service_request": "2023-988296",
    "request_type": "Trash/Recycling",
    "request_reason": "Repair Trash Cart",
    "date_created": "2023-04-03T18:38:09.000",
    "date_modified": "2023-04-03T18:38:10.000",
    "request_status": "Pending",
    "responsible_agency": "Department of Sanitation",
    "final_address": "525 S Cortez St",
    "address_councildis": "B",
    "status": "Assigned to Contractor",
    "contractor": "Richards Disposal",
    "rowid": "988296",
    "final_x": "3670933.90868",
    "final_y": "536172.126919",
    "longitude": "-90.10127636513752",
    "latitude": "29.96860406509282",
    "geocoded_column": {
      "latitude": "29.96860406509282",
      "longitude": "-90.10127636513752"
    }
  },
  {
    "service_request": "2023-988295",
    "request_type": "Roads/Drainage",
    "request_reason": "Pothole",
    "date_created": "2023-04-03T18:38:03.000",
    "date_modified": "2023-04-03T18:38:03.000",
    "request_status": "Pending",
    "responsible_agency": "Department of Public Works",
    "final_address": "512 City Park Ave",
    "address_councildis": "A",
    "status": "Pending",
    "rowid": "988295",
    "final_x": "3669555.62324",
    "final_y": "541478.915852",
    "longitude": "-90.1054494872785",
    "latitude": "29.983236622699568",
    "geocoded_column": {
      "latitude": "29.983236622699568",
      "longitude": "-90.1054494872785"
    }
  },
  {
    "service_request": "2023-988294",
    "request_type": "Roads/Drainage",
    "request_reason": "Pothole",
    "date_created": "2023-04-03T18:33:22.000",
    "date_modified": "2023-04-03T18:33:22.000",
    "request_status": "Pending",
    "responsible_agency": "Department of Public Works",
    "final_address": "311 Virginia St",
    "address_councildis": "A",
    "status": "Pending",
    "rowid": "988294",
    "final_x": "3668441.11425",
    "final_y": "541491.233804",
    "longitude": "-90.10896927946402",
    "latitude": "29.983303285188494",
    "geocoded_column": {
      "latitude": "29.983303285188494",
      "longitude": "-90.10896927946402"
    }
  },
  {
    "service_request": "2023-988293",
    "request_type": "Trash/Recycling",
    "request_reason": "Request a Large Item Pick Up",
    "date_created": "2023-04-03T18:32:53.000",
    "date_modified": "2023-04-03T18:32:54.000",
    "request_status": "Pending",
    "responsible_agency": "Department of Sanitation",
    "final_address": "300 Crystal St",
    "address_councildis": "D",
    "status": "Assigned to Contractor",
    "contractor": "IV Waste",
    "rowid": "988293",
    "final_x": "3667453.37101",
    "final_y": "556016.009497",
    "longitude": "-90.11159994276152",
    "latitude": "30.023270364041334",
    "geocoded_column": {
      "latitude": "30.023270364041334",
      "longitude": "-90.11159994276152"
    }
  },
  {
    "service_request": "2023-988292",
    "request_type": "Abandoned Vehicles",
    "request_reason": "Vehicle Blocking Your Driveway",
    "date_created": "2023-04-03T18:31:37.000",
    "date_modified": "2023-04-03T18:31:37.000",
    "request_status": "Pending",
    "responsible_agency": "Department of Public Works",
    "final_address": "4233 Fontainebleau Dr, New Orleans, Louisiana, 70125",
    "address_councildis": "B",
    "status": "Pending",
    "rowid": "988292",
    "final_x": "3669594.35182",
    "final_y": "529369.643777",
    "longitude": "-90.1057369255015",
    "latitude": "29.949939023014437",
    "geocoded_column": {
      "latitude": "29.949939023014437",
      "longitude": "-90.1057369255015"
    }
  },
  {
    "service_request": "2023-988291",
    "request_type": "Abandoned Vehicles",
    "request_reason": "Abandoned/Junk Vehicles",
    "date_created": "2023-04-03T18:22:33.000",
    "date_modified": "2023-04-03T18:23:32.000",
    "request_status": "Pending",
    "responsible_agency": "Department of Public Works",
    "final_address": "2636 Palmyra St",
    "address_councildis": "B",
    "status": "Pending",
    "rowid": "988291",
    "final_x": "3675048.0619",
    "final_y": "534280.243461",
    "longitude": "-90.08834854412282",
    "latitude": "29.963279746116076",
    "geocoded_column": {
      "latitude": "29.963279746116076",
      "longitude": "-90.08834854412282"
    }
  },
  {
    "service_request": "2023-988290",
    "request_type": "Trash/Recycling",
    "request_reason": "Request a Large Item Pick Up",
    "date_created": "2023-04-03T18:22:03.000",
    "date_modified": "2023-04-03T18:22:03.000",
    "request_status": "Pending",
    "responsible_agency": "Department of Sanitation",
    "final_address": "5716 Tchoupitoulas St",
    "address_councildis": "A",
    "status": "Assigned to Contractor",
    "contractor": "Richards Disposal",
    "rowid": "988290",
    "final_x": "3665290.91514",
    "final_y": "517191.628853",
    "longitude": "-90.11973218490154",
    "latitude": "29.916579420559522",
    "geocoded_column": {
      "latitude": "29.916579420559522",
      "longitude": "-90.11973218490154"
    }
  },
  {
    "service_request": "2023-988289",
    "request_type": "Trash/Recycling",
    "request_reason": "Request a Large Item Pick Up",
    "date_created": "2023-04-03T18:14:16.000",
    "date_modified": "2023-04-03T18:14:17.000",
    "request_status": "Pending",
    "responsible_agency": "Department of Sanitation",
    "final_address": "2678 Gallinghouse St",
    "address_councildis": "C",
    "status": "Assigned to Contractor",
    "contractor": "Richards Disposal",
    "rowid": "988289",
    "final_x": "3700132.62244",
    "final_y": "521089.816633",
    "longitude": "-90.00961606070385",
    "latitude": "29.92623743947596",
    "geocoded_column": {
      "latitude": "29.92623743947596",
      "longitude": "-90.00961606070385"
    }
  },
  {
    "service_request": "2023-988288",
    "request_type": "Abandoned Vehicles",
    "request_reason": "Abandoned/Junk Vehicles",
    "date_created": "2023-04-03T18:10:38.000",
    "date_modified": "2023-04-03T18:10:38.000",
    "request_status": "Pending",
    "responsible_agency": "Department of Public Works",
    "final_address": "1948 Pace Blvd",
    "address_councildis": "C",
    "status": "Pending",
    "rowid": "988288",
    "final_x": "3694520.45027",
    "final_y": "523266.390075",
    "longitude": "-90.02725368524285",
    "latitude": "29.932399354203405",
    "geocoded_column": {
      "latitude": "29.932399354203405",
      "longitude": "-90.02725368524285"
    }
  },
  {
    "service_request": "2023-988287",
    "request_type": "Trash/Recycling",
    "request_reason": "Request a Large Item Pick Up",
    "date_created": "2023-04-03T18:10:21.000",
    "date_modified": "2023-04-03T18:10:21.000",
    "request_status": "Pending",
    "responsible_agency": "Department of Sanitation",
    "final_address": "2712 Jonquil St",
    "address_councildis": "D",
    "status": "Assigned to Contractor",
    "contractor": "IV Waste",
    "rowid": "988287",
    "final_x": "3687911.58057",
    "final_y": "547204.645073",
    "longitude": "-90.04726904100175",
    "latitude": "29.998426692716645",
    "geocoded_column": {
      "latitude": "29.998426692716645",
      "longitude": "-90.04726904100175"
    }
  },
  {
    "service_request": "2023-988286",
    "request_type": "Property Maintenance",
    "request_reason": "Property Maintenance",
    "date_created": "2023-04-03T18:08:41.000",
    "date_modified": "2023-04-03T18:08:41.000",
    "request_status": "Pending",
    "responsible_agency": "Department of Code Enforcement",
    "final_address": "1501 Conti St",
    "address_councildis": "C",
    "status": "Pending",
    "rowid": "988286",
    "final_x": "3679685.40635",
    "final_y": "533416.554692",
    "longitude": "-90.07373432213413",
    "latitude": "29.960765536704944",
    "geocoded_column": {
      "latitude": "29.960765536704944",
      "longitude": "-90.07373432213413"
    }
  },
  {
    "service_request": "2023-988285",
    "request_type": "Trash/Recycling",
    "request_reason": "Request a Large Item Pick Up",
    "date_created": "2023-04-03T18:04:31.000",
    "date_modified": "2023-04-03T18:04:32.000",
    "request_status": "Pending",
    "responsible_agency": "Department of Sanitation",
    "final_address": "928 Pleasant St",
    "address_councildis": "B",
    "status": "Assigned to Contractor",
    "contractor": "Richards Disposal",
    "rowid": "988285",
    "final_x": "3675736.93589",
    "final_y": "519412.107127",
    "longitude": "-90.08668398246247",
    "latitude": "29.922376672558695",
    "geocoded_column": {
      "latitude": "29.922376672558695",
      "longitude": "-90.08668398246247"
    }
  },
  {
    "service_request": "2023-988282",
    "request_type": "Trash/Recycling",
    "request_reason": "Repair Trash Cart",
    "date_created": "2023-04-03T17:54:45.000",
    "date_modified": "2023-04-03T17:54:45.000",
    "request_status": "Pending",
    "responsible_agency": "Department of Sanitation",
    "final_address": "4822 Constance St",
    "address_councildis": "B",
    "status": "Assigned to Contractor",
    "contractor": "Richards Disposal",
    "rowid": "988282",
    "final_x": "3669441.80193",
    "final_y": "518212.259766",
    "longitude": "-90.10659576042404",
    "latitude": "29.919264295511084",
    "geocoded_column": {
      "latitude": "29.919264295511084",
      "longitude": "-90.10659576042404"
    }
  },
  {
    "service_request": "2023-988281",
    "request_type": "Trash/Recycling",
    "request_reason": "Request a Large Item Pick Up",
    "date_created": "2023-04-03T17:54:09.000",
    "date_modified": "2023-04-03T17:54:09.000",
    "request_status": "Pending",
    "responsible_agency": "Department of Sanitation",
    "final_address": "2737 Lavender St",
    "address_councildis": "D",
    "status": "Assigned to Contractor",
    "contractor": "IV Waste",
    "rowid": "988281",
    "final_x": "3688122.25833",
    "final_y": "547055.447441",
    "longitude": "-90.04660880465295",
    "latitude": "29.998009949728633",
    "geocoded_column": {
      "latitude": "29.998009949728633",
      "longitude": "-90.04660880465295"
    }
  },
  {
    "service_request": "2023-988279",
    "request_type": "Trash/Recycling",
    "request_reason": "Replace Trash Cart",
    "date_created": "2023-04-03T17:51:48.000",
    "date_modified": "2023-04-03T17:51:48.000",
    "request_status": "Pending",
    "responsible_agency": "Department of Sanitation",
    "final_address": "1119 N Prieur St",
    "address_councildis": "D",
    "status": "Assigned to Contractor",
    "contractor": "Richards Disposal",
    "rowid": "988279",
    "final_x": "3679899.02037",
    "final_y": "536614.106439",
    "longitude": "-90.07294870427998",
    "latitude": "29.969551253559796",
    "geocoded_column": {
      "latitude": "29.969551253559796",
      "longitude": "-90.07294870427998"
    }
  },
  {
    "service_request": "2023-988278",
    "request_type": "Abandoned Vehicles",
    "request_reason": "Vehicle Blocking Your Driveway",
    "date_created": "2023-04-03T17:51:19.000",
    "date_modified": "2023-04-03T17:51:19.000",
    "request_status": "Pending",
    "responsible_agency": "Department of Public Works",
    "final_address": "4309 Vendome ",
    "status": "Pending",
    "rowid": "988278",
    "longitude": "0.0",
    "latitude": "0.0",
    "geocoded_column": {
      "latitude": "0.0",
      "longitude": "0.0"
    }
  },
  {
    "service_request": "2023-988277",
    "request_type": "Roads/Drainage",
    "request_reason": "Pothole",
    "date_created": "2023-04-03T17:47:03.000",
    "date_modified": "2023-04-03T17:47:03.000",
    "request_status": "Pending",
    "responsible_agency": "Department of Public Works",
    "final_address": "512 Conti St",
    "address_councildis": "C",
    "status": "Pending",
    "rowid": "988277",
    "final_x": "3682379.72444",
    "final_y": "531175.116354",
    "longitude": "-90.0653045226957",
    "latitude": "29.954520630044655",
    "geocoded_column": {
      "latitude": "29.954520630044655",
      "longitude": "-90.0653045226957"
    }
  },
  {
    "service_request": "2023-988276",
    "request_type": "Trash/Recycling",
    "request_reason": "Missed Trash Pick-Up",
    "date_created": "2023-04-03T17:46:24.000",
    "date_modified": "2023-04-03T17:46:25.000",
    "request_status": "Pending",
    "responsible_agency": "Department of Sanitation",
    "final_address": "6900 BLK Edgefield Dr",
    "address_councildis": "E",
    "status": "Assigned to Contractor",
    "contractor": "Waste Pro",
    "rowid": "988276",
    "final_x": "3718990.98357",
    "final_y": "568851.399486",
    "longitude": "-89.94826389441519",
    "latitude": "30.05695080938963",
    "geocoded_column": {
      "latitude": "30.05695080938963",
      "longitude": "-89.94826389441519"
    }
  },
  {
    "service_request": "2023-988275",
    "request_type": "Trash/Recycling",
    "request_reason": "Request a Large Item Pick Up",
    "date_created": "2023-04-03T17:43:30.000",
    "date_modified": "2023-04-03T17:43:31.000",
    "request_status": "Pending",
    "responsible_agency": "Department of Sanitation",
    "final_address": "1815 Painters St",
    "address_councildis": "D",
    "status": "Assigned to Contractor",
    "contractor": "IV Waste",
    "rowid": "988275",
    "final_x": "3687382.76706",
    "final_y": "539226.189642",
    "longitude": "-90.04922201133215",
    "latitude": "29.976505095860176",
    "geocoded_column": {
      "latitude": "29.976505095860176",
      "longitude": "-90.04922201133215"
    }
  },
  {
    "service_request": "2023-988274",
    "request_type": "Roads/Drainage",
    "request_reason": "Pothole",
    "date_created": "2023-04-03T17:38:04.000",
    "date_modified": "2023-04-03T17:38:04.000",
    "request_status": "Pending",
    "responsible_agency": "Department of Public Works",
    "final_address": "500 St Louis St",
    "address_councildis": "C",
    "status": "Pending",
    "rowid": "988274",
    "final_x": "3682630.81564",
    "final_y": "531434.426435",
    "longitude": "-90.06450260881148",
    "latitude": "29.95522600187305",
    "geocoded_column": {
      "latitude": "29.95522600187305",
      "longitude": "-90.06450260881148"
    }
  },
  {
    "service_request": "2023-988273",
    "request_type": "Trash/Recycling",
    "request_reason": "Missed Trash Pick-Up",
    "date_created": "2023-04-03T17:36:12.000",
    "date_modified": "2023-04-03T17:36:12.000",
    "request_status": "Pending",
    "responsible_agency": "Department of Sanitation",
    "final_address": "15025 Emory Rd",
    "address_councildis": "E",
    "status": "Assigned to Contractor",
    "contractor": "Waste Pro",
    "rowid": "988273",
    "final_x": "3721090.02022",
    "final_y": "574184.010794",
    "longitude": "-89.94142448381731",
    "latitude": "30.071543315572608",
    "geocoded_column": {
      "latitude": "30.071543315572608",
      "longitude": "-89.94142448381731"
    }
  },
  {
    "service_request": "2023-988272",
    "request_type": "Trash/Recycling",
    "request_reason": "Missed Trash Pick-Up",
    "date_created": "2023-04-03T17:17:52.000",
    "date_modified": "2023-04-03T17:17:53.000",
    "request_status": "Pending",
    "responsible_agency": "Department of Sanitation",
    "final_address": "2633 Louisa St",
    "address_councildis": "D",
    "status": "Assigned to Contractor",
    "contractor": "IV Waste",
    "rowid": "988272",
    "final_x": "3691084.99984",
    "final_y": "541799.240012",
    "longitude": "-90.03743736768776",
    "latitude": "29.9834654641235",
    "geocoded_column": {
      "latitude": "29.9834654641235",
      "longitude": "-90.03743736768776"
    }
  },
  {
    "service_request": "2023-988271",
    "request_type": "Trash/Recycling",
    "request_reason": "Replace Trash Cart",
    "date_created": "2023-04-03T17:16:35.000",
    "date_modified": "2023-04-03T17:16:36.000",
    "request_status": "Pending",
    "responsible_agency": "Department of Sanitation",
    "final_address": "886 Hidalgo St",
    "address_councildis": "A",
    "status": "Assigned to Contractor",
    "contractor": "IV Waste",
    "rowid": "988271",
    "final_x": "3669431.09223",
    "final_y": "543967.041998",
    "longitude": "-90.10575862808206",
    "latitude": "29.990081788708856",
    "geocoded_column": {
      "latitude": "29.990081788708856",
      "longitude": "-90.10575862808206"
    }
  },
  {
    "service_request": "2023-988270",
    "request_type": "Trash/Recycling",
    "request_reason": "Request a Large Item Pick Up",
    "date_created": "2023-04-03T17:12:16.000",
    "date_modified": "2023-04-03T17:12:16.000",
    "request_status": "Pending",
    "responsible_agency": "Department of Sanitation",
    "final_address": "7515 Dominique Pl",
    "address_councildis": "E",
    "status": "Assigned to Contractor",
    "contractor": "Waste Pro",
    "rowid": "988270",
    "final_x": "3725610.49222",
    "final_y": "569948.13303",
    "longitude": "-89.92729837202899",
    "latitude": "30.059744691443687",
    "geocoded_column": {
      "latitude": "30.059744691443687",
      "longitude": "-89.92729837202899"
    }
  },
  {
    "service_request": "2023-988269",
    "request_type": "Trash/Recycling",
    "request_reason": "Replace Trash Cart",
    "date_created": "2023-04-03T17:08:08.000",
    "date_modified": "2023-04-03T17:08:09.000",
    "request_status": "Pending",
    "responsible_agency": "Department of Sanitation",
    "final_address": "1815 E Homestead Dr",
    "address_councildis": "C",
    "status": "Assigned to Contractor",
    "contractor": "Richards Disposal",
    "rowid": "988269",
    "final_x": "3697113.71568",
    "final_y": "525254.644669",
    "longitude": "-90.01899502968473",
    "latitude": "29.937784836270886",
    "geocoded_column": {
      "latitude": "29.937784836270886",
      "longitude": "-90.01899502968473"
    }
  },
  {
    "service_request": "2023-988268",
    "request_type": "Trash/Recycling",
    "request_reason": "Illegal Dumping",
    "date_created": "2023-04-03T17:07:37.000",
    "date_modified": "2023-04-03T17:07:37.000",
    "request_status": "Pending",
    "responsible_agency": "Department of Sanitation",
    "final_address": "1016 Pauline St",
    "address_councildis": "C",
    "status": "Pending",
    "rowid": "988268",
    "final_x": "3691106.30524",
    "final_y": "535168.248454",
    "longitude": "-90.03760691232867",
    "latitude": "29.96523192616618",
    "geocoded_column": {
      "latitude": "29.96523192616618",
      "longitude": "-90.03760691232867"
    }
  },
  {
    "service_request": "2023-988267",
    "request_type": "Trash/Recycling",
    "request_reason": "Return Trash Cart",
    "date_created": "2023-04-03T17:05:18.000",
    "date_modified": "2023-04-03T17:05:18.000",
    "request_status": "Pending",
    "responsible_agency": "Department of Sanitation",
    "final_address": "5102 E Nemours St",
    "address_councildis": "E",
    "status": "Assigned to Contractor",
    "contractor": "Waste Pro",
    "rowid": "988267",
    "final_x": "3726956.38009",
    "final_y": "562747.230176",
    "longitude": "-89.9233242547119",
    "latitude": "30.039899748914088",
    "geocoded_column": {
      "latitude": "30.039899748914088",
      "longitude": "-89.9233242547119"
    }
  },
  {
    "service_request": "2023-988266",
    "request_type": "Trash/Recycling",
    "request_reason": "Order Trash Cart",
    "date_created": "2023-04-03T17:04:01.000",
    "date_modified": "2023-04-03T17:04:02.000",
    "request_status": "Pending",
    "responsible_agency": "Department of Sanitation",
    "final_address": "9326 Grant Street New Orleans, LA 70127",
    "address_councildis": "E",
    "status": "Assigned to Contractor",
    "contractor": "Waste Pro",
    "rowid": "988266",
    "final_x": "3709918.31928",
    "final_y": "554761.759576",
    "longitude": "-89.97746796162699",
    "latitude": "30.018508334623785",
    "geocoded_column": {
      "latitude": "30.018508334623785",
      "longitude": "-89.97746796162699"
    }
  },
  {
    "service_request": "2023-988265",
    "request_type": "Trash/Recycling",
    "request_reason": "Replace Trash Cart",
    "date_created": "2023-04-03T17:02:27.000",
    "date_modified": "2023-04-03T17:02:28.000",
    "request_status": "Pending",
    "responsible_agency": "Department of Sanitation",
    "final_address": "2934 Palmer Ave",
    "address_councildis": "A",
    "status": "Assigned to Contractor",
    "contractor": "Richards Disposal",
    "rowid": "988265",
    "final_x": "3667053.76436",
    "final_y": "527412.580479",
    "longitude": "-90.1138245347555",
    "latitude": "29.944632330796722",
    "geocoded_column": {
      "latitude": "29.944632330796722",
      "longitude": "-90.1138245347555"
    }
  },
  {
    "service_request": "2023-988263",
    "request_type": "Trash/Recycling",
    "request_reason": "Repair Recycling Cart",
    "date_created": "2023-04-03T16:57:26.000",
    "date_modified": "2023-04-03T16:57:27.000",
    "request_status": "Pending",
    "responsible_agency": "Department of Sanitation",
    "final_address": "4168 Orleans Ave",
    "address_councildis": "A",
    "status": "Pending",
    "rowid": "988263",
    "final_x": "3672175.96084",
    "final_y": "540385.834251",
    "longitude": "-90.09721033206395",
    "latitude": "29.980153552476356",
    "geocoded_column": {
      "latitude": "29.980153552476356",
      "longitude": "-90.09721033206395"
    }
  },
  {
    "service_request": "2023-988262",
    "request_type": "Taxi Issues",
    "request_reason": "Taxi Lost & Found Item",
    "date_created": "2023-04-03T16:54:48.000",
    "date_modified": "2023-04-03T16:56:09.000",
    "request_status": "Pending",
    "responsible_agency": "Ground Transportation Bureau",
    "final_address": "859 Convention Center Blvd",
    "address_councildis": "B",
    "status": "Pending",
    "rowid": "988262",
    "final_x": "3682585.40232",
    "final_y": "527078.519806",
    "longitude": "-90.06479827852625",
    "latitude": "29.943250111926297",
    "geocoded_column": {
      "latitude": "29.943250111926297",
      "longitude": "-90.06479827852625"
    }
  },
  {
    "service_request": "2023-988261",
    "request_type": "Abandoned Vehicles",
    "request_reason": "Vehicle Blocking Your Driveway",
    "date_created": "2023-04-03T16:53:00.000",
    "date_modified": "2023-04-03T16:53:00.000",
    "request_status": "Pending",
    "responsible_agency": "Department of Public Works",
    "final_address": "6917 West End Blvd",
    "address_councildis": "A",
    "status": "Pending",
    "rowid": "988261",
    "final_x": "3666901.94247",
    "final_y": "553859.760535",
    "longitude": "-90.11341488295307",
    "latitude": "30.017357597045898",
    "geocoded_column": {
      "latitude": "30.017357597045898",
      "longitude": "-90.11341488295307"
    }
  },
  {
    "service_request": "2023-988260",
    "request_type": "Abandoned Vehicles",
    "request_reason": "Abandoned/Junk Vehicles",
    "date_created": "2023-04-03T16:50:39.000",
    "date_modified": "2023-04-03T16:50:39.000",
    "request_status": "Pending",
    "responsible_agency": "Department of Public Works",
    "final_address": "14200 Dwyer Blvd",
    "address_councildis": "E",
    "status": "Pending",
    "rowid": "988260",
    "final_x": "3729130.1632",
    "final_y": "563047.424288",
    "longitude": "-89.91644279936773",
    "latitude": "30.040651427913016",
    "geocoded_column": {
      "latitude": "30.040651427913016",
      "longitude": "-89.91644279936773"
    }
  },
  {
    "service_request": "2023-988258",
    "request_type": "Trash/Recycling",
    "request_reason": "Replace Trash Cart",
    "date_created": "2023-04-03T16:47:52.000",
    "date_modified": "2023-04-03T16:47:53.000",
    "request_status": "Pending",
    "responsible_agency": "Department of Sanitation",
    "final_address": "8011 Pebble Dr",
    "address_councildis": "E",
    "status": "Assigned to Contractor",
    "contractor": "Waste Pro",
    "rowid": "988258",
    "final_x": "3714381.04376",
    "final_y": "570124.448679",
    "longitude": "-89.96278694559767",
    "latitude": "30.060603583699343",
    "geocoded_column": {
      "latitude": "30.060603583699343",
      "longitude": "-89.96278694559767"
    }
  },
  {
    "service_request": "2023-988257",
    "request_type": "Trash/Recycling",
    "request_reason": "Order Trash Cart",
    "date_created": "2023-04-03T16:46:04.000",
    "date_modified": "2023-04-03T16:46:05.000",
    "request_status": "Pending",
    "responsible_agency": "Department of Sanitation",
    "final_address": "1620 Magnolia St",
    "address_councildis": "B",
    "status": "Assigned to Contractor",
    "contractor": "Richards Disposal",
    "rowid": "988257",
    "final_x": "3675805.48981",
    "final_y": "527426.975679",
    "longitude": "-90.0861922219059",
    "latitude": "29.94441289636435",
    "geocoded_column": {
      "latitude": "29.94441289636435",
      "longitude": "-90.0861922219059"
    }
  },
  {
    "service_request": "2023-988256",
    "request_type": "Trash/Recycling",
    "request_reason": "Order Recycling Cart",
    "date_created": "2023-04-03T16:45:30.000",
    "date_modified": "2023-04-03T16:45:30.000",
    "request_status": "Pending",
    "responsible_agency": "Department of Sanitation",
    "final_address": "2600 Hyman Pl",
    "address_councildis": "C",
    "status": "Pending",
    "rowid": "988256",
    "final_x": "3701112.89521",
    "final_y": "521593.388409",
    "longitude": "-90.00650323343132",
    "latitude": "29.92759091305914",
    "geocoded_column": {
      "latitude": "29.92759091305914",
      "longitude": "-90.00650323343132"
    }
  },
  {
    "service_request": "2023-988254",
    "request_type": "Trash/Recycling",
    "request_reason": "Order Recycling Cart",
    "date_created": "2023-04-03T16:40:07.000",
    "date_modified": "2023-04-03T16:40:08.000",
    "request_status": "Pending",
    "responsible_agency": "Department of Sanitation",
    "final_address": "7100 Lamb Rd",
    "address_councildis": "D",
    "status": "Pending",
    "rowid": "988254",
    "final_x": "3697605.61059",
    "final_y": "557124.429594",
    "longitude": "-90.01628559919355",
    "latitude": "30.025399640080106",
    "geocoded_column": {
      "latitude": "30.025399640080106",
      "longitude": "-90.01628559919355"
    }
  },
  {
    "service_request": "2023-988253",
    "request_type": "Trash/Recycling",
    "request_reason": "Request a Large Item Pick Up",
    "date_created": "2023-04-03T16:39:39.000",
    "date_modified": "2023-04-03T16:39:40.000",
    "request_status": "Pending",
    "responsible_agency": "Department of Sanitation",
    "final_address": "7100 Lamb Rd",
    "address_councildis": "D",
    "status": "Assigned to Contractor",
    "contractor": "Waste Pro",
    "rowid": "988253",
    "final_x": "3697605.61059",
    "final_y": "557124.429594",
    "longitude": "-90.01628559919355",
    "latitude": "30.025399640080106",
    "geocoded_column": {
      "latitude": "30.025399640080106",
      "longitude": "-90.01628559919355"
    }
  },
  {
    "service_request": "2023-988252",
    "request_type": "Trash/Recycling",
    "request_reason": "Request a Large Item Pick Up",
    "date_created": "2023-04-03T16:38:40.000",
    "date_modified": "2023-04-03T16:38:41.000",
    "request_status": "Pending",
    "responsible_agency": "Department of Sanitation",
    "final_address": "4101 Dauphine St",
    "address_councildis": "C",
    "status": "Assigned to Contractor",
    "contractor": "IV Waste",
    "rowid": "988252",
    "final_x": "3691862.08694",
    "final_y": "534112.240517",
    "longitude": "-90.03525798103014",
    "latitude": "29.962304753636957",
    "geocoded_column": {
      "latitude": "29.962304753636957",
      "longitude": "-90.03525798103014"
    }
  },
  {
    "service_request": "2023-988251",
    "request_type": "Abandoned Vehicles",
    "request_reason": "Abandoned/Junk Vehicles",
    "date_created": "2023-04-03T16:37:54.000",
    "date_modified": "2023-04-03T16:37:54.000",
    "request_status": "Pending",
    "responsible_agency": "Department of Public Works",
    "final_address": "3640 Lancaster St",
    "address_councildis": "C",
    "status": "Pending",
    "rowid": "988251",
    "final_x": "3709874.61617",
    "final_y": "517256.787445",
    "longitude": "-89.97900667699076",
    "latitude": "29.91538490325083",
    "geocoded_column": {
      "latitude": "29.91538490325083",
      "longitude": "-89.97900667699076"
    }
  },
  {
    "service_request": "2023-988250",
    "request_type": "Abandoned Vehicles",
    "request_reason": "Abandoned/Junk Vehicles",
    "date_created": "2023-04-03T16:35:01.000",
    "date_modified": "2023-04-03T16:35:01.000",
    "request_status": "Pending",
    "responsible_agency": "Department of Public Works",
    "final_address": "3221 N Rampart St",
    "address_councildis": "C",
    "status": "Pending",
    "rowid": "988250",
    "final_x": "3689615.38012",
    "final_y": "535415.075846",
    "longitude": "-90.04230637897989",
    "latitude": "29.965956888769487",
    "geocoded_column": {
      "latitude": "29.965956888769487",
      "longitude": "-90.04230637897989"
    }
  },
  {
    "service_request": "2023-988249",
    "request_type": "Trash/Recycling",
    "request_reason": "Order Recycling Cart",
    "date_created": "2023-04-03T16:33:00.000",
    "date_modified": "2023-04-03T16:33:01.000",
    "request_status": "Pending",
    "responsible_agency": "Department of Sanitation",
    "final_address": "3701 Kent Dr",
    "address_councildis": "C",
    "status": "Pending",
    "rowid": "988249",
    "final_x": "3708667.84363",
    "final_y": "517386.336501",
    "longitude": "-89.98281084451091",
    "latitude": "29.915780282699217",
    "geocoded_column": {
      "latitude": "29.915780282699217",
      "longitude": "-89.98281084451091"
    }
  },
  {
    "service_request": "2023-988248",
    "request_type": "Trash/Recycling",
    "request_reason": "Repair Trash Cart",
    "date_created": "2023-04-03T16:28:05.000",
    "date_modified": "2023-04-03T16:28:06.000",
    "request_status": "Pending",
    "responsible_agency": "Department of Sanitation",
    "final_address": "4632 St Anthony Ave",
    "address_councildis": "D",
    "status": "Assigned to Contractor",
    "contractor": "IV Waste",
    "rowid": "988248",
    "final_x": "3682344.78012",
    "final_y": "549765.597972",
    "longitude": "-90.06476497500825",
    "latitude": "30.005639019324782",
    "geocoded_column": {
      "latitude": "30.005639019324782",
      "longitude": "-90.06476497500825"
    }
  },
  {
    "service_request": "2023-988247",
    "request_type": "Trash/Recycling",
    "request_reason": "Return Trash Cart",
    "date_created": "2023-04-03T16:27:53.000",
    "date_modified": "2023-04-03T16:27:54.000",
    "request_status": "Pending",
    "responsible_agency": "Department of Sanitation",
    "final_address": "627 Spain St",
    "address_councildis": "C",
    "status": "Assigned to Contractor",
    "contractor": "IV Waste",
    "rowid": "988247",
    "final_x": "3686290.24681",
    "final_y": "534833.962886",
    "longitude": "-90.0528275387809",
    "latitude": "29.964461625342352",
    "geocoded_column": {
      "latitude": "29.964461625342352",
      "longitude": "-90.0528275387809"
    }
  },
  {
    "service_request": "2023-988245",
    "request_type": "Trash/Recycling",
    "request_reason": "Request a Large Item Pick Up",
    "date_created": "2023-04-03T16:24:12.000",
    "date_modified": "2023-04-03T16:24:12.000",
    "request_status": "Pending",
    "responsible_agency": "Department of Sanitation",
    "final_address": "7661 Wave Dr",
    "address_councildis": "E",
    "status": "Assigned to Contractor",
    "contractor": "Waste Pro",
    "rowid": "988245",
    "final_x": "3714906.95352",
    "final_y": "568974.38167",
    "longitude": "-89.9611681134045",
    "latitude": "30.057424067034063",
    "geocoded_column": {
      "latitude": "30.057424067034063",
      "longitude": "-89.9611681134045"
    }
  },
  {
    "service_request": "2023-988244",
    "request_type": "Trash/Recycling",
    "request_reason": "Missed Trash Pick-Up",
    "date_created": "2023-04-03T16:14:53.000",
    "date_modified": "2023-04-03T16:14:54.000",
    "request_status": "Pending",
    "responsible_agency": "Department of Sanitation",
    "final_address": "2231 N Broad St",
    "address_councildis": "D",
    "status": "Assigned to Contractor",
    "contractor": "IV Waste",
    "rowid": "988244",
    "final_x": "3681323.7005",
    "final_y": "543286.529102",
    "longitude": "-90.06821679110101",
    "latitude": "29.987854926750984",
    "geocoded_column": {
      "latitude": "29.987854926750984",
      "longitude": "-90.06821679110101"
    }
  },
  {
    "service_request": "2023-988243",
    "request_type": "Trash/Recycling",
    "request_reason": "Request a Large Item Pick Up",
    "date_created": "2023-04-03T16:08:15.000",
    "date_modified": "2023-04-03T16:08:16.000",
    "request_status": "Pending",
    "responsible_agency": "Department of Sanitation",
    "final_address": "213 Alix St",
    "address_councildis": "C",
    "status": "Assigned to Contractor",
    "contractor": "Richards Disposal",
    "rowid": "988243",
    "final_x": "3686248.43516",
    "final_y": "529785.879041",
    "longitude": "-90.05313768311777",
    "latitude": "29.950582415348553",
    "geocoded_column": {
      "latitude": "29.950582415348553",
      "longitude": "-90.05313768311777"
    }
  },
  {
    "service_request": "2023-988242",
    "request_type": "Trash/Recycling",
    "request_reason": "Request a Large Item Pick Up",
    "date_created": "2023-04-03T16:06:00.000",
    "date_modified": "2023-04-03T16:06:00.000",
    "request_status": "Pending",
    "responsible_agency": "Department of Sanitation",
    "final_address": "1330 Marigny St",
    "address_councildis": "C",
    "status": "Assigned to Contractor",
    "contractor": "IV Waste",
    "rowid": "988242",
    "final_x": "3685297.62217",
    "final_y": "537332.680264",
    "longitude": "-90.05587419435719",
    "latitude": "29.97136269496851",
    "geocoded_column": {
      "latitude": "29.97136269496851",
      "longitude": "-90.05587419435719"
    }
  },
  {
    "service_request": "2023-988240",
    "request_type": "Trash/Recycling",
    "request_reason": "Order Recycling Cart",
    "date_created": "2023-04-03T16:02:27.000",
    "date_modified": "2023-04-03T16:02:27.000",
    "request_status": "Pending",
    "responsible_agency": "Department of Sanitation",
    "final_address": "6317 Louis Xiv St",
    "address_councildis": "A",
    "status": "Pending",
    "rowid": "988240",
    "final_x": "3668354.48551",
    "final_y": "549516.503507",
    "longitude": "-90.10897204874331",
    "latitude": "30.005372562791276",
    "geocoded_column": {
      "latitude": "30.005372562791276",
      "longitude": "-90.10897204874331"
    }
  },
  {
    "service_request": "2023-988239",
    "request_type": "Trash/Recycling",
    "request_reason": "Request a Large Item Pick Up",
    "date_created": "2023-04-03T15:58:50.000",
    "date_modified": "2023-04-03T15:58:50.000",
    "request_status": "Pending",
    "responsible_agency": "Department of Sanitation",
    "final_address": "803 Solomon Pl",
    "address_councildis": "A",
    "status": "Assigned to Contractor",
    "contractor": "Richards Disposal",
    "rowid": "988239",
    "final_x": "3672401.53044",
    "final_y": "540693.898955",
    "longitude": "-90.09648738424217",
    "latitude": "29.980993932221672",
    "geocoded_column": {
      "latitude": "29.980993932221672",
      "longitude": "-90.09648738424217"
    }
  },
  {
    "service_request": "2023-988238",
    "request_type": "Abandoned Vehicles",
    "request_reason": "Abandoned/Junk Vehicles",
    "date_created": "2023-04-03T15:58:50.000",
    "date_modified": "2023-04-03T16:01:12.000",
    "request_status": "Pending",
    "responsible_agency": "Department of Public Works",
    "final_address": "1857 Lauradale Dr",
    "address_councildis": "C",
    "status": "Pending",
    "rowid": "988238",
    "final_x": "3692684.29949",
    "final_y": "524260.754364",
    "longitude": "-90.03301459944848",
    "latitude": "29.9351909382534",
    "geocoded_column": {
      "latitude": "29.9351909382534",
      "longitude": "-90.03301459944848"
    }
  },
  {
    "service_request": "2023-988237",
    "request_type": "Trash/Recycling",
    "request_reason": "MIssed Recycling Pick-Up",
    "date_created": "2023-04-03T15:57:22.000",
    "date_modified": "2023-04-03T15:57:23.000",
    "request_status": "Pending",
    "responsible_agency": "Department of Sanitation",
    "final_address": "6600 Brunswick Ct",
    "address_councildis": "C",
    "status": "Assigned to Contractor",
    "contractor": "Richards Disposal",
    "rowid": "988237",
    "final_x": "3708281.60344",
    "final_y": "516986.576757",
    "longitude": "-89.98404481393781",
    "latitude": "29.914693594101156",
    "geocoded_column": {
      "latitude": "29.914693594101156",
      "longitude": "-89.98404481393781"
    }
  },
  {
    "service_request": "2023-988234",
    "request_type": "Trash/Recycling",
    "request_reason": "MIssed Recycling Pick-Up",
    "date_created": "2023-04-03T15:48:17.000",
    "date_modified": "2023-04-03T15:48:18.000",
    "request_status": "Pending",
    "responsible_agency": "Department of Sanitation",
    "final_address": "6300 Brighton Pl",
    "address_councildis": "C",
    "status": "Assigned to Contractor",
    "contractor": "Richards Disposal",
    "rowid": "988234",
    "final_x": "3707471.62923",
    "final_y": "520124.125496",
    "longitude": "-89.98648494866049",
    "latitude": "29.923346962155776",
    "geocoded_column": {
      "latitude": "29.923346962155776",
      "longitude": "-89.98648494866049"
    }
  },
  {
    "service_request": "2023-988233",
    "request_type": "Trash/Recycling",
    "request_reason": "Repair Trash Cart",
    "date_created": "2023-04-03T15:45:05.000",
    "date_modified": "2023-04-03T15:45:05.000",
    "request_status": "Pending",
    "responsible_agency": "Department of Sanitation",
    "final_address": "2601 Milan St",
    "address_councildis": "B",
    "status": "Assigned to Contractor",
    "contractor": "Richards Disposal",
    "rowid": "988233",
    "final_x": "3671285.40366",
    "final_y": "524500.441788",
    "longitude": "-90.10056288456421",
    "latitude": "29.936500380607498",
    "geocoded_column": {
      "latitude": "29.936500380607498",
      "longitude": "-90.10056288456421"
    }
  },
  {
    "service_request": "2023-988232",
    "request_type": "Trash/Recycling",
    "request_reason": "MIssed Recycling Pick-Up",
    "date_created": "2023-04-03T15:44:14.000",
    "date_modified": "2023-04-03T15:44:15.000",
    "request_status": "Pending",
    "responsible_agency": "Department of Sanitation",
    "final_address": "6200 BLK Brighton Pl",
    "address_councildis": "C",
    "status": "Assigned to Contractor",
    "contractor": "Richards Disposal",
    "rowid": "988232",
    "final_x": "3707415.63074",
    "final_y": "520056.608297",
    "longitude": "-89.98666421801862",
    "latitude": "29.92316312322406",
    "geocoded_column": {
      "latitude": "29.92316312322406",
      "longitude": "-89.98666421801862"
    }
  },
  {
    "service_request": "2023-988231",
    "request_type": "Trash/Recycling",
    "request_reason": "Request a Large Item Pick Up",
    "date_created": "2023-04-03T15:39:51.000",
    "date_modified": "2023-04-03T15:39:52.000",
    "request_status": "Pending",
    "responsible_agency": "Department of Sanitation",
    "final_address": "913 Odeon St",
    "address_councildis": "C",
    "status": "Assigned to Contractor",
    "contractor": "Richards Disposal",
    "rowid": "988231",
    "final_x": "3696011.73622",
    "final_y": "528055.264895",
    "longitude": "-90.02237288949932",
    "latitude": "29.945520282762864",
    "geocoded_column": {
      "latitude": "29.945520282762864",
      "longitude": "-90.02237288949932"
    }
  },
  {
    "service_request": "2023-988230",
    "request_type": "Trash/Recycling",
    "request_reason": "Missed Trash Pick-Up",
    "date_created": "2023-04-03T15:39:08.000",
    "date_modified": "2023-04-03T15:39:09.000",
    "request_status": "Pending",
    "responsible_agency": "Department of Sanitation",
    "final_address": "913 Odeon St",
    "address_councildis": "C",
    "status": "Assigned to Contractor",
    "contractor": "Richards Disposal",
    "rowid": "988230",
    "final_x": "3696011.73622",
    "final_y": "528055.264895",
    "longitude": "-90.02237288949932",
    "latitude": "29.945520282762864",
    "geocoded_column": {
      "latitude": "29.945520282762864",
      "longitude": "-90.02237288949932"
    }
  },
  {
    "service_request": "2023-988229",
    "request_type": "Traffic Signals/Signs/Striping/Streetlights",
    "request_reason": "Traffic Sign Missing/Damaged",
    "date_created": "2023-04-03T15:34:01.000",
    "date_modified": "2023-04-03T15:34:01.000",
    "request_status": "Pending",
    "responsible_agency": "Department of Public Works",
    "final_address": "2160 Selma St",
    "address_councildis": "D",
    "status": "Pending",
    "rowid": "988229",
    "final_x": "3683549.53141",
    "final_y": "551428.754069",
    "longitude": "-90.0609005491154",
    "latitude": "30.010175367032915",
    "geocoded_column": {
      "latitude": "30.010175367032915",
      "longitude": "-90.0609005491154"
    }
  },
  {
    "service_request": "2023-988228",
    "request_type": "Trash/Recycling",
    "request_reason": "Repair Trash Cart",
    "date_created": "2023-04-03T15:30:47.000",
    "date_modified": "2023-04-03T15:30:47.000",
    "request_status": "Pending",
    "responsible_agency": "Department of Sanitation",
    "final_address": "1819 Martin Luther King, Jr. Blvd",
    "address_councildis": "B",
    "status": "Assigned to Contractor",
    "contractor": "Richards Disposal",
    "rowid": "988228",
    "final_x": "3678301.34184",
    "final_y": "526160.030398",
    "longitude": "-90.07835590396982",
    "latitude": "29.940854286089113",
    "geocoded_column": {
      "latitude": "29.940854286089113",
      "longitude": "-90.07835590396982"
    }
  },
  {
    "service_request": "2023-988227",
    "request_type": "Trash/Recycling",
    "request_reason": "Repair Trash Cart",
    "date_created": "2023-04-03T15:30:20.000",
    "date_modified": "2023-04-03T15:30:20.000",
    "request_status": "Pending",
    "responsible_agency": "Department of Sanitation",
    "final_address": "1817 Martin Luther King, Jr. Blvd",
    "address_councildis": "B",
    "status": "Assigned to Contractor",
    "contractor": "Richards Disposal",
    "rowid": "988227",
    "final_x": "3678314.3069",
    "final_y": "526150.96915",
    "longitude": "-90.07831528431124",
    "latitude": "29.940828980198035",
    "geocoded_column": {
      "latitude": "29.940828980198035",
      "longitude": "-90.07831528431124"
    }
  },
  {
    "service_request": "2023-988226",
    "request_type": "Trash/Recycling",
    "request_reason": "Request a Large Item Pick Up",
    "date_created": "2023-04-03T15:25:14.000",
    "date_modified": "2023-04-03T15:25:15.000",
    "request_status": "Pending",
    "responsible_agency": "Department of Sanitation",
    "final_address": "26 Dove St",
    "address_councildis": "D",
    "status": "Assigned to Contractor",
    "contractor": "IV Waste",
    "rowid": "988226",
    "final_x": "3673645.13934",
    "final_y": "554844.072024",
    "longitude": "-90.0920753623872",
    "latitude": "30.01986497653648",
    "geocoded_column": {
      "latitude": "30.01986497653648",
      "longitude": "-90.0920753623872"
    }
  },
  {
    "service_request": "2023-988225",
    "request_type": "Traffic Signals/Signs/Striping/Streetlights",
    "request_reason": "Traffic Signal Malfunctioning/Damaged",
    "date_created": "2023-04-03T15:23:20.000",
    "date_modified": "2023-04-03T15:32:21.000",
    "request_status": "Pending",
    "responsible_agency": "Department of Public Works",
    "final_address": "1943 Sophie Wright Pl, New Orleans, Louisiana, 70130",
    "address_councildis": "B",
    "rowid": "988225",
    "final_x": "3679487.78306",
    "final_y": "522673.285818",
    "longitude": "-90.07473101556089",
    "latitude": "29.93123110572047",
    "geocoded_column": {
      "latitude": "29.93123110572047",
      "longitude": "-90.07473101556089"
    }
  },
  {
    "service_request": "2023-988224",
    "request_type": "Trash/Recycling",
    "request_reason": "Order Recycling Cart",
    "date_created": "2023-04-03T15:23:03.000",
    "date_modified": "2023-04-03T15:23:03.000",
    "request_status": "Pending",
    "responsible_agency": "Department of Sanitation",
    "final_address": "6319 Louisville St",
    "address_councildis": "A",
    "status": "Pending",
    "rowid": "988224",
    "final_x": "3668041.49319",
    "final_y": "549545.756691",
    "longitude": "-90.10995987657189",
    "latitude": "30.005462191082888",
    "geocoded_column": {
      "latitude": "30.005462191082888",
      "longitude": "-90.10995987657189"
    }
  },
  {
    "service_request": "2023-988223",
    "request_type": "Trash/Recycling",
    "request_reason": "Repair Trash Cart",
    "date_created": "2023-04-03T15:22:28.000",
    "date_modified": "2023-04-03T15:22:29.000",
    "request_status": "Pending",
    "responsible_agency": "Department of Sanitation",
    "final_address": "6319 Louisville St",
    "address_councildis": "A",
    "status": "Assigned to Contractor",
    "contractor": "IV Waste",
    "rowid": "988223",
    "final_x": "3668041.49319",
    "final_y": "549545.756691",
    "longitude": "-90.10995987657189",
    "latitude": "30.005462191082888",
    "geocoded_column": {
      "latitude": "30.005462191082888",
      "longitude": "-90.10995987657189"
    }
  },
  {
    "service_request": "2023-988222",
    "request_type": "Trash/Recycling",
    "request_reason": "Repair Trash Cart",
    "date_created": "2023-04-03T15:22:12.000",
    "date_modified": "2023-04-03T15:22:12.000",
    "request_status": "Pending",
    "responsible_agency": "Department of Sanitation",
    "final_address": "3016 Chippewa St",
    "address_councildis": "B",
    "status": "Assigned to Contractor",
    "contractor": "Richards Disposal",
    "rowid": "988222",
    "final_x": "3677084.42786",
    "final_y": "519004.092023",
    "longitude": "-90.08244455705022",
    "latitude": "29.921214382632012",
    "geocoded_column": {
      "latitude": "29.921214382632012",
      "longitude": "-90.08244455705022"
    }
  },
  {
    "service_request": "2023-988221",
    "request_type": "Trash/Recycling",
    "request_reason": "Request a Large Item Pick Up",
    "date_created": "2023-04-03T15:21:46.000",
    "date_modified": "2023-04-03T15:21:46.000",
    "request_status": "Pending",
    "responsible_agency": "Department of Sanitation",
    "final_address": "2816 General Pershing St",
    "address_councildis": "B",
    "status": "Assigned to Contractor",
    "contractor": "Richards Disposal",
    "rowid": "988221",
    "final_x": "3670773.90119",
    "final_y": "525265.846653",
    "longitude": "-90.1021517580002",
    "latitude": "29.938620118136434",
    "geocoded_column": {
      "latitude": "29.938620118136434",
      "longitude": "-90.1021517580002"
    }
  },
  {
    "service_request": "2023-988220",
    "request_type": "Roads/Drainage",
    "request_reason": "Pothole",
    "date_created": "2023-04-03T15:20:09.000",
    "date_modified": "2023-04-03T15:20:10.000",
    "request_status": "Pending",
    "responsible_agency": "Department of Public Works",
    "final_address": "8000 BLK Morrison Rd",
    "address_councildis": "E",
    "status": "Pending",
    "rowid": "988220",
    "final_x": "3702003.77017",
    "final_y": "560121.133482",
    "longitude": "-90.00227816178631",
    "latitude": "30.033499679308196",
    "geocoded_column": {
      "latitude": "30.033499679308196",
      "longitude": "-90.00227816178631"
    }
  },
  {
    "service_request": "2023-988219",
    "request_type": "Traffic Signals/Signs/Striping/Streetlights",
    "request_reason": "Traffic Signal Malfunctioning/Damaged",
    "date_created": "2023-04-03T15:18:46.000",
    "date_modified": "2023-04-03T15:18:47.000",
    "request_status": "Pending",
    "responsible_agency": "Department of Public Works",
    "final_address": "FELICITY ST & MAGAZINE ST & HASTINGS PL",
    "address_councildis": "B",
    "status": "Pending",
    "rowid": "988219",
    "final_x": "3680009.0",
    "final_y": "523037.78",
    "longitude": "-90.07307294499881",
    "latitude": "29.932217592387683",
    "geocoded_column": {
      "latitude": "29.932217592387683",
      "longitude": "-90.07307294499881"
    }
  },
  {
    "service_request": "2023-988218",
    "request_type": "Trash/Recycling",
    "request_reason": "Order Trash Cart",
    "date_created": "2023-04-03T15:16:22.000",
    "date_modified": "2023-04-03T15:16:23.000",
    "request_status": "Pending",
    "responsible_agency": "Department of Sanitation",
    "final_address": "36 Chatham Dr",
    "address_councildis": "D",
    "status": "Assigned to Contractor",
    "contractor": "IV Waste",
    "rowid": "988218",
    "final_x": "3679749.74037",
    "final_y": "551518.399125",
    "longitude": "-90.07290238124534",
    "latitude": "30.010537334927143",
    "geocoded_column": {
      "latitude": "30.010537334927143",
      "longitude": "-90.07290238124534"
    }
  },
  {
    "service_request": "2023-988217",
    "request_type": "Roads/Drainage",
    "request_reason": "Accessibility Ramps, Curbs and Sidewalk Repair",
    "date_created": "2023-04-03T15:12:31.000",
    "date_modified": "2023-04-03T15:12:32.000",
    "request_status": "Pending",
    "responsible_agency": "Department of Public Works",
    "final_address": "MORRISON RD & LAKE WILLOW DR",
    "address_councildis": "E",
    "status": "Pending",
    "rowid": "988217",
    "final_x": "3702242.5",
    "final_y": "560221.88",
    "longitude": "-90.00152005427275",
    "latitude": "30.03376906562658",
    "geocoded_column": {
      "latitude": "30.03376906562658",
      "longitude": "-90.00152005427275"
    }
  },
  {
    "service_request": "2023-988215",
    "request_type": "Roads/Drainage",
    "request_reason": "Accessibility Ramps, Curbs and Sidewalk Repair",
    "date_created": "2023-04-03T15:11:23.000",
    "date_modified": "2023-04-03T15:11:23.000",
    "request_status": "Pending",
    "responsible_agency": "Department of Public Works",
    "final_address": "1132 Peniston St",
    "address_councildis": "B",
    "status": "Pending",
    "rowid": "988215",
    "final_x": "3673063.21588",
    "final_y": "520016.96076",
    "longitude": "-90.09510320984542",
    "latitude": "29.924119542299888",
    "geocoded_column": {
      "latitude": "29.924119542299888",
      "longitude": "-90.09510320984542"
    }
  },
  {
    "service_request": "2023-988214",
    "request_type": "Trash/Recycling",
    "request_reason": "Missed Trash Pick-Up",
    "date_created": "2023-04-03T15:11:04.000",
    "date_modified": "2023-04-03T15:11:05.000",
    "request_status": "Pending",
    "responsible_agency": "Department of Sanitation",
    "final_address": "1237 Horace St",
    "address_councildis": "C",
    "status": "Assigned to Contractor",
    "contractor": "Richards Disposal",
    "rowid": "988214",
    "final_x": "3696310.63696",
    "final_y": "526683.426238",
    "longitude": "-90.0214787566446",
    "latitude": "29.941738796275118",
    "geocoded_column": {
      "latitude": "29.941738796275118",
      "longitude": "-90.0214787566446"
    }
  },
  {
    "service_request": "2023-988213",
    "request_type": "Trash/Recycling",
    "request_reason": "Missed Trash Pick-Up",
    "date_created": "2023-04-03T15:09:05.000",
    "date_modified": "2023-04-03T15:09:06.000",
    "request_status": "Pending",
    "responsible_agency": "Department of Sanitation",
    "final_address": "822 Philip St",
    "address_councildis": "B",
    "status": "Assigned to Contractor",
    "contractor": "Richards Disposal",
    "rowid": "988213",
    "final_x": "3679063.61397",
    "final_y": "521101.689977",
    "longitude": "-90.076124498656",
    "latitude": "29.926922535638944",
    "geocoded_column": {
      "latitude": "29.926922535638944",
      "longitude": "-90.076124498656"
    }
  },
  {
    "service_request": "2023-988212",
    "request_type": "Traffic Signals/Signs/Striping/Streetlights",
    "request_reason": "Street Light Knocked Down/Leaning",
    "date_created": "2023-04-03T15:08:08.000",
    "date_modified": "2023-04-03T15:08:09.000",
    "request_status": "Pending",
    "responsible_agency": "Department of Public Works",
    "final_address": "7000 Warfield St",
    "address_councildis": "E",
    "status": "Pending",
    "contractor": "Legacy Professional Services",
    "rowid": "988212",
    "final_x": "3700979.76842",
    "final_y": "552731.125142",
    "longitude": "-90.00578466361962",
    "latitude": "30.01321266005098",
    "geocoded_column": {
      "latitude": "30.01321266005098",
      "longitude": "-90.00578466361962"
    }
  },
  {
    "service_request": "2023-988208",
    "request_type": "Parks & Parkways",
    "request_reason": "Request Tree Service (Right of Way/Public Property)",
    "date_created": "2023-04-03T14:59:51.000",
    "date_modified": "2023-04-03T16:04:18.000",
    "request_status": "Pending",
    "responsible_agency": "Department of Parks & Parkway",
    "final_address": "1132 Peniston St",
    "address_councildis": "B",
    "status": "Pending",
    "rowid": "988208",
    "final_x": "3673063.21588",
    "final_y": "520016.96076",
    "longitude": "-90.09510320984542",
    "latitude": "29.924119542299888",
    "geocoded_column": {
      "latitude": "29.924119542299888",
      "longitude": "-90.09510320984542"
    }
  },
  {
    "service_request": "2023-988207",
    "request_type": "Property Maintenance",
    "request_reason": "Property Maintenance",
    "date_created": "2023-04-03T14:59:46.000",
    "date_modified": "2023-04-03T14:59:46.000",
    "request_status": "Pending",
    "responsible_agency": "Department of Code Enforcement",
    "final_address": "10115 Boulevard Way",
    "address_councildis": "E",
    "status": "Pending",
    "rowid": "988207",
    "final_x": "3708570.53515",
    "final_y": "564781.538978",
    "longitude": "-89.98135288555154",
    "latitude": "30.046102558140497",
    "geocoded_column": {
      "latitude": "30.046102558140497",
      "longitude": "-89.98135288555154"
    }
  },
  {
    "service_request": "2023-988206",
    "request_type": "Trash/Recycling",
    "request_reason": "Missed Trash Pick-Up",
    "date_created": "2023-04-03T14:56:58.000",
    "date_modified": "2023-04-03T14:56:58.000",
    "request_status": "Pending",
    "responsible_agency": "Department of Sanitation",
    "final_address": "15 Sugarberry Pl",
    "address_councildis": "C",
    "status": "Assigned to Contractor",
    "contractor": "Richards Disposal",
    "rowid": "988206",
    "final_x": "3717105.68639",
    "final_y": "516351.303669",
    "longitude": "-89.95621735740903",
    "latitude": "29.912658156383166",
    "geocoded_column": {
      "latitude": "29.912658156383166",
      "longitude": "-89.95621735740903"
    }
  },
  {
    "service_request": "2023-988205",
    "request_type": "Property Maintenance",
    "request_reason": "Property Maintenance",
    "date_created": "2023-04-03T14:52:55.000",
    "date_modified": "2023-04-03T14:52:56.000",
    "request_status": "Pending",
    "responsible_agency": "Department of Code Enforcement",
    "final_address": "6200 Curran Rd",
    "address_councildis": "E",
    "status": "Pending",
    "rowid": "988205",
    "final_x": "3695991.78179",
    "final_y": "559027.281308",
    "longitude": "-90.0213161877052",
    "latitude": "30.030682662215277",
    "geocoded_column": {
      "latitude": "30.030682662215277",
      "longitude": "-90.0213161877052"
    }
  },
  {
    "service_request": "2023-988204",
    "request_type": "Property Maintenance",
    "request_reason": "Property Maintenance",
    "date_created": "2023-04-03T14:50:29.000",
    "date_modified": "2023-04-03T14:50:29.000",
    "request_status": "Pending",
    "responsible_agency": "Department of Code Enforcement",
    "final_address": "3640 White Oak Ave",
    "address_councildis": "C",
    "status": "Pending",
    "rowid": "988204",
    "final_x": "3703754.98065",
    "final_y": "514305.350195",
    "longitude": "-89.99843090023353",
    "latitude": "29.9074669289291",
    "geocoded_column": {
      "latitude": "29.9074669289291",
      "longitude": "-89.99843090023353"
    }
  },
  {
    "service_request": "2023-988202",
    "request_type": "Trash/Recycling",
    "request_reason": "Missed Trash Pick-Up",
    "date_created": "2023-04-03T14:47:04.000",
    "date_modified": "2023-04-03T14:47:05.000",
    "request_status": "Pending",
    "responsible_agency": "Department of Sanitation",
    "final_address": "11421 Prentiss Ave",
    "address_councildis": "E",
    "status": "Assigned to Contractor",
    "contractor": "Waste Pro",
    "rowid": "988202",
    "final_x": "3717807.1253",
    "final_y": "556608.13673",
    "longitude": "-89.95247221570763",
    "latitude": "30.023326106834553",
    "geocoded_column": {
      "latitude": "30.023326106834553",
      "longitude": "-89.95247221570763"
    }
  },
  {
    "service_request": "2023-988199",
    "request_type": "Trash/Recycling",
    "request_reason": "Request a Large Item Pick Up",
    "date_created": "2023-04-03T14:43:11.000",
    "date_modified": "2023-04-03T14:43:12.000",
    "request_status": "Pending",
    "responsible_agency": "Department of Sanitation",
    "final_address": "1736 Independence St",
    "address_councildis": "D",
    "status": "Assigned to Contractor",
    "contractor": "IV Waste",
    "rowid": "988199",
    "final_x": "3691537.34345",
    "final_y": "538028.008905",
    "longitude": "-90.03614348298493",
    "latitude": "29.973081848732544",
    "geocoded_column": {
      "latitude": "29.973081848732544",
      "longitude": "-90.03614348298493"
    }
  },
  {
    "service_request": "2023-988198",
    "request_type": "Abandoned Vehicles",
    "request_reason": "Abandoned/Junk Vehicles",
    "date_created": "2023-04-03T14:42:56.000",
    "date_modified": "2023-04-03T14:42:57.000",
    "request_status": "Pending",
    "responsible_agency": "Department of Public Works",
    "final_address": "KABEL DR & MACARTHUR BLVD",
    "address_councildis": "C",
    "status": "Pending",
    "rowid": "988198",
    "final_x": "3700629.8",
    "final_y": "520202.08",
    "longitude": "-90.00807903465346",
    "latitude": "29.92378066696838",
    "geocoded_column": {
      "latitude": "29.92378066696838",
      "longitude": "-90.00807903465346"
    }
  },
  {
    "service_request": "2023-988197",
    "request_type": "Traffic Signals/Signs/Striping/Streetlights",
    "request_reason": "Street Light Outage/Malfunction",
    "date_created": "2023-04-03T14:41:13.000",
    "date_modified": "2023-04-03T14:41:13.000",
    "request_status": "Pending",
    "responsible_agency": "Department of Public Works",
    "final_address": "2070 Florida Ave",
    "address_councildis": "D",
    "status": "Assigned to Contractor",
    "contractor": "Legacy Professional Services",
    "rowid": "988197",
    "final_x": "3683566.72418",
    "final_y": "542687.707405",
    "longitude": "-90.06115284236782",
    "latitude": "29.98614009260832",
    "geocoded_column": {
      "latitude": "29.98614009260832",
      "longitude": "-90.06115284236782"
    }
  },
  {
    "service_request": "2023-988196",
    "request_type": "Trash/Recycling",
    "request_reason": "Repair Trash Cart",
    "date_created": "2023-04-03T14:41:12.000",
    "date_modified": "2023-04-03T14:59:15.000",
    "request_status": "Pending",
    "responsible_agency": "Department of Sanitation",
    "final_address": "1381 Constance St",
    "address_councildis": "B",
    "status": "Assigned to Contractor",
    "contractor": "Richards Disposal",
    "rowid": "988196",
    "final_x": "3680714.44303",
    "final_y": "524515.630396",
    "longitude": "-90.07079452461731",
    "latitude": "29.936259839427233",
    "geocoded_column": {
      "latitude": "29.936259839427233",
      "longitude": "-90.07079452461731"
    }
  },
  {
    "service_request": "2023-988195",
    "request_type": "Parks & Parkways",
    "request_reason": "Request Tree Service (Right of Way/Public Property)",
    "date_created": "2023-04-03T14:39:04.000",
    "date_modified": "2023-04-03T14:45:53.000",
    "request_status": "Pending",
    "responsible_agency": "Department of Parks & Parkway",
    "final_address": "2817 Napoleon Ave",
    "address_councildis": "B",
    "status": "Pending",
    "rowid": "988195",
    "final_x": "3670520.72014",
    "final_y": "525238.054717",
    "longitude": "-90.10295202165518",
    "latitude": "29.93855117702347",
    "geocoded_column": {
      "latitude": "29.93855117702347",
      "longitude": "-90.10295202165518"
    }
  },
  {
    "service_request": "2023-988194",
    "request_type": "Trash/Recycling",
    "request_reason": "Request a Large Item Pick Up",
    "date_created": "2023-04-03T14:37:20.000",
    "date_modified": "2023-04-03T14:37:21.000",
    "request_status": "Pending",
    "responsible_agency": "Department of Sanitation",
    "final_address": "1426 Joliet St",
    "address_councildis": "A",
    "status": "Assigned to Contractor",
    "contractor": "Richards Disposal",
    "rowid": "988194",
    "final_x": "3661494.04442",
    "final_y": "530045.213313",
    "longitude": "-90.13129111225612",
    "latitude": "29.952032760056557",
    "geocoded_column": {
      "latitude": "29.952032760056557",
      "longitude": "-90.13129111225612"
    }
  },
  {
    "service_request": "2023-988193",
    "request_type": "Traffic Signals/Signs/Striping/Streetlights",
    "request_reason": "Street Light Outage/Malfunction",
    "date_created": "2023-04-03T14:36:55.000",
    "date_modified": "2023-04-03T14:36:56.000",
    "request_status": "Pending",
    "responsible_agency": "Department of Public Works",
    "final_address": "1123 Margaret Pl",
    "address_councildis": "B",
    "status": "Assigned to Contractor",
    "contractor": "Legacy Professional Services",
    "rowid": "988193",
    "final_x": "3680202.61595",
    "final_y": "526237.04787",
    "longitude": "-90.07235057154209",
    "latitude": "29.94100866351144",
    "geocoded_column": {
      "latitude": "29.94100866351144",
      "longitude": "-90.07235057154209"
    }
  },
  {
    "service_request": "2023-988191",
    "request_type": "Trash/Recycling",
    "request_reason": "Missed Trash Pick-Up",
    "date_created": "2023-04-03T14:35:23.000",
    "date_modified": "2023-04-03T14:35:24.000",
    "request_status": "Pending",
    "responsible_agency": "Department of Sanitation",
    "final_address": "1001 kentucky street",
    "address_councildis": "C",
    "status": "Assigned to Contractor",
    "contractor": "IV Waste",
    "rowid": "988191",
    "final_x": "3693260.45398",
    "final_y": "534528.608645",
    "longitude": "-90.03082721330206",
    "latitude": "29.963405986632843",
    "geocoded_column": {
      "latitude": "29.963405986632843",
      "longitude": "-90.03082721330206"
    }
  },
  {
    "service_request": "2023-988190",
    "request_type": "Traffic Signals/Signs/Striping/Streetlights",
    "request_reason": "Street Light Outage/Malfunction",
    "date_created": "2023-04-03T14:35:05.000",
    "date_modified": "2023-04-03T14:35:47.000",
    "request_status": "Pending",
    "responsible_agency": "Department of Public Works",
    "final_address": "7135 Deanne St",
    "address_councildis": "D",
    "status": "Assigned to Contractor",
    "contractor": "Legacy Professional Services",
    "rowid": "988190",
    "final_x": "3695604.37731",
    "final_y": "556830.348378",
    "longitude": "-90.02261980032745",
    "latitude": "30.024654124942032",
    "geocoded_column": {
      "latitude": "30.024654124942032",
      "longitude": "-90.02261980032745"
    }
  },
  {
    "service_request": "2023-988189",
    "request_type": "Trash/Recycling",
    "request_reason": "Order Recycling Cart",
    "date_created": "2023-04-03T14:33:29.000",
    "date_modified": "2023-04-03T14:33:29.000",
    "request_status": "Pending",
    "responsible_agency": "Department of Sanitation",
    "final_address": "2501 S Johnson St",
    "address_councildis": "B",
    "status": "Pending",
    "rowid": "988189",
    "final_x": "3673130.11694",
    "final_y": "528389.00192",
    "longitude": "-90.09460632713592",
    "latitude": "29.947137948830918",
    "geocoded_column": {
      "latitude": "29.947137948830918",
      "longitude": "-90.09460632713592"
    }
  },
  {
    "service_request": "2023-988188",
    "request_type": "Trash/Recycling",
    "request_reason": "Request a Large Item Pick Up",
    "date_created": "2023-04-03T14:32:29.000",
    "date_modified": "2023-04-03T14:32:30.000",
    "request_status": "Pending",
    "responsible_agency": "Department of Sanitation",
    "final_address": "13051 Chateau Ct",
    "address_councildis": "E",
    "status": "Assigned to Contractor",
    "contractor": "Waste Pro",
    "rowid": "988188",
    "final_x": "3724077.53068",
    "final_y": "562292.880543",
    "longitude": "-89.93243974365417",
    "latitude": "30.038747566870295",
    "geocoded_column": {
      "latitude": "30.038747566870295",
      "longitude": "-89.93243974365417"
    }
  },
  {
    "service_request": "2023-988187",
    "request_type": "Trash/Recycling",
    "request_reason": "Order Trash Cart",
    "date_created": "2023-04-03T14:32:14.000",
    "date_modified": "2023-04-03T14:32:15.000",
    "request_status": "Pending",
    "responsible_agency": "Department of Sanitation",
    "final_address": "2503 S Johnson St",
    "address_councildis": "B",
    "status": "Assigned to Contractor",
    "contractor": "Richards Disposal",
    "rowid": "988187",
    "final_x": "3673120.49512",
    "final_y": "528383.227648",
    "longitude": "-90.09463690397983",
    "latitude": "29.94712235749403",
    "geocoded_column": {
      "latitude": "29.94712235749403",
      "longitude": "-90.09463690397983"
    }
  },
  {
    "service_request": "2023-988186",
    "request_type": "Trash/Recycling",
    "request_reason": "Order Trash Cart",
    "date_created": "2023-04-03T14:31:27.000",
    "date_modified": "2023-04-03T14:31:28.000",
    "request_status": "Pending",
    "responsible_agency": "Department of Sanitation",
    "final_address": "2501 S Johnson St",
    "address_councildis": "B",
    "status": "Assigned to Contractor",
    "contractor": "Richards Disposal",
    "rowid": "988186",
    "final_x": "3673130.11694",
    "final_y": "528389.00192",
    "longitude": "-90.09460632713592",
    "latitude": "29.947137948830918",
    "geocoded_column": {
      "latitude": "29.947137948830918",
      "longitude": "-90.09460632713592"
    }
  },
  {
    "service_request": "2023-988185",
    "request_type": "Trash/Recycling",
    "request_reason": "Replace Trash Cart",
    "date_created": "2023-04-03T14:28:30.000",
    "date_modified": "2023-04-03T14:28:31.000",
    "request_status": "Pending",
    "responsible_agency": "Department of Sanitation",
    "final_address": "1420 Terpsichore St",
    "address_councildis": "B",
    "status": "Assigned to Contractor",
    "contractor": "Richards Disposal",
    "rowid": "988185",
    "final_x": "3679617.6733",
    "final_y": "524815.81926",
    "longitude": "-90.07424664693501",
    "latitude": "29.937118442984104",
    "geocoded_column": {
      "latitude": "29.937118442984104",
      "longitude": "-90.07424664693501"
    }
  },
  {
    "service_request": "2023-988184",
    "request_type": "Trash/Recycling",
    "request_reason": "Missed Trash Pick-Up",
    "date_created": "2023-04-03T14:25:42.000",
    "date_modified": "2023-04-03T14:25:43.000",
    "request_status": "Pending",
    "responsible_agency": "Department of Sanitation",
    "final_address": "1123 Margaret Pl",
    "address_councildis": "B",
    "status": "Assigned to Contractor",
    "contractor": "Richards Disposal",
    "rowid": "988184",
    "final_x": "3680202.61595",
    "final_y": "526237.04787",
    "longitude": "-90.07235057154209",
    "latitude": "29.94100866351144",
    "geocoded_column": {
      "latitude": "29.94100866351144",
      "longitude": "-90.07235057154209"
    }
  },
  {
    "service_request": "2023-988183",
    "request_type": "Trash/Recycling",
    "request_reason": "Order Recycling Cart",
    "date_created": "2023-04-03T14:24:39.000",
    "date_modified": "2023-04-03T14:24:39.000",
    "request_status": "Pending",
    "responsible_agency": "Department of Sanitation",
    "final_address": "2112 St Bernard Ave",
    "address_councildis": "D",
    "status": "Pending",
    "rowid": "988183",
    "final_x": "3681181.52796",
    "final_y": "539603.134538",
    "longitude": "-90.06879426456699",
    "latitude": "29.977731194806548",
    "geocoded_column": {
      "latitude": "29.977731194806548",
      "longitude": "-90.06879426456699"
    }
  },
  {
    "service_request": "2023-988182",
    "request_type": "Trash/Recycling",
    "request_reason": "Order Recycling Cart",
    "date_created": "2023-04-03T14:24:02.000",
    "date_modified": "2023-04-03T14:24:03.000",
    "request_status": "Pending",
    "responsible_agency": "Department of Sanitation",
    "final_address": "5100 E Lemans St",
    "address_councildis": "E",
    "status": "Pending",
    "rowid": "988182",
    "final_x": "3727227.56825",
    "final_y": "562962.277152",
    "longitude": "-89.92245886044857",
    "latitude": "30.040481860329642",
    "geocoded_column": {
      "latitude": "30.040481860329642",
      "longitude": "-89.92245886044857"
    }
  },
  {
    "service_request": "2023-988181",
    "request_type": "Roads/Drainage",
    "request_reason": "Damaged Sidewalk",
    "date_created": "2023-04-03T14:23:42.000",
    "date_modified": "2023-04-03T14:23:43.000",
    "request_status": "Pending",
    "responsible_agency": "Department of Public Works",
    "final_address": "5618 Cherlyn Dr",
    "address_councildis": "A",
    "status": "Pending",
    "rowid": "988181",
    "final_x": "3665108.28506",
    "final_y": "545053.738895",
    "longitude": "-90.11937691954068",
    "latitude": "29.993196468163944",
    "geocoded_column": {
      "latitude": "29.993196468163944",
      "longitude": "-90.11937691954068"
    }
  },
  {
    "service_request": "2023-988179",
    "request_type": "Trash/Recycling",
    "request_reason": "Return Trash Cart",
    "date_created": "2023-04-03T14:18:29.000",
    "date_modified": "2023-04-03T14:18:30.000",
    "request_status": "Pending",
    "responsible_agency": "Department of Sanitation",
    "final_address": "9701 Lake Forest Blvd Ste 101",
    "address_councildis": "E",
    "status": "Assigned to Contractor",
    "contractor": "Waste Pro",
    "rowid": "988179",
    "final_x": "3709040.04702",
    "final_y": "558805.060764",
    "longitude": "-89.98009207840452",
    "latitude": "30.02965437741886",
    "geocoded_column": {
      "latitude": "30.02965437741886",
      "longitude": "-89.98009207840452"
    }
  },
  {
    "service_request": "2023-988178",
    "request_type": "Trash/Recycling",
    "request_reason": "Repair Trash Cart",
    "date_created": "2023-04-03T14:18:21.000",
    "date_modified": "2023-04-03T14:18:22.000",
    "request_status": "Pending",
    "responsible_agency": "Department of Sanitation",
    "final_address": "3230 Boyd St",
    "address_councildis": "C",
    "status": "Assigned to Contractor",
    "contractor": "Richards Disposal",
    "rowid": "988178",
    "final_x": "3708064.13624",
    "final_y": "518654.401975",
    "longitude": "-89.98466924983757",
    "latitude": "29.919286572760328",
    "geocoded_column": {
      "latitude": "29.919286572760328",
      "longitude": "-89.98466924983757"
    }
  },
  {
    "service_request": "2023-988176",
    "request_type": "Trash/Recycling",
    "request_reason": "Illegal Dumping",
    "date_created": "2023-04-03T14:15:31.000",
    "date_modified": "2023-04-03T14:15:31.000",
    "request_status": "Pending",
    "responsible_agency": "Department of Sanitation",
    "final_address": "1918 Benefit St",
    "address_councildis": "D",
    "status": "Pending",
    "rowid": "988176",
    "final_x": "3682301.79196",
    "final_y": "544075.590414",
    "longitude": "-90.06509974558986",
    "latitude": "29.989994836920236",
    "geocoded_column": {
      "latitude": "29.989994836920236",
      "longitude": "-90.06509974558986"
    }
  },
  {
    "service_request": "2023-988175",
    "request_type": "Trash/Recycling",
    "request_reason": "Request a Large Item Pick Up",
    "date_created": "2023-04-03T14:12:23.000",
    "date_modified": "2023-04-03T14:12:24.000",
    "request_status": "Pending",
    "responsible_agency": "Department of Sanitation",
    "final_address": "1131 Orange St",
    "address_councildis": "B",
    "status": "Assigned to Contractor",
    "contractor": "Richards Disposal",
    "rowid": "988175",
    "final_x": "3679856.47944",
    "final_y": "523577.759035",
    "longitude": "-90.07353569564594",
    "latitude": "29.933706968638734",
    "geocoded_column": {
      "latitude": "29.933706968638734",
      "longitude": "-90.07353569564594"
    }
  },
  {
    "service_request": "2023-988174",
    "request_type": "Trash/Recycling",
    "request_reason": "Order Trash Cart",
    "date_created": "2023-04-03T14:09:50.000",
    "date_modified": "2023-04-03T14:26:24.000",
    "request_status": "Pending",
    "responsible_agency": "Department of Sanitation",
    "final_address": "3705 Indiana St",
    "address_councildis": "C",
    "status": "Assigned to Contractor",
    "contractor": "Richards Disposal",
    "rowid": "988174",
    "final_x": "3693130.5151",
    "final_y": "519809.251448",
    "longitude": "-90.03176553695783",
    "latitude": "29.922936883705237",
    "geocoded_column": {
      "latitude": "29.922936883705237",
      "longitude": "-90.03176553695783"
    }
  },
  {
    "service_request": "2023-988173",
    "request_type": "Trash/Recycling",
    "request_reason": "Order Recycling Cart",
    "date_created": "2023-04-03T14:09:40.000",
    "date_modified": "2023-04-03T14:09:40.000",
    "request_status": "Pending",
    "responsible_agency": "Department of Sanitation",
    "final_address": "3705 Indiana St",
    "address_councildis": "C",
    "status": "Pending",
    "rowid": "988173",
    "final_x": "3693130.5151",
    "final_y": "519809.251448",
    "longitude": "-90.03176553695783",
    "latitude": "29.922936883705237",
    "geocoded_column": {
      "latitude": "29.922936883705237",
      "longitude": "-90.03176553695783"
    }
  },
  {
    "service_request": "2023-988172",
    "request_type": "Trash/Recycling",
    "request_reason": "Start Trash Service",
    "date_created": "2023-04-03T14:09:26.000",
    "date_modified": "2023-04-03T14:09:27.000",
    "request_status": "Pending",
    "responsible_agency": "Department of Sanitation",
    "final_address": "3705 Indiana St",
    "address_councildis": "C",
    "status": "Assigned to Contractor",
    "contractor": "Richards Disposal",
    "rowid": "988172",
    "final_x": "3693130.5151",
    "final_y": "519809.251448",
    "longitude": "-90.03176553695783",
    "latitude": "29.922936883705237",
    "geocoded_column": {
      "latitude": "29.922936883705237",
      "longitude": "-90.03176553695783"
    }
  },