[
  {
    "service_request": "2025-1182767",
    "request_type": "Trash/Recycling",
    "request_reason": "Request a Large Item Pick Up",
    "date_created": "2025-04-09T23:31:32.000",
    "date_modified": "2025-04-09T23:31:34.000",
    "request_status": "Pending",
    "responsible_agency": "Department of Sanitation",
    "final_address": "1725 Jourdan Ave",
    "address_councildis": "E",
    "status": "Assigned to Contractor",
    "contractor": "Waste Pro",
    "rowid": "1182767",
    "final_x": "3695785.28848",
    "final_y": "536996.58996",
    "longitude": "-90.02276496383354",
    "latitude": "29.97011289976237",
    "geocoded_column": {
      "latitude": "29.97011289976237",
      "longitude": "-90.02276496383354"
    }
  },
  {
    "service_request": "2025-1182766",
    "request_type": "Trash/Recycling",
    "request_reason": "Order Recycling Cart",
    "date_created": "2025-04-09T23:16:59.000",
    "date_modified": "2025-04-09T23:17:01.000",
    "request_status": "Pending",
    "responsible_agency": "Department of Sanitation",
    "final_address": "730 St Ferdinand St",
    "address_councildis": "C",
    "status": "Pending",
    "rowid": "1182766",
    "final_x": "3687359.64713",
    "final_y": "535065.788806",
    "longitude": "-90.04944225977572",
    "latitude": "29.96506616204873",
    "geocoded_column": {
      "latitude": "29.96506616204873",
      "longitude": "-90.04944225977572"
    }
  },
  {
    "service_request": "2025-1182765",
    "request_type": "Trash/Recycling",
    "request_reason": "Order Trash Cart",
    "date_created": "2025-04-09T23:15:58.000",
    "date_modified": "2025-04-09T23:16:00.000",
    "request_status": "Pending",
    "responsible_agency": "Department of Sanitation",
    "final_address": "730 St Ferdinand St",
    "address_councildis": "C",
    "status": "Assigned to Contractor",
    "contractor": "IV Waste",
    "rowid": "1182765",
    "final_x": "3687359.64713",
    "final_y": "535065.788806",
    "longitude": "-90.04944225977572",
    "latitude": "29.96506616204873",
    "geocoded_column": {
      "latitude": "29.96506616204873",
      "longitude": "-90.04944225977572"
    }
  },
  {
    "service_request": "2025-1182764",
    "request_type": "Property Maintenance",
    "request_reason": "Property Maintenance",
    "date_created": "2025-04-09T22:49:26.000",
    "date_modified": "2025-04-09T22:49:28.000",
    "request_status": "Pending",
    "responsible_agency": "Department of Code Enforcement",
    "final_address": "4518 S Robertson St",
    "address_councildis": "B",
    "status": "Pending",
    "rowid": "1182764",
    "final_x": "3669936.53985",
    "final_y": "524301.264444",
    "longitude": "-90.10482805375682",
    "latitude": "29.935992541335494",
    "geocoded_column": {
      "latitude": "29.935992541335494",
      "longitude": "-90.10482805375682"
    }
  },
  {
    "service_request": "2025-1182763",
    "request_type": "Property Maintenance",
    "request_reason": "Property Maintenance",
    "date_created": "2025-04-09T22:47:48.000",
    "date_modified": "2025-04-09T22:47:50.000",
    "request_status": "Pending",
    "responsible_agency": "Department of Code Enforcement",
    "final_address": "4618 S Robertson St",
    "address_councildis": "B",
    "status": "Pending",
    "rowid": "1182763",
    "final_x": "3669586.22478",
    "final_y": "524269.003964",
    "longitude": "-90.10593510060514",
    "latitude": "29.93591415819296",
    "geocoded_column": {
      "latitude": "29.93591415819296",
      "longitude": "-90.10593510060514"
    }
  },
  {
    "service_request": "2025-1182762",
    "request_type": "Property Maintenance",
    "request_reason": "Property Maintenance",
    "date_created": "2025-04-09T22:45:54.000",
    "date_modified": "2025-04-09T22:45:56.000",
    "request_status": "Pending",
    "responsible_agency": "Department of Code Enforcement",
    "final_address": "4618 S Robertson St",
    "address_councildis": "B",
    "status": "Pending",
    "rowid": "1182762",
    "final_x": "3669586.22478",
    "final_y": "524269.003964",
    "longitude": "-90.10593510060514",
    "latitude": "29.93591415819296",
    "geocoded_column": {
      "latitude": "29.93591415819296",
      "longitude": "-90.10593510060514"
    }
  },
  {
    "service_request": "2025-1182761",
    "request_type": "Trash/Recycling",
    "request_reason": "Repair Trash Cart",
    "date_created": "2025-04-09T22:29:14.000",
    "date_modified": "2025-04-09T22:29:15.000",
    "request_status": "Pending",
    "responsible_agency": "Department of Sanitation",
    "final_address": "110 Eastpoint Ct",
    "address_councildis": "E",
    "status": "Assigned to Contractor",
    "contractor": "Waste Pro",
    "rowid": "1182761",
    "final_x": "3720500.47417",
    "final_y": "563181.936352",
    "longitude": "-89.94371000756095",
    "latitude": "30.041311869991123",
    "geocoded_column": {
      "latitude": "30.041311869991123",
      "longitude": "-89.94371000756095"
    }
  },
  {
    "service_request": "2025-1182760",
    "request_type": "Streetlights",
    "request_reason": "Streetlight Outage/Malfunction",
    "date_created": "2025-04-09T22:12:58.000",
    "date_modified": "2025-04-09T22:13:00.000",
    "request_status": "Pending",
    "responsible_agency": "Department of Public Works",
    "final_address": "4626 Orleans Ave",
    "address_councildis": "A",
    "status": "Pending",
    "contractor": "Legacy Professional Services",
    "rowid": "1182760",
    "final_x": "3670602.33396",
    "final_y": "541575.692876",
    "longitude": "-90.10214013979962",
    "latitude": "29.983471843314177",
    "geocoded_column": {
      "latitude": "29.983471843314177",
      "longitude": "-90.10214013979962"
    }
  },
  {
    "service_request": "2025-1182759",
    "request_type": "Abandoned Vehicles",
    "request_reason": "Abandoned/Junk Vehicles",
    "date_created": "2025-04-09T22:04:36.000",
    "date_modified": "2025-04-09T22:04:38.000",
    "request_status": "Pending",
    "responsible_agency": "Department of Public Works",
    "final_address": "800 BLK N Roman St",
    "address_councildis": "D",
    "status": "Pending",
    "rowid": "1182759",
    "final_x": "3679522.31382",
    "final_y": "535473.587961",
    "longitude": "-90.07417795585995",
    "latitude": "29.966426606344235",
    "geocoded_column": {
      "latitude": "29.966426606344235",
      "longitude": "-90.07417795585995"
    }
  },
  {
    "service_request": "2025-1182758",
    "request_type": "Utility Poles",
    "request_reason": "Wires Sagging/Hanging Low",
    "date_created": "2025-04-09T22:00:36.000",
    "date_modified": "2025-04-09T22:00:38.000",
    "request_status": "Pending",
    "responsible_agency": "Utility Company Collective",
    "final_address": "1000 BLK Dumaine St",
    "address_councildis": "C",
    "status": "Pending",
    "rowid": "1182758",
    "final_x": "3681993.39287",
    "final_y": "533817.519423",
    "longitude": "-90.06643215369428",
    "latitude": "29.96179808862517",
    "geocoded_column": {
      "latitude": "29.96179808862517",
      "longitude": "-90.06643215369428"
    }
  },
  {
    "service_request": "2025-1182757",
    "request_type": "Trash/Recycling",
    "request_reason": "Replace Trash Cart",
    "date_created": "2025-04-09T21:49:05.000",
    "date_modified": "2025-04-09T21:49:07.000",
    "request_status": "Pending",
    "responsible_agency": "Department of Sanitation",
    "final_address": "2418 Robert St",
    "address_councildis": "B",
    "status": "Assigned to Contractor",
    "contractor": "IV Waste",
    "rowid": "1182757",
    "final_x": "3668769.44334",
    "final_y": "524428.292476",
    "longitude": "-90.10850832892218",
    "latitude": "29.936376182517535",
    "geocoded_column": {
      "latitude": "29.936376182517535",
      "longitude": "-90.10850832892218"
    }
  },
  {
    "service_request": "2025-1182756",
    "request_type": "Traffic Signals",
    "request_reason": "Traffic Signal Malfunctioning or Damaged",
    "date_created": "2025-04-09T21:36:13.000",
    "date_modified": "2025-04-09T21:36:15.000",
    "request_status": "Pending",
    "responsible_agency": "Department of Public Works",
    "final_address": "3227 Magazine St",
    "address_councildis": "B",
    "status": "Pending",
    "rowid": "1182756",
    "final_x": "3675621.75611",
    "final_y": "519948.272376",
    "longitude": "-90.087029150015",
    "latitude": "29.92385439942386",
    "geocoded_column": {
      "latitude": "29.92385439942386",
      "longitude": "-90.087029150015"
    }
  },
  {
    "service_request": "2025-1182755",
    "request_type": "Street and Traffic Signs",
    "request_reason": "Traffic or Parking Sign Damaged or Missing",
    "date_created": "2025-04-09T21:33:27.000",
    "date_modified": "2025-04-09T21:33:29.000",
    "request_status": "Pending",
    "responsible_agency": "Department of Public Works",
    "final_address": "3227 Magazine St",
    "address_councildis": "B",
    "status": "Pending",
    "rowid": "1182755",
    "final_x": "3675621.75611",
    "final_y": "519948.272376",
    "longitude": "-90.087029150015",
    "latitude": "29.92385439942386",
    "geocoded_column": {
      "latitude": "29.92385439942386",
      "longitude": "-90.087029150015"
    }
  },
  {
    "service_request": "2025-1182754",
    "request_type": "Trash/Recycling",
    "request_reason": "Order Recycling Cart",
    "date_created": "2025-04-09T21:13:16.000",
    "date_modified": "2025-04-09T21:13:18.000",
    "request_status": "Pending",
    "responsible_agency": "Department of Sanitation",
    "final_address": "1842 Broadway St",
    "address_councildis": "A",
    "status": "Pending",
    "rowid": "1182754",
    "final_x": "3665485.36692",
    "final_y": "528563.683264",
    "longitude": "-90.11873792568811",
    "latitude": "29.94784329749813",
    "geocoded_column": {
      "latitude": "29.94784329749813",
      "longitude": "-90.11873792568811"
    }
  },
  {
    "service_request": "2025-1182753",
    "request_type": "Trash/Recycling",
    "request_reason": "Request a Large Item Pick Up",
    "date_created": "2025-04-09T21:05:42.000",
    "date_modified": "2025-04-09T21:05:45.000",
    "request_status": "Pending",
    "responsible_agency": "Department of Sanitation",
    "final_address": "6224 Paris Ave",
    "address_councildis": "D",
    "status": "Assigned to Contractor",
    "contractor": "IV Waste",
    "rowid": "1182753",
    "final_x": "3678771.9636",
    "final_y": "555836.251993",
    "longitude": "-90.07584184231561",
    "latitude": "30.022439406098542",
    "geocoded_column": {
      "latitude": "30.022439406098542",
      "longitude": "-90.07584184231561"
    }
  },
  {
    "service_request": "2025-1182752",
    "request_type": "Health Related Request",
    "request_reason": "Noise Ordinance Complaint",
    "date_created": "2025-04-09T20:21:28.000",
    "date_modified": "2025-04-09T20:21:29.000",
    "request_status": "Pending",
    "responsible_agency": "Health Department",
    "final_address": "2728 Milan Street New Orleans Louisiana 70115",
    "address_councildis": "B",
    "status": "Pending",
    "rowid": "1182752",
    "final_x": "3671151.78759",
    "final_y": "525037.049149",
    "longitude": "-90.1009664965385",
    "latitude": "29.937979829218563",
    "geocoded_column": {
      "latitude": "29.937979829218563",
      "longitude": "-90.1009664965385"
    }
  },
  {
    "service_request": "2025-1182751",
    "request_type": "Streetlights",
    "request_reason": "Streetlight Outage/Malfunction",
    "date_created": "2025-04-09T20:21:23.000",
    "date_modified": "2025-04-09T20:21:24.000",
    "request_status": "Pending",
    "responsible_agency": "Department of Public Works",
    "final_address": "6454 Vicksburg St",
    "address_councildis": "A",
    "status": "Pending",
    "contractor": "Legacy Professional Services",
    "rowid": "1182751",
    "final_x": "3669070.12551",
    "final_y": "550473.356948",
    "longitude": "-90.1066788173844",
    "latitude": "30.007982529872994",
    "geocoded_column": {
      "latitude": "30.007982529872994",
      "longitude": "-90.1066788173844"
    }
  },
  {
    "service_request": "2025-1182750",
    "request_type": "Traffic Signals",
    "request_reason": "Traffic Signal Malfunctioning or Damaged",
    "date_created": "2025-04-09T20:11:48.000",
    "date_modified": "2025-04-09T20:11:50.000",
    "request_status": "Pending",
    "responsible_agency": "Department of Public Works",
    "final_address": "JULIA ST & LOYOLA AVE",
    "address_councildis": "B",
    "status": "Pending",
    "rowid": "1182750",
    "final_x": "3678731.4",
    "final_y": "528435.68",
    "longitude": "-90.07691935474188",
    "latitude": "29.947098607555517",
    "geocoded_column": {
      "latitude": "29.947098607555517",
      "longitude": "-90.07691935474188"
    }
  },
  {
    "service_request": "2025-1182749",
    "request_type": "Trash/Recycling",
    "request_reason": "Request a Large Item Pick Up",
    "date_created": "2025-04-09T20:06:06.000",
    "date_modified": "2025-04-09T20:06:08.000",
    "request_status": "Pending",
    "responsible_agency": "Department of Sanitation",
    "final_address": "3614 Washington Ave",
    "address_councildis": "B",
    "status": "Assigned to Contractor",
    "contractor": "IV Waste",
    "rowid": "1182749",
    "final_x": "3671933.1394",
    "final_y": "528481.583744",
    "longitude": "-90.09838249241575",
    "latitude": "29.947428045157874",
    "geocoded_column": {
      "latitude": "29.947428045157874",
      "longitude": "-90.09838249241575"
    }
  },
  {
    "service_request": "2025-1182748",
    "request_type": "Utility Poles",
    "request_reason": "Utility Pole Leaning",
    "date_created": "2025-04-09T19:58:11.000",
    "date_modified": "2025-04-09T19:58:14.000",
    "request_status": "Pending",
    "responsible_agency": "Utility Company Collective",
    "final_address": "5979 Argonne Blvd",
    "address_councildis": "A",
    "status": "Pending",
    "rowid": "1182748",
    "final_x": "3670205.19316",
    "final_y": "547067.167761",
    "longitude": "-90.1032083142158",
    "latitude": "29.99858323808711",
    "geocoded_column": {
      "latitude": "29.99858323808711",
      "longitude": "-90.1032083142158"
    }
  },
  {
    "service_request": "2025-1182747",
    "request_type": "Property Maintenance",
    "request_reason": "Property Maintenance",
    "date_created": "2025-04-09T19:52:48.000",
    "date_modified": "2025-04-09T19:52:51.000",
    "request_status": "Pending",
    "responsible_agency": "Department of Code Enforcement",
    "final_address": "1547 Leda St",
    "address_councildis": "A",
    "status": "Pending",
    "rowid": "1182747",
    "final_x": "3675698.75361",
    "final_y": "541841.050444",
    "longitude": "-90.08603382857136",
    "latitude": "29.984049928303698",
    "geocoded_column": {
      "latitude": "29.984049928303698",
      "longitude": "-90.08603382857136"
    }
  },
  {
    "service_request": "2025-1182746",
    "request_type": "Health Related Request",
    "request_reason": "Request Health Records (Immunization, Lead and Health)",
    "date_created": "2025-04-09T19:42:50.000",
    "date_modified": "2025-04-09T19:42:52.000",
    "request_status": "Pending",
    "responsible_agency": "Health Department",
    "final_address": "0 BLK Crescent City Connection",
    "status": "Pending",
    "rowid": "1182746",
    "final_x": "3685262.17635",
    "final_y": "525097.252743",
    "longitude": "-90.05641675185699",
    "latitude": "29.93772053935159",
    "geocoded_column": {
      "latitude": "29.93772053935159",
      "longitude": "-90.05641675185699"
    }
  },
  {
    "service_request": "2025-1182745",
    "request_type": "Roads and Streets",
    "request_reason": "Sidewalk Damaged or Missing",
    "date_created": "2025-04-09T19:37:43.000",
    "date_modified": "2025-04-09T19:37:44.000",
    "request_status": "Pending",
    "responsible_agency": "Department of Public Works",
    "final_address": "631 Toulouse St",
    "address_councildis": "C",
    "status": "Pending",
    "rowid": "1182745",
    "final_x": "3682424.36783",
    "final_y": "532113.034691",
    "longitude": "-90.06513077806487",
    "latitude": "29.95709822808299",
    "geocoded_column": {
      "latitude": "29.95709822808299",
      "longitude": "-90.06513077806487"
    }
  },
  {
    "service_request": "2025-1182744",
    "request_type": "General Services",
    "request_reason": "General Service Request",
    "date_created": "2025-04-09T19:36:24.000",
    "date_modified": "2025-04-09T19:36:26.000",
    "request_status": "Pending",
    "responsible_agency": "Orleans Parish Communication District",
    "final_address": "1133 Kabel Dr",
    "address_councildis": "C",
    "status": "Pending",
    "rowid": "1182744",
    "final_x": "3700700.46743",
    "final_y": "523283.133243",
    "longitude": "-90.00774345040669",
    "latitude": "29.93225025190194",
    "geocoded_column": {
      "latitude": "29.93225025190194",
      "longitude": "-90.00774345040669"
    }
  },
  {
    "service_request": "2025-1182743",
    "request_type": "Trash/Recycling",
    "request_reason": "Request a Large Item Pick Up",
    "date_created": "2025-04-09T19:31:04.000",
    "date_modified": "2025-04-09T19:31:05.000",
    "request_status": "Pending",
    "responsible_agency": "Department of Sanitation",
    "final_address": "7157 Parkside Ct",
    "address_councildis": "E",
    "status": "Assigned to Contractor",
    "contractor": "Waste Pro",
    "rowid": "1182743",
    "final_x": "3704500.85066",
    "final_y": "560387.324574",
    "longitude": "-89.99437734560306",
    "latitude": "30.034151605546306",
    "geocoded_column": {
      "latitude": "30.034151605546306",
      "longitude": "-89.99437734560306"
    }
  },
  {
    "service_request": "2025-1182742",
    "request_type": "Alley Ways",
    "request_reason": "Alley Way Regrading",
    "date_created": "2025-04-09T19:30:43.000",
    "date_modified": "2025-04-09T19:30:45.000",
    "request_status": "Pending",
    "responsible_agency": "Department of Public Works",
    "final_address": "6854 General Haig St",
    "address_councildis": "A",
    "status": "Pending",
    "rowid": "1182742",
    "final_x": "3670957.52987",
    "final_y": "552940.598935",
    "longitude": "-90.1006320666859",
    "latitude": "30.01471088208776",
    "geocoded_column": {
      "latitude": "30.01471088208776",
      "longitude": "-90.1006320666859"
    }
  },
  {
    "service_request": "2025-1182741",
    "request_type": "Trash/Recycling",
    "request_reason": "Request a Large Item Pick Up",
    "date_created": "2025-04-09T19:25:59.000",
    "date_modified": "2025-04-09T19:26:01.000",
    "request_status": "Pending",
    "responsible_agency": "Department of Sanitation",
    "final_address": "1310 Poland Ave",
    "address_councildis": "D",
    "status": "Assigned to Contractor",
    "contractor": "IV Waste",
    "rowid": "1182741",
    "final_x": "3693151.42697",
    "final_y": "535861.121287",
    "longitude": "-90.03112368550622",
    "latitude": "29.967073333656657",
    "geocoded_column": {
      "latitude": "29.967073333656657",
      "longitude": "-90.03112368550622"
    }
  },
  {
    "service_request": "2025-1182740",
    "request_type": "Road Striping",
    "request_reason": "Lane Striping or other Pavement Markings",
    "date_created": "2025-04-09T19:25:20.000",
    "date_modified": "2025-04-09T19:25:22.000",
    "request_status": "Pending",
    "responsible_agency": "Department of Public Works",
    "final_address": "500 BLK Moss St",
    "address_councildis": "A",
    "status": "Pending",
    "rowid": "1182740",
    "final_x": "3673989.96662",
    "final_y": "538178.151122",
    "longitude": "-90.09155649633361",
    "latitude": "29.974029243754984",
    "geocoded_column": {
      "latitude": "29.974029243754984",
      "longitude": "-90.09155649633361"
    }
  },
  {
    "service_request": "2025-1182739",
    "request_type": "Trash/Recycling",
    "request_reason": "Request a Large Item Pick Up",
    "date_created": "2025-04-09T18:46:30.000",
    "date_modified": "2025-04-09T18:46:32.000",
    "request_status": "Pending",
    "responsible_agency": "Department of Sanitation",
    "final_address": "300 S Scott St",
    "address_councildis": "A",
    "status": "Assigned to Contractor",
    "contractor": "IV Waste",
    "rowid": "1182739",
    "final_x": "3671300.9931",
    "final_y": "537143.074696",
    "longitude": "-90.1000840875345",
    "latitude": "29.971262986826474",
    "geocoded_column": {
      "latitude": "29.971262986826474",
      "longitude": "-90.1000840875345"
    }
  },
  {
    "service_request": "2025-1182738",
    "request_type": "Trash/Recycling",
    "request_reason": "Missed Trash Pick-Up",
    "date_created": "2025-04-09T18:25:38.000",
    "date_modified": "2025-04-09T18:25:40.000",
    "request_status": "Pending",
    "responsible_agency": "Department of Sanitation",
    "final_address": "7636 Jeannette St",
    "address_councildis": "A",
    "status": "Assigned to Contractor",
    "contractor": "IV Waste",
    "rowid": "1182738",
    "final_x": "3663777.2633",
    "final_y": "528029.400447",
    "longitude": "-90.12414891500917",
    "latitude": "29.946423866371518",
    "geocoded_column": {
      "latitude": "29.946423866371518",
      "longitude": "-90.12414891500917"
    }
  },
  {
    "service_request": "2025-1182737",
    "request_type": "Property Maintenance",
    "request_reason": "Property Maintenance",
    "date_created": "2025-04-09T18:24:19.000",
    "date_modified": "2025-04-09T18:24:20.000",
    "request_status": "Pending",
    "responsible_agency": "Department of Code Enforcement",
    "final_address": "5495 Crowder Blvd",
    "address_councildis": "E",
    "status": "Pending",
    "rowid": "1182737",
    "final_x": "3705940.75095",
    "final_y": "557586.750235",
    "longitude": "-89.98993087134517",
    "latitude": "30.026404778588024",
    "geocoded_column": {
      "latitude": "30.026404778588024",
      "longitude": "-89.98993087134517"
    }
  },
  {
    "service_request": "2025-1182736",
    "request_type": "Streetlights",
    "request_reason": "Streetlight Outage/Malfunction",
    "date_created": "2025-04-09T18:03:47.000",
    "date_modified": "2025-04-09T18:03:49.000",
    "request_status": "Pending",
    "responsible_agency": "Department of Public Works",
    "final_address": "1047 Poland Ave",
    "address_councildis": "C",
    "status": "Pending",
    "contractor": "Legacy Professional Services",
    "rowid": "1182736",
    "final_x": "3693093.10365",
    "final_y": "534898.741894",
    "longitude": "-90.03134240378026",
    "latitude": "29.96442895236056",
    "geocoded_column": {
      "latitude": "29.96442895236056",
      "longitude": "-90.03134240378026"
    }
  },
  {
    "service_request": "2025-1182735",
    "request_type": "Roads and Streets",
    "request_reason": "Sidewalk Damaged or Missing",
    "date_created": "2025-04-09T17:52:20.000",
    "date_modified": "2025-04-09T17:52:22.000",
    "request_status": "Pending",
    "responsible_agency": "Department of Public Works",
    "final_address": "1313 Dauphine St",
    "address_councildis": "C",
    "status": "Pending",
    "rowid": "1182735",
    "final_x": "3683346.63855",
    "final_y": "534767.745734",
    "longitude": "-90.06212553700524",
    "latitude": "29.96436967420662",
    "geocoded_column": {
      "latitude": "29.96436967420662",
      "longitude": "-90.06212553700524"
    }
  },
  {
    "service_request": "2025-1182734",
    "request_type": "Trash/Recycling",
    "request_reason": "Missed Trash Pick-Up",
    "date_created": "2025-04-09T17:48:08.000",
    "date_modified": "2025-04-09T17:48:10.000",
    "request_status": "Pending",
    "responsible_agency": "Department of Sanitation",
    "final_address": "4943 Chrysler St",
    "address_councildis": "E",
    "status": "Assigned to Contractor",
    "contractor": "Waste Pro",
    "rowid": "1182734",
    "final_x": "3715291.82725",
    "final_y": "557760.647131",
    "longitude": "-89.9603762975421",
    "latitude": "30.026578159480156",
    "geocoded_column": {
      "latitude": "30.026578159480156",
      "longitude": "-89.9603762975421"
    }
  },
  {
    "service_request": "2025-1182733",
    "request_type": "Trash/Recycling",
    "request_reason": "Replace Trash Cart",
    "date_created": "2025-04-09T17:46:15.000",
    "date_modified": "2025-04-09T17:46:17.000",
    "request_status": "Pending",
    "responsible_agency": "Department of Sanitation",
    "final_address": "427 Eliza St",
    "address_councildis": "C",
    "status": "Assigned to Contractor",
    "contractor": "Richards Disposal",
    "rowid": "1182733",
    "final_x": "3686856.61878",
    "final_y": "529779.516673",
    "longitude": "-90.05121758206678",
    "latitude": "29.950546223149654",
    "geocoded_column": {
      "latitude": "29.950546223149654",
      "longitude": "-90.05121758206678"
    }
  },
  {
    "service_request": "2025-1182732",
    "request_type": "Trash/Recycling",
    "request_reason": "Replace Trash Cart",
    "date_created": "2025-04-09T17:43:49.000",
    "date_modified": "2025-04-09T17:43:52.000",
    "request_status": "Pending",
    "responsible_agency": "Department of Sanitation",
    "final_address": "425 Eliza St",
    "address_councildis": "C",
    "status": "Assigned to Contractor",
    "contractor": "Richards Disposal",
    "rowid": "1182732",
    "final_x": "3686843.06319",
    "final_y": "529772.109377",
    "longitude": "-90.05126064520708",
    "latitude": "29.950526272671983",
    "geocoded_column": {
      "latitude": "29.950526272671983",
      "longitude": "-90.05126064520708"
    }
  },
  {
    "service_request": "2025-1182731",
    "request_type": "Trash/Recycling",
    "request_reason": "Repair Trash Cart",
    "date_created": "2025-04-09T17:21:28.000",
    "date_modified": "2025-04-09T19:13:41.000",
    "case_close_date": "2025-04-09T14:13:40.000",
    "request_status": "Closed",
    "responsible_agency": "Department of Sanitation",
    "final_address": "OAKMONT DR & EAST POINT CT",
    "address_councildis": "E",
    "status": "Assigned to Contractor",
    "contractor": "Waste Pro",
    "contractor_action": "Additional information required from resident",
    "rowid": "1182731",
    "final_x": "3720439.4",
    "final_y": "563089.08",
    "longitude": "-89.9439065796618",
    "latitude": "30.041058589466296",
    "geocoded_column": {
      "latitude": "30.041058589466296",
      "longitude": "-89.9439065796618"
    }
  },
  {
    "service_request": "2025-1182730",
    "request_type": "Abandoned Vehicles",
    "request_reason": "Abandoned/Junk Vehicles",
    "date_created": "2025-04-09T17:17:14.000",
    "date_modified": "2025-04-09T17:17:16.000",
    "request_status": "Pending",
    "responsible_agency": "Department of Public Works",
    "final_address": "1525 Conery St",
    "address_councildis": "B",
    "status": "Pending",
    "rowid": "1182730",
    "final_x": "3675976.36347",
    "final_y": "522180.595834",
    "longitude": "-90.08583306324628",
    "latitude": "29.929981955706108",
    "geocoded_column": {
      "latitude": "29.929981955706108",
      "longitude": "-90.08583306324628"
    }
  },
  {
    "service_request": "2025-1182729",
    "request_type": "Property Maintenance",
    "request_reason": "Property Maintenance",
    "date_created": "2025-04-09T17:01:12.000",
    "date_modified": "2025-04-09T17:01:15.000",
    "request_status": "Pending",
    "responsible_agency": "Department of Code Enforcement",
    "final_address": "4027 Piedmont Dr",
    "address_councildis": "D",
    "status": "Pending",
    "rowid": "1182729",
    "final_x": "3685281.09359",
    "final_y": "547434.150417",
    "longitude": "-90.05557064622866",
    "latitude": "29.999138667983942",
    "geocoded_column": {
      "latitude": "29.999138667983942",
      "longitude": "-90.05557064622866"
    }
  },
  {
    "service_request": "2025-1182728",
    "request_type": "Trash/Recycling",
    "request_reason": "Request a Large Item Pick Up",
    "date_created": "2025-04-09T16:59:47.000",
    "date_modified": "2025-04-09T16:59:49.000",
    "request_status": "Pending",
    "responsible_agency": "Department of Sanitation",
    "final_address": "6025 Chartres St",
    "address_councildis": "E",
    "status": "Assigned to Contractor",
    "contractor": "Waste Pro",
    "rowid": "1182728",
    "final_x": "3698646.99178",
    "final_y": "531644.308739",
    "longitude": "-90.01392210056378",
    "latitude": "29.95530572522395",
    "geocoded_column": {
      "latitude": "29.95530572522395",
      "longitude": "-90.01392210056378"
    }
  },
  {
    "service_request": "2025-1182727",
    "request_type": "Trash/Recycling",
    "request_reason": "Request a Large Item Pick Up",
    "date_created": "2025-04-09T16:58:45.000",
    "date_modified": "2025-04-09T16:58:47.000",
    "request_status": "Pending",
    "responsible_agency": "Department of Sanitation",
    "final_address": "4634 Redwood St",
    "address_councildis": "E",
    "status": "Assigned to Contractor",
    "contractor": "Waste Pro",
    "rowid": "1182727",
    "final_x": "3712477.71582",
    "final_y": "555505.511001",
    "longitude": "-89.9693533142604",
    "latitude": "30.020469838018094",
    "geocoded_column": {
      "latitude": "30.020469838018094",
      "longitude": "-89.9693533142604"
    }
  },
  {
    "service_request": "2025-1182726",
    "request_type": "Property Maintenance",
    "request_reason": "Property Maintenance",
    "date_created": "2025-04-09T16:57:29.000",
    "date_modified": "2025-04-09T16:57:30.000",
    "request_status": "Pending",
    "responsible_agency": "Department of Code Enforcement",
    "final_address": "4027 Piedmont Dr",
    "address_councildis": "D",
    "status": "Pending",
    "rowid": "1182726",
    "final_x": "3685281.09359",
    "final_y": "547434.150417",
    "longitude": "-90.05557064622866",
    "latitude": "29.999138667983942",
    "geocoded_column": {
      "latitude": "29.999138667983942",
      "longitude": "-90.05557064622866"
    }
  },
  {
    "service_request": "2025-1182725",
    "request_type": "Trash/Recycling",
    "request_reason": "Request a Large Item Pick Up",
    "date_created": "2025-04-09T16:55:57.000",
    "date_modified": "2025-04-09T16:55:59.000",
    "request_status": "Pending",
    "responsible_agency": "Department of Sanitation",
    "final_address": "2711 N Tonti St",
    "address_councildis": "D",
    "status": "Assigned to Contractor",
    "contractor": "IV Waste",
    "rowid": "1182725",
    "final_x": "3688032.63555",
    "final_y": "541028.863371",
    "longitude": "-90.04710562475329",
    "latitude": "29.981441769360366",
    "geocoded_column": {
      "latitude": "29.981441769360366",
      "longitude": "-90.04710562475329"
    }
  },
  {
    "service_request": "2025-1182724",
    "request_type": "Trash/Recycling",
    "request_reason": "MIssed Recycling Pick-Up",
    "date_created": "2025-04-09T16:52:41.000",
    "date_modified": "2025-04-09T17:55:03.000",
    "case_close_date": "2025-04-09T12:55:02.000",
    "request_status": "Closed",
    "responsible_agency": "Department of Sanitation",
    "final_address": "6016 St Charles Ave",
    "address_councildis": "A",
    "status": "Assigned to Contractor",
    "contractor": "IV Waste",
    "contractor_action": "Invalid Pick-Up",
    "rowid": "1182724",
    "final_x": "3665536.5257",
    "final_y": "522450.08089",
    "longitude": "-90.11878100278054",
    "latitude": "29.931031355859783",
    "geocoded_column": {
      "latitude": "29.931031355859783",
      "longitude": "-90.11878100278054"
    }
  },
  {
    "service_request": "2025-1182723",
    "request_type": "Trash/Recycling",
    "request_reason": "Repair Trash Cart",
    "date_created": "2025-04-09T16:49:51.000",
    "date_modified": "2025-04-09T16:49:53.000",
    "request_status": "Pending",
    "responsible_agency": "Department of Sanitation",
    "final_address": "1929 Esplanade Ave",
    "address_councildis": "D",
    "status": "Assigned to Contractor",
    "contractor": "IV Waste",
    "rowid": "1182723",
    "final_x": "3680257.00079",
    "final_y": "537446.59604",
    "longitude": "-90.07178922667175",
    "latitude": "29.971829481547797",
    "geocoded_column": {
      "latitude": "29.971829481547797",
      "longitude": "-90.07178922667175"
    }
  },
  {
    "service_request": "2025-1182722",
    "request_type": "Trash/Recycling",
    "request_reason": "Request a Large Item Pick Up",
    "date_created": "2025-04-09T16:47:14.000",
    "date_modified": "2025-04-09T16:47:16.000",
    "request_status": "Pending",
    "responsible_agency": "Department of Sanitation",
    "final_address": "1547 Harrison Ave",
    "address_councildis": "D",
    "status": "Assigned to Contractor",
    "contractor": "IV Waste",
    "rowid": "1182722",
    "final_x": "3679153.36802",
    "final_y": "547745.395794",
    "longitude": "-90.07491746464362",
    "latitude": "30.000180948320345",
    "geocoded_column": {
      "latitude": "30.000180948320345",
      "longitude": "-90.07491746464362"
    }
  },
  {
    "service_request": "2025-1182721",
    "request_type": "General Services",
    "request_reason": "General Service Request",
    "date_created": "2025-04-09T16:46:28.000",
    "date_modified": "2025-04-09T16:50:01.000",
    "case_close_date": "2025-04-09T11:50:01.000",
    "request_status": "Closed",
    "responsible_agency": "Orleans Parish Communication District",
    "final_address": "1525 Conery St",
    "address_councildis": "B",
    "status": "Question Answered.",
    "rowid": "1182721",
    "final_x": "3675976.36347",
    "final_y": "522180.595834",
    "longitude": "-90.08583306324628",
    "latitude": "29.929981955706108",
    "geocoded_column": {
      "latitude": "29.929981955706108",
      "longitude": "-90.08583306324628"
    }
  },
  {
    "service_request": "2025-1182720",
    "request_type": "Streetlights",
    "request_reason": "Streetlight Outage/Malfunction",
    "date_created": "2025-04-09T16:43:27.000",
    "date_modified": "2025-04-09T16:43:29.000",
    "request_status": "Pending",
    "responsible_agency": "Department of Public Works",
    "final_address": "3600 Dumaine St",
    "address_councildis": "A",
    "status": "Pending",
    "contractor": "Legacy Professional Services",
    "rowid": "1182720",
    "final_x": "3674416.70049",
    "final_y": "539548.40929",
    "longitude": "-90.09016182035289",
    "latitude": "29.977784263152426",
    "geocoded_column": {
      "latitude": "29.977784263152426",
      "longitude": "-90.09016182035289"
    }
  },
  {
    "service_request": "2025-1182719",
    "request_type": "Utility Poles",
    "request_reason": "Wires Sagging/Hanging Low",
    "date_created": "2025-04-09T16:43:17.000",
    "date_modified": "2025-04-09T16:48:45.000",
    "request_status": "Pending",
    "responsible_agency": "Utility Company Collective",
    "final_address": "4510 Coliseum St",
    "address_councildis": "B",
    "status": "Pending",
    "rowid": "1182719",
    "final_x": "3670461.76967",
    "final_y": "519739.218616",
    "longitude": "-90.10332449120754",
    "latitude": "29.923432882435627",
    "geocoded_column": {
      "latitude": "29.923432882435627",
      "longitude": "-90.10332449120754"
    }
  },
  {
    "service_request": "2025-1182718",
    "request_type": "Drainage",
    "request_reason": "Catch Basin Clogged",
    "date_created": "2025-04-09T16:41:18.000",
    "date_modified": "2025-04-09T16:41:20.000",
    "request_status": "Pending",
    "responsible_agency": "Sewerage & Water Board ",
    "final_address": "1210 Carondelet St Unit B",
    "address_councildis": "B",
    "status": "Pending",
    "rowid": "1182718",
    "final_x": "3679320.88501",
    "final_y": "526500.034878",
    "longitude": "-90.0751252389129",
    "latitude": "29.941758441989357",
    "geocoded_column": {
      "latitude": "29.941758441989357",
      "longitude": "-90.0751252389129"
    }
  },
  {
    "service_request": "2025-1182717",
    "request_type": "Property Maintenance",
    "request_reason": "Property Maintenance",
    "date_created": "2025-04-09T16:37:05.000",
    "date_modified": "2025-04-09T16:37:06.000",
    "request_status": "Pending",
    "responsible_agency": "Department of Code Enforcement",
    "final_address": "5105 Dryades St",
    "address_councildis": "B",
    "status": "Pending",
    "rowid": "1182717",
    "final_x": "3668391.75988",
    "final_y": "521867.141178",
    "longitude": "-90.10978703256409",
    "latitude": "29.929344931124977",
    "geocoded_column": {
      "latitude": "29.929344931124977",
      "longitude": "-90.10978703256409"
    }
  },
  {
    "service_request": "2025-1182716",
    "request_type": "Trash/Recycling",
    "request_reason": "Request a Large Item Pick Up",
    "date_created": "2025-04-09T16:33:49.000",
    "date_modified": "2025-04-09T16:34:15.000",
    "request_status": "Pending",
    "responsible_agency": "Department of Sanitation",
    "final_address": "6760 Curran Rd",
    "address_councildis": "E",
    "status": "Assigned to Contractor",
    "contractor": "Waste Pro",
    "rowid": "1182716",
    "final_x": "3698203.63312",
    "final_y": "560035.299357",
    "longitude": "-90.0142900644912",
    "latitude": "30.033384500320523",
    "geocoded_column": {
      "latitude": "30.033384500320523",
      "longitude": "-90.0142900644912"
    }
  },
  {
    "service_request": "2025-1182715",
    "request_type": "Utility Poles",
    "request_reason": "Wires Sagging/Hanging Low",
    "date_created": "2025-04-09T16:32:55.000",
    "date_modified": "2025-04-09T16:33:06.000",
    "request_status": "Pending",
    "responsible_agency": "Utility Company Collective",
    "final_address": "4510 Coliseum St",
    "address_councildis": "B",
    "status": "Pending",
    "rowid": "1182715",
    "final_x": "3670461.76967",
    "final_y": "519739.218616",
    "longitude": "-90.10332449120754",
    "latitude": "29.923432882435627",
    "geocoded_column": {
      "latitude": "29.923432882435627",
      "longitude": "-90.10332449120754"
    }
  },
  {
    "service_request": "2025-1182714",
    "request_type": "Trash/Recycling",
    "request_reason": "Request a Large Item Pick Up",
    "date_created": "2025-04-09T16:31:42.000",
    "date_modified": "2025-04-09T16:31:44.000",
    "request_status": "Pending",
    "responsible_agency": "Department of Sanitation",
    "final_address": "4214 Prytania St",
    "address_councildis": "B",
    "status": "Assigned to Contractor",
    "contractor": "IV Waste",
    "rowid": "1182714",
    "final_x": "3671526.07982",
    "final_y": "520302.329656",
    "longitude": "-90.0999457212544",
    "latitude": "29.924949800343022",
    "geocoded_column": {
      "latitude": "29.924949800343022",
      "longitude": "-90.0999457212544"
    }
  },
  {
    "service_request": "2025-1182713",
    "request_type": "Parks & Parkways",
    "request_reason": "Request Tree Service (Right of Way/Public Property)",
    "date_created": "2025-04-09T16:31:29.000",
    "date_modified": "2025-04-09T16:31:32.000",
    "request_status": "Pending",
    "responsible_agency": "Department of Parks & Parkway",
    "final_address": "7860 Parry St",
    "address_councildis": "E",
    "status": "Pending",
    "rowid": "1182713",
    "final_x": "3713853.02885",
    "final_y": "569087.191526",
    "longitude": "-89.96449513431085",
    "latitude": "30.057768908332594",
    "geocoded_column": {
      "latitude": "30.057768908332594",
      "longitude": "-89.96449513431085"
    }
  },
  {
    "service_request": "2025-1182712",
    "request_type": "Trash/Recycling",
    "request_reason": "Request a Large Item Pick Up",
    "date_created": "2025-04-09T16:30:25.000",
    "date_modified": "2025-04-09T16:30:26.000",
    "request_status": "Pending",
    "responsible_agency": "Department of Sanitation",
    "final_address": "6911 Dorchester St",
    "address_councildis": "E",
    "status": "Assigned to Contractor",
    "contractor": "Waste Pro",
    "rowid": "1182712",
    "final_x": "3698914.27594",
    "final_y": "559609.119069",
    "longitude": "-90.0120599010475",
    "latitude": "30.032190156298725",
    "geocoded_column": {
      "latitude": "30.032190156298725",
      "longitude": "-90.0120599010475"
    }
  },
  {
    "service_request": "2025-1182711",
    "request_type": "Trash/Recycling",
    "request_reason": "Request a Large Item Pick Up",
    "date_created": "2025-04-09T16:29:23.000",
    "date_modified": "2025-04-09T16:29:25.000",
    "request_status": "Pending",
    "responsible_agency": "Department of Sanitation",
    "final_address": "5831 Brighton Pl",
    "address_councildis": "C",
    "status": "Assigned to Contractor",
    "contractor": "Richards Disposal",
    "rowid": "1182711",
    "final_x": "3705194.07966",
    "final_y": "520029.286392",
    "longitude": "-89.99367775578419",
    "latitude": "29.923159602078485",
    "geocoded_column": {
      "latitude": "29.923159602078485",
      "longitude": "-89.99367775578419"
    }
  },
  {
    "service_request": "2025-1182710",
    "request_type": "Utility Poles",
    "request_reason": "Wires Sagging/Hanging Low",
    "date_created": "2025-04-09T16:27:53.000",
    "date_modified": "2025-04-09T16:27:56.000",
    "request_status": "Pending",
    "responsible_agency": "Utility Company Collective",
    "final_address": "1105 Patterson St",
    "address_councildis": "C",
    "status": "Pending",
    "rowid": "1182710",
    "final_x": "3688977.14755",
    "final_y": "531283.541058",
    "longitude": "-90.04446865105247",
    "latitude": "29.954616360161815",
    "geocoded_column": {
      "latitude": "29.954616360161815",
      "longitude": "-90.04446865105247"
    }
  },
  {
    "service_request": "2025-1182709",
    "request_type": "Abandoned Vehicles",
    "request_reason": "Abandoned/Junk Vehicles",
    "date_created": "2025-04-09T16:21:14.000",
    "date_modified": "2025-04-09T16:21:16.000",
    "request_status": "Pending",
    "responsible_agency": "Department of Public Works",
    "final_address": "817 N Roman St",
    "address_councildis": "D",
    "status": "Pending",
    "rowid": "1182709",
    "final_x": "3679479.37423",
    "final_y": "535466.117894",
    "longitude": "-90.07431381766919",
    "latitude": "29.96640736359568",
    "geocoded_column": {
      "latitude": "29.96640736359568",
      "longitude": "-90.07431381766919"
    }
  },
  {
    "service_request": "2025-1182708",
    "request_type": "Trash/Recycling",
    "request_reason": "Request a Large Item Pick Up",
    "date_created": "2025-04-09T16:20:40.000",
    "date_modified": "2025-04-09T16:20:42.000",
    "request_status": "Pending",
    "responsible_agency": "Department of Sanitation",
    "final_address": "3001 Nashville Ave",
    "address_councildis": "A",
    "status": "Assigned to Contractor",
    "contractor": "IV Waste",
    "rowid": "1182708",
    "final_x": "3667747.37677",
    "final_y": "526908.177278",
    "longitude": "-90.11165156704207",
    "latitude": "29.943225068656087",
    "geocoded_column": {
      "latitude": "29.943225068656087",
      "longitude": "-90.11165156704207"
    }
  },
  {
    "service_request": "2025-1182707",
    "request_type": "Trash/Recycling",
    "request_reason": "Missed Trash Pick-Up",
    "date_created": "2025-04-09T16:19:33.000",
    "date_modified": "2025-04-09T17:56:33.000",
    "case_close_date": "2025-04-09T12:56:31.000",
    "request_status": "Closed",
    "responsible_agency": "Department of Sanitation",
    "final_address": "4681 Eastern St",
    "address_councildis": "D",
    "status": "Assigned to Contractor",
    "contractor": "IV Waste",
    "contractor_action": "Invalid Pick-Up",
    "rowid": "1182707",
    "final_x": "3688077.39612",
    "final_y": "550358.62658",
    "longitude": "-90.04663334899809",
    "latitude": "30.007093876453172",
    "geocoded_column": {
      "latitude": "30.007093876453172",
      "longitude": "-90.04663334899809"
    }
  },
  {
    "service_request": "2025-1182706",
    "request_type": "Trash/Recycling",
    "request_reason": "Order Trash Cart",
    "date_created": "2025-04-09T16:15:55.000",
    "date_modified": "2025-04-09T16:15:58.000",
    "request_status": "Pending",
    "responsible_agency": "Department of Sanitation",
    "final_address": "2117 Broadway St",
    "address_councildis": "A",
    "status": "Assigned to Contractor",
    "contractor": "IV Waste",
    "rowid": "1182706",
    "final_x": "3666052.55514",
    "final_y": "529214.847552",
    "longitude": "-90.11692525377937",
    "latitude": "29.949617244626136",
    "geocoded_column": {
      "latitude": "29.949617244626136",
      "longitude": "-90.11692525377937"
    }
  },
  {
    "service_request": "2025-1182705",
    "request_type": "Trash/Recycling",
    "request_reason": "Request a Large Item Pick Up",
    "date_created": "2025-04-09T16:14:21.000",
    "date_modified": "2025-04-09T16:14:23.000",
    "request_status": "Pending",
    "responsible_agency": "Department of Sanitation",
    "final_address": "1310 St Roch Ave",
    "address_councildis": "C",
    "status": "Assigned to Contractor",
    "contractor": "IV Waste",
    "rowid": "1182705",
    "final_x": "3686360.40591",
    "final_y": "537254.325384",
    "longitude": "-90.05252054573282",
    "latitude": "29.971114624003693",
    "geocoded_column": {
      "latitude": "29.971114624003693",
      "longitude": "-90.05252054573282"
    }
  },
  {
    "service_request": "2025-1182704",
    "request_type": "Trash/Recycling",
    "request_reason": "Replace Trash Cart",
    "date_created": "2025-04-09T16:13:31.000",
    "date_modified": "2025-04-09T16:13:33.000",
    "request_status": "Pending",
    "responsible_agency": "Department of Sanitation",
    "final_address": "4506 Canal St",
    "address_councildis": "A",
    "status": "Assigned to Contractor",
    "contractor": "IV Waste",
    "rowid": "1182704",
    "final_x": "3669569.69018",
    "final_y": "539369.641418",
    "longitude": "-90.10547644697304",
    "latitude": "29.97743641860385",
    "geocoded_column": {
      "latitude": "29.97743641860385",
      "longitude": "-90.10547644697304"
    }
  },
  {
    "service_request": "2025-1182703",
    "request_type": "Trash/Recycling",
    "request_reason": "Replace Recycling Cart",
    "date_created": "2025-04-09T16:12:44.000",
    "date_modified": "2025-04-09T16:12:46.000",
    "request_status": "Pending",
    "responsible_agency": "Department of Sanitation",
    "final_address": "554 Abalon Ct",
    "address_councildis": "C",
    "status": "Pending",
    "rowid": "1182703",
    "final_x": "3688965.81084",
    "final_y": "530550.468226",
    "longitude": "-90.04453048349035",
    "latitude": "29.952601013163665",
    "geocoded_column": {
      "latitude": "29.952601013163665",
      "longitude": "-90.04453048349035"
    }
  },
  {
    "service_request": "2025-1182702",
    "request_type": "Trash/Recycling",
    "request_reason": "Request a Large Item Pick Up",
    "date_created": "2025-04-09T16:07:18.000",
    "date_modified": "2025-04-09T16:07:20.000",
    "request_status": "Pending",
    "responsible_agency": "Department of Sanitation",
    "final_address": "1313 Mystery St",
    "address_councildis": "A",
    "status": "Assigned to Contractor",
    "contractor": "IV Waste",
    "rowid": "1182702",
    "final_x": "3676060.1076",
    "final_y": "540468.186891",
    "longitude": "-90.08493971860312",
    "latitude": "29.98026420655702",
    "geocoded_column": {
      "latitude": "29.98026420655702",
      "longitude": "-90.08493971860312"
    }
  },
  {
    "service_request": "2025-1182701",
    "request_type": "Trash/Recycling",
    "request_reason": "Return Trash Cart",
    "date_created": "2025-04-09T16:06:55.000",
    "date_modified": "2025-04-09T16:06:57.000",
    "request_status": "Pending",
    "responsible_agency": "Department of Sanitation",
    "final_address": "5316 S Liberty St",
    "address_councildis": "B",
    "status": "Assigned to Contractor",
    "contractor": "IV Waste",
    "rowid": "1182701",
    "final_x": "3667924.18945",
    "final_y": "523165.961979",
    "longitude": "-90.11121933911954",
    "latitude": "29.93292999448721",
    "geocoded_column": {
      "latitude": "29.93292999448721",
      "longitude": "-90.11121933911954"
    }
  },
  {
    "service_request": "2025-1182700",
    "request_type": "Trash/Recycling",
    "request_reason": "Repair Trash Cart",
    "date_created": "2025-04-09T16:03:52.000",
    "date_modified": "2025-04-09T16:03:54.000",
    "request_status": "Pending",
    "responsible_agency": "Department of Sanitation",
    "final_address": "5937 Annunciation St",
    "address_councildis": "A",
    "status": "Assigned to Contractor",
    "contractor": "IV Waste",
    "rowid": "1182700",
    "final_x": "3664643.13978",
    "final_y": "517874.226422",
    "longitude": "-90.12175405602147",
    "latitude": "29.918475200536463",
    "geocoded_column": {
      "latitude": "29.918475200536463",
      "longitude": "-90.12175405602147"
    }
  },
  {
    "service_request": "2025-1182699",
    "request_type": "Trash/Recycling",
    "request_reason": "Request a Large Item Pick Up",
    "date_created": "2025-04-09T16:02:38.000",
    "date_modified": "2025-04-09T19:50:31.000",
    "case_close_date": "2025-04-09T14:50:29.000",
    "request_status": "Closed",
    "responsible_agency": "Department of Sanitation",
    "final_address": "2212 Monticello St",
    "address_councildis": "E",
    "status": "Invalid Request",
    "contractor": "Waste Pro",
    "contractor_action": "Invalid Request",
    "rowid": "1182699",
    "final_x": "3700562.55965",
    "final_y": "537551.44628",
    "longitude": "-90.0076576790113",
    "latitude": "29.971487446751354",
    "geocoded_column": {
      "latitude": "29.971487446751354",
      "longitude": "-90.0076576790113"
    }
  },
  {
    "service_request": "2025-1182698",
    "request_type": "Trash/Recycling",
    "request_reason": "Request a Large Item Pick Up",
    "date_created": "2025-04-09T15:58:27.000",
    "date_modified": "2025-04-09T15:58:28.000",
    "request_status": "Pending",
    "responsible_agency": "Department of Sanitation",
    "final_address": "1005 Franklin Ave",
    "address_councildis": "C",
    "status": "Assigned to Contractor",
    "contractor": "IV Waste",
    "rowid": "1182698",
    "final_x": "3687063.27849",
    "final_y": "536077.976839",
    "longitude": "-90.0503423824888",
    "latitude": "29.96785845446925",
    "geocoded_column": {
      "latitude": "29.96785845446925",
      "longitude": "-90.0503423824888"
    }
  },
  {
    "service_request": "2025-1182697",
    "request_type": "Trash/Recycling",
    "request_reason": "Request a Large Item Pick Up",
    "date_created": "2025-04-09T15:56:34.000",
    "date_modified": "2025-04-09T15:56:36.000",
    "request_status": "Pending",
    "responsible_agency": "Department of Sanitation",
    "final_address": "4710 Lancelot Dr",
    "address_councildis": "E",
    "status": "Assigned to Contractor",
    "contractor": "Waste Pro",
    "rowid": "1182697",
    "final_x": "3707401.77336",
    "final_y": "555248.221081",
    "longitude": "-89.98540117652723",
    "latitude": "30.01992755388204",
    "geocoded_column": {
      "latitude": "30.01992755388204",
      "longitude": "-89.98540117652723"
    }
  },
  {
    "service_request": "2025-1182696",
    "request_type": "Trash/Recycling",
    "request_reason": "Request a Large Item Pick Up",
    "date_created": "2025-04-09T15:55:47.000",
    "date_modified": "2025-04-09T15:55:50.000",
    "request_status": "Pending",
    "responsible_agency": "Department of Sanitation",
    "final_address": "5000 Law St",
    "address_councildis": "E",
    "status": "Assigned to Contractor",
    "contractor": "Waste Pro",
    "rowid": "1182696",
    "final_x": "3697578.06935",
    "final_y": "539838.037386",
    "longitude": "-90.01700012273224",
    "latitude": "29.9778693533781",
    "geocoded_column": {
      "latitude": "29.9778693533781",
      "longitude": "-90.01700012273224"
    }
  },
  {
    "service_request": "2025-1182695",
    "request_type": "Traffic Signals",
    "request_reason": "Traffic Signal Malfunctioning or Damaged",
    "date_created": "2025-04-09T15:53:23.000",
    "date_modified": "2025-04-09T15:53:25.000",
    "request_status": "Pending",
    "responsible_agency": "Department of Public Works",
    "final_address": "MAGAZINE ST & ST JOSEPH ST",
    "address_councildis": "B",
    "status": "Pending",
    "rowid": "1182695",
    "final_x": "3681047.5",
    "final_y": "527271.48",
    "longitude": "-90.06964710292928",
    "latitude": "29.943827413603504",
    "geocoded_column": {
      "latitude": "29.943827413603504",
      "longitude": "-90.06964710292928"
    }
  },
  {
    "service_request": "2025-1182694",
    "request_type": "Trash/Recycling",
    "request_reason": "Request a Large Item Pick Up",
    "date_created": "2025-04-09T15:51:04.000",
    "date_modified": "2025-04-09T15:51:07.000",
    "request_status": "Pending",
    "responsible_agency": "Department of Sanitation",
    "final_address": "1923 Columbus St",
    "address_councildis": "D",
    "status": "Assigned to Contractor",
    "contractor": "IV Waste",
    "rowid": "1182694",
    "final_x": "3680743.09832",
    "final_y": "537986.921737",
    "longitude": "-90.07023524458833",
    "latitude": "29.973300466117706",
    "geocoded_column": {
      "latitude": "29.973300466117706",
      "longitude": "-90.07023524458833"
    }
  },
  {
    "service_request": "2025-1182693",
    "request_type": "Safety & Permits",
    "request_reason": "Zoning Enforcement",
    "date_created": "2025-04-09T15:50:38.000",
    "date_modified": "2025-04-09T15:50:39.000",
    "request_status": "Pending",
    "responsible_agency": "Safety and Permits",
    "final_address": "7419 Freret St",
    "address_councildis": "A",
    "status": "Pending",
    "rowid": "1182693",
    "final_x": "3663182.85709",
    "final_y": "526369.235582",
    "longitude": "-90.12608090077768",
    "latitude": "29.941876178305225",
    "geocoded_column": {
      "latitude": "29.941876178305225",
      "longitude": "-90.12608090077768"
    }
  },
  {
    "service_request": "2025-1182692",
    "request_type": "Trash/Recycling",
    "request_reason": "Request a Large Item Pick Up",
    "date_created": "2025-04-09T15:49:51.000",
    "date_modified": "2025-04-09T15:49:54.000",
    "request_status": "Pending",
    "responsible_agency": "Department of Sanitation",
    "final_address": "4986 Nottingham Dr",
    "address_councildis": "E",
    "status": "Assigned to Contractor",
    "contractor": "Waste Pro",
    "rowid": "1182692",
    "final_x": "3716189.90616",
    "final_y": "558122.862235",
    "longitude": "-89.95752475701909",
    "latitude": "30.027544487590177",
    "geocoded_column": {
      "latitude": "30.027544487590177",
      "longitude": "-89.95752475701909"
    }
  },
  {
    "service_request": "2025-1182691",
    "request_type": "Trash/Recycling",
    "request_reason": "Request a Large Item Pick Up",
    "date_created": "2025-04-09T15:46:55.000",
    "date_modified": "2025-04-09T15:46:57.000",
    "request_status": "Pending",
    "responsible_agency": "Department of Sanitation",
    "final_address": "4829 Burgundy St",
    "address_councildis": "E",
    "status": "Assigned to Contractor",
    "contractor": "Waste Pro",
    "rowid": "1182691",
    "final_x": "3695090.10134",
    "final_y": "533692.479621",
    "longitude": "-90.02507956265967",
    "latitude": "29.961049612802643",
    "geocoded_column": {
      "latitude": "29.961049612802643",
      "longitude": "-90.02507956265967"
    }
  },
  {
    "service_request": "2025-1182690",
    "request_type": "Street and Traffic Signs",
    "request_reason": "Traffic or Parking Sign Damaged or Missing",
    "date_created": "2025-04-09T15:46:18.000",
    "date_modified": "2025-04-09T15:46:20.000",
    "request_status": "Pending",
    "responsible_agency": "Department of Public Works",
    "final_address": "1314 Napoleon Ave",
    "address_councildis": "B",
    "status": "Pending",
    "rowid": "1182690",
    "final_x": "3670810.86695",
    "final_y": "520187.982072",
    "longitude": "-90.10220729882394",
    "latitude": "29.924656530186503",
    "geocoded_column": {
      "latitude": "29.924656530186503",
      "longitude": "-90.10220729882394"
    }
  },
  {
    "service_request": "2025-1182689",
    "request_type": "Trash/Recycling",
    "request_reason": "Request a Large Item Pick Up",
    "date_created": "2025-04-09T15:43:10.000",
    "date_modified": "2025-04-09T15:43:12.000",
    "request_status": "Pending",
    "responsible_agency": "Department of Sanitation",
    "final_address": "7900 Read Blvd",
    "address_councildis": "E",
    "status": "Assigned to Contractor",
    "contractor": "Waste Pro",
    "rowid": "1182689",
    "final_x": "3707993.62731",
    "final_y": "565308.665954",
    "longitude": "-89.98315656095038",
    "latitude": "30.047570650072476",
    "geocoded_column": {
      "latitude": "30.047570650072476",
      "longitude": "-89.98315656095038"
    }
  },
  {
    "service_request": "2025-1182688",
    "request_type": "Trash/Recycling",
    "request_reason": "Request a Large Item Pick Up",
    "date_created": "2025-04-09T15:41:26.000",
    "date_modified": "2025-04-09T15:41:29.000",
    "request_status": "Pending",
    "responsible_agency": "Department of Sanitation",
    "final_address": "6933 Bunker Hill Rd",
    "address_councildis": "E",
    "status": "Assigned to Contractor",
    "contractor": "Waste Pro",
    "rowid": "1182688",
    "final_x": "3706116.91345",
    "final_y": "560116.077021",
    "longitude": "-89.98928047364721",
    "latitude": "30.033353757686534",
    "geocoded_column": {
      "latitude": "30.033353757686534",
      "longitude": "-89.98928047364721"
    }
  },
  {
    "service_request": "2025-1182687",
    "request_type": "Street and Traffic Signs",
    "request_reason": "New Disabled Parking Sign Request ",
    "date_created": "2025-04-09T15:39:58.000",
    "date_modified": "2025-04-09T15:39:59.000",
    "request_status": "Pending",
    "responsible_agency": "Department of Public Works",
    "final_address": "3137 Royal St",
    "address_councildis": "C",
    "status": "Pending",
    "rowid": "1182687",
    "final_x": "3688924.54697",
    "final_y": "534465.628485",
    "longitude": "-90.04452172787643",
    "latitude": "29.963367624120956",
    "geocoded_column": {
      "latitude": "29.963367624120956",
      "longitude": "-90.04452172787643"
    }
  },
  {
    "service_request": "2025-1182686",
    "request_type": "Roads and Streets",
    "request_reason": "Pothole",
    "date_created": "2025-04-09T15:39:19.000",
    "date_modified": "2025-04-09T15:39:21.000",
    "request_status": "Pending",
    "responsible_agency": "Department of Public Works",
    "final_address": "5400 BLK Grand Bayou Dr",
    "address_councildis": "E",
    "status": "Pending",
    "rowid": "1182686",
    "final_x": "3725555.10889",
    "final_y": "563534.070226",
    "longitude": "-89.92772214029468",
    "latitude": "30.04211057129501",
    "geocoded_column": {
      "latitude": "30.04211057129501",
      "longitude": "-89.92772214029468"
    }
  },
  {
    "service_request": "2025-1182685",
    "request_type": "Streetlights",
    "request_reason": "Streetlight Outage/Malfunction",
    "date_created": "2025-04-09T15:38:10.000",
    "date_modified": "2025-04-09T15:39:09.000",
    "request_status": "Pending",
    "responsible_agency": "Department of Public Works",
    "final_address": "FORSHEY ST & CHERRY ST",
    "address_councildis": "A",
    "status": "Pending",
    "contractor": "Legacy Professional Services",
    "rowid": "1182685",
    "final_x": "3663886.9",
    "final_y": "536767.48",
    "longitude": "-90.12351145400041",
    "latitude": "29.970447556376165",
    "geocoded_column": {
      "latitude": "29.970447556376165",
      "longitude": "-90.12351145400041"
    }
  },
  {
    "service_request": "2025-1182684",
    "request_type": "Trash/Recycling",
    "request_reason": "Order Trash Cart",
    "date_created": "2025-04-09T15:31:53.000",
    "date_modified": "2025-04-09T15:31:54.000",
    "request_status": "Pending",
    "responsible_agency": "Department of Sanitation",
    "final_address": "2625 Louisa St",
    "address_councildis": "D",
    "status": "Assigned to Contractor",
    "contractor": "IV Waste",
    "rowid": "1182684",
    "final_x": "3691059.21059",
    "final_y": "541709.484364",
    "longitude": "-90.0375220293835",
    "latitude": "29.98321947019179",
    "geocoded_column": {
      "latitude": "29.98321947019179",
      "longitude": "-90.0375220293835"
    }
  },
  {
    "service_request": "2025-1182683",
    "request_type": "Abandoned Vehicles",
    "request_reason": "Abandoned/Junk Vehicles",
    "date_created": "2025-04-09T15:31:50.000",
    "date_modified": "2025-04-09T15:33:27.000",
    "request_status": "Pending",
    "responsible_agency": "Department of Public Works",
    "final_address": "ONYX ST & JEWEL ST",
    "address_councildis": "D",
    "status": "Pending",
    "rowid": "1182683",
    "final_x": "3668919.3",
    "final_y": "555966.38",
    "longitude": "-90.10696958524211",
    "latitude": "30.023090841687814",
    "geocoded_column": {
      "latitude": "30.023090841687814",
      "longitude": "-90.10696958524211"
    }
  },
  {
    "service_request": "2025-1182682",
    "request_type": "Trash/Recycling",
    "request_reason": "Order Trash Cart",
    "date_created": "2025-04-09T15:30:58.000",
    "date_modified": "2025-04-09T15:31:01.000",
    "request_status": "Pending",
    "responsible_agency": "Department of Sanitation",
    "final_address": "2627 Louisa Dr",
    "address_councildis": "D",
    "status": "Assigned to Contractor",
    "contractor": "IV Waste",
    "rowid": "1182682",
    "final_x": "3691062.0662",
    "final_y": "541721.915148",
    "longitude": "-90.0375125659031",
    "latitude": "29.983253561599476",
    "geocoded_column": {
      "latitude": "29.983253561599476",
      "longitude": "-90.0375125659031"
    }
  },
  {
    "service_request": "2025-1182681",
    "request_type": "Trash/Recycling",
    "request_reason": "Request a Large Item Pick Up",
    "date_created": "2025-04-09T15:30:38.000",
    "date_modified": "2025-04-09T15:30:40.000",
    "request_status": "Pending",
    "responsible_agency": "Department of Sanitation",
    "final_address": "1002 Delery St",
    "address_councildis": "E",
    "status": "Assigned to Contractor",
    "contractor": "Waste Pro",
    "rowid": "1182681",
    "final_x": "3700239.02404",
    "final_y": "532581.428676",
    "longitude": "-90.00886087456489",
    "latitude": "29.957831969362832",
    "geocoded_column": {
      "latitude": "29.957831969362832",
      "longitude": "-90.00886087456489"
    }
  },
  {
    "service_request": "2025-1182680",
    "request_type": "Property Maintenance",
    "request_reason": "Property Maintenance",
    "date_created": "2025-04-09T15:30:20.000",
    "date_modified": "2025-04-09T15:30:22.000",
    "request_status": "Pending",
    "responsible_agency": "Department of Code Enforcement",
    "final_address": "3311 Sullen Pl",
    "address_councildis": "C",
    "status": "Pending",
    "rowid": "1182680",
    "final_x": "3707673.06993",
    "final_y": "518632.728375",
    "longitude": "-89.98590444201997",
    "latitude": "29.919239628520696",
    "geocoded_column": {
      "latitude": "29.919239628520696",
      "longitude": "-89.98590444201997"
    }
  },
  {
    "service_request": "2025-1182679",
    "request_type": "Trash/Recycling",
    "request_reason": "Repair Recycling Cart",
    "date_created": "2025-04-09T15:28:33.000",
    "date_modified": "2025-04-09T15:28:35.000",
    "request_status": "Pending",
    "responsible_agency": "Department of Sanitation",
    "final_address": "4014 Fairmont Dr",
    "address_councildis": "D",
    "status": "Pending",
    "rowid": "1182679",
    "final_x": "3684747.79983",
    "final_y": "547035.726225",
    "longitude": "-90.0572693465139",
    "latitude": "29.998059485685523",
    "geocoded_column": {
      "latitude": "29.998059485685523",
      "longitude": "-90.0572693465139"
    }
  },
  {
    "service_request": "2025-1182678",
    "request_type": "Trash/Recycling",
    "request_reason": "Repair Trash Cart",
    "date_created": "2025-04-09T15:27:43.000",
    "date_modified": "2025-04-09T15:27:45.000",
    "request_status": "Pending",
    "responsible_agency": "Department of Sanitation",
    "final_address": "360 Broadway St",
    "address_councildis": "A",
    "status": "Assigned to Contractor",
    "contractor": "IV Waste",
    "rowid": "1182678",
    "final_x": "3661773.1753",
    "final_y": "523033.834171",
    "longitude": "-90.13064211435646",
    "latitude": "29.932745642773344",
    "geocoded_column": {
      "latitude": "29.932745642773344",
      "longitude": "-90.13064211435646"
    }
  },
  {
    "service_request": "2025-1182677",
    "request_type": "Trash/Recycling",
    "request_reason": "Repair Trash Cart",
    "date_created": "2025-04-09T15:27:24.000",
    "date_modified": "2025-04-09T15:27:26.000",
    "request_status": "Pending",
    "responsible_agency": "Department of Sanitation",
    "final_address": "7744 Belfast St",
    "address_councildis": "A",
    "status": "Assigned to Contractor",
    "contractor": "IV Waste",
    "rowid": "1182677",
    "final_x": "3666429.67949",
    "final_y": "531542.907075",
    "longitude": "-90.11565638058077",
    "latitude": "29.95600763642238",
    "geocoded_column": {
      "latitude": "29.95600763642238",
      "longitude": "-90.11565638058077"
    }
  },
  {
    "service_request": "2025-1182676",
    "request_type": "EMS",
    "request_reason": "EMS Lost & Found",
    "date_created": "2025-04-09T15:23:54.000",
    "date_modified": "2025-04-09T15:54:42.000",
    "case_close_date": "2025-04-09T10:54:40.000",
    "request_status": "Closed",
    "responsible_agency": "Emergency Medical Services",
    "final_address": "1 Westbank Expressway Contain A",
    "address_councildis": "C",
    "status": "Resolved",
    "rowid": "1182676",
    "final_x": "3691080.63817",
    "final_y": "521489.984185",
    "longitude": "-90.03817620774944",
    "latitude": "29.92762220008369",
    "geocoded_column": {
      "latitude": "29.92762220008369",
      "longitude": "-90.03817620774944"
    }
  },
  {
    "service_request": "2025-1182675",
    "request_type": "Trash/Recycling",
    "request_reason": "Repair Recycling Cart",
    "date_created": "2025-04-09T15:22:46.000",
    "date_modified": "2025-04-09T15:22:49.000",
    "request_status": "Pending",
    "responsible_agency": "Department of Sanitation",
    "final_address": "310 Webster St",
    "address_councildis": "A",
    "status": "Pending",
    "rowid": "1182675",
    "final_x": "3663504.47315",
    "final_y": "517875.59743",
    "longitude": "-90.12534819300896",
    "latitude": "29.918512027261567",
    "geocoded_column": {
      "latitude": "29.918512027261567",
      "longitude": "-90.12534819300896"
    }
  },
  {
    "service_request": "2025-1182674",
    "request_type": "Trash/Recycling",
    "request_reason": "Illegal Dumping",
    "date_created": "2025-04-09T15:20:26.000",
    "date_modified": "2025-04-09T15:20:29.000",
    "request_status": "Pending",
    "responsible_agency": "Department of Sanitation",
    "final_address": "3100 Rue Parc Fontaine",
    "address_councildis": "C",
    "status": "Pending",
    "rowid": "1182674",
    "final_x": "3700160.46519",
    "final_y": "519568.934263",
    "longitude": "-90.00958363372835",
    "latitude": "29.922054650844935",
    "geocoded_column": {
      "latitude": "29.922054650844935",
      "longitude": "-90.00958363372835"
    }
  },
  {
    "service_request": "2025-1182673",
    "request_type": "Mosquito, Termite & Rodent Control",
    "request_reason": "Rodent Complaint (Rats)",
    "date_created": "2025-04-09T15:17:29.000",
    "date_modified": "2025-04-09T15:17:31.000",
    "request_status": "Pending",
    "responsible_agency": "Mosquito, Termite & Rodent Control Board",
    "final_address": "0 BLK French Market Pl",
    "address_councildis": "C",
    "status": "Pending",
    "rowid": "1182673",
    "final_x": "3684510.60863",
    "final_y": "533473.450557",
    "longitude": "-90.05849529192028",
    "latitude": "29.960775249897164",
    "geocoded_column": {
      "latitude": "29.960775249897164",
      "longitude": "-90.05849529192028"
    }
  },
  {
    "service_request": "2025-1182672",
    "request_type": "Roads and Streets",
    "request_reason": "Pothole",
    "date_created": "2025-04-09T15:17:28.000",
    "date_modified": "2025-04-09T15:17:30.000",
    "request_status": "Pending",
    "responsible_agency": "Department of Public Works",
    "final_address": "14718 Curran Rd",
    "address_councildis": "E",
    "status": "Pending",
    "rowid": "1182672",
    "final_x": "3720197.2021",
    "final_y": "573690.898666",
    "longitude": "-89.9442658249985",
    "latitude": "30.070217256340257",
    "geocoded_column": {
      "latitude": "30.070217256340257",
      "longitude": "-89.9442658249985"
    }
  },
  {
    "service_request": "2025-1182671",
    "request_type": "Trash/Recycling",
    "request_reason": "Request a Large Item Pick Up",
    "date_created": "2025-04-09T15:16:22.000",
    "date_modified": "2025-04-09T15:16:25.000",
    "request_status": "Pending",
    "responsible_agency": "Department of Sanitation",
    "final_address": "4439 Cerise Ave",
    "address_councildis": "E",
    "status": "Assigned to Contractor",
    "contractor": "Waste Pro",
    "rowid": "1182671",
    "final_x": "3708843.88126",
    "final_y": "554053.208664",
    "longitude": "-89.98088918614908",
    "latitude": "30.016595008997115",
    "geocoded_column": {
      "latitude": "30.016595008997115",
      "longitude": "-89.98088918614908"
    }
  },
  {
    "service_request": "2025-1182670",
    "request_type": "Streetlights",
    "request_reason": "Streetlight Outage/Malfunction",
    "date_created": "2025-04-09T15:15:18.000",
    "date_modified": "2025-04-09T15:15:19.000",
    "request_status": "Pending",
    "responsible_agency": "Department of Public Works",
    "final_address": "6001 Stars & Stripes Blvd",
    "address_councildis": "E",
    "status": "Pending",
    "contractor": "Legacy Professional Services",
    "rowid": "1182670",
    "final_x": "3694625.24086",
    "final_y": "560898.072542",
    "longitude": "-90.02556699321028",
    "latitude": "30.035869575593114",
    "geocoded_column": {
      "latitude": "30.035869575593114",
      "longitude": "-90.02556699321028"
    }
  },
  {
    "service_request": "2025-1182669",
    "request_type": "Abandoned Vehicles",
    "request_reason": "Abandoned/Junk Vehicles",
    "date_created": "2025-04-09T15:15:01.000",
    "date_modified": "2025-04-09T15:15:02.000",
    "request_status": "Pending",
    "responsible_agency": "Department of Public Works",
    "final_address": "1015 Eleonore St",
    "address_councildis": "A",
    "status": "Pending",
    "rowid": "1182669",
    "final_x": "3665479.93786",
    "final_y": "519825.987512",
    "longitude": "-90.11904743126631",
    "latitude": "29.923817576210073",
    "geocoded_column": {
      "latitude": "29.923817576210073",
      "longitude": "-90.11904743126631"
    }
  },
  {
    "service_request": "2025-1182668",
    "request_type": "Roads and Streets",
    "request_reason": "Sidewalk Damaged or Missing",
    "date_created": "2025-04-09T15:13:49.000",
    "date_modified": "2025-04-09T15:13:51.000",
    "request_status": "Pending",
    "responsible_agency": "Department of Public Works",
    "final_address": "3400 BLK N Bunny Friend St",
    "address_councildis": "D",
    "status": "Pending",
    "rowid": "1182668",
    "final_x": "3691119.35034",
    "final_y": "538882.742888",
    "longitude": "-90.03743305319186",
    "latitude": "29.97544506896787",
    "geocoded_column": {
      "latitude": "29.97544506896787",
      "longitude": "-90.03743305319186"
    }
  },
  {
    "service_request": "2025-1182667",
    "request_type": "Trash/Recycling",
    "request_reason": "Request a Large Item Pick Up",
    "date_created": "2025-04-09T15:12:53.000",
    "date_modified": "2025-04-09T15:12:54.000",
    "request_status": "Pending",
    "responsible_agency": "Department of Sanitation",
    "final_address": "11133 Prentiss Ave",
    "address_councildis": "E",
    "status": "Assigned to Contractor",
    "contractor": "Waste Pro",
    "rowid": "1182667",
    "final_x": "3716487.77343",
    "final_y": "556762.005786",
    "longitude": "-89.95663519662209",
    "latitude": "30.023792837499368",
    "geocoded_column": {
      "latitude": "30.023792837499368",
      "longitude": "-89.95663519662209"
    }
  },
  {
    "service_request": "2025-1182666",
    "request_type": "Property Maintenance",
    "request_reason": "Property Maintenance",
    "date_created": "2025-04-09T15:11:49.000",
    "date_modified": "2025-04-09T15:11:51.000",
    "request_status": "Pending",
    "responsible_agency": "Department of Code Enforcement",
    "final_address": "7531 Chef Menteur Hwy",
    "address_councildis": "E",
    "status": "Pending",
    "rowid": "1182666",
    "final_x": "3703160.62596",
    "final_y": "552749.670998",
    "longitude": "-89.99889368487236",
    "latitude": "30.013193998828054",
    "geocoded_column": {
      "latitude": "30.013193998828054",
      "longitude": "-89.99889368487236"
    }
  },
  {
    "service_request": "2025-1182665",
    "request_type": "Abandoned Vehicles",
    "request_reason": "Abandoned/Junk Vehicles",
    "date_created": "2025-04-09T15:11:24.000",
    "date_modified": "2025-04-09T15:12:27.000",
    "request_status": "Pending",
    "responsible_agency": "Department of Public Works",
    "final_address": "1630 Pace Blvd",
    "address_councildis": "C",
    "status": "Inspected",
    "rowid": "1182665",
    "final_x": "3694430.80106",
    "final_y": "524839.497404",
    "longitude": "-90.02748010178333",
    "latitude": "29.936727670459863",
    "geocoded_column": {
      "latitude": "29.936727670459863",
      "longitude": "-90.02748010178333"
    }
  },
  {
    "service_request": "2025-1182664",
    "request_type": "Trash/Recycling",
    "request_reason": "Request a Large Item Pick Up",
    "date_created": "2025-04-09T15:10:36.000",
    "date_modified": "2025-04-09T15:10:38.000",
    "request_status": "Pending",
    "responsible_agency": "Department of Sanitation",
    "final_address": "2209 Bienville Ave",
    "address_councildis": "B",
    "status": "Assigned to Contractor",
    "contractor": "IV Waste",
    "rowid": "1182664",
    "final_x": "3677365.40578",
    "final_y": "534630.44487",
    "longitude": "-90.0810185451714",
    "latitude": "29.964173245454223",
    "geocoded_column": {
      "latitude": "29.964173245454223",
      "longitude": "-90.0810185451714"
    }
  },
  {
    "service_request": "2025-1182663",
    "request_type": "Trash/Recycling",
    "request_reason": "Illegal Dumping",
    "date_created": "2025-04-09T15:09:43.000",
    "date_modified": "2025-04-09T15:09:45.000",
    "request_status": "Pending",
    "responsible_agency": "Department of Sanitation",
    "final_address": "DOWNMAN EXIT & I 10 E",
    "address_councildis": "E",
    "status": "Pending",
    "rowid": "1182663",
    "final_x": "3695633.7",
    "final_y": "549869.38",
    "longitude": "-90.02277871883778",
    "latitude": "30.005513153258267",
    "geocoded_column": {
      "latitude": "30.005513153258267",
      "longitude": "-90.02277871883778"
    }
  },
  {
    "service_request": "2025-1182662",
    "request_type": "Trash/Recycling",
    "request_reason": "Request a Large Item Pick Up",
    "date_created": "2025-04-09T15:08:32.000",
    "date_modified": "2025-04-09T15:08:34.000",
    "request_status": "Pending",
    "responsible_agency": "Department of Sanitation",
    "final_address": "7831 Bass St",
    "address_councildis": "E",
    "status": "Assigned to Contractor",
    "contractor": "Waste Pro",
    "rowid": "1182662",
    "final_x": "3719917.80178",
    "final_y": "573916.960362",
    "longitude": "-89.94514041660214",
    "latitude": "30.070848140665305",
    "geocoded_column": {
      "latitude": "30.070848140665305",
      "longitude": "-89.94514041660214"
    }
  },
  {
    "service_request": "2025-1182661",
    "request_type": "Trash/Recycling",
    "request_reason": "Request a Large Item Pick Up",
    "date_created": "2025-04-09T15:07:20.000",
    "date_modified": "2025-04-09T15:07:21.000",
    "request_status": "Pending",
    "responsible_agency": "Department of Sanitation",
    "final_address": "4500 Good Dr",
    "address_councildis": "E",
    "status": "Assigned to Contractor",
    "contractor": "Waste Pro",
    "rowid": "1182661",
    "final_x": "3714857.67499",
    "final_y": "555562.305113",
    "longitude": "-89.96183130109267",
    "latitude": "30.020547886535805",
    "geocoded_column": {
      "latitude": "30.020547886535805",
      "longitude": "-89.96183130109267"
    }
  },
  {
    "service_request": "2025-1182660",
    "request_type": "Trash/Recycling",
    "request_reason": "Repair Trash Cart",
    "date_created": "2025-04-09T15:06:58.000",
    "date_modified": "2025-04-09T15:07:00.000",
    "request_status": "Pending",
    "responsible_agency": "Department of Sanitation",
    "final_address": "8820 Bunker Hill Rd",
    "address_councildis": "E",
    "status": "Assigned to Contractor",
    "contractor": "Waste Pro",
    "rowid": "1182660",
    "final_x": "3706306.93707",
    "final_y": "559887.755165",
    "longitude": "-89.98868845112104",
    "latitude": "30.032719832125192",
    "geocoded_column": {
      "latitude": "30.032719832125192",
      "longitude": "-89.98868845112104"
    }
  },
  {
    "service_request": "2025-1182659",
    "request_type": "Abandoned Vehicles",
    "request_reason": "Abandoned/Junk Vehicles",
    "date_created": "2025-04-09T15:06:28.000",
    "date_modified": "2025-04-09T15:06:29.000",
    "request_status": "Pending",
    "responsible_agency": "Department of Public Works",
    "final_address": "2905 Clara St A",
    "address_councildis": "B",
    "status": "Pending",
    "rowid": "1182659",
    "final_x": "3673064.034",
    "final_y": "525791.991933",
    "longitude": "-90.09490359935643",
    "latitude": "29.939998986313554",
    "geocoded_column": {
      "latitude": "29.939998986313554",
      "longitude": "-90.09490359935643"
    }
  },
  {
    "service_request": "2025-1182658",
    "request_type": "Trash/Recycling",
    "request_reason": "Missed Trash Pick-Up",
    "date_created": "2025-04-09T15:06:20.000",
    "date_modified": "2025-04-09T16:02:27.000",
    "case_close_date": "2025-04-09T11:02:25.000",
    "request_status": "Closed",
    "responsible_agency": "Department of Sanitation",
    "final_address": "7709 Green St",
    "address_councildis": "A",
    "status": "Invalid Request",
    "contractor": "IV Waste",
    "contractor_action": "Invalid",
    "rowid": "1182658",
    "final_x": "3664173.07444",
    "final_y": "528780.553728",
    "longitude": "-90.1228741399187",
    "latitude": "29.94847780504801",
    "geocoded_column": {
      "latitude": "29.94847780504801",
      "longitude": "-90.1228741399187"
    }
  },
  {
    "service_request": "2025-1182657",
    "request_type": "Property Maintenance",
    "request_reason": "Property Maintenance",
    "date_created": "2025-04-09T15:06:04.000",
    "date_modified": "2025-04-09T15:06:05.000",
    "request_status": "Pending",
    "responsible_agency": "Department of Code Enforcement",
    "final_address": "2005 Gordon St",
    "address_councildis": "E",
    "status": "Pending",
    "rowid": "1182657",
    "final_x": "3700508.93297",
    "final_y": "536696.296583",
    "longitude": "-90.00785827947728",
    "latitude": "29.969137799775936",
    "geocoded_column": {
      "latitude": "29.969137799775936",
      "longitude": "-90.00785827947728"
    }
  },
  {
    "service_request": "2025-1182656",
    "request_type": "Streetlights",
    "request_reason": "Streetlight Outage/Malfunction",
    "date_created": "2025-04-09T15:05:33.000",
    "date_modified": "2025-04-09T15:05:36.000",
    "request_status": "Pending",
    "responsible_agency": "Department of Public Works",
    "final_address": "1225 Bourbon St",
    "address_councildis": "C",
    "status": "Pending",
    "contractor": "Legacy Professional Services",
    "rowid": "1182656",
    "final_x": "3683449.33967",
    "final_y": "534295.800389",
    "longitude": "-90.0618177537072",
    "latitude": "29.963068853510183",
    "geocoded_column": {
      "latitude": "29.963068853510183",
      "longitude": "-90.0618177537072"
    }
  },
  {
    "service_request": "2025-1182655",
    "request_type": "Roads and Streets",
    "request_reason": "Pothole",
    "date_created": "2025-04-09T15:03:56.000",
    "date_modified": "2025-04-09T15:03:58.000",
    "request_status": "Pending",
    "responsible_agency": "Department of Public Works",
    "final_address": "5128 E Nemours St",
    "address_councildis": "E",
    "status": "Pending",
    "rowid": "1182655",
    "final_x": "3726957.02829",
    "final_y": "562928.787104",
    "longitude": "-89.92331514563416",
    "latitude": "30.04039893322366",
    "geocoded_column": {
      "latitude": "30.04039893322366",
      "longitude": "-89.92331514563416"
    }
  },
  {
    "service_request": "2025-1182654",
    "request_type": "Roads and Streets",
    "request_reason": "Street Subsidence (Sinking)",
    "date_created": "2025-04-09T15:03:03.000",
    "date_modified": "2025-04-09T15:03:05.000",
    "request_status": "Pending",
    "responsible_agency": "Department of Public Works",
    "final_address": "4920 Press Dr",
    "address_councildis": "D",
    "status": "Pending",
    "rowid": "1182654",
    "final_x": "3689400.86812",
    "final_y": "551449.286741",
    "longitude": "-90.04241333260622",
    "latitude": "30.01005186065969",
    "geocoded_column": {
      "latitude": "30.01005186065969",
      "longitude": "-90.04241333260622"
    }
  },
  {
    "service_request": "2025-1182653",
    "request_type": "Property Maintenance",
    "request_reason": "Property Maintenance",
    "date_created": "2025-04-09T15:01:15.000",
    "date_modified": "2025-04-09T15:01:16.000",
    "request_status": "Pending",
    "responsible_agency": "Department of Code Enforcement",
    "final_address": "8320 Plum St",
    "address_councildis": "A",
    "status": "Pending",
    "rowid": "1182653",
    "final_x": "3661513.81184",
    "final_y": "529204.282432",
    "longitude": "-90.13125655156549",
    "latitude": "29.94971989987182",
    "geocoded_column": {
      "latitude": "29.94971989987182",
      "longitude": "-90.13125655156549"
    }
  },
  {
    "service_request": "2025-1182652",
    "request_type": "Trash/Recycling",
    "request_reason": "Request a Large Item Pick Up",
    "date_created": "2025-04-09T15:00:06.000",
    "date_modified": "2025-04-09T15:00:09.000",
    "request_status": "Pending",
    "responsible_agency": "Department of Sanitation",
    "final_address": "1036 Royal St",
    "address_councildis": "C",
    "status": "Assigned to Contractor",
    "contractor": "IV Waste",
    "rowid": "1182652",
    "final_x": "3683426.49698",
    "final_y": "533561.003077",
    "longitude": "-90.06191563510181",
    "latitude": "29.961049110072988",
    "geocoded_column": {
      "latitude": "29.961049110072988",
      "longitude": "-90.06191563510181"
    }
  },
  {
    "service_request": "2025-1182651",
    "request_type": "Trash/Recycling",
    "request_reason": "Request a Large Item Pick Up",
    "date_created": "2025-04-09T15:00:02.000",
    "date_modified": "2025-04-09T15:00:04.000",
    "request_status": "Pending",
    "responsible_agency": "Department of Sanitation",
    "final_address": "8 Marywood Ct",
    "address_councildis": "E",
    "status": "Assigned to Contractor",
    "contractor": "Waste Pro",
    "rowid": "1182651",
    "final_x": "3712724.41317",
    "final_y": "566426.558755",
    "longitude": "-89.96816271135417",
    "latitude": "30.050490277858874",
    "geocoded_column": {
      "latitude": "30.050490277858874",
      "longitude": "-89.96816271135417"
    }
  },
  {
    "service_request": "2025-1182650",
    "request_type": "Trash/Recycling",
    "request_reason": "MIssed Recycling Pick-Up",
    "date_created": "2025-04-09T14:59:20.000",
    "date_modified": "2025-04-09T15:59:03.000",
    "case_close_date": "2025-04-09T10:59:02.000",
    "request_status": "Closed",
    "responsible_agency": "Department of Sanitation",
    "final_address": "1606 Charlton Dr",
    "address_councildis": "D",
    "status": "Assigned to Contractor",
    "contractor": "IV Waste",
    "contractor_action": "Completed",
    "rowid": "1182650",
    "final_x": "3679557.94613",
    "final_y": "550636.902356",
    "longitude": "-90.07353895206228",
    "latitude": "30.008119335195715",
    "geocoded_column": {
      "latitude": "30.008119335195715",
      "longitude": "-90.07353895206228"
    }
  },
  {
    "service_request": "2025-1182649",
    "request_type": "Trash/Recycling",
    "request_reason": "Order Recycling Cart",
    "date_created": "2025-04-09T14:58:40.000",
    "date_modified": "2025-04-09T14:58:42.000",
    "request_status": "Pending",
    "responsible_agency": "Department of Sanitation",
    "final_address": "1606 Charlton Dr",
    "address_councildis": "D",
    "status": "Pending",
    "rowid": "1182649",
    "final_x": "3679557.94613",
    "final_y": "550636.902356",
    "longitude": "-90.07353895206228",
    "latitude": "30.008119335195715",
    "geocoded_column": {
      "latitude": "30.008119335195715",
      "longitude": "-90.07353895206228"
    }
  },
  {
    "service_request": "2025-1182648",
    "request_type": "Trash/Recycling",
    "request_reason": "Request a Large Item Pick Up",
    "date_created": "2025-04-09T14:58:07.000",
    "date_modified": "2025-04-09T14:58:09.000",
    "request_status": "Pending",
    "responsible_agency": "Department of Sanitation",
    "final_address": "4317 Banks St",
    "address_councildis": "A",
    "status": "Assigned to Contractor",
    "contractor": "IV Waste",
    "rowid": "1182648",
    "final_x": "3669530.38087",
    "final_y": "538125.533833",
    "longitude": "-90.1056426991917",
    "latitude": "29.97401670035877",
    "geocoded_column": {
      "latitude": "29.97401670035877",
      "longitude": "-90.1056426991917"
    }
  },
  {
    "service_request": "2025-1182647",
    "request_type": "Abandoned Vehicles",
    "request_reason": "Abandoned/Junk Vehicles",
    "date_created": "2025-04-09T14:57:19.000",
    "date_modified": "2025-04-09T14:57:21.000",
    "request_status": "Pending",
    "responsible_agency": "Department of Public Works",
    "final_address": "520 Short St",
    "address_councildis": "A",
    "status": "Pending",
    "rowid": "1182647",
    "final_x": "3660719.90144",
    "final_y": "526396.917246",
    "longitude": "-90.13385609417911",
    "latitude": "29.9420234171878",
    "geocoded_column": {
      "latitude": "29.9420234171878",
      "longitude": "-90.13385609417911"
    }
  },
  {
    "service_request": "2025-1182646",
    "request_type": "Roads and Streets",
    "request_reason": "Street Subsidence (Sinking)",
    "date_created": "2025-04-09T14:55:37.000",
    "date_modified": "2025-04-09T14:55:40.000",
    "request_status": "Pending",
    "responsible_agency": "Department of Public Works",
    "final_address": "1326 Josephine St",
    "address_councildis": "B",
    "status": "Pending",
    "rowid": "1182646",
    "final_x": "3678541.05019",
    "final_y": "523066.036411",
    "longitude": "-90.07770614436996",
    "latitude": "29.932339601023358",
    "geocoded_column": {
      "latitude": "29.932339601023358",
      "longitude": "-90.07770614436996"
    }
  },
  {
    "service_request": "2025-1182645",
    "request_type": "Trash/Recycling",
    "request_reason": "Request a Large Item Pick Up",
    "date_created": "2025-04-09T14:55:15.000",
    "date_modified": "2025-04-09T14:55:17.000",
    "request_status": "Pending",
    "responsible_agency": "Department of Sanitation",
    "final_address": "5120 Burgundy St",
    "address_councildis": "E",
    "status": "Assigned to Contractor",
    "contractor": "Waste Pro",
    "rowid": "1182645",
    "final_x": "3696190.90128",
    "final_y": "533335.569284",
    "longitude": "-90.0216163597531",
    "latitude": "29.960033631167523",
    "geocoded_column": {
      "latitude": "29.960033631167523",
      "longitude": "-90.0216163597531"
    }
  },
  {
    "service_request": "2025-1182644",
    "request_type": "Abandoned Vehicles",
    "request_reason": "Abandoned/Junk Vehicles",
    "date_created": "2025-04-09T14:51:25.000",
    "date_modified": "2025-04-09T14:51:26.000",
    "request_status": "Pending",
    "responsible_agency": "Department of Public Works",
    "final_address": "4234 Laurel St",
    "address_councildis": "B",
    "status": "Pending",
    "rowid": "1182644",
    "final_x": "3671598.21159",
    "final_y": "518064.075062",
    "longitude": "-90.09979408637292",
    "latitude": "29.918793177953567",
    "geocoded_column": {
      "latitude": "29.918793177953567",
      "longitude": "-90.09979408637292"
    }
  },
  {
    "service_request": "2025-1182643",
    "request_type": "Roads and Streets",
    "request_reason": "Pothole",
    "date_created": "2025-04-09T14:40:25.000",
    "date_modified": "2025-04-09T14:40:27.000",
    "request_status": "Pending",
    "responsible_agency": "Department of Public Works",
    "final_address": "221 S Gayoso St",
    "address_councildis": "B",
    "status": "Pending",
    "rowid": "1182643",
    "final_x": "3673945.85768",
    "final_y": "535426.06375",
    "longitude": "-90.09178997927152",
    "latitude": "29.96646324955906",
    "geocoded_column": {
      "latitude": "29.96646324955906",
      "longitude": "-90.09178997927152"
    }
  },
  {
    "service_request": "2025-1182642",
    "request_type": "Street and Traffic Signs",
    "request_reason": "Street Name Sign Damaged or Missing",
    "date_created": "2025-04-09T14:38:34.000",
    "date_modified": "2025-04-09T14:38:35.000",
    "request_status": "Pending",
    "responsible_agency": "Department of Public Works",
    "final_address": "FORDHAM CT & BENSON CT",
    "address_councildis": "E",
    "status": "Pending",
    "rowid": "1182642",
    "final_x": "3705349.1",
    "final_y": "560510.58",
    "longitude": "-89.99169222820817",
    "latitude": "30.0344632277745",
    "geocoded_column": {
      "latitude": "30.0344632277745",
      "longitude": "-89.99169222820817"
    }
  },
  {
    "service_request": "2025-1182641",
    "request_type": "Abandoned Vehicles",
    "request_reason": "Abandoned/Junk Vehicles",
    "date_created": "2025-04-09T14:37:17.000",
    "date_modified": "2025-04-09T14:37:18.000",
    "request_status": "Pending",
    "responsible_agency": "Department of Public Works",
    "final_address": "2300 St Claude Ave",
    "address_councildis": "C",
    "status": "Pending",
    "rowid": "1182641",
    "final_x": "3685972.92796",
    "final_y": "536198.830855",
    "longitude": "-90.05378147430721",
    "latitude": "29.96822428536932",
    "geocoded_column": {
      "latitude": "29.96822428536932",
      "longitude": "-90.05378147430721"
    }
  },
  {
    "service_request": "2025-1182640",
    "request_type": "Traffic Signals",
    "request_reason": "Traffic Signal Malfunctioning or Damaged",
    "date_created": "2025-04-09T14:34:20.000",
    "date_modified": "2025-04-09T14:34:21.000",
    "request_status": "Pending",
    "responsible_agency": "Department of Public Works",
    "final_address": "900 Magazine St",
    "address_councildis": "B",
    "status": "Pending",
    "rowid": "1182640",
    "final_x": "3681063.32943",
    "final_y": "527205.116863",
    "longitude": "-90.06959943600246",
    "latitude": "29.943644457129093",
    "geocoded_column": {
      "latitude": "29.943644457129093",
      "longitude": "-90.06959943600246"
    }
  },
  {
    "service_request": "2025-1182639",
    "request_type": "Abandoned Vehicles",
    "request_reason": "Abandoned/Junk Vehicles",
    "date_created": "2025-04-09T14:33:22.000",
    "date_modified": "2025-04-09T14:33:24.000",
    "request_status": "Pending",
    "responsible_agency": "Department of Public Works",
    "final_address": "2018 N Rampart St",
    "address_councildis": "C",
    "status": "Pending",
    "rowid": "1182639",
    "final_x": "3684434.38421",
    "final_y": "535846.304135",
    "longitude": "-90.0586526381776",
    "latitude": "29.967302110598776",
    "geocoded_column": {
      "latitude": "29.967302110598776",
      "longitude": "-90.0586526381776"
    }
  },
  {
    "service_request": "2025-1182638",
    "request_type": "Roads and Streets",
    "request_reason": "Debris in Driving Lanes",
    "date_created": "2025-04-09T14:33:16.000",
    "date_modified": "2025-04-09T14:35:28.000",
    "request_status": "Pending",
    "responsible_agency": "Department of Public Works",
    "final_address": "7269 Benson Ct",
    "address_councildis": "E",
    "status": "Pending",
    "rowid": "1182638",
    "final_x": "3704961.73476",
    "final_y": "561372.281886",
    "longitude": "-89.99288449113902",
    "latitude": "30.03684503497401",
    "geocoded_column": {
      "latitude": "30.03684503497401",
      "longitude": "-89.99288449113902"
    }
  },
  {
    "service_request": "2025-1182637",
    "request_type": "Streetlights",
    "request_reason": "Streetlight Outage/Malfunction",
    "date_created": "2025-04-09T14:30:23.000",
    "date_modified": "2025-04-09T14:30:24.000",
    "request_status": "Pending",
    "responsible_agency": "Department of Public Works",
    "final_address": "13216 St Helena Pl",
    "address_councildis": "E",
    "status": "Pending",
    "contractor": "Legacy Professional Services",
    "rowid": "1182637",
    "final_x": "3726705.55117",
    "final_y": "564405.500961",
    "longitude": "-89.9240524854463",
    "latitude": "30.044467789036666",
    "geocoded_column": {
      "latitude": "30.044467789036666",
      "longitude": "-89.9240524854463"
    }
  },
  {
    "service_request": "2025-1182636",
    "request_type": "Trash/Recycling",
    "request_reason": "Request a Large Item Pick Up",
    "date_created": "2025-04-09T14:30:11.000",
    "date_modified": "2025-04-09T14:30:13.000",
    "request_status": "Pending",
    "responsible_agency": "Department of Sanitation",
    "final_address": "913 St Maurice Ave",
    "address_councildis": "E",
    "status": "Assigned to Contractor",
    "contractor": "Waste Pro",
    "rowid": "1182636",
    "final_x": "3699620.58871",
    "final_y": "532504.464516",
    "longitude": "-90.01081650901403",
    "latitude": "29.957639986621686",
    "geocoded_column": {
      "latitude": "29.957639986621686",
      "longitude": "-90.01081650901403"
    }
  },
  {
    "service_request": "2025-1182635",
    "request_type": "Street and Traffic Signs",
    "request_reason": "Street Name Sign Damaged or Missing",
    "date_created": "2025-04-09T14:28:51.000",
    "date_modified": "2025-04-09T14:28:53.000",
    "request_status": "Pending",
    "responsible_agency": "Department of Public Works",
    "final_address": "7101 Benson Ct",
    "address_councildis": "E",
    "status": "Pending",
    "rowid": "1182635",
    "final_x": "3705513.73239",
    "final_y": "560268.594141",
    "longitude": "-89.9911809282197",
    "latitude": "30.03379256032376",
    "geocoded_column": {
      "latitude": "30.03379256032376",
      "longitude": "-89.9911809282197"
    }
  },
  {
    "service_request": "2025-1182634",
    "request_type": "Trash/Recycling",
    "request_reason": "Request a Large Item Pick Up",
    "date_created": "2025-04-09T14:26:59.000",
    "date_modified": "2025-04-09T14:27:01.000",
    "request_status": "Pending",
    "responsible_agency": "Department of Sanitation",
    "final_address": "4958 Feliciana Dr",
    "address_councildis": "D",
    "status": "Assigned to Contractor",
    "contractor": "IV Waste",
    "rowid": "1182634",
    "final_x": "3689910.72931",
    "final_y": "551829.060822",
    "longitude": "-90.04078896462198",
    "latitude": "30.011080295169812",
    "geocoded_column": {
      "latitude": "30.011080295169812",
      "longitude": "-90.04078896462198"
    }
  },
  {
    "service_request": "2025-1182633",
    "request_type": "Trash/Recycling",
    "request_reason": "Request a Large Item Pick Up",
    "date_created": "2025-04-09T14:24:25.000",
    "date_modified": "2025-04-09T14:59:40.000",
    "request_status": "Pending",
    "responsible_agency": "Department of Sanitation",
    "final_address": "7733 Dogwood Dr",
    "address_councildis": "E",
    "status": "Assigned to Contractor",
    "contractor": "Waste Pro",
    "rowid": "1182633",
    "final_x": "3701189.50801",
    "final_y": "561475.559775",
    "longitude": "-90.00480167669622",
    "latitude": "30.037249807357217",
    "geocoded_column": {
      "latitude": "30.037249807357217",
      "longitude": "-90.00480167669622"
    }
  },
  {
    "service_request": "2025-1182632",
    "request_type": "Trash/Recycling",
    "request_reason": "Request a Large Item Pick Up",
    "date_created": "2025-04-09T14:19:47.000",
    "date_modified": "2025-04-09T14:19:49.000",
    "request_status": "Pending",
    "responsible_agency": "Department of Sanitation",
    "final_address": "113 Alden Pl",
    "address_councildis": "D",
    "status": "Assigned to Contractor",
    "contractor": "IV Waste",
    "rowid": "1182632",
    "final_x": "3678598.2212",
    "final_y": "543783.88379",
    "longitude": "-90.07680843906802",
    "latitude": "29.98930493875991",
    "geocoded_column": {
      "latitude": "29.98930493875991",
      "longitude": "-90.07680843906802"
    }
  },
  {
    "service_request": "2025-1182631",
    "request_type": "Roads and Streets",
    "request_reason": "Street Subsidence (Sinking)",
    "date_created": "2025-04-09T14:17:13.000",
    "date_modified": "2025-04-09T14:17:16.000",
    "request_status": "Pending",
    "responsible_agency": "Department of Public Works",
    "final_address": "NAPOLEON AVE & S CLAIBORNE AVE",
    "address_councildis": "B",
    "status": "Pending",
    "rowid": "1182631",
    "final_x": "3670320.5",
    "final_y": "525786.88",
    "longitude": "-90.10356554298984",
    "latitude": "29.940066178929065",
    "geocoded_column": {
      "latitude": "29.940066178929065",
      "longitude": "-90.10356554298984"
    }
  },
  {
    "service_request": "2025-1182630",
    "request_type": "Trash/Recycling",
    "request_reason": "Request a Large Item Pick Up",
    "date_created": "2025-04-09T14:11:38.000",
    "date_modified": "2025-04-09T20:02:40.000",
    "case_close_date": "2025-04-09T15:02:40.000",
    "request_status": "Closed",
    "responsible_agency": "Department of Sanitation",
    "final_address": "7821 Sun St",
    "address_councildis": "E",
    "status": "Invalid Request",
    "contractor": "Waste Pro",
    "contractor_action": "Invalid",
    "rowid": "1182630",
    "final_x": "3720514.40626",
    "final_y": "574381.521899",
    "longitude": "-89.94323658257936",
    "latitude": "30.0721056008035",
    "geocoded_column": {
      "latitude": "30.0721056008035",
      "longitude": "-89.94323658257936"
    }
  },