[
  {
    "service_request": "2021-835108",
    "request_type": "Roads/Drainage",
    "request_reason": "Street Flooding / Drainage",
    "date_created": "2021-10-19T22:40:44.000",
    "date_modified": "2021-10-19T22:40:44.000",
    "request_status": "Pending",
    "responsible_agency": "Department of Public Works",
    "final_address": "1800 Monroe St",
    "address_councildis": "A",
    "status": "Pending",
    "rowid": "835108",
    "final_x": "3661793.51027",
    "final_y": "531612.523587",
    "longitude": "-90.13029357608676",
    "latitude": "29.956333716263774",
    "geocoded_column": {
      "latitude": "29.956333716263774",
      "longitude": "-90.13029357608676"
    }
  },
  {
    "service_request": "2021-835088",
    "request_type": "Traffic Signals/Signs/Striping/Streetlights",
    "request_reason": "Street Light Knocked Down/Leaning",
    "date_created": "2021-10-19T22:11:57.000",
    "date_modified": "2021-10-19T22:11:58.000",
    "request_status": "Pending",
    "responsible_agency": "Department of Public Works",
    "final_address": "4641 Franklin Ave",
    "address_councildis": "D",
    "status": "Pending",
    "contractor": "Royal Engineering",
    "rowid": "835088",
    "final_x": "3686939.22799",
    "final_y": "550015.02914",
    "longitude": "-90.05024128020234",
    "latitude": "30.006184202306017",
    "geocoded_column": {
      "latitude": "30.006184202306017",
      "longitude": "-90.05024128020234"
    }
  },
  {
    "service_request": "2021-835087",
    "request_type": "Property Maintenance",
    "request_reason": "Property Maintenance",
    "date_created": "2021-10-19T22:11:37.000",
    "date_modified": "2021-10-19T22:11:37.000",
    "request_status": "Pending",
    "responsible_agency": "Department of Code Enforcement",
    "final_address": "2253 Lafreniere St",
    "address_councildis": "D",
    "status": "Pending",
    "rowid": "835087",
    "final_x": "3684773.72924",
    "final_y": "545627.570576",
    "longitude": "-90.05723697616114",
    "latitude": "29.994186767890252",
    "geocoded_column": {
      "latitude": "29.994186767890252",
      "longitude": "-90.05723697616114"
    }
  },
  {
    "service_request": "2021-835079",
    "request_type": "Trash/Recycling",
    "request_reason": "Return Recycling Cart",
    "date_created": "2021-10-19T22:01:37.000",
    "date_modified": "2021-10-19T22:01:37.000",
    "request_status": "Pending",
    "responsible_agency": "Department of Sanitation",
    "final_address": "3005 Danneel St",
    "address_councildis": "B",
    "status": "Pending",
    "rowid": "835079",
    "final_x": "3674384.4132",
    "final_y": "523278.785723",
    "longitude": "-90.09082099848675",
    "latitude": "29.93304918287073",
    "geocoded_column": {
      "latitude": "29.93304918287073",
      "longitude": "-90.09082099848675"
    }
  },
  {
    "service_request": "2021-835078",
    "request_type": "Trash/Recycling",
    "request_reason": "Change Size of Trash Cart",
    "date_created": "2021-10-19T22:00:44.000",
    "date_modified": "2021-10-19T22:00:45.000",
    "request_status": "Pending",
    "responsible_agency": "Department of Sanitation",
    "final_address": "3005 Danneel St",
    "address_councildis": "B",
    "status": "Assigned to Contractor",
    "contractor": "Richards Disposal",
    "rowid": "835078",
    "final_x": "3674384.4132",
    "final_y": "523278.785723",
    "longitude": "-90.09082099848675",
    "latitude": "29.93304918287073",
    "geocoded_column": {
      "latitude": "29.93304918287073",
      "longitude": "-90.09082099848675"
    }
  },
  {
    "service_request": "2021-835075",
    "request_type": "Trash/Recycling",
    "request_reason": "Missed Trash Pick-Up",
    "date_created": "2021-10-19T21:55:32.000",
    "date_modified": "2021-10-19T21:55:33.000",
    "request_status": "Pending",
    "responsible_agency": "Department of Sanitation",
    "final_address": "2124 Burgundy St",
    "address_councildis": "C",
    "status": "Assigned to Contractor",
    "contractor": "Metro Disposal",
    "rowid": "835075",
    "final_x": "3684875.93609",
    "final_y": "535540.749062",
    "longitude": "-90.05726895990139",
    "latitude": "29.96644842625025",
    "geocoded_column": {
      "latitude": "29.96644842625025",
      "longitude": "-90.05726895990139"
    }
  },
  {
    "service_request": "2021-835074",
    "request_type": "Trash/Recycling",
    "request_reason": "Replace Trash Cart",
    "date_created": "2021-10-19T21:53:58.000",
    "date_modified": "2021-10-19T21:53:59.000",
    "request_status": "Pending",
    "responsible_agency": "Department of Sanitation",
    "final_address": "2124 Burgundy St",
    "address_councildis": "C",
    "status": "Assigned to Contractor",
    "contractor": "Metro Disposal",
    "rowid": "835074",
    "final_x": "3684875.93609",
    "final_y": "535540.749062",
    "longitude": "-90.05726895990139",
    "latitude": "29.96644842625025",
    "geocoded_column": {
      "latitude": "29.96644842625025",
      "longitude": "-90.05726895990139"
    }
  },
  {
    "service_request": "2021-835070",
    "request_type": "Trash/Recycling",
    "request_reason": "Missed Trash Pick-Up",
    "date_created": "2021-10-19T21:37:50.000",
    "date_modified": "2021-10-19T21:37:50.000",
    "request_status": "Pending",
    "responsible_agency": "Department of Sanitation",
    "final_address": "329 Lowerline St",
    "address_councildis": "A",
    "status": "Assigned to Contractor",
    "contractor": "Richards Disposal",
    "rowid": "835070",
    "final_x": "3661536.41658",
    "final_y": "523552.803195",
    "longitude": "-90.13137236076453",
    "latitude": "29.93417947531416",
    "geocoded_column": {
      "latitude": "29.93417947531416",
      "longitude": "-90.13137236076453"
    }
  },
  {
    "service_request": "2021-835066",
    "request_type": "Property Maintenance",
    "request_reason": "Property Maintenance",
    "date_created": "2021-10-19T21:29:32.000",
    "date_modified": "2021-10-19T21:31:36.000",
    "request_status": "Pending",
    "responsible_agency": "Department of Code Enforcement",
    "final_address": "1338 Music St",
    "address_councildis": "C",
    "status": "Pending",
    "rowid": "835066",
    "final_x": "3686730.15465",
    "final_y": "537505.152456",
    "longitude": "-90.05134396960766",
    "latitude": "29.971792941158743",
    "geocoded_column": {
      "latitude": "29.971792941158743",
      "longitude": "-90.05134396960766"
    }
  },
  {
    "service_request": "2021-835063",
    "request_type": "Abandoned Vehicles",
    "request_reason": "Abandoned/Junk Vehicles",
    "date_created": "2021-10-19T21:15:36.000",
    "date_modified": "2021-10-19T21:15:36.000",
    "request_status": "Pending",
    "responsible_agency": "Department of Public Works",
    "final_address": "2004 Carondelet St",
    "address_councildis": "B",
    "status": "Pending",
    "rowid": "835063",
    "final_x": "3677859.25288",
    "final_y": "524458.210876",
    "longitude": "-90.0798104362874",
    "latitude": "29.936188149829402",
    "geocoded_column": {
      "latitude": "29.936188149829402",
      "longitude": "-90.0798104362874"
    }
  },
  {
    "service_request": "2021-835060",
    "request_type": "Trash/Recycling",
    "request_reason": "Request a Large Item Pick Up",
    "date_created": "2021-10-19T20:48:27.000",
    "date_modified": "2021-10-19T20:48:27.000",
    "request_status": "Pending",
    "responsible_agency": "Department of Sanitation",
    "final_address": "916 N Prieur St",
    "address_councildis": "D",
    "status": "Assigned to Contractor",
    "contractor": "Richards Disposal",
    "rowid": "835060",
    "final_x": "3679475.90107",
    "final_y": "535944.736071",
    "longitude": "-90.07430817815504",
    "latitude": "29.967723504884045",
    "geocoded_column": {
      "latitude": "29.967723504884045",
      "longitude": "-90.07430817815504"
    }
  },
  {
    "service_request": "2021-835059",
    "request_type": "Trash/Recycling",
    "request_reason": "Stop Trash Service",
    "date_created": "2021-10-19T20:44:28.000",
    "date_modified": "2021-10-19T20:44:28.000",
    "request_status": "Pending",
    "responsible_agency": "Department of Sanitation",
    "final_address": "8226 Belfast St",
    "address_councildis": "A",
    "status": "Assigned to Contractor",
    "contractor": "Richards Disposal",
    "rowid": "835059",
    "final_x": "3665142.44103",
    "final_y": "532717.60794",
    "longitude": "-90.11968176569141",
    "latitude": "29.95927523125293",
    "geocoded_column": {
      "latitude": "29.95927523125293",
      "longitude": "-90.11968176569141"
    }
  },
  {
    "service_request": "2021-835057",
    "request_type": "Trash/Recycling",
    "request_reason": "Request a Large Item Pick Up",
    "date_created": "2021-10-19T20:27:34.000",
    "date_modified": "2021-10-19T20:27:34.000",
    "request_status": "Pending",
    "responsible_agency": "Department of Sanitation",
    "final_address": "5900 Alfred St",
    "address_councildis": "D",
    "status": "Assigned to Contractor",
    "contractor": "Metro Disposal",
    "rowid": "835057",
    "final_x": "3677094.92488",
    "final_y": "553967.891032",
    "longitude": "-90.08120539661627",
    "latitude": "30.017352588562474",
    "geocoded_column": {
      "latitude": "30.017352588562474",
      "longitude": "-90.08120539661627"
    }
  },
  {
    "service_request": "2021-835049",
    "request_type": "Trash/Recycling",
    "request_reason": "Order Trash Cart",
    "date_created": "2021-10-19T20:00:04.000",
    "date_modified": "2021-10-19T20:00:05.000",
    "request_status": "Pending",
    "responsible_agency": "Department of Sanitation",
    "final_address": "4021 Danneel St, New Orleans, Louisiana, 70115",
    "address_councildis": "B",
    "status": "Assigned to Contractor",
    "contractor": "Richards Disposal",
    "rowid": "835049",
    "final_x": "3672003.86759",
    "final_y": "522469.089914",
    "longitude": "-90.09836378002711",
    "latitude": "29.930893545522622",
    "geocoded_column": {
      "latitude": "29.930893545522622",
      "longitude": "-90.09836378002711"
    }
  },
  {
    "service_request": "2021-835042",
    "request_type": "Trash/Recycling",
    "request_reason": "Request a Large Item Pick Up",
    "date_created": "2021-10-19T19:47:18.000",
    "date_modified": "2021-10-19T19:47:19.000",
    "request_status": "Pending",
    "responsible_agency": "Department of Sanitation",
    "final_address": "2763 Gladiolus St",
    "address_councildis": "D",
    "status": "Assigned to Contractor",
    "contractor": "Metro Disposal",
    "rowid": "835042",
    "final_x": "3688256.08099",
    "final_y": "547646.964946",
    "longitude": "-90.04616507130218",
    "latitude": "29.999632275884633",
    "geocoded_column": {
      "latitude": "29.999632275884633",
      "longitude": "-90.04616507130218"
    }
  },
  {
    "service_request": "2021-835041",
    "request_type": "Roads/Drainage",
    "request_reason": "Street Subsidence (Sinking)",
    "date_created": "2021-10-19T19:41:15.000",
    "date_modified": "2021-10-19T19:41:15.000",
    "request_status": "Pending",
    "responsible_agency": "Department of Public Works",
    "final_address": "6959 W Laverne St",
    "address_councildis": "D",
    "status": "Pending",
    "rowid": "835041",
    "final_x": "3696011.10998",
    "final_y": "556582.219354",
    "longitude": "-90.02134357836816",
    "latitude": "30.02395906526082",
    "geocoded_column": {
      "latitude": "30.02395906526082",
      "longitude": "-90.02134357836816"
    }
  },
  {
    "service_request": "2021-835040",
    "request_type": "Roads/Drainage",
    "request_reason": "Man hole cover issue",
    "date_created": "2021-10-19T19:39:48.000",
    "date_modified": "2021-10-19T19:39:48.000",
    "request_status": "Pending",
    "responsible_agency": "Department of Public Works",
    "final_address": "OLD GENTILLY RD & LOUISA ST",
    "address_councildis": "D",
    "status": "Pending",
    "rowid": "835040",
    "final_x": "3691562.7",
    "final_y": "549283.78",
    "longitude": "-90.03566081991953",
    "latitude": "30.004030369093243",
    "geocoded_column": {
      "latitude": "30.004030369093243",
      "longitude": "-90.03566081991953"
    }
  },
  {
    "service_request": "2021-835034",
    "request_type": "Trash/Recycling",
    "request_reason": "Missed Trash Pick-Up",
    "date_created": "2021-10-19T19:27:09.000",
    "date_modified": "2021-10-19T19:27:09.000",
    "request_status": "Pending",
    "responsible_agency": "Department of Sanitation",
    "final_address": "2812 N Rampart St",
    "address_councildis": "C",
    "status": "Assigned to Contractor",
    "contractor": "Metro Disposal",
    "rowid": "835034",
    "final_x": "3687708.0726",
    "final_y": "535819.402567",
    "longitude": "-90.04831526561642",
    "latitude": "29.967127597951514",
    "geocoded_column": {
      "latitude": "29.967127597951514",
      "longitude": "-90.04831526561642"
    }
  },
  {
    "service_request": "2021-835033",
    "request_type": "Trash/Recycling",
    "request_reason": "Repair Trash Cart",
    "date_created": "2021-10-19T19:25:45.000",
    "date_modified": "2021-10-19T19:25:46.000",
    "request_status": "Pending",
    "responsible_agency": "Department of Sanitation",
    "final_address": "1370 Camp St",
    "address_councildis": "B",
    "status": "Assigned to Contractor",
    "contractor": "Richards Disposal",
    "rowid": "835033",
    "final_x": "3680049.34741",
    "final_y": "524753.326076",
    "longitude": "-90.0728859971308",
    "latitude": "29.93693355763635",
    "geocoded_column": {
      "latitude": "29.93693355763635",
      "longitude": "-90.0728859971308"
    }
  },
  {
    "service_request": "2021-835025",
    "request_type": "Trash/Recycling",
    "request_reason": "Order Trash Cart",
    "date_created": "2021-10-19T19:07:37.000",
    "date_modified": "2021-10-19T19:07:38.000",
    "request_status": "Pending",
    "responsible_agency": "Department of Sanitation",
    "final_address": "2328 Saint Anthony St, New Orleans, Louisiana, 70119",
    "status": "Assigned to Contractor",
    "rowid": "835025",
    "longitude": "0.0",
    "latitude": "0.0",
    "geocoded_column": {
      "latitude": "0.0",
      "longitude": "0.0"
    }
  },
  {
    "service_request": "2021-835021",
    "request_type": "Property Maintenance",
    "request_reason": "Property Maintenance",
    "date_created": "2021-10-19T19:03:28.000",
    "date_modified": "2021-10-19T19:03:28.000",
    "request_status": "Pending",
    "responsible_agency": "Department of Code Enforcement",
    "final_address": "2608 Fourth St",
    "address_councildis": "B",
    "status": "Pending",
    "rowid": "835021",
    "final_x": "3674108.93307",
    "final_y": "525785.346941",
    "longitude": "-90.09160491892345",
    "latitude": "29.93994962050034",
    "geocoded_column": {
      "latitude": "29.93994962050034",
      "longitude": "-90.09160491892345"
    }
  },
  {
    "service_request": "2021-835020",
    "request_type": "Trash/Recycling",
    "request_reason": "Request a Large Item Pick Up",
    "date_created": "2021-10-19T19:02:35.000",
    "date_modified": "2021-10-19T19:02:36.000",
    "request_status": "Pending",
    "responsible_agency": "Department of Sanitation",
    "final_address": "857 French St",
    "address_councildis": "A",
    "status": "Assigned to Contractor",
    "contractor": "Metro Disposal",
    "rowid": "835020",
    "final_x": "3669719.8281",
    "final_y": "548562.260819",
    "longitude": "-90.10469094556187",
    "latitude": "30.002708542995528",
    "geocoded_column": {
      "latitude": "30.002708542995528",
      "longitude": "-90.10469094556187"
    }
  },
  {
    "service_request": "2021-835017",
    "request_type": "Trash/Recycling",
    "request_reason": "MIssed Recycling Pick-Up",
    "date_created": "2021-10-19T19:01:06.000",
    "date_modified": "2021-10-19T19:01:07.000",
    "request_status": "Pending",
    "responsible_agency": "Department of Sanitation",
    "final_address": "857 French St",
    "address_councildis": "A",
    "status": "Assigned to Contractor",
    "contractor": "Metro Disposal",
    "rowid": "835017",
    "final_x": "3669719.8281",
    "final_y": "548562.260819",
    "longitude": "-90.10469094556187",
    "latitude": "30.002708542995528",
    "geocoded_column": {
      "latitude": "30.002708542995528",
      "longitude": "-90.10469094556187"
    }
  },
  {
    "service_request": "2021-835007",
    "request_type": "Traffic Signals/Signs/Striping/Streetlights",
    "request_reason": "Street Light Outage/Malfunction",
    "date_created": "2021-10-19T18:45:45.000",
    "date_modified": "2021-10-19T18:45:45.000",
    "request_status": "Pending",
    "responsible_agency": "Department of Public Works",
    "final_address": "13420 N Lemans St",
    "address_councildis": "E",
    "status": "Pending",
    "contractor": "Royal Engineering",
    "rowid": "835007",
    "final_x": "3725260.10131",
    "final_y": "562873.59376",
    "longitude": "-89.9286800516496",
    "latitude": "30.040304481478188",
    "geocoded_column": {
      "latitude": "30.040304481478188",
      "longitude": "-89.9286800516496"
    }
  },
  {
    "service_request": "2021-835006",
    "request_type": "Traffic Signals/Signs/Striping/Streetlights",
    "request_reason": "Street Light Outage/Malfunction",
    "date_created": "2021-10-19T18:43:40.000",
    "date_modified": "2021-10-19T18:45:29.000",
    "request_status": "Pending",
    "responsible_agency": "Department of Public Works",
    "final_address": "13420 N Lemans St",
    "address_councildis": "E",
    "status": "Pending",
    "contractor": "Royal Engineering",
    "rowid": "835006",
    "final_x": "3725260.10131",
    "final_y": "562873.59376",
    "longitude": "-89.9286800516496",
    "latitude": "30.040304481478188",
    "geocoded_column": {
      "latitude": "30.040304481478188",
      "longitude": "-89.9286800516496"
    }
  },
  {
    "service_request": "2021-835005",
    "request_type": "Property Maintenance",
    "request_reason": "Property Maintenance",
    "date_created": "2021-10-19T18:43:20.000",
    "date_modified": "2021-10-19T18:43:20.000",
    "request_status": "Pending",
    "responsible_agency": "Department of Code Enforcement",
    "final_address": "2421 Laurel St",
    "address_councildis": "B",
    "status": "Pending",
    "rowid": "835005",
    "final_x": "3678321.74498",
    "final_y": "520813.573817",
    "longitude": "-90.07847634426939",
    "latitude": "29.926152670815465",
    "geocoded_column": {
      "latitude": "29.926152670815465",
      "longitude": "-90.07847634426939"
    }
  },
  {
    "service_request": "2021-835001",
    "request_type": "Traffic Signals/Signs/Striping/Streetlights",
    "request_reason": "Traffic Sign Missing/Damaged",
    "date_created": "2021-10-19T18:28:36.000",
    "date_modified": "2021-10-19T18:34:57.000",
    "request_status": "Pending",
    "responsible_agency": "Department of Public Works",
    "final_address": "New Orleans,LA",
    "address_councildis": "A",
    "rowid": "835001",
    "final_x": "3675906.3",
    "final_y": "538478.28",
    "longitude": "-90.08549395306181",
    "latitude": "29.97479725210186",
    "geocoded_column": {
      "latitude": "29.97479725210186",
      "longitude": "-90.08549395306181"
    }
  },
  {
    "service_request": "2021-834980",
    "request_type": "Traffic Signals/Signs/Striping/Streetlights",
    "request_reason": "Street Light Outage/Malfunction",
    "date_created": "2021-10-19T17:56:19.000",
    "date_modified": "2021-10-19T18:29:12.000",
    "request_status": "Pending",
    "responsible_agency": "Department of Public Works",
    "final_address": "738 S Norman C Francis Prkwy",
    "address_councildis": "B",
    "status": "Pending",
    "contractor": "Royal Engineering",
    "rowid": "834980",
    "final_x": "3671814.05703",
    "final_y": "534642.701638",
    "longitude": "-90.09854885165484",
    "latitude": "29.96437260703235",
    "geocoded_column": {
      "latitude": "29.96437260703235",
      "longitude": "-90.09854885165484"
    }
  },
  {
    "service_request": "2021-834978",
    "request_type": "Trash/Recycling",
    "request_reason": "Repair Trash Cart",
    "date_created": "2021-10-19T17:54:01.000",
    "date_modified": "2021-10-19T18:08:25.000",
    "request_status": "Pending",
    "responsible_agency": "Department of Sanitation",
    "final_address": "2327 Lawrence St",
    "address_councildis": "C",
    "status": "Assigned to Contractor",
    "contractor": "Richards Disposal",
    "rowid": "834978",
    "final_x": "3692544.24688",
    "final_y": "525368.105277",
    "longitude": "-90.03341708361789",
    "latitude": "29.93824014462839",
    "geocoded_column": {
      "latitude": "29.93824014462839",
      "longitude": "-90.03341708361789"
    }
  },
  {
    "service_request": "2021-834969",
    "request_type": "Traffic Signals/Signs/Striping/Streetlights",
    "request_reason": "Street Light Outage/Malfunction",
    "date_created": "2021-10-19T17:41:44.000",
    "date_modified": "2021-10-19T18:31:04.000",
    "request_status": "Pending",
    "responsible_agency": "Department of Public Works",
    "final_address": "431 S Norman C Francis Prkwy",
    "address_councildis": "B",
    "status": "Pending",
    "contractor": "Royal Engineering",
    "rowid": "834969",
    "final_x": "3672184.72436",
    "final_y": "535633.16679",
    "longitude": "-90.09734457220684",
    "latitude": "29.967085065610867",
    "geocoded_column": {
      "latitude": "29.967085065610867",
      "longitude": "-90.09734457220684"
    }
  },
  {
    "service_request": "2021-834966",
    "request_type": "Safety & Permits",
    "request_reason": "Safety & Permits Request (Cyber Incident Back Up)",
    "date_created": "2021-10-19T17:36:14.000",
    "date_modified": "2021-10-19T17:36:14.000",
    "request_status": "Pending",
    "responsible_agency": "Safety and Permits",
    "status": "Pending",
    "rowid": "834966",
    "longitude": "0.0",
    "latitude": "0.0",
    "geocoded_column": {
      "latitude": "0.0",
      "longitude": "0.0"
    }
  },
  {
    "service_request": "2021-834956",
    "request_type": "Trash/Recycling",
    "request_reason": "Missed Trash Pick-Up",
    "date_created": "2021-10-19T17:22:02.000",
    "date_modified": "2021-10-19T18:08:43.000",
    "request_status": "Pending",
    "responsible_agency": "Department of Sanitation",
    "final_address": "5020 Louisa Dr",
    "address_councildis": "D",
    "status": "Assigned to Contractor",
    "contractor": "Metro Disposal",
    "rowid": "834956",
    "final_x": "3690587.9942",
    "final_y": "552334.015126",
    "longitude": "-90.0386311955504",
    "latitude": "30.012447708874227",
    "geocoded_column": {
      "latitude": "30.012447708874227",
      "longitude": "-90.0386311955504"
    }
  },
  {
    "service_request": "2021-834943",
    "request_type": "Traffic Signals/Signs/Striping/Streetlights",
    "request_reason": "Traffic Sign Missing/Damaged",
    "date_created": "2021-10-19T17:03:51.000",
    "date_modified": "2021-10-19T18:08:44.000",
    "request_status": "Pending",
    "responsible_agency": "Department of Public Works",
    "final_address": "5832 S Galvez St",
    "address_councildis": "A",
    "status": "Pending",
    "rowid": "834943",
    "final_x": "3667558.58036",
    "final_y": "527508.418879",
    "longitude": "-90.11222745091416",
    "latitude": "29.944881072536884",
    "geocoded_column": {
      "latitude": "29.944881072536884",
      "longitude": "-90.11222745091416"
    }
  },
  {
    "service_request": "2021-834934",
    "request_type": "Property Maintenance",
    "request_reason": "Property Maintenance",
    "date_created": "2021-10-19T16:58:13.000",
    "date_modified": "2021-10-19T16:58:13.000",
    "request_status": "Pending",
    "responsible_agency": "Department of Code Enforcement",
    "final_address": "1000 Aline St",
    "address_councildis": "B",
    "status": "Pending",
    "rowid": "834934",
    "final_x": "3674498.80936",
    "final_y": "519141.643511",
    "longitude": "-90.09060150805863",
    "latitude": "29.921669965991597",
    "geocoded_column": {
      "latitude": "29.921669965991597",
      "longitude": "-90.09060150805863"
    }
  },
  {
    "service_request": "2021-834932",
    "request_type": "Roads/Drainage",
    "request_reason": "Pothole",
    "date_created": "2021-10-19T16:57:12.000",
    "date_modified": "2021-10-19T16:57:12.000",
    "request_status": "Pending",
    "responsible_agency": "Department of Public Works",
    "final_address": "534 Philip St",
    "address_councildis": "B",
    "status": "Pending",
    "rowid": "834932",
    "final_x": "3679692.71829",
    "final_y": "520293.928696",
    "longitude": "-90.07416660343009",
    "latitude": "29.92468246131041",
    "geocoded_column": {
      "latitude": "29.92468246131041",
      "longitude": "-90.07416660343009"
    }
  },
  {
    "service_request": "2021-834928",
    "request_type": "Trash/Recycling",
    "request_reason": "Missed Trash Pick-Up",
    "date_created": "2021-10-19T16:55:43.000",
    "date_modified": "2021-10-19T18:08:48.000",
    "request_status": "Pending",
    "responsible_agency": "Department of Sanitation",
    "final_address": "New Orleans,LA",
    "address_councildis": "B",
    "status": "Assigned to Contractor",
    "contractor": "Richards Disposal",
    "rowid": "834928",
    "final_x": "3671199.22983",
    "final_y": "518321.873398",
    "longitude": "-90.10104471566467",
    "latitude": "29.919513845949638",
    "geocoded_column": {
      "latitude": "29.919513845949638",
      "longitude": "-90.10104471566467"
    }
  },
  {
    "service_request": "2021-834916",
    "request_type": "Trash/Recycling",
    "request_reason": "Request a Large Item Pick Up",
    "date_created": "2021-10-19T16:50:32.000",
    "date_modified": "2021-10-19T16:50:33.000",
    "request_status": "Pending",
    "responsible_agency": "Department of Sanitation",
    "final_address": "2719 First St",
    "address_councildis": "B",
    "status": "Assigned to Contractor",
    "contractor": "Richards Disposal",
    "rowid": "834916",
    "final_x": "3674712.88776",
    "final_y": "526671.707518",
    "longitude": "-90.08966776914659",
    "latitude": "29.94236881103444",
    "geocoded_column": {
      "latitude": "29.94236881103444",
      "longitude": "-90.08966776914659"
    }
  },
  {
    "service_request": "2021-834914",
    "request_type": "Property Maintenance",
    "request_reason": "Property Maintenance",
    "date_created": "2021-10-19T16:49:31.000",
    "date_modified": "2021-10-19T16:49:31.000",
    "request_status": "Pending",
    "responsible_agency": "Department of Code Enforcement",
    "final_address": "6330 Annunciation St",
    "address_councildis": "A",
    "status": "Pending",
    "rowid": "834914",
    "final_x": "3662686.61658",
    "final_y": "518461.73087",
    "longitude": "-90.12791028226866",
    "latitude": "29.92014739505015",
    "geocoded_column": {
      "latitude": "29.92014739505015",
      "longitude": "-90.12791028226866"
    }
  },
  {
    "service_request": "2021-834910",
    "request_type": "Trash/Recycling",
    "request_reason": "Replace Trash Cart",
    "date_created": "2021-10-19T16:48:23.000",
    "date_modified": "2021-10-19T16:48:24.000",
    "request_status": "Pending",
    "responsible_agency": "Department of Sanitation",
    "final_address": "117 Portage Pl",
    "address_councildis": "D",
    "status": "Assigned to Contractor",
    "contractor": "Metro Disposal",
    "rowid": "834910",
    "final_x": "3678010.47874",
    "final_y": "544554.651983",
    "longitude": "-90.07863828850482",
    "latitude": "29.991441990332582",
    "geocoded_column": {
      "latitude": "29.991441990332582",
      "longitude": "-90.07863828850482"
    }
  },
  {
    "service_request": "2021-834906",
    "request_type": "Abandoned Vehicles",
    "request_reason": "Abandoned/Junk Vehicles",
    "date_created": "2021-10-19T16:47:23.000",
    "date_modified": "2021-10-19T16:47:23.000",
    "request_status": "Pending",
    "responsible_agency": "Department of Public Works",
    "final_address": "2930 Banks St",
    "address_councildis": "B",
    "status": "Pending",
    "rowid": "834906",
    "final_x": "3673634.63054",
    "final_y": "534802.977478",
    "longitude": "-90.09279413538277",
    "latitude": "29.964759240743557",
    "geocoded_column": {
      "latitude": "29.964759240743557",
      "longitude": "-90.09279413538277"
    }
  },
  {
    "service_request": "2021-834894",
    "request_type": "Traffic Signals/Signs/Striping/Streetlights",
    "request_reason": "Street Light Outage/Malfunction",
    "date_created": "2021-10-19T16:41:21.000",
    "date_modified": "2021-10-19T18:08:52.000",
    "request_status": "Pending",
    "responsible_agency": "Department of Public Works",
    "final_address": "6338 Catina St",
    "address_councildis": "A",
    "status": "Pending",
    "contractor": "Royal Engineering",
    "rowid": "834894",
    "final_x": "3666835.5401",
    "final_y": "549793.758164",
    "longitude": "-90.11376142470617",
    "latitude": "30.006179457020018",
    "geocoded_column": {
      "latitude": "30.006179457020018",
      "longitude": "-90.11376142470617"
    }
  },
  {
    "service_request": "2021-834890",
    "request_type": "Roads/Drainage",
    "request_reason": "Debris in Roadway",
    "date_created": "2021-10-19T16:38:45.000",
    "date_modified": "2021-10-19T18:08:55.000",
    "request_status": "Pending",
    "responsible_agency": "Department of Public Works",
    "final_address": "2914 Constance St",
    "address_councildis": "B",
    "status": "Pending",
    "rowid": "834890",
    "final_x": "3676749.96251",
    "final_y": "520135.524728",
    "longitude": "-90.08346135946147",
    "latitude": "29.924335492679205",
    "geocoded_column": {
      "latitude": "29.924335492679205",
      "longitude": "-90.08346135946147"
    }
  },
  {
    "service_request": "2021-834888",
    "request_type": "Trash/Recycling",
    "request_reason": "Illegal Dumping",
    "date_created": "2021-10-19T16:38:39.000",
    "date_modified": "2021-10-19T18:08:57.000",
    "request_status": "Pending",
    "responsible_agency": "Department of Code Enforcement",
    "final_address": "VINCENT RD & HAYNE BLVD",
    "address_councildis": "E",
    "status": "Pending",
    "rowid": "834888",
    "final_x": "3717313.5",
    "final_y": "572894.08",
    "longitude": "-89.9534122226147",
    "latitude": "30.06812214510888",
    "geocoded_column": {
      "latitude": "30.06812214510888",
      "longitude": "-89.9534122226147"
    }
  },
  {
    "service_request": "2021-834885",
    "request_type": "Trash/Recycling",
    "request_reason": "Illegal Dumping",
    "date_created": "2021-10-19T16:35:35.000",
    "date_modified": "2021-10-19T18:08:59.000",
    "request_status": "Pending",
    "responsible_agency": "Department of Code Enforcement",
    "final_address": "13901 Wales St",
    "address_councildis": "E",
    "status": "Pending",
    "rowid": "834885",
    "final_x": "3717830.1301",
    "final_y": "572367.451113",
    "longitude": "-89.95179913980706",
    "latitude": "30.066657019008698",
    "geocoded_column": {
      "latitude": "30.066657019008698",
      "longitude": "-89.95179913980706"
    }
  },
  {
    "service_request": "2021-834883",
    "request_type": "Trash/Recycling",
    "request_reason": "Replace Trash Cart",
    "date_created": "2021-10-19T16:34:55.000",
    "date_modified": "2021-10-19T18:09:02.000",
    "request_status": "Pending",
    "responsible_agency": "Department of Sanitation",
    "final_address": "5140 Forest Park Ln",
    "address_councildis": "C",
    "status": "Assigned to Contractor",
    "contractor": "Richards Disposal",
    "rowid": "834883",
    "final_x": "3703309.93687",
    "final_y": "510829.294127",
    "longitude": "-89.99996316495397",
    "latitude": "29.897923201138614",
    "geocoded_column": {
      "latitude": "29.897923201138614",
      "longitude": "-89.99996316495397"
    }
  },
  {
    "service_request": "2021-834865",
    "request_type": "Abandoned Vehicles",
    "request_reason": "Abandoned/Junk Vehicles",
    "date_created": "2021-10-19T16:25:09.000",
    "date_modified": "2021-10-19T16:44:53.000",
    "request_status": "Pending",
    "responsible_agency": "Department of Public Works",
    "final_address": "DANNEEL ST & FOUCHER ST",
    "address_councildis": "B",
    "status": "Pending",
    "rowid": "834865",
    "final_x": "3673023.5",
    "final_y": "522630.68",
    "longitude": "-90.09513942327187",
    "latitude": "29.931307609305524",
    "geocoded_column": {
      "latitude": "29.931307609305524",
      "longitude": "-90.09513942327187"
    }
  },
  {
    "service_request": "2021-834857",
    "request_type": "Trash/Recycling",
    "request_reason": "Replace Trash Cart",
    "date_created": "2021-10-19T16:16:19.000",
    "date_modified": "2021-10-19T16:44:54.000",
    "request_status": "Pending",
    "responsible_agency": "Department of Sanitation",
    "final_address": "281 Oakmont Dr",
    "address_councildis": "E",
    "status": "Assigned to Contractor",
    "contractor": "Metro Disposal",
    "rowid": "834857",
    "final_x": "3719794.7054",
    "final_y": "562617.901216",
    "longitude": "-89.94596204327054",
    "latitude": "30.039784519433407",
    "geocoded_column": {
      "latitude": "30.039784519433407",
      "longitude": "-89.94596204327054"
    }
  },
  {
    "service_request": "2021-834855",
    "request_type": "Property Maintenance",
    "request_reason": "Property Maintenance",
    "date_created": "2021-10-19T16:15:10.000",
    "date_modified": "2021-10-19T16:46:00.000",
    "request_status": "Pending",
    "responsible_agency": "Department of Code Enforcement",
    "final_address": "7918 Olive St",
    "address_councildis": "B",
    "status": "Pending",
    "rowid": "834855",
    "final_x": "3667656.6297",
    "final_y": "533730.107525",
    "longitude": "-90.1117084482746",
    "latitude": "29.961985808834907",
    "geocoded_column": {
      "latitude": "29.961985808834907",
      "longitude": "-90.1117084482746"
    }
  },
  {
    "service_request": "2021-834854",
    "request_type": "Traffic Signals/Signs/Striping/Streetlights",
    "request_reason": "Request for Traffic Calming due to Speeding",
    "date_created": "2021-10-19T16:13:14.000",
    "date_modified": "2021-10-19T16:13:14.000",
    "request_status": "Pending",
    "responsible_agency": "Department of Public Works",
    "final_address": "5712 S Claiborne Ave",
    "address_councildis": "A",
    "status": "Pending",
    "rowid": "834854",
    "final_x": "3667316.37121",
    "final_y": "526228.279486",
    "longitude": "-90.11303522589489",
    "latitude": "29.94136819756626",
    "geocoded_column": {
      "latitude": "29.94136819756626",
      "longitude": "-90.11303522589489"
    }
  },
  {
    "service_request": "2021-834852",
    "request_type": "Trash/Recycling",
    "request_reason": "Repair Trash Cart",
    "date_created": "2021-10-19T16:10:14.000",
    "date_modified": "2021-10-19T16:10:21.000",
    "request_status": "Pending",
    "responsible_agency": "Department of Sanitation",
    "final_address": "4533 Read Blvd",
    "address_councildis": "E",
    "status": "Assigned to Contractor",
    "contractor": "Metro Disposal",
    "rowid": "834852",
    "final_x": "3712974.14942",
    "final_y": "555263.385497",
    "longitude": "-89.96779386844324",
    "latitude": "30.01978782999306",
    "geocoded_column": {
      "latitude": "30.01978782999306",
      "longitude": "-89.96779386844324"
    }
  },
  {
    "service_request": "2021-834847",
    "request_type": "Trash/Recycling",
    "request_reason": "Repair Trash Cart",
    "date_created": "2021-10-19T15:54:50.000",
    "date_modified": "2021-10-19T16:46:12.000",
    "request_status": "Pending",
    "responsible_agency": "Department of Sanitation",
    "final_address": "3305 Dumaine St",
    "address_councildis": "A",
    "status": "Assigned to Contractor",
    "contractor": "Richards Disposal",
    "rowid": "834847",
    "final_x": "3675096.53665",
    "final_y": "539137.960778",
    "longitude": "-90.08802874902266",
    "latitude": "29.976635371715897",
    "geocoded_column": {
      "latitude": "29.976635371715897",
      "longitude": "-90.08802874902266"
    }
  },
  {
    "service_request": "2021-834846",
    "request_type": "Trash/Recycling",
    "request_reason": "Replace Trash Cart",
    "date_created": "2021-10-19T15:49:58.000",
    "date_modified": "2021-10-19T16:46:13.000",
    "request_status": "Pending",
    "responsible_agency": "Department of Sanitation",
    "final_address": "6312 S Claiborne Ave",
    "address_councildis": "A",
    "status": "Assigned to Contractor",
    "contractor": "Richards Disposal",
    "rowid": "834846",
    "final_x": "3666901.10093",
    "final_y": "527935.765439",
    "longitude": "-90.1142889663585",
    "latitude": "29.94607538705741",
    "geocoded_column": {
      "latitude": "29.94607538705741",
      "longitude": "-90.1142889663585"
    }
  },
  {
    "service_request": "2021-834845",
    "request_type": "Safety & Permits",
    "request_reason": "Licenses & Permits",
    "date_created": "2021-10-19T15:47:54.000",
    "date_modified": "2021-10-19T16:46:16.000",
    "request_status": "Pending",
    "responsible_agency": "Safety and Permits",
    "final_address": "1930 N Rampart",
    "address_councildis": "C",
    "rowid": "834845",
    "final_x": "3684165.16777",
    "final_y": "535839.188231",
    "longitude": "-90.05950307587159",
    "latitude": "29.96729077645893",
    "geocoded_column": {
      "latitude": "29.96729077645893",
      "longitude": "-90.05950307587159"
    }
  },
  {
    "service_request": "2021-834844",
    "request_type": "Traffic Signals/Signs/Striping/Streetlights",
    "request_reason": "Request for Stop Sign",
    "date_created": "2021-10-19T15:42:38.000",
    "date_modified": "2021-10-19T15:42:38.000",
    "request_status": "Pending",
    "responsible_agency": "Department of Public Works",
    "final_address": "3737 Clematis St",
    "address_councildis": "D",
    "status": "Pending",
    "rowid": "834844",
    "final_x": "3685999.82057",
    "final_y": "546811.502353",
    "longitude": "-90.0533221497647",
    "latitude": "29.997404552693684",
    "geocoded_column": {
      "latitude": "29.997404552693684",
      "longitude": "-90.0533221497647"
    }
  },
  {
    "service_request": "2021-834842",
    "request_type": "Trash/Recycling",
    "request_reason": "Missed Trash Pick-Up",
    "date_created": "2021-10-19T15:40:13.000",
    "date_modified": "2021-10-19T16:46:20.000",
    "request_status": "Pending",
    "responsible_agency": "Department of Sanitation",
    "final_address": "1524 N Claiborne Ave",
    "address_councildis": "C",
    "status": "Assigned to Contractor",
    "contractor": "Metro Disposal",
    "rowid": "834842",
    "final_x": "3681948.84501",
    "final_y": "537279.228104",
    "longitude": "-90.06645196588038",
    "latitude": "29.97131795178419",
    "geocoded_column": {
      "latitude": "29.97131795178419",
      "longitude": "-90.06645196588038"
    }
  },
  {
    "service_request": "2021-834840",
    "request_type": "Trash/Recycling",
    "request_reason": "Request a Large Item Pick Up",
    "date_created": "2021-10-19T15:38:13.000",
    "date_modified": "2021-10-19T15:38:15.000",
    "request_status": "Pending",
    "responsible_agency": "Department of Sanitation",
    "final_address": "1015 Kentucky St",
    "address_councildis": "C",
    "status": "Assigned to Contractor",
    "contractor": "Metro Disposal",
    "rowid": "834840",
    "final_x": "3693276.97853",
    "final_y": "534592.891205",
    "longitude": "-90.03077272319854",
    "latitude": "29.963582224531816",
    "geocoded_column": {
      "latitude": "29.963582224531816",
      "longitude": "-90.03077272319854"
    }
  },
  {
    "service_request": "2021-834839",
    "request_type": "Trash/Recycling",
    "request_reason": "Illegal Dumping",
    "date_created": "2021-10-19T15:37:04.000",
    "date_modified": "2021-10-19T16:46:24.000",
    "request_status": "Pending",
    "responsible_agency": "Department of Sanitation",
    "final_address": "17 French Market Pl",
    "address_councildis": "C",
    "status": "Pending",
    "rowid": "834839",
    "final_x": "3684200.95977",
    "final_y": "533223.05722",
    "longitude": "-90.05948189204028",
    "latitude": "29.960096223355233",
    "geocoded_column": {
      "latitude": "29.960096223355233",
      "longitude": "-90.05948189204028"
    }
  },
  {
    "service_request": "2021-834838",
    "request_type": "Safety & Permits",
    "request_reason": "Licenses & Permits",
    "date_created": "2021-10-19T15:35:26.000",
    "date_modified": "2021-10-19T16:46:25.000",
    "request_status": "Pending",
    "responsible_agency": "Safety and Permits",
    "final_address": "17 French Market Pl",
    "address_councildis": "C",
    "status": "Pending",
    "rowid": "834838",
    "final_x": "3684200.95977",
    "final_y": "533223.05722",
    "longitude": "-90.05948189204028",
    "latitude": "29.960096223355233",
    "geocoded_column": {
      "latitude": "29.960096223355233",
      "longitude": "-90.05948189204028"
    }
  },
  {
    "service_request": "2021-834836",
    "request_type": "Trash/Recycling",
    "request_reason": "Replace Trash Cart",
    "date_created": "2021-10-19T15:32:09.000",
    "date_modified": "2021-10-19T16:46:30.000",
    "request_status": "Pending",
    "responsible_agency": "Department of Sanitation",
    "final_address": "1930 N Rampart St",
    "address_councildis": "C",
    "status": "Assigned to Contractor",
    "contractor": "Metro Disposal",
    "rowid": "834836",
    "final_x": "3684165.16777",
    "final_y": "535839.188231",
    "longitude": "-90.05950307587159",
    "latitude": "29.96729077645893",
    "geocoded_column": {
      "latitude": "29.96729077645893",
      "longitude": "-90.05950307587159"
    }
  },
  {
    "service_request": "2021-834835",
    "request_type": "Property Maintenance",
    "request_reason": "Property Maintenance",
    "date_created": "2021-10-19T15:32:06.000",
    "date_modified": "2021-10-19T15:32:06.000",
    "request_status": "Pending",
    "responsible_agency": "Department of Code Enforcement",
    "final_address": "3114 N Dorgenois St",
    "address_councildis": "D",
    "status": "Pending",
    "rowid": "834835",
    "final_x": "3690457.40636",
    "final_y": "541202.259148",
    "longitude": "-90.0394409227208",
    "latitude": "29.98184348165903",
    "geocoded_column": {
      "latitude": "29.98184348165903",
      "longitude": "-90.0394409227208"
    }
  },
  {
    "service_request": "2021-834833",
    "request_type": "Traffic Signals/Signs/Striping/Streetlights",
    "request_reason": "Street Light Outage/Malfunction",
    "date_created": "2021-10-19T15:27:02.000",
    "date_modified": "2021-10-19T15:27:02.000",
    "request_status": "Pending",
    "responsible_agency": "Department of Public Works",
    "final_address": "2641 Roffignac St",
    "address_councildis": "E",
    "status": "Pending",
    "contractor": "Royal Engineering",
    "rowid": "834833",
    "final_x": "3700812.59773",
    "final_y": "539381.030154",
    "longitude": "-90.00680113509955",
    "latitude": "29.976510181926542",
    "geocoded_column": {
      "latitude": "29.976510181926542",
      "longitude": "-90.00680113509955"
    }
  },
  {
    "service_request": "2021-834832",
    "request_type": "Trash/Recycling",
    "request_reason": "Missed Trash Pick-Up",
    "date_created": "2021-10-19T15:24:43.000",
    "date_modified": "2021-10-19T15:24:44.000",
    "request_status": "Pending",
    "responsible_agency": "Department of Sanitation",
    "final_address": "2812 N Rampart St",
    "address_councildis": "C",
    "status": "Assigned to Contractor",
    "contractor": "Metro Disposal",
    "rowid": "834832",
    "final_x": "3687708.0726",
    "final_y": "535819.402567",
    "longitude": "-90.04831526561642",
    "latitude": "29.967127597951514",
    "geocoded_column": {
      "latitude": "29.967127597951514",
      "longitude": "-90.04831526561642"
    }
  },
  {
    "service_request": "2021-834831",
    "request_type": "Trash/Recycling",
    "request_reason": "Replace Trash Cart",
    "date_created": "2021-10-19T15:24:11.000",
    "date_modified": "2021-10-19T16:46:32.000",
    "request_status": "Pending",
    "responsible_agency": "Department of Sanitation",
    "final_address": "1478 Mirabeau Ave",
    "address_councildis": "D",
    "status": "Assigned to Contractor",
    "contractor": "Metro Disposal",
    "rowid": "834831",
    "final_x": "3678350.46453",
    "final_y": "550152.418836",
    "longitude": "-90.07737053409649",
    "latitude": "30.006823626759417",
    "geocoded_column": {
      "latitude": "30.006823626759417",
      "longitude": "-90.07737053409649"
    }
  },
  {
    "service_request": "2021-834830",
    "request_type": "Traffic Signals/Signs/Striping/Streetlights",
    "request_reason": "Street Light Outage/Malfunction",
    "date_created": "2021-10-19T15:23:13.000",
    "date_modified": "2021-10-19T15:23:13.000",
    "request_status": "Pending",
    "responsible_agency": "Department of Public Works",
    "final_address": "2615 Roffignac St",
    "address_councildis": "E",
    "status": "Pending",
    "contractor": "Royal Engineering",
    "rowid": "834830",
    "final_x": "3700732.23204",
    "final_y": "539194.774282",
    "longitude": "-90.00706176157132",
    "latitude": "29.976000604017297",
    "geocoded_column": {
      "latitude": "29.976000604017297",
      "longitude": "-90.00706176157132"
    }
  },
  {
    "service_request": "2021-834829",
    "request_type": "Trash/Recycling",
    "request_reason": "Repair Trash Cart",
    "date_created": "2021-10-19T15:21:43.000",
    "date_modified": "2021-10-19T15:21:43.000",
    "request_status": "Pending",
    "responsible_agency": "Department of Sanitation",
    "final_address": "613 Belleville St",
    "address_councildis": "C",
    "status": "Assigned to Contractor",
    "contractor": "Richards Disposal",
    "rowid": "834829",
    "final_x": "3687795.07247",
    "final_y": "529354.992129",
    "longitude": "-90.04826947093319",
    "latitude": "29.949350019365475",
    "geocoded_column": {
      "latitude": "29.949350019365475",
      "longitude": "-90.04826947093319"
    }
  },
  {
    "service_request": "2021-834828",
    "request_type": "Trash/Recycling",
    "request_reason": "Repair Trash Cart",
    "date_created": "2021-10-19T15:16:02.000",
    "date_modified": "2021-10-19T16:46:34.000",
    "request_status": "Pending",
    "responsible_agency": "Department of Sanitation",
    "final_address": "6338 Catina St",
    "address_councildis": "A",
    "status": "Assigned to Contractor",
    "contractor": "Metro Disposal",
    "rowid": "834828",
    "final_x": "3666835.5401",
    "final_y": "549793.758164",
    "longitude": "-90.11376142470617",
    "latitude": "30.006179457020018",
    "geocoded_column": {
      "latitude": "30.006179457020018",
      "longitude": "-90.11376142470617"
    }
  },
  {
    "service_request": "2021-834826",
    "request_type": "Roads/Drainage",
    "request_reason": "Pothole",
    "date_created": "2021-10-19T15:13:31.000",
    "date_modified": "2021-10-19T16:46:38.000",
    "request_status": "Pending",
    "responsible_agency": "Department of Public Works",
    "final_address": "1601 Patterson St",
    "address_councildis": "C",
    "status": "Pending",
    "rowid": "834826",
    "final_x": "3690376.76675",
    "final_y": "530961.262146",
    "longitude": "-90.04006069736634",
    "latitude": "29.95368684201221",
    "geocoded_column": {
      "latitude": "29.95368684201221",
      "longitude": "-90.04006069736634"
    }
  },
  {
    "service_request": "2021-834825",
    "request_type": "Property Maintenance",
    "request_reason": "Property Maintenance",
    "date_created": "2021-10-19T15:13:28.000",
    "date_modified": "2021-10-19T15:13:28.000",
    "request_status": "Pending",
    "responsible_agency": "Department of Code Enforcement",
    "final_address": "7300 Read Blvd",
    "address_councildis": "E",
    "status": "Pending",
    "rowid": "834825",
    "final_x": "3709079.7619",
    "final_y": "563191.705952",
    "longitude": "-89.97980283887834",
    "latitude": "30.041714622940727",
    "geocoded_column": {
      "latitude": "30.041714622940727",
      "longitude": "-89.97980283887834"
    }
  },
  {
    "service_request": "2021-834824",
    "request_type": "Trash/Recycling",
    "request_reason": "Start Trash Service",
    "date_created": "2021-10-19T15:12:29.000",
    "date_modified": "2021-10-19T16:46:39.000",
    "request_status": "Pending",
    "responsible_agency": "Department of Sanitation",
    "final_address": "1636 Dublin St",
    "address_councildis": "A",
    "status": "Assigned to Contractor",
    "contractor": "Richards Disposal",
    "rowid": "834824",
    "final_x": "3662807.78893",
    "final_y": "529888.740545",
    "longitude": "-90.12714810483516",
    "latitude": "29.95156454956953",
    "geocoded_column": {
      "latitude": "29.95156454956953",
      "longitude": "-90.12714810483516"
    }
  },
  {
    "service_request": "2021-834822",
    "request_type": "Trash/Recycling",
    "request_reason": "Order Trash Cart",
    "date_created": "2021-10-19T15:09:41.000",
    "date_modified": "2021-10-19T16:46:42.000",
    "request_status": "Pending",
    "responsible_agency": "Department of Sanitation",
    "final_address": "4742 Francis Dr",
    "address_councildis": "D",
    "status": "Assigned to Contractor",
    "contractor": "Metro Disposal",
    "rowid": "834822",
    "final_x": "3698168.47568",
    "final_y": "554412.813848",
    "longitude": "-90.01460564949014",
    "latitude": "30.017925927463644",
    "geocoded_column": {
      "latitude": "30.017925927463644",
      "longitude": "-90.01460564949014"
    }
  },
  {
    "service_request": "2021-834821",
    "request_type": "Traffic Signals/Signs/Striping/Streetlights",
    "request_reason": "Traffic Signal Malfunctioning/Damaged",
    "date_created": "2021-10-19T15:08:47.000",
    "date_modified": "2021-10-19T16:46:43.000",
    "request_status": "Pending",
    "responsible_agency": "Department of Public Works",
    "final_address": "LOUISIANA AVE & MAGNOLIA ST",
    "address_councildis": "B",
    "status": "Pending",
    "rowid": "834821",
    "final_x": "3672615.5",
    "final_y": "525147.98",
    "longitude": "-90.09634164098944",
    "latitude": "29.938241485335965",
    "geocoded_column": {
      "latitude": "29.938241485335965",
      "longitude": "-90.09634164098944"
    }
  },
  {
    "service_request": "2021-834820",
    "request_type": "Traffic Signals/Signs/Striping/Streetlights",
    "request_reason": "Traffic Signal Malfunctioning/Damaged",
    "date_created": "2021-10-19T15:08:34.000",
    "date_modified": "2021-10-19T16:46:44.000",
    "request_status": "Pending",
    "responsible_agency": "Department of Public Works",
    "final_address": "2500 Gentilly Blvd",
    "address_councildis": "D",
    "status": "Pending",
    "rowid": "834820",
    "final_x": "3681737.48245",
    "final_y": "545064.885519",
    "longitude": "-90.06684770726106",
    "latitude": "29.99273221053106",
    "geocoded_column": {
      "latitude": "29.99273221053106",
      "longitude": "-90.06684770726106"
    }
  },
  {
    "service_request": "2021-834819",
    "request_type": "Roads/Drainage",
    "request_reason": "Street Subsidence (Sinking)",
    "date_created": "2021-10-19T15:07:49.000",
    "date_modified": "2021-10-19T16:46:46.000",
    "request_status": "Pending",
    "responsible_agency": "Department of Public Works",
    "final_address": "7819 Haney Dr",
    "address_councildis": "E",
    "status": "Pending",
    "rowid": "834819",
    "final_x": "3712259.90437",
    "final_y": "567849.543908",
    "longitude": "-89.96957731626223",
    "latitude": "30.054418116696386",
    "geocoded_column": {
      "latitude": "30.054418116696386",
      "longitude": "-89.96957731626223"
    }
  },
  {
    "service_request": "2021-834816",
    "request_type": "Trash/Recycling",
    "request_reason": "Replace Trash Cart",
    "date_created": "2021-10-19T14:58:59.000",
    "date_modified": "2021-10-19T14:59:00.000",
    "request_status": "Pending",
    "responsible_agency": "Department of Sanitation",
    "final_address": "5368 Annunciation St",
    "address_councildis": "B",
    "status": "Assigned to Contractor",
    "contractor": "Richards Disposal",
    "rowid": "834816",
    "final_x": "3666752.70106",
    "final_y": "517528.99775",
    "longitude": "-90.1151068520593",
    "latitude": "29.917464427162788",
    "geocoded_column": {
      "latitude": "29.917464427162788",
      "longitude": "-90.1151068520593"
    }
  },
  {
    "service_request": "2021-834815",
    "request_type": "Traffic Signals/Signs/Striping/Streetlights",
    "request_reason": "Street Light Outage/Malfunction",
    "date_created": "2021-10-19T14:58:49.000",
    "date_modified": "2021-10-19T16:46:49.000",
    "request_status": "Pending",
    "responsible_agency": "Department of Public Works",
    "final_address": "WASHINGTON AVE & MAGAZINE ST",
    "address_councildis": "B",
    "status": "Pending",
    "contractor": "Royal Engineering",
    "rowid": "834815",
    "final_x": "3677050.9",
    "final_y": "520822.68",
    "longitude": "-90.08248772433362",
    "latitude": "29.92621591740664",
    "geocoded_column": {
      "latitude": "29.92621591740664",
      "longitude": "-90.08248772433362"
    }
  },
  {
    "service_request": "2021-834814",
    "request_type": "Trash/Recycling",
    "request_reason": "Order Recycling Cart",
    "date_created": "2021-10-19T14:54:59.000",
    "date_modified": "2021-10-19T16:33:23.000",
    "request_status": "Pending",
    "responsible_agency": "Department of Sanitation",
    "final_address": "1112 Dauphine St",
    "address_councildis": "C",
    "status": "Pending",
    "rowid": "834814",
    "final_x": "3682985.04309",
    "final_y": "534138.807877",
    "longitude": "-90.06328943971019",
    "latitude": "29.962651336611938",
    "geocoded_column": {
      "latitude": "29.962651336611938",
      "longitude": "-90.06328943971019"
    }
  },
  {
    "service_request": "2021-834813",
    "request_type": "Trash/Recycling",
    "request_reason": "Missed Trash Pick-Up",
    "date_created": "2021-10-19T14:52:55.000",
    "date_modified": "2021-10-19T14:52:55.000",
    "request_status": "Pending",
    "responsible_agency": "Department of Sanitation",
    "final_address": "5701 N Robertson St",
    "address_councildis": "E",
    "status": "Assigned to Contractor",
    "contractor": "Metro Disposal",
    "rowid": "834813",
    "final_x": "3698826.06871",
    "final_y": "535220.807494",
    "longitude": "-90.01322653666388",
    "latitude": "29.96513415348081",
    "geocoded_column": {
      "latitude": "29.96513415348081",
      "longitude": "-90.01322653666388"
    }
  },
  {
    "service_request": "2021-834811",
    "request_type": "Property Maintenance",
    "request_reason": "Property Maintenance",
    "date_created": "2021-10-19T14:45:39.000",
    "date_modified": "2021-10-19T16:33:03.000",
    "request_status": "Pending",
    "responsible_agency": "Department of Code Enforcement",
    "final_address": "3420 Adrian St",
    "address_councildis": "C",
    "status": "Pending",
    "rowid": "834811",
    "final_x": "3710830.7171",
    "final_y": "519010.306871",
    "longitude": "-89.97592333069292",
    "latitude": "29.920175359181354",
    "geocoded_column": {
      "latitude": "29.920175359181354",
      "longitude": "-89.97592333069292"
    }
  },
  {
    "service_request": "2021-834810",
    "request_type": "Trash/Recycling",
    "request_reason": "Replace Trash Cart",
    "date_created": "2021-10-19T14:44:57.000",
    "date_modified": "2021-10-19T16:47:04.000",
    "request_status": "Pending",
    "responsible_agency": "Department of Sanitation",
    "final_address": "7116 Prytania St",
    "address_councildis": "A",
    "status": "Assigned to Contractor",
    "contractor": "Richards Disposal",
    "rowid": "834810",
    "final_x": "3661749.65581",
    "final_y": "522659.703994",
    "longitude": "-90.13072876001397",
    "latitude": "29.931717581144124",
    "geocoded_column": {
      "latitude": "29.931717581144124",
      "longitude": "-90.13072876001397"
    }
  },
  {
    "service_request": "2021-834805",
    "request_type": "Mosquito, Termite & Rodent Control",
    "request_reason": "Non-Rodent Complaint (Mice, Possums, Snakes)",
    "date_created": "2021-10-19T14:35:11.000",
    "date_modified": "2021-10-19T16:47:09.000",
    "request_status": "Pending",
    "responsible_agency": "Mosquito, Termite & Rodent Control Board",
    "final_address": "6739 Bellaire Dr",
    "address_councildis": "A",
    "status": "Pending",
    "rowid": "834805",
    "final_x": "3664666.18874",
    "final_y": "553114.753751",
    "longitude": "-90.12050391308844",
    "latitude": "30.01537434932352",
    "geocoded_column": {
      "latitude": "30.01537434932352",
      "longitude": "-90.12050391308844"
    }
  },
  {
    "service_request": "2021-834803",
    "request_type": "Traffic Signals/Signs/Striping/Streetlights",
    "request_reason": "Street Light Knocked Down/Leaning",
    "date_created": "2021-10-19T14:33:15.000",
    "date_modified": "2021-10-19T16:47:10.000",
    "request_status": "Pending",
    "responsible_agency": "Department of Public Works",
    "final_address": "1500 BLK Painters St",
    "address_councildis": "C",
    "status": "Pending",
    "contractor": "Royal Engineering",
    "rowid": "834803",
    "final_x": "3687427.69925",
    "final_y": "538195.819065",
    "longitude": "-90.04911657428227",
    "latitude": "29.97367055456322",
    "geocoded_column": {
      "latitude": "29.97367055456322",
      "longitude": "-90.04911657428227"
    }
  },
  {
    "service_request": "2021-834801",
    "request_type": "Parks & Parkways",
    "request_reason": "Request Tree Service (Right of Way/Public Property)",
    "date_created": "2021-10-19T14:31:07.000",
    "date_modified": "2021-10-19T16:47:11.000",
    "case_close_date": "2021-10-19T09:40:48.000",
    "request_status": "Closed",
    "responsible_agency": "Department of Parks & Parkway",
    "final_address": "408 Calhoun St",
    "address_councildis": "A",
    "status": "Duplicate Case",
    "rowid": "834801",
    "final_x": "3662885.23431",
    "final_y": "518487.729398",
    "longitude": "-90.12728247426254",
    "latitude": "29.920213136088556",
    "geocoded_column": {
      "latitude": "29.920213136088556",
      "longitude": "-90.12728247426254"
    }
  },
  {
    "service_request": "2021-834800",
    "request_type": "Traffic Signals/Signs/Striping/Streetlights",
    "request_reason": "Traffic Sign Missing/Damaged",
    "date_created": "2021-10-19T14:29:36.000",
    "date_modified": "2021-10-19T16:47:12.000",
    "request_status": "Pending",
    "responsible_agency": "Department of Public Works",
    "final_address": "N CLAIBORNE AVE & PAINTERS ST",
    "address_councildis": "D",
    "status": "Pending",
    "rowid": "834800",
    "final_x": "3687424.4",
    "final_y": "538353.18",
    "longitude": "-90.04912142405344",
    "latitude": "29.974103343531617",
    "geocoded_column": {
      "latitude": "29.974103343531617",
      "longitude": "-90.04912142405344"
    }
  },
  {
    "service_request": "2021-834799",
    "request_type": "Trash/Recycling",
    "request_reason": "Missed Trash Pick-Up",
    "date_created": "2021-10-19T14:29:05.000",
    "date_modified": "2021-10-19T14:29:06.000",
    "request_status": "Pending",
    "responsible_agency": "Department of Sanitation",
    "final_address": "2522 Hudson Pl",
    "address_councildis": "C",
    "status": "Assigned to Contractor",
    "contractor": "Richards Disposal",
    "rowid": "834799",
    "final_x": "3703478.02545",
    "final_y": "521786.115642",
    "longitude": "-89.9990300633913",
    "latitude": "29.928045328649784",
    "geocoded_column": {
      "latitude": "29.928045328649784",
      "longitude": "-89.9990300633913"
    }
  },
  {
    "service_request": "2021-834798",
    "request_type": "Trash/Recycling",
    "request_reason": "Missed Trash Pick-Up",
    "date_created": "2021-10-19T14:29:05.000",
    "date_modified": "2021-10-19T14:29:06.000",
    "request_status": "Pending",
    "responsible_agency": "Department of Sanitation",
    "final_address": "13 Rue Le Ville",
    "address_councildis": "A",
    "status": "Assigned to Contractor",
    "contractor": "Metro Disposal",
    "rowid": "834798",
    "final_x": "3666329.27713",
    "final_y": "554237.278616",
    "longitude": "-90.11521160193526",
    "latitude": "30.018412390615698",
    "geocoded_column": {
      "latitude": "30.018412390615698",
      "longitude": "-90.11521160193526"
    }
  },
  {
    "service_request": "2021-834797",
    "request_type": "COVID-19",
    "request_reason": "COVID-19 Business Non-Compliance",
    "date_created": "2021-10-19T14:25:23.000",
    "date_modified": "2021-10-19T16:47:14.000",
    "request_status": "Pending",
    "responsible_agency": "Safety and Permits",
    "final_address": "8023 S Claiborne Ave",
    "address_councildis": "A",
    "status": "Pending",
    "rowid": "834797",
    "final_x": "3665167.31668",
    "final_y": "531372.720898",
    "longitude": "-90.11964819693193",
    "latitude": "29.95557650640491",
    "geocoded_column": {
      "latitude": "29.95557650640491",
      "longitude": "-90.11964819693193"
    }
  },
  {
    "service_request": "2021-834796",
    "request_type": "Trash/Recycling",
    "request_reason": "Repair Trash Cart",
    "date_created": "2021-10-19T14:20:36.000",
    "date_modified": "2021-10-19T16:47:16.000",
    "request_status": "Pending",
    "responsible_agency": "Department of Sanitation",
    "final_address": "2132 Louisiana Ave",
    "address_councildis": "B",
    "status": "Assigned to Contractor",
    "contractor": "Richards Disposal",
    "rowid": "834796",
    "final_x": "3673307.56302",
    "final_y": "523409.196987",
    "longitude": "-90.0942160928229",
    "latitude": "29.933439835639795",
    "geocoded_column": {
      "latitude": "29.933439835639795",
      "longitude": "-90.0942160928229"
    }
  },
  {
    "service_request": "2021-834795",
    "request_type": "Roads/Drainage",
    "request_reason": "Pothole",
    "date_created": "2021-10-19T14:17:03.000",
    "date_modified": "2021-10-19T14:17:03.000",
    "request_status": "Pending",
    "responsible_agency": "Department of Public Works",
    "final_address": "1636 S Norman C Francis Prkwy",
    "address_councildis": "B",
    "status": "Pending",
    "rowid": "834795",
    "final_x": "3669435.83438",
    "final_y": "531012.853314",
    "longitude": "-90.10618187451185",
    "latitude": "29.954461979206886",
    "geocoded_column": {
      "latitude": "29.954461979206886",
      "longitude": "-90.10618187451185"
    }
  },
  {
    "service_request": "2021-834794",
    "request_type": "Traffic Signals/Signs/Striping/Streetlights",
    "request_reason": "Request for Stop Sign",
    "date_created": "2021-10-19T14:16:40.000",
    "date_modified": "2021-10-19T16:47:17.000",
    "request_status": "Pending",
    "responsible_agency": "Department of Public Works",
    "final_address": "7438 Maple St",
    "address_councildis": "A",
    "status": "Pending",
    "rowid": "834794",
    "final_x": "3662609.61799",
    "final_y": "525836.919165",
    "longitude": "-90.12790842564768",
    "latitude": "29.940429072097896",
    "geocoded_column": {
      "latitude": "29.940429072097896",
      "longitude": "-90.12790842564768"
    }
  },
  {
    "service_request": "2021-834792",
    "request_type": "Parks & Parkways",
    "request_reason": "Request Tree Service (Right of Way/Public Property)",
    "date_created": "2021-10-19T14:13:11.000",
    "date_modified": "2021-10-19T16:47:18.000",
    "request_status": "Pending",
    "responsible_agency": "Department of Parks & Parkway",
    "final_address": "4222 Bienville Ave",
    "address_councildis": "A",
    "status": "Pending",
    "rowid": "834792",
    "final_x": "3670864.35988",
    "final_y": "539426.83201",
    "longitude": "-90.1013854950473",
    "latitude": "29.977555462771146",
    "geocoded_column": {
      "latitude": "29.977555462771146",
      "longitude": "-90.1013854950473"
    }
  },
  {
    "service_request": "2021-834791",
    "request_type": "Traffic Signals/Signs/Striping/Streetlights",
    "request_reason": "Street Light Outage/Malfunction",
    "date_created": "2021-10-19T14:13:08.000",
    "date_modified": "2021-10-19T16:47:19.000",
    "request_status": "Pending",
    "responsible_agency": "Department of Public Works",
    "final_address": "2661 Jonquil St",
    "address_councildis": "D",
    "status": "Pending",
    "contractor": "Royal Engineering",
    "rowid": "834791",
    "final_x": "3687585.80572",
    "final_y": "547307.836305",
    "longitude": "-90.04829450493347",
    "latitude": "29.998720481128263",
    "geocoded_column": {
      "latitude": "29.998720481128263",
      "longitude": "-90.04829450493347"
    }
  },
  {
    "service_request": "2021-834789",
    "request_type": "Trash/Recycling",
    "request_reason": "Replace Trash Cart",
    "date_created": "2021-10-19T14:06:29.000",
    "date_modified": "2021-10-19T16:47:21.000",
    "request_status": "Pending",
    "responsible_agency": "Department of Sanitation",
    "final_address": "2626 Prancer St",
    "address_councildis": "C",
    "status": "Assigned to Contractor",
    "contractor": "Richards Disposal",
    "rowid": "834789",
    "final_x": "3699645.70864",
    "final_y": "521228.872249",
    "longitude": "-90.01114803363241",
    "latitude": "29.926635252533583",
    "geocoded_column": {
      "latitude": "29.926635252533583",
      "longitude": "-90.01114803363241"
    }
  },
  {
    "service_request": "2021-834787",
    "request_type": "Trash/Recycling",
    "request_reason": "Missed Trash Pick-Up",
    "date_created": "2021-10-19T14:05:34.000",
    "date_modified": "2021-10-19T16:47:32.000",
    "request_status": "Pending",
    "responsible_agency": "Department of Sanitation",
    "final_address": "2812 N Rampart St",
    "address_councildis": "C",
    "status": "Assigned to Contractor",
    "contractor": "Metro Disposal",
    "rowid": "834787",
    "final_x": "3687708.0726",
    "final_y": "535819.402567",
    "longitude": "-90.04831526561642",
    "latitude": "29.967127597951514",
    "geocoded_column": {
      "latitude": "29.967127597951514",
      "longitude": "-90.04831526561642"
    }
  },
  {
    "service_request": "2021-834786",
    "request_type": "Abandoned Vehicles",
    "request_reason": "Abandoned/Junk Vehicles",
    "date_created": "2021-10-19T14:04:38.000",
    "date_modified": "2021-10-19T14:04:38.000",
    "request_status": "Pending",
    "responsible_agency": "Department of Public Works",
    "final_address": "2219 Onzaga St",
    "address_councildis": "D",
    "status": "Pending",
    "rowid": "834786",
    "final_x": "3680583.94152",
    "final_y": "539506.831434",
    "longitude": "-90.07068499873998",
    "latitude": "29.97748451487166",
    "geocoded_column": {
      "latitude": "29.97748451487166",
      "longitude": "-90.07068499873998"
    }
  },
  {
    "service_request": "2021-834783",
    "request_type": "Trash/Recycling",
    "request_reason": "Missed Trash Pick-Up",
    "date_created": "2021-10-19T13:59:39.000",
    "date_modified": "2021-10-19T13:59:40.000",
    "request_status": "Pending",
    "responsible_agency": "Department of Sanitation",
    "final_address": "229 Jewel St",
    "address_councildis": "D",
    "status": "Assigned to Contractor",
    "contractor": "Metro Disposal",
    "rowid": "834783",
    "final_x": "3667325.57517",
    "final_y": "555910.969113",
    "longitude": "-90.11200728938621",
    "latitude": "30.022985286345286",
    "geocoded_column": {
      "latitude": "30.022985286345286",
      "longitude": "-90.11200728938621"
    }
  },
  {
    "service_request": "2021-834782",
    "request_type": "Roads/Drainage",
    "request_reason": "Accessibility Ramps, Curbs and Sidewalk Repair",
    "date_created": "2021-10-19T13:59:25.000",
    "date_modified": "2021-10-19T16:47:35.000",
    "request_status": "Pending",
    "responsible_agency": "Department of Public Works",
    "final_address": "10901 Morrison Rd",
    "address_councildis": "E",
    "status": "Pending",
    "rowid": "834782",
    "final_x": "3710752.20824",
    "final_y": "564858.67101",
    "longitude": "-89.97445486473423",
    "latitude": "30.046243680097923",
    "geocoded_column": {
      "latitude": "30.046243680097923",
      "longitude": "-89.97445486473423"
    }
  },
  {
    "service_request": "2021-834779",
    "request_type": "Traffic Signals/Signs/Striping/Streetlights",
    "request_reason": "Street Light Outage/Malfunction",
    "date_created": "2021-10-19T13:52:01.000",
    "date_modified": "2021-10-19T13:52:01.000",
    "request_status": "Pending",
    "responsible_agency": "Department of Public Works",
    "final_address": "3316 Dryades St",
    "address_councildis": "B",
    "status": "Pending",
    "contractor": "Royal Engineering",
    "rowid": "834779",
    "final_x": "3674001.60635",
    "final_y": "522612.055994",
    "longitude": "-90.09205229611209",
    "latitude": "29.931227300668",
    "geocoded_column": {
      "latitude": "29.931227300668",
      "longitude": "-90.09205229611209"
    }
  },
  {
    "service_request": "2021-834778",
    "request_type": "Trash/Recycling",
    "request_reason": "Request a Large Item Pick Up",
    "date_created": "2021-10-19T13:51:24.000",
    "date_modified": "2021-10-19T16:47:40.000",
    "request_status": "Pending",
    "responsible_agency": "Department of Sanitation",
    "final_address": "1816 Lowerline St",
    "address_councildis": "A",
    "status": "Assigned to Contractor",
    "contractor": "Richards Disposal",
    "rowid": "834778",
    "final_x": "3664916.4345",
    "final_y": "528749.574016",
    "longitude": "-90.12052806694724",
    "latitude": "29.948371007267546",
    "geocoded_column": {
      "latitude": "29.948371007267546",
      "longitude": "-90.12052806694724"
    }
  },
  {
    "service_request": "2021-834777",
    "request_type": "Property Maintenance",
    "request_reason": "Property Maintenance",
    "date_created": "2021-10-19T13:50:54.000",
    "date_modified": "2021-10-19T13:50:54.000",
    "request_status": "Pending",
    "responsible_agency": "Department of Code Enforcement",
    "final_address": "8454 Morrison Rd",
    "address_councildis": "E",
    "status": "Pending",
    "rowid": "834777",
    "final_x": "3704153.11594",
    "final_y": "560889.20963",
    "longitude": "-89.99545770593257",
    "latitude": "30.035542761128102",
    "geocoded_column": {
      "latitude": "30.035542761128102",
      "longitude": "-89.99545770593257"
    }
  },
  {
    "service_request": "2021-834776",
    "request_type": "Abandoned Vehicles",
    "request_reason": "Abandoned/Junk Vehicles",
    "date_created": "2021-10-19T13:50:34.000",
    "date_modified": "2021-10-19T13:50:34.000",
    "request_status": "Pending",
    "responsible_agency": "Department of Public Works",
    "final_address": "901 Race St",
    "address_councildis": "B",
    "status": "Pending",
    "rowid": "834776",
    "final_x": "3680958.04463",
    "final_y": "523700.050491",
    "longitude": "-90.07005385420247",
    "latitude": "29.93400988197389",
    "geocoded_column": {
      "latitude": "29.93400988197389",
      "longitude": "-90.07005385420247"
    }
  },
  {
    "service_request": "2021-834775",
    "request_type": "Property Maintenance",
    "request_reason": "Property Maintenance",
    "date_created": "2021-10-19T13:50:26.000",
    "date_modified": "2021-10-19T13:51:37.000",
    "request_status": "Pending",
    "responsible_agency": "Department of Code Enforcement",
    "final_address": "2429 S Derbigny St",
    "address_councildis": "B",
    "status": "Pending",
    "rowid": "834775",
    "final_x": "3673724.3218",
    "final_y": "527622.494655",
    "longitude": "-90.09275639866262",
    "latitude": "29.94501262956826",
    "geocoded_column": {
      "latitude": "29.94501262956826",
      "longitude": "-90.09275639866262"
    }
  },
  {
    "service_request": "2021-834773",
    "request_type": "Traffic Signals/Signs/Striping/Streetlights",
    "request_reason": "Street Light Knocked Down/Leaning",
    "date_created": "2021-10-19T13:48:37.000",
    "date_modified": "2021-10-19T16:47:41.000",
    "request_status": "Pending",
    "responsible_agency": "Department of Public Works",
    "final_address": "4911 Good Dr",
    "address_councildis": "E",
    "status": "Pending",
    "contractor": "Royal Engineering",
    "rowid": "834773",
    "final_x": "3714787.56728",
    "final_y": "557467.667099",
    "longitude": "-89.96198076579739",
    "latitude": "30.02578918463628",
    "geocoded_column": {
      "latitude": "30.02578918463628",
      "longitude": "-89.96198076579739"
    }
  },
  {
    "service_request": "2021-834772",
    "request_type": "Traffic Signals/Signs/Striping/Streetlights",
    "request_reason": "Street Light Outage/Malfunction",
    "date_created": "2021-10-19T13:47:36.000",
    "date_modified": "2021-10-19T16:18:02.000",
    "request_status": "Pending",
    "responsible_agency": "Department of Public Works",
    "final_address": "2715 Magnolia St",
    "address_councildis": "B",
    "status": "Pending",
    "contractor": "Royal Engineering",
    "rowid": "834772",
    "final_x": "3673853.87329",
    "final_y": "525978.987453",
    "longitude": "-90.09240356085263",
    "latitude": "29.940489666325398",
    "geocoded_column": {
      "latitude": "29.940489666325398",
      "longitude": "-90.09240356085263"
    }
  },
  {
    "service_request": "2021-834771",
    "request_type": "Traffic Signals/Signs/Striping/Streetlights",
    "request_reason": "Street Light Knocked Down/Leaning",
    "date_created": "2021-10-19T13:47:01.000",
    "date_modified": "2021-10-19T13:47:02.000",
    "request_status": "Pending",
    "responsible_agency": "Department of Public Works",
    "final_address": "2429 S Derbigny St",
    "address_councildis": "B",
    "status": "Pending",
    "contractor": "Royal Engineering",
    "rowid": "834771",
    "final_x": "3673724.3218",
    "final_y": "527622.494655",
    "longitude": "-90.09275639866262",
    "latitude": "29.94501262956826",
    "geocoded_column": {
      "latitude": "29.94501262956826",
      "longitude": "-90.09275639866262"
    }
  },
  {
    "service_request": "2021-834770",
    "request_type": "Traffic Signals/Signs/Striping/Streetlights",
    "request_reason": "Traffic Sign Missing/Damaged",
    "date_created": "2021-10-19T13:37:57.000",
    "date_modified": "2021-10-19T16:47:43.000",
    "request_status": "Pending",
    "responsible_agency": "Department of Public Works",
    "final_address": "2727 S Carrollton Ave",
    "address_councildis": "A",
    "status": "Pending",
    "rowid": "834770",
    "final_x": "3665911.41626",
    "final_y": "532367.526595",
    "longitude": "-90.11726524952698",
    "latitude": "29.95829020425427",
    "geocoded_column": {
      "latitude": "29.95829020425427",
      "longitude": "-90.11726524952698"
    }
  },
  {
    "service_request": "2021-834769",
    "request_type": "Abandoned Vehicles",
    "request_reason": "Abandoned/Junk Vehicles",
    "date_created": "2021-10-19T13:37:39.000",
    "date_modified": "2021-10-19T13:37:39.000",
    "request_status": "Pending",
    "responsible_agency": "Department of Public Works",
    "status": "Inspected",
    "rowid": "834769",
    "longitude": "0.0",
    "latitude": "0.0",
    "geocoded_column": {
      "latitude": "0.0",
      "longitude": "0.0"
    }
  },
  {
    "service_request": "2021-834767",
    "request_type": "Trash/Recycling",
    "request_reason": "Repair Trash Cart",
    "date_created": "2021-10-19T13:31:26.000",
    "date_modified": "2021-10-19T16:47:45.000",
    "request_status": "Pending",
    "responsible_agency": "Department of Sanitation",
    "final_address": "53 Cypress Grove Ct",
    "address_councildis": "C",
    "status": "Assigned to Contractor",
    "contractor": "Richards Disposal",
    "rowid": "834767",
    "final_x": "3705080.84209",
    "final_y": "512069.022641",
    "longitude": "-89.9943288343672",
    "latitude": "29.901275251712317",
    "geocoded_column": {
      "latitude": "29.901275251712317",
      "longitude": "-89.9943288343672"
    }
  },
  {
    "service_request": "2021-834766",
    "request_type": "Abandoned Vehicles",
    "request_reason": "Abandoned/Junk Vehicles",
    "date_created": "2021-10-19T13:24:26.000",
    "date_modified": "2021-10-19T13:24:26.000",
    "request_status": "Pending",
    "responsible_agency": "Department of Public Works",
    "final_address": "934 Pauline St",
    "address_councildis": "C",
    "status": "Pending",
    "rowid": "834766",
    "final_x": "3691055.14313",
    "final_y": "534956.749958",
    "longitude": "-90.03777603071444",
    "latitude": "29.964651970204645",
    "geocoded_column": {
      "latitude": "29.964651970204645",
      "longitude": "-90.03777603071444"
    }
  },
  {
    "service_request": "2021-834765",
    "request_type": "Roads/Drainage",
    "request_reason": "Catch Basin - Broken/Damage",
    "date_created": "2021-10-19T13:23:53.000",
    "date_modified": "2021-10-19T16:47:47.000",
    "request_status": "Pending",
    "responsible_agency": "Department of Public Works",
    "final_address": "2150 Timoleon St",
    "address_councildis": "D",
    "status": "Pending",
    "rowid": "834765",
    "final_x": "3683498.4989",
    "final_y": "551008.715925",
    "longitude": "-90.06107651418581",
    "latitude": "30.009021972633647",
    "geocoded_column": {
      "latitude": "30.009021972633647",
      "longitude": "-90.06107651418581"
    }
  },
  {
    "service_request": "2021-834764",
    "request_type": "Traffic Signals/Signs/Striping/Streetlights",
    "request_reason": "Street Light Outage/Malfunction",
    "date_created": "2021-10-19T13:23:21.000",
    "date_modified": "2021-10-19T13:23:22.000",
    "request_status": "Pending",
    "responsible_agency": "Department of Public Works",
    "final_address": "412 S Alexander St",
    "address_councildis": "A",
    "status": "Pending",
    "contractor": "Royal Engineering",
    "rowid": "834764",
    "final_x": "3669193.39585",
    "final_y": "538059.347977",
    "longitude": "-90.10670921491145",
    "latitude": "29.97384463502483",
    "geocoded_column": {
      "latitude": "29.97384463502483",
      "longitude": "-90.10670921491145"
    }
  },
  {
    "service_request": "2021-834763",
    "request_type": "Trash/Recycling",
    "request_reason": "Replace Trash Cart",
    "date_created": "2021-10-19T13:19:49.000",
    "date_modified": "2021-10-19T16:47:48.000",
    "request_status": "Pending",
    "responsible_agency": "Department of Sanitation",
    "final_address": "7033 Coliseum St",
    "address_councildis": "A",
    "status": "Assigned to Contractor",
    "contractor": "Richards Disposal",
    "rowid": "834763",
    "final_x": "3661659.39437",
    "final_y": "522005.169082",
    "longitude": "-90.13103538779097",
    "latitude": "29.929920420002638",
    "geocoded_column": {
      "latitude": "29.929920420002638",
      "longitude": "-90.13103538779097"
    }
  },
  {
    "service_request": "2021-834762",
    "request_type": "Trash/Recycling",
    "request_reason": "Missed Trash Pick-Up",
    "date_created": "2021-10-19T13:16:14.000",
    "date_modified": "2021-10-19T16:47:50.000",
    "request_status": "Pending",
    "responsible_agency": "Department of Sanitation",
    "final_address": "1221 Aline St",
    "address_councildis": "B",
    "status": "Assigned to Contractor",
    "contractor": "Richards Disposal",
    "rowid": "834762",
    "final_x": "3674327.89428",
    "final_y": "519917.485048",
    "longitude": "-90.09111446437606",
    "latitude": "29.92380837704597",
    "geocoded_column": {
      "latitude": "29.92380837704597",
      "longitude": "-90.09111446437606"
    }
  },
  {
    "service_request": "2021-834761",
    "request_type": "Property Maintenance",
    "request_reason": "Property Maintenance",
    "date_created": "2021-10-19T13:14:22.000",
    "date_modified": "2021-10-19T16:47:51.000",
    "request_status": "Pending",
    "responsible_agency": "Department of Code Enforcement",
    "final_address": "13116 Wales St",
    "address_councildis": "E",
    "status": "Pending",
    "rowid": "834761",
    "final_x": "3716101.65503",
    "final_y": "570726.053479",
    "longitude": "-89.95732537375423",
    "latitude": "30.062201047333513",
    "geocoded_column": {
      "latitude": "30.062201047333513",
      "longitude": "-89.95732537375423"
    }
  },
  {
    "service_request": "2021-834759",
    "request_type": "Traffic Signals/Signs/Striping/Streetlights",
    "request_reason": "Street Light Outage/Malfunction",
    "date_created": "2021-10-19T13:11:13.000",
    "date_modified": "2021-10-19T16:47:55.000",
    "request_status": "Pending",
    "responsible_agency": "Department of Public Works",
    "final_address": "2222 General Pershing St",
    "address_councildis": "B",
    "status": "Pending",
    "contractor": "Royal Engineering",
    "rowid": "834759",
    "final_x": "3670972.59911",
    "final_y": "523223.548987",
    "longitude": "-90.10159375722967",
    "latitude": "29.932998587282455",
    "geocoded_column": {
      "latitude": "29.932998587282455",
      "longitude": "-90.10159375722967"
    }
  },
  {
    "service_request": "2021-834758",
    "request_type": "Property Maintenance",
    "request_reason": "Property Maintenance",
    "date_created": "2021-10-19T13:05:48.000",
    "date_modified": "2021-10-19T16:47:57.000",
    "request_status": "Pending",
    "responsible_agency": "Department of Code Enforcement",
    "final_address": "4808 Miles Dr",
    "address_councildis": "D",
    "status": "Pending",
    "rowid": "834758",
    "final_x": "3679872.35618",
    "final_y": "549359.908563",
    "longitude": "-90.0725900245234",
    "latitude": "30.00459855115578",
    "geocoded_column": {
      "latitude": "30.00459855115578",
      "longitude": "-90.0725900245234"
    }
  },
  {
    "service_request": "2021-834757",
    "request_type": "Traffic Signals/Signs/Striping/Streetlights",
    "request_reason": "Street Light Outage/Malfunction",
    "date_created": "2021-10-19T13:03:16.000",
    "date_modified": "2021-10-19T13:03:27.000",
    "request_status": "Pending",
    "responsible_agency": "Department of Public Works",
    "final_address": "5922 General Haig St",
    "address_councildis": "A",
    "status": "Pending",
    "contractor": "Royal Engineering",
    "rowid": "834757",
    "final_x": "3670438.64481",
    "final_y": "546642.154769",
    "longitude": "-90.10248525987227",
    "latitude": "29.99740770650122",
    "geocoded_column": {
      "latitude": "29.99740770650122",
      "longitude": "-90.10248525987227"
    }
  },
  {
    "service_request": "2021-834756",
    "request_type": "Traffic Signals/Signs/Striping/Streetlights",
    "request_reason": "Street Light Outage/Malfunction",
    "date_created": "2021-10-19T12:58:30.000",
    "date_modified": "2021-10-19T12:58:31.000",
    "request_status": "Pending",
    "responsible_agency": "Department of Public Works",
    "final_address": "3301 Canal St",
    "address_councildis": "B",
    "status": "Pending",
    "contractor": "Royal Engineering",
    "rowid": "834756",
    "final_x": "3673612.42036",
    "final_y": "536561.098375",
    "longitude": "-90.09280416542329",
    "latitude": "29.969594141741577",
    "geocoded_column": {
      "latitude": "29.969594141741577",
      "longitude": "-90.09280416542329"
    }
  },
  {
    "service_request": "2021-834754",
    "request_type": "Property Maintenance",
    "request_reason": "Property Maintenance",
    "date_created": "2021-10-19T12:56:55.000",
    "date_modified": "2021-10-19T12:56:55.000",
    "request_status": "Pending",
    "responsible_agency": "Department of Code Enforcement",
    "final_address": "2015 Foucher St",
    "address_councildis": "B",
    "status": "Pending",
    "rowid": "834754",
    "final_x": "3673011.47643",
    "final_y": "522775.542394",
    "longitude": "-90.09517243866279",
    "latitude": "29.93170629133331",
    "geocoded_column": {
      "latitude": "29.93170629133331",
      "longitude": "-90.09517243866279"
    }
  },
  {
    "service_request": "2021-834753",
    "request_type": "Traffic Signals/Signs/Striping/Streetlights",
    "request_reason": "Street Light Outage/Malfunction",
    "date_created": "2021-10-19T12:56:16.000",
    "date_modified": "2021-10-19T12:56:16.000",
    "request_status": "Pending",
    "responsible_agency": "Department of Public Works",
    "final_address": "3200 Canal St",
    "address_councildis": "B",
    "status": "Pending",
    "contractor": "Royal Engineering",
    "rowid": "834753",
    "final_x": "3673677.72577",
    "final_y": "536249.897863",
    "longitude": "-90.09260856679315",
    "latitude": "29.968736501266164",
    "geocoded_column": {
      "latitude": "29.968736501266164",
      "longitude": "-90.09260856679315"
    }
  },
  {
    "service_request": "2021-834752",
    "request_type": "Abandoned Vehicles",
    "request_reason": "Abandoned/Junk Vehicles",
    "date_created": "2021-10-19T12:55:13.000",
    "date_modified": "2021-10-19T13:15:50.000",
    "request_status": "Pending",
    "responsible_agency": "Department of Public Works",
    "status": "Inspected",
    "rowid": "834752",
    "longitude": "0.0",
    "latitude": "0.0",
    "geocoded_column": {
      "latitude": "0.0",
      "longitude": "0.0"
    }
  },
  {
    "service_request": "2021-834751",
    "request_type": "Trash/Recycling",
    "request_reason": "Replace Trash Cart",
    "date_created": "2021-10-19T12:54:55.000",
    "date_modified": "2021-10-19T12:54:56.000",
    "request_status": "Pending",
    "responsible_agency": "Department of Sanitation",
    "final_address": "3101 Dumaine St",
    "address_councildis": "A",
    "status": "Assigned to Contractor",
    "contractor": "Richards Disposal",
    "rowid": "834751",
    "final_x": "3675694.57345",
    "final_y": "538673.913097",
    "longitude": "-90.086155914289",
    "latitude": "29.975341514514277",
    "geocoded_column": {
      "latitude": "29.975341514514277",
      "longitude": "-90.086155914289"
    }
  },
  {
    "service_request": "2021-834750",
    "request_type": "Trash/Recycling",
    "request_reason": "Illegal Dumping",
    "date_created": "2021-10-19T12:53:58.000",
    "date_modified": "2021-10-19T16:48:00.000",
    "request_status": "Pending",
    "responsible_agency": "Department of Sanitation",
    "final_address": "1202 S Genois St",
    "address_councildis": "B",
    "status": "Pending",
    "rowid": "834750",
    "final_x": "3669470.1705",
    "final_y": "532757.196228",
    "longitude": "-90.10601445807112",
    "latitude": "29.959257335957545",
    "geocoded_column": {
      "latitude": "29.959257335957545",
      "longitude": "-90.10601445807112"
    }
  },
  {
    "service_request": "2021-834749",
    "request_type": "COVID-19",
    "request_reason": "COVID-19 Business Non-Compliance",
    "date_created": "2021-10-19T12:53:54.000",
    "date_modified": "2021-10-19T12:53:57.000",
    "request_status": "Pending",
    "responsible_agency": "Safety and Permits",
    "final_address": "4905 Canal St",
    "address_councildis": "A",
    "status": "Pending",
    "rowid": "834749",
    "final_x": "3668559.03028",
    "final_y": "540461.875531",
    "longitude": "-90.10863158830065",
    "latitude": "29.980469433711686",
    "geocoded_column": {
      "latitude": "29.980469433711686",
      "longitude": "-90.10863158830065"
    }
  },
  {
    "service_request": "2021-834748",
    "request_type": "Roads/Drainage",
    "request_reason": "Catch Basin - Clogged",
    "date_created": "2021-10-19T12:51:46.000",
    "date_modified": "2021-10-19T12:51:46.000",
    "request_status": "Pending",
    "responsible_agency": "Department of Public Works",
    "final_address": "4637 Bienville Ave",
    "address_councildis": "A",
    "status": "Pending",
    "rowid": "834748",
    "final_x": "3669715.02004",
    "final_y": "540518.217739",
    "longitude": "-90.1049785571753",
    "latitude": "29.980590331670427",
    "geocoded_column": {
      "latitude": "29.980590331670427",
      "longitude": "-90.1049785571753"
    }
  },
  {
    "service_request": "2021-834747",
    "request_type": "Roads/Drainage",
    "request_reason": "Catch Basin - Clogged",
    "date_created": "2021-10-19T12:49:39.000",
    "date_modified": "2021-10-19T12:49:39.000",
    "request_status": "Pending",
    "responsible_agency": "Department of Public Works",
    "final_address": "4621 Bienville Ave",
    "address_councildis": "A",
    "status": "Pending",
    "rowid": "834747",
    "final_x": "3669796.17722",
    "final_y": "540411.616075",
    "longitude": "-90.10472583699674",
    "latitude": "29.98029482076833",
    "geocoded_column": {
      "latitude": "29.98029482076833",
      "longitude": "-90.10472583699674"
    }
  },
  {
    "service_request": "2021-834746",
    "request_type": "Roads/Drainage",
    "request_reason": "Pothole",
    "date_created": "2021-10-19T12:48:59.000",
    "date_modified": "2021-10-19T16:48:03.000",
    "request_status": "Pending",
    "responsible_agency": "Department of Public Works",
    "final_address": "1800 Monroe St",
    "address_councildis": "A",
    "status": "Pending",
    "rowid": "834746",
    "final_x": "3661793.51027",
    "final_y": "531612.523587",
    "longitude": "-90.13029357608676",
    "latitude": "29.956333716263774",
    "geocoded_column": {
      "latitude": "29.956333716263774",
      "longitude": "-90.13029357608676"
    }
  },
  {
    "service_request": "2021-834745",
    "request_type": "Roads/Drainage",
    "request_reason": "Pothole",
    "date_created": "2021-10-19T12:46:55.000",
    "date_modified": "2021-10-19T12:46:55.000",
    "request_status": "Pending",
    "responsible_agency": "Department of Public Works",
    "final_address": "4440 Bienville Ave",
    "address_councildis": "A",
    "status": "Pending",
    "rowid": "834745",
    "final_x": "3670151.57959",
    "final_y": "539921.57729",
    "longitude": "-90.10361993274476",
    "latitude": "29.978936897322015",
    "geocoded_column": {
      "latitude": "29.978936897322015",
      "longitude": "-90.10361993274476"
    }
  },
  {
    "service_request": "2021-834744",
    "request_type": "Roads/Drainage",
    "request_reason": "Pothole",
    "date_created": "2021-10-19T12:44:28.000",
    "date_modified": "2021-10-19T12:44:28.000",
    "request_status": "Pending",
    "responsible_agency": "Department of Public Works",
    "final_address": "137 N Hennessey St",
    "address_councildis": "A",
    "status": "Pending",
    "rowid": "834744",
    "final_x": "3670496.89729",
    "final_y": "539290.28321",
    "longitude": "-90.10255070153374",
    "latitude": "29.97719085793684",
    "geocoded_column": {
      "latitude": "29.97719085793684",
      "longitude": "-90.10255070153374"
    }
  },
  {
    "service_request": "2021-834743",
    "request_type": "Roads/Drainage",
    "request_reason": "Road Shoulder Repair",
    "date_created": "2021-10-19T12:44:13.000",
    "date_modified": "2021-10-19T16:48:04.000",
    "request_status": "Pending",
    "responsible_agency": "Department of Public Works",
    "final_address": "CLOVER ST & W DAHLIA WALK & PEOPLES AVE",
    "address_councildis": "D",
    "status": "Inspected",
    "rowid": "834743",
    "final_x": "3688511.2",
    "final_y": "546754.28",
    "longitude": "-90.04539084067979",
    "latitude": "29.99716983309235",
    "geocoded_column": {
      "latitude": "29.99716983309235",
      "longitude": "-90.04539084067979"
    }
  },
  {
    "service_request": "2021-834742",
    "request_type": "Trash/Recycling",
    "request_reason": "Request a Large Item Pick Up",
    "date_created": "2021-10-19T12:44:00.000",
    "date_modified": "2021-10-19T12:44:01.000",
    "request_status": "Pending",
    "responsible_agency": "Department of Sanitation",
    "final_address": "3000 Danneel St",
    "address_councildis": "B",
    "status": "Assigned to Contractor",
    "contractor": "Richards Disposal",
    "rowid": "834742",
    "final_x": "3674436.48577",
    "final_y": "523236.921915",
    "longitude": "-90.09065804210238",
    "latitude": "29.93293251826908",
    "geocoded_column": {
      "latitude": "29.93293251826908",
      "longitude": "-90.09065804210238"
    }
  },
  {
    "service_request": "2021-834741",
    "request_type": "Trash/Recycling",
    "request_reason": "Request a Large Item Pick Up",
    "date_created": "2021-10-19T12:42:45.000",
    "date_modified": "2021-10-19T12:42:46.000",
    "request_status": "Pending",
    "responsible_agency": "Department of Sanitation",
    "final_address": "1237 St Andrew St",
    "address_councildis": "B",
    "status": "Assigned to Contractor",
    "contractor": "Richards Disposal",
    "rowid": "834741",
    "final_x": "3679102.18139",
    "final_y": "523137.267003",
    "longitude": "-90.0759322374653",
    "latitude": "29.932518542234973",
    "geocoded_column": {
      "latitude": "29.932518542234973",
      "longitude": "-90.0759322374653"
    }
  },
  {
    "service_request": "2021-834740",
    "request_type": "Roads/Drainage",
    "request_reason": "Pothole",
    "date_created": "2021-10-19T12:40:35.000",
    "date_modified": "2021-10-19T12:40:35.000",
    "request_status": "Pending",
    "responsible_agency": "Department of Public Works",
    "final_address": "222 City Park Ave",
    "address_councildis": "A",
    "status": "Pending",
    "rowid": "834740",
    "final_x": "3668428.13492",
    "final_y": "541142.723532",
    "longitude": "-90.10902203669625",
    "latitude": "29.98234538145913",
    "geocoded_column": {
      "latitude": "29.98234538145913",
      "longitude": "-90.10902203669625"
    }
  },
  {
    "service_request": "2021-834738",
    "request_type": "Roads/Drainage",
    "request_reason": "Damaged Sidewalk",
    "date_created": "2021-10-19T12:40:12.000",
    "date_modified": "2021-10-19T16:48:06.000",
    "request_status": "Pending",
    "responsible_agency": "Department of Public Works",
    "final_address": "1539 De Battista Pl",
    "address_councildis": "C",
    "status": "Pending",
    "rowid": "834738",
    "final_x": "3699712.20906",
    "final_y": "525478.878525",
    "longitude": "-90.01078326043796",
    "latitude": "29.938319188890205",
    "geocoded_column": {
      "latitude": "29.938319188890205",
      "longitude": "-90.01078326043796"
    }
  },
  {
    "service_request": "2021-834737",
    "request_type": "Roads/Drainage",
    "request_reason": "Pothole",
    "date_created": "2021-10-19T12:39:41.000",
    "date_modified": "2021-10-19T12:39:41.000",
    "request_status": "Pending",
    "responsible_agency": "Department of Public Works",
    "final_address": "4715 Bienville Ave",
    "address_councildis": "A",
    "status": "Pending",
    "rowid": "834737",
    "final_x": "3669557.645",
    "final_y": "540626.519691",
    "longitude": "-90.10547195180187",
    "latitude": "29.980892763253642",
    "geocoded_column": {
      "latitude": "29.980892763253642",
      "longitude": "-90.10547195180187"
    }
  },
  {
    "service_request": "2021-834735",
    "request_type": "Parks & Parkways",
    "request_reason": "Request Tree Service (Right of Way/Public Property)",
    "date_created": "2021-10-19T12:39:07.000",
    "date_modified": "2021-10-19T16:48:08.000",
    "request_status": "Pending",
    "responsible_agency": "Department of Parks & Parkway",
    "final_address": "1539 De Battista Pl",
    "address_councildis": "C",
    "status": "Pending",
    "rowid": "834735",
    "final_x": "3699712.20906",
    "final_y": "525478.878525",
    "longitude": "-90.01078326043796",
    "latitude": "29.938319188890205",
    "geocoded_column": {
      "latitude": "29.938319188890205",
      "longitude": "-90.01078326043796"
    }
  },
  {
    "service_request": "2021-834734",
    "request_type": "Trash/Recycling",
    "request_reason": "Illegal Dumping",
    "date_created": "2021-10-19T12:36:59.000",
    "date_modified": "2021-10-19T16:48:10.000",
    "request_status": "Pending",
    "responsible_agency": "Department of Code Enforcement",
    "final_address": "103 Danny Dr",
    "address_councildis": "C",
    "status": "Pending",
    "rowid": "834734",
    "final_x": "3701893.04868",
    "final_y": "524624.406844",
    "longitude": "-90.00392948589815",
    "latitude": "29.935900296820563",
    "geocoded_column": {
      "latitude": "29.935900296820563",
      "longitude": "-90.00392948589815"
    }
  },
  {
    "service_request": "2021-834732",
    "request_type": "Roads/Drainage",
    "request_reason": "Man hole cover issue",
    "date_created": "2021-10-19T12:25:04.000",
    "date_modified": "2021-10-19T16:48:11.000",
    "request_status": "Pending",
    "responsible_agency": "Department of Public Works",
    "final_address": "4704 St Peter St",
    "address_councildis": "A",
    "status": "Pending",
    "rowid": "834732",
    "final_x": "3670330.65146",
    "final_y": "541549.4283",
    "longitude": "-90.10299914888888",
    "latitude": "29.983407648674653",
    "geocoded_column": {
      "latitude": "29.983407648674653",
      "longitude": "-90.10299914888888"
    }
  },
  {
    "service_request": "2021-834731",
    "request_type": "Roads/Drainage",
    "request_reason": "Pothole",
    "date_created": "2021-10-19T12:24:51.000",
    "date_modified": "2021-10-19T16:48:13.000",
    "request_status": "Pending",
    "responsible_agency": "Department of Public Works",
    "final_address": "7117 Green St",
    "address_councildis": "A",
    "status": "Pending",
    "rowid": "834731",
    "final_x": "3665280.20768",
    "final_y": "527931.465407",
    "longitude": "-90.11940684548652",
    "latitude": "29.9461108804159",
    "geocoded_column": {
      "latitude": "29.9461108804159",
      "longitude": "-90.11940684548652"
    }
  },
  {
    "service_request": "2021-834726",
    "request_type": "Trash/Recycling",
    "request_reason": "Order Recycling Cart",
    "date_created": "2021-10-19T12:18:37.000",
    "date_modified": "2021-10-19T16:48:20.000",
    "request_status": "Pending",
    "responsible_agency": "Department of Sanitation",
    "final_address": "1007 Kerlerec St",
    "address_councildis": "C",
    "status": "Pending",
    "contractor": "Metro Disposal",
    "rowid": "834726",
    "final_x": "3683350.92041",
    "final_y": "535427.76359",
    "longitude": "-90.06208889131847",
    "latitude": "29.96618436536644",
    "geocoded_column": {
      "latitude": "29.96618436536644",
      "longitude": "-90.06208889131847"
    }
  },