[
  {
    "service_request": "2024-1076717",
    "request_type": "Trash/Recycling",
    "request_reason": "Order Recycling Cart",
    "date_created": "2024-03-18T23:48:18.000",
    "date_modified": "2024-03-18T23:48:18.000",
    "request_status": "Pending",
    "responsible_agency": "Department of Sanitation",
    "final_address": "5344 Camp St",
    "address_councildis": "B",
    "status": "Pending",
    "rowid": "1076717",
    "final_x": "3667132.40013",
    "final_y": "519044.682551",
    "longitude": "-90.1138574354046",
    "latitude": "29.921620978843162",
    "geocoded_column": {
      "latitude": "29.921620978843162",
      "longitude": "-90.1138574354046"
    }
  },
  {
    "service_request": "2024-1076716",
    "request_type": "Trash/Recycling",
    "request_reason": "Replace Trash Cart",
    "date_created": "2024-03-18T23:47:05.000",
    "date_modified": "2024-03-18T23:47:06.000",
    "request_status": "Pending",
    "responsible_agency": "Department of Sanitation",
    "final_address": "5344 Camp St",
    "address_councildis": "B",
    "status": "Assigned to Contractor",
    "contractor": "Richards Disposal",
    "rowid": "1076716",
    "final_x": "3667132.40013",
    "final_y": "519044.682551",
    "longitude": "-90.1138574354046",
    "latitude": "29.921620978843162",
    "geocoded_column": {
      "latitude": "29.921620978843162",
      "longitude": "-90.1138574354046"
    }
  },
  {
    "service_request": "2024-1076715",
    "request_type": "Roads/Drainage",
    "request_reason": "Pothole",
    "date_created": "2024-03-18T23:20:04.000",
    "date_modified": "2024-03-18T23:20:04.000",
    "request_status": "Pending",
    "responsible_agency": "Department of Public Works",
    "final_address": "1312 Milan St",
    "address_councildis": "B",
    "status": "Pending",
    "rowid": "1076715",
    "final_x": "3671625.82823",
    "final_y": "520286.919608",
    "longitude": "-90.09963137110304",
    "latitude": "29.92490447494246",
    "geocoded_column": {
      "latitude": "29.92490447494246",
      "longitude": "-90.09963137110304"
    }
  },
  {
    "service_request": "2024-1076713",
    "request_type": "Property Maintenance",
    "request_reason": "Property Maintenance",
    "date_created": "2024-03-18T23:10:23.000",
    "date_modified": "2024-03-18T23:10:23.000",
    "request_status": "Pending",
    "responsible_agency": "Department of Code Enforcement",
    "final_address": "2000 Robert St",
    "address_councildis": "B",
    "status": "Pending",
    "rowid": "1076713",
    "final_x": "3668694.51521",
    "final_y": "522901.042875",
    "longitude": "-90.10879640772397",
    "latitude": "29.93217893783565",
    "geocoded_column": {
      "latitude": "29.93217893783565",
      "longitude": "-90.10879640772397"
    }
  },
  {
    "service_request": "2024-1076712",
    "request_type": "Trash/Recycling",
    "request_reason": "Repair Recycling Cart",
    "date_created": "2024-03-18T22:43:17.000",
    "date_modified": "2024-03-18T22:43:17.000",
    "request_status": "Pending",
    "responsible_agency": "Department of Sanitation",
    "final_address": "219 S Alexander St",
    "address_councildis": "A",
    "status": "Pending",
    "rowid": "1076712",
    "final_x": "3669593.17358",
    "final_y": "538724.885513",
    "longitude": "-90.10542410040286",
    "latitude": "29.97566286552893",
    "geocoded_column": {
      "latitude": "29.97566286552893",
      "longitude": "-90.10542410040286"
    }
  },
  {
    "service_request": "2024-1076711",
    "request_type": "Trash/Recycling",
    "request_reason": "Repair Trash Cart",
    "date_created": "2024-03-18T22:41:05.000",
    "date_modified": "2024-03-18T22:41:06.000",
    "request_status": "Pending",
    "responsible_agency": "Department of Sanitation",
    "final_address": "219 S Alexander St",
    "address_councildis": "A",
    "status": "Assigned to Contractor",
    "contractor": "Richards Disposal",
    "rowid": "1076711",
    "final_x": "3669593.17358",
    "final_y": "538724.885513",
    "longitude": "-90.10542410040286",
    "latitude": "29.97566286552893",
    "geocoded_column": {
      "latitude": "29.97566286552893",
      "longitude": "-90.10542410040286"
    }
  },
  {
    "service_request": "2024-1076710",
    "request_type": "Abandoned Vehicles",
    "request_reason": "Abandoned/Junk Vehicles",
    "date_created": "2024-03-18T22:32:44.000",
    "date_modified": "2024-03-18T22:32:44.000",
    "request_status": "Pending",
    "responsible_agency": "Department of Public Works",
    "final_address": "2100 BLK Valence St",
    "address_councildis": "B",
    "status": "Pending",
    "rowid": "1076710",
    "final_x": "3669546.48764",
    "final_y": "522710.711584",
    "longitude": "-90.10611324154937",
    "latitude": "29.931630524878457",
    "geocoded_column": {
      "latitude": "29.931630524878457",
      "longitude": "-90.10611324154937"
    }
  },
  {
    "service_request": "2024-1076709",
    "request_type": "Roads/Drainage",
    "request_reason": "Pothole",
    "date_created": "2024-03-18T22:29:29.000",
    "date_modified": "2024-03-18T22:29:29.000",
    "request_status": "Pending",
    "responsible_agency": "Department of Public Works",
    "final_address": "5929 Coliseum St",
    "address_councildis": "A",
    "status": "Pending",
    "rowid": "1076709",
    "final_x": "3665263.00756",
    "final_y": "520201.212344",
    "longitude": "-90.11971965943252",
    "latitude": "29.924855645993322",
    "geocoded_column": {
      "latitude": "29.924855645993322",
      "longitude": "-90.11971965943252"
    }
  },
  {
    "service_request": "2024-1076708",
    "request_type": "Roads/Drainage",
    "request_reason": "Pothole",
    "date_created": "2024-03-18T22:21:45.000",
    "date_modified": "2024-03-18T22:21:45.000",
    "request_status": "Pending",
    "responsible_agency": "Department of Public Works",
    "final_address": "5956 Magazine St",
    "address_councildis": "A",
    "status": "Pending",
    "rowid": "1076708",
    "final_x": "3664789.061",
    "final_y": "519151.066103",
    "longitude": "-90.12125082518692",
    "latitude": "29.921981867396603",
    "geocoded_column": {
      "latitude": "29.921981867396603",
      "longitude": "-90.12125082518692"
    }
  },
  {
    "service_request": "2024-1076707",
    "request_type": "Abandoned Vehicles",
    "request_reason": "Abandoned/Junk Vehicles",
    "date_created": "2024-03-18T22:21:15.000",
    "date_modified": "2024-03-18T22:21:15.000",
    "request_status": "Pending",
    "responsible_agency": "Department of Public Works",
    "final_address": "1901 Robert St",
    "address_councildis": "B",
    "status": "Pending",
    "rowid": "1076707",
    "final_x": "3668853.53473",
    "final_y": "522544.116922",
    "longitude": "-90.10830644359065",
    "latitude": "29.93119283182215",
    "geocoded_column": {
      "latitude": "29.93119283182215",
      "longitude": "-90.10830644359065"
    }
  },
  {
    "service_request": "2024-1076706",
    "request_type": "Trash/Recycling",
    "request_reason": "Replace Trash Cart",
    "date_created": "2024-03-18T22:04:58.000",
    "date_modified": "2024-03-18T22:04:59.000",
    "request_status": "Pending",
    "responsible_agency": "Department of Sanitation",
    "final_address": "925 Hillary St",
    "address_councildis": "A",
    "status": "Assigned to Contractor",
    "contractor": "Richards Disposal",
    "rowid": "1076706",
    "final_x": "3662764.99047",
    "final_y": "526524.246782",
    "longitude": "-90.12739504874502",
    "latitude": "29.942314508859727",
    "geocoded_column": {
      "latitude": "29.942314508859727",
      "longitude": "-90.12739504874502"
    }
  },
  {
    "service_request": "2024-1076705",
    "request_type": "Abandoned Vehicles",
    "request_reason": "Abandoned/Junk Vehicles",
    "date_created": "2024-03-18T22:02:05.000",
    "date_modified": "2024-03-18T22:02:05.000",
    "request_status": "Pending",
    "responsible_agency": "Department of Public Works",
    "final_address": "1901 Robert St",
    "address_councildis": "B",
    "status": "Pending",
    "rowid": "1076705",
    "final_x": "3668853.53473",
    "final_y": "522544.116922",
    "longitude": "-90.10830644359065",
    "latitude": "29.93119283182215",
    "geocoded_column": {
      "latitude": "29.93119283182215",
      "longitude": "-90.10830644359065"
    }
  },
  {
    "service_request": "2024-1076704",
    "request_type": "Roads/Drainage",
    "request_reason": "Catch Basin - Broken/Damage",
    "date_created": "2024-03-18T22:01:30.000",
    "date_modified": "2024-03-18T22:01:30.000",
    "request_status": "Pending",
    "responsible_agency": "Department of Public Works",
    "final_address": "6020 Magazine St",
    "address_councildis": "A",
    "status": "Pending",
    "rowid": "1076704",
    "final_x": "3664496.98624",
    "final_y": "519179.637943",
    "longitude": "-90.12217183320352",
    "latitude": "29.922068923192615",
    "geocoded_column": {
      "latitude": "29.922068923192615",
      "longitude": "-90.12217183320352"
    }
  },
  {
    "service_request": "2024-1076703",
    "request_type": "Traffic Signals/Signs/Striping/Streetlights",
    "request_reason": "Traffic Signal Malfunctioning/Damaged",
    "date_created": "2024-03-18T21:52:55.000",
    "date_modified": "2024-03-18T21:52:55.000",
    "request_status": "Pending",
    "responsible_agency": "Department of Public Works",
    "final_address": "2900 BLK Paris Ave",
    "address_councildis": "D",
    "status": "Pending",
    "rowid": "1076703",
    "final_x": "3679846.31908",
    "final_y": "543117.370574",
    "longitude": "-90.07288921943444",
    "latitude": "29.9874345688011",
    "geocoded_column": {
      "latitude": "29.9874345688011",
      "longitude": "-90.07288921943444"
    }
  },
  {
    "service_request": "2024-1076701",
    "request_type": "Mosquito, Termite & Rodent Control",
    "request_reason": "Rodent Complaint (Rats)",
    "date_created": "2024-03-18T21:40:23.000",
    "date_modified": "2024-03-18T21:40:23.000",
    "request_status": "Pending",
    "responsible_agency": "Mosquito, Termite & Rodent Control Board",
    "final_address": "3021 Jena St",
    "address_councildis": "B",
    "status": "Pending",
    "rowid": "1076701",
    "final_x": "3669966.7906",
    "final_y": "526093.56499",
    "longitude": "-90.10467187796287",
    "latitude": "29.940919896787673",
    "geocoded_column": {
      "latitude": "29.940919896787673",
      "longitude": "-90.10467187796287"
    }
  },
  {
    "service_request": "2024-1076700",
    "request_type": "Trash/Recycling",
    "request_reason": "Order Trash Cart",
    "date_created": "2024-03-18T21:40:13.000",
    "date_modified": "2024-03-18T21:40:13.000",
    "request_status": "Pending",
    "responsible_agency": "Department of Sanitation",
    "final_address": "96 Lakewood Estates Dr",
    "address_councildis": "C",
    "status": "Assigned to Contractor",
    "contractor": "Richards Disposal",
    "rowid": "1076700",
    "final_x": "3701831.79223",
    "final_y": "512561.057841",
    "longitude": "-90.00456451347908",
    "latitude": "29.902732181696003",
    "geocoded_column": {
      "latitude": "29.902732181696003",
      "longitude": "-90.00456451347908"
    }
  },
  {
    "service_request": "2024-1076699",
    "request_type": "Trash/Recycling",
    "request_reason": "Start Trash Service",
    "date_created": "2024-03-18T21:37:33.000",
    "date_modified": "2024-03-18T21:37:34.000",
    "request_status": "Pending",
    "responsible_agency": "Department of Sanitation",
    "final_address": "96 Lakewood Estates Dr",
    "address_councildis": "C",
    "status": "Assigned to Contractor",
    "contractor": "Richards Disposal",
    "rowid": "1076699",
    "final_x": "3701831.79223",
    "final_y": "512561.057841",
    "longitude": "-90.00456451347908",
    "latitude": "29.902732181696003",
    "geocoded_column": {
      "latitude": "29.902732181696003",
      "longitude": "-90.00456451347908"
    }
  },
  {
    "service_request": "2024-1076698",
    "request_type": "Trash/Recycling",
    "request_reason": "Request a Large Item Pick Up",
    "date_created": "2024-03-18T21:32:42.000",
    "date_modified": "2024-03-18T21:32:43.000",
    "request_status": "Pending",
    "responsible_agency": "Department of Sanitation",
    "final_address": "8043 Haney Dr",
    "address_councildis": "E",
    "status": "Assigned to Contractor",
    "contractor": "Waste Pro",
    "rowid": "1076698",
    "final_x": "3711794.92786",
    "final_y": "568479.950757",
    "longitude": "-89.97102329638946",
    "latitude": "30.056166686702866",
    "geocoded_column": {
      "latitude": "30.056166686702866",
      "longitude": "-89.97102329638946"
    }
  },
  {
    "service_request": "2024-1076697",
    "request_type": "Trash/Recycling",
    "request_reason": "Request a Large Item Pick Up",
    "date_created": "2024-03-18T21:05:27.000",
    "date_modified": "2024-03-18T21:05:28.000",
    "request_status": "Pending",
    "responsible_agency": "Department of Sanitation",
    "final_address": "7835 Means Ave",
    "address_councildis": "E",
    "status": "Assigned to Contractor",
    "contractor": "Waste Pro",
    "rowid": "1076697",
    "final_x": "3707731.18987",
    "final_y": "565435.449506",
    "longitude": "-89.98398128299525",
    "latitude": "30.047927754268503",
    "geocoded_column": {
      "latitude": "30.047927754268503",
      "longitude": "-89.98398128299525"
    }
  },
  {
    "service_request": "2024-1076696",
    "request_type": "Traffic Signals/Signs/Striping/Streetlights",
    "request_reason": "Street Name Sign Damaged or Missing",
    "date_created": "2024-03-18T21:00:37.000",
    "date_modified": "2024-03-18T21:00:37.000",
    "request_status": "Pending",
    "responsible_agency": "Department of Public Works",
    "final_address": "1520 Constance St",
    "address_councildis": "B",
    "status": "Pending",
    "rowid": "1076696",
    "final_x": "3680537.2708",
    "final_y": "523512.305595",
    "longitude": "-90.07138874750426",
    "latitude": "29.933506394497115",
    "geocoded_column": {
      "latitude": "29.933506394497115",
      "longitude": "-90.07138874750426"
    }
  },
  {
    "service_request": "2024-1076695",
    "request_type": "Trash/Recycling",
    "request_reason": "Request a Large Item Pick Up",
    "date_created": "2024-03-18T21:00:15.000",
    "date_modified": "2024-03-18T21:00:16.000",
    "request_status": "Pending",
    "responsible_agency": "Department of Sanitation",
    "final_address": "7833 Means Ave",
    "address_councildis": "E",
    "status": "Assigned to Contractor",
    "contractor": "Waste Pro",
    "rowid": "1076695",
    "final_x": "3707739.4259",
    "final_y": "565420.449954",
    "longitude": "-89.98395581098059",
    "latitude": "30.047886244829495",
    "geocoded_column": {
      "latitude": "30.047886244829495",
      "longitude": "-89.98395581098059"
    }
  },
  {
    "service_request": "2024-1076694",
    "request_type": "Abandoned Vehicles",
    "request_reason": "Abandoned/Junk Vehicles",
    "date_created": "2024-03-18T20:54:27.000",
    "date_modified": "2024-03-18T20:54:27.000",
    "request_status": "Pending",
    "responsible_agency": "Department of Public Works",
    "final_address": "2200 Valence St",
    "address_councildis": "B",
    "status": "Pending",
    "rowid": "1076694",
    "final_x": "3669489.03706",
    "final_y": "522916.553467",
    "longitude": "-90.10628764822575",
    "latitude": "29.932198215880657",
    "geocoded_column": {
      "latitude": "29.932198215880657",
      "longitude": "-90.10628764822575"
    }
  },
  {
    "service_request": "2024-1076693",
    "request_type": "Traffic Signals/Signs/Striping/Streetlights",
    "request_reason": "Traffic Signal Malfunctioning/Damaged",
    "date_created": "2024-03-18T20:54:24.000",
    "date_modified": "2024-03-18T20:54:24.000",
    "request_status": "Pending",
    "responsible_agency": "Department of Public Works",
    "final_address": "GENERAL MEYER AVE & HOLIDAY DR",
    "address_councildis": "C",
    "status": "Pending",
    "rowid": "1076693",
    "final_x": "3699023.1",
    "final_y": "524730.48",
    "longitude": "-90.01298605689196",
    "latitude": "29.93628320516194",
    "geocoded_column": {
      "latitude": "29.93628320516194",
      "longitude": "-90.01298605689196"
    }
  },
  {
    "service_request": "2024-1076692",
    "request_type": "Traffic Signals/Signs/Striping/Streetlights",
    "request_reason": "Street Light Outage/Malfunction",
    "date_created": "2024-03-18T20:52:40.000",
    "date_modified": "2024-03-18T20:52:41.000",
    "request_status": "Pending",
    "responsible_agency": "Department of Public Works",
    "final_address": "1520 Constance St",
    "address_councildis": "B",
    "status": "Assigned to Contractor",
    "contractor": "Legacy Professional Services",
    "rowid": "1076692",
    "final_x": "3680537.2708",
    "final_y": "523512.305595",
    "longitude": "-90.07138874750426",
    "latitude": "29.933506394497115",
    "geocoded_column": {
      "latitude": "29.933506394497115",
      "longitude": "-90.07138874750426"
    }
  },
  {
    "service_request": "2024-1076691",
    "request_type": "Trash/Recycling",
    "request_reason": "Request a Large Item Pick Up",
    "date_created": "2024-03-18T20:47:06.000",
    "date_modified": "2024-03-18T20:47:07.000",
    "request_status": "Pending",
    "responsible_agency": "Department of Sanitation",
    "final_address": "4719 Stemway Dr",
    "address_councildis": "D",
    "status": "Assigned to Contractor",
    "contractor": "Waste Pro",
    "rowid": "1076691",
    "final_x": "3696995.31242",
    "final_y": "554083.43868",
    "longitude": "-90.01832431850424",
    "latitude": "30.01705734277201",
    "geocoded_column": {
      "latitude": "30.01705734277201",
      "longitude": "-90.01832431850424"
    }
  },
  {
    "service_request": "2024-1076690",
    "request_type": "Traffic Signals/Signs/Striping/Streetlights",
    "request_reason": "Street Light Outage/Malfunction",
    "date_created": "2024-03-18T20:44:53.000",
    "date_modified": "2024-03-18T20:44:54.000",
    "request_status": "Pending",
    "responsible_agency": "Department of Public Works",
    "final_address": "1500 Holiday Pl",
    "address_councildis": "C",
    "status": "Assigned to Contractor",
    "contractor": "Legacy Professional Services",
    "rowid": "1076690",
    "final_x": "3699028.41776",
    "final_y": "525659.740605",
    "longitude": "-90.0129354624615",
    "latitude": "29.938838180578593",
    "geocoded_column": {
      "latitude": "29.938838180578593",
      "longitude": "-90.0129354624615"
    }
  },
  {
    "service_request": "2024-1076689",
    "request_type": "Traffic Signals/Signs/Striping/Streetlights",
    "request_reason": "Street Light Outage/Malfunction",
    "date_created": "2024-03-18T20:37:37.000",
    "date_modified": "2024-03-18T20:37:37.000",
    "request_status": "Pending",
    "responsible_agency": "Department of Public Works",
    "final_address": "1500 Holiday Pl",
    "address_councildis": "C",
    "status": "Assigned to Contractor",
    "contractor": "Legacy Professional Services",
    "rowid": "1076689",
    "final_x": "3699028.41776",
    "final_y": "525659.740605",
    "longitude": "-90.0129354624615",
    "latitude": "29.938838180578593",
    "geocoded_column": {
      "latitude": "29.938838180578593",
      "longitude": "-90.0129354624615"
    }
  },
  {
    "service_request": "2024-1076688",
    "request_type": "Trash/Recycling",
    "request_reason": "Order Recycling Cart",
    "date_created": "2024-03-18T20:31:43.000",
    "date_modified": "2024-03-18T20:31:43.000",
    "request_status": "Pending",
    "responsible_agency": "Department of Sanitation",
    "final_address": "7607 Plum St",
    "address_councildis": "A",
    "status": "Pending",
    "rowid": "1076688",
    "final_x": "3663498.80423",
    "final_y": "527512.237311",
    "longitude": "-90.12504533124681",
    "latitude": "29.945009910622566",
    "geocoded_column": {
      "latitude": "29.945009910622566",
      "longitude": "-90.12504533124681"
    }
  },
  {
    "service_request": "2024-1076687",
    "request_type": "Trash/Recycling",
    "request_reason": "Request a Large Item Pick Up",
    "date_created": "2024-03-18T20:25:11.000",
    "date_modified": "2024-03-18T20:25:12.000",
    "request_status": "Pending",
    "responsible_agency": "Department of Sanitation",
    "final_address": "6328 Peoples Ave, New Orleans, Louisiana, 70122",
    "address_councildis": "D",
    "status": "Assigned to Contractor",
    "contractor": "IV Waste",
    "rowid": "1076687",
    "final_x": "3687645.17494",
    "final_y": "556723.683482",
    "longitude": "-90.04777324081682",
    "latitude": "30.024608772989737",
    "geocoded_column": {
      "latitude": "30.024608772989737",
      "longitude": "-90.04777324081682"
    }
  },
  {
    "service_request": "2024-1076686",
    "request_type": "Roads/Drainage",
    "request_reason": "Pothole",
    "date_created": "2024-03-18T20:24:27.000",
    "date_modified": "2024-03-18T20:24:27.000",
    "request_status": "Pending",
    "responsible_agency": "Department of Public Works",
    "final_address": "4800 BLK Marconi Dr",
    "address_councildis": "A",
    "status": "Pending",
    "rowid": "1076686",
    "final_x": "3670716.09554",
    "final_y": "543128.826916",
    "longitude": "-90.1017280920835",
    "latitude": "29.987739069059227",
    "geocoded_column": {
      "latitude": "29.987739069059227",
      "longitude": "-90.1017280920835"
    }
  },
  {
    "service_request": "2024-1076685",
    "request_type": "Property Maintenance",
    "request_reason": "Property Maintenance",
    "date_created": "2024-03-18T20:20:57.000",
    "date_modified": "2024-03-18T20:20:57.000",
    "request_status": "Pending",
    "responsible_agency": "Department of Code Enforcement",
    "final_address": "2221 Painters St",
    "address_councildis": "D",
    "status": "Pending",
    "rowid": "1076685",
    "final_x": "3687259.72911",
    "final_y": "540745.769739",
    "longitude": "-90.0495568314101",
    "latitude": "29.980687195479245",
    "geocoded_column": {
      "latitude": "29.980687195479245",
      "longitude": "-90.0495568314101"
    }
  },
  {
    "service_request": "2024-1076684",
    "request_type": "Trash/Recycling",
    "request_reason": "Replace Trash Cart",
    "date_created": "2024-03-18T20:12:04.000",
    "date_modified": "2024-03-18T20:12:04.000",
    "request_status": "Pending",
    "responsible_agency": "Department of Sanitation",
    "final_address": "3615 Louisiana Avenue Prkwy",
    "address_councildis": "B",
    "status": "Assigned to Contractor",
    "contractor": "Richards Disposal",
    "rowid": "1076684",
    "final_x": "3671519.47835",
    "final_y": "528292.407616",
    "longitude": "-90.09969501316901",
    "latitude": "29.94692012518076",
    "geocoded_column": {
      "latitude": "29.94692012518076",
      "longitude": "-90.09969501316901"
    }
  },
  {
    "service_request": "2024-1076683",
    "request_type": "Trash/Recycling",
    "request_reason": "Illegal Dumping",
    "date_created": "2024-03-18T19:53:09.000",
    "date_modified": "2024-03-18T19:53:09.000",
    "request_status": "Pending",
    "responsible_agency": "Department of Sanitation",
    "final_address": "600 BLK Wagner St",
    "address_councildis": "C",
    "status": "Pending",
    "rowid": "1076683",
    "final_x": "3690566.18478",
    "final_y": "529193.936807",
    "longitude": "-90.03952560735055",
    "latitude": "29.94882142743888",
    "geocoded_column": {
      "latitude": "29.94882142743888",
      "longitude": "-90.03952560735055"
    }
  },
  {
    "service_request": "2024-1076682",
    "request_type": "Trash/Recycling",
    "request_reason": "Order Recycling Cart",
    "date_created": "2024-03-18T19:53:06.000",
    "date_modified": "2024-03-18T19:53:06.000",
    "request_status": "Pending",
    "responsible_agency": "Department of Sanitation",
    "final_address": "8325 Jeannette St",
    "address_councildis": "A",
    "status": "Pending",
    "rowid": "1076682",
    "final_x": "3661994.88333",
    "final_y": "529826.711041",
    "longitude": "-90.1297169373126",
    "latitude": "29.95141749272242",
    "geocoded_column": {
      "latitude": "29.95141749272242",
      "longitude": "-90.1297169373126"
    }
  },
  {
    "service_request": "2024-1076681",
    "request_type": "Trash/Recycling",
    "request_reason": "Request a Large Item Pick Up",
    "date_created": "2024-03-18T19:44:48.000",
    "date_modified": "2024-03-18T19:44:49.000",
    "request_status": "Pending",
    "responsible_agency": "Department of Sanitation",
    "final_address": "8832 Dinkins St",
    "address_councildis": "E",
    "status": "Assigned to Contractor",
    "contractor": "Waste Pro",
    "rowid": "1076681",
    "final_x": "3704629.37553",
    "final_y": "563317.487008",
    "longitude": "-89.99386294927429",
    "latitude": "30.042204268775283",
    "geocoded_column": {
      "latitude": "30.042204268775283",
      "longitude": "-89.99386294927429"
    }
  },
  {
    "service_request": "2024-1076680",
    "request_type": "Trash/Recycling",
    "request_reason": "Request a Large Item Pick Up",
    "date_created": "2024-03-18T19:34:21.000",
    "date_modified": "2024-03-18T19:34:21.000",
    "request_status": "Pending",
    "responsible_agency": "Department of Sanitation",
    "final_address": "4229 Tchoupitoulas St",
    "address_councildis": "B",
    "status": "Assigned to Contractor",
    "contractor": "Richards Disposal",
    "rowid": "1076680",
    "final_x": "3671687.73057",
    "final_y": "517555.031606",
    "longitude": "-90.09952882231508",
    "latitude": "29.917390819752622",
    "geocoded_column": {
      "latitude": "29.917390819752622",
      "longitude": "-90.09952882231508"
    }
  },
  {
    "service_request": "2024-1076679",
    "request_type": "Trash/Recycling",
    "request_reason": "Request a Large Item Pick Up",
    "date_created": "2024-03-18T19:32:01.000",
    "date_modified": "2024-03-18T19:32:02.000",
    "request_status": "Pending",
    "responsible_agency": "Department of Sanitation",
    "final_address": "4229 Tchoupitoulas St",
    "address_councildis": "B",
    "status": "Assigned to Contractor",
    "contractor": "Richards Disposal",
    "rowid": "1076679",
    "final_x": "3671687.73057",
    "final_y": "517555.031606",
    "longitude": "-90.09952882231508",
    "latitude": "29.917390819752622",
    "geocoded_column": {
      "latitude": "29.917390819752622",
      "longitude": "-90.09952882231508"
    }
  },
  {
    "service_request": "2024-1076678",
    "request_type": "Trash/Recycling",
    "request_reason": "Request a Large Item Pick Up",
    "date_created": "2024-03-18T19:25:15.000",
    "date_modified": "2024-03-18T19:25:16.000",
    "request_status": "Pending",
    "responsible_agency": "Department of Sanitation",
    "final_address": "7321 Poitevent Ave",
    "address_councildis": "E",
    "status": "Assigned to Contractor",
    "contractor": "Waste Pro",
    "rowid": "1076678",
    "final_x": "3707542.1036",
    "final_y": "563194.149152",
    "longitude": "-89.98466227446023",
    "latitude": "30.04177119429064",
    "geocoded_column": {
      "latitude": "30.04177119429064",
      "longitude": "-89.98466227446023"
    }
  },
  {
    "service_request": "2024-1076677",
    "request_type": "Trash/Recycling",
    "request_reason": "Missed Trash Pick-Up",
    "date_created": "2024-03-18T19:21:20.000",
    "date_modified": "2024-03-18T19:21:20.000",
    "request_status": "Pending",
    "responsible_agency": "Department of Sanitation",
    "final_address": "5820 tchoupitoulas",
    "address_councildis": "A",
    "status": "Assigned to Contractor",
    "contractor": "Richards Disposal",
    "rowid": "1076677",
    "final_x": "3664927.36493",
    "final_y": "517263.539893",
    "longitude": "-90.12087730116265",
    "latitude": "29.916787736154102",
    "geocoded_column": {
      "latitude": "29.916787736154102",
      "longitude": "-90.12087730116265"
    }
  },
  {
    "service_request": "2024-1076676",
    "request_type": "Property Maintenance",
    "request_reason": "Property Maintenance",
    "date_created": "2024-03-18T19:16:49.000",
    "date_modified": "2024-03-18T19:16:49.000",
    "request_status": "Pending",
    "responsible_agency": "Department of Code Enforcement",
    "final_address": "2216 Foucher St",
    "address_councildis": "B",
    "status": "Pending",
    "rowid": "1076676",
    "final_x": "3672706.01838",
    "final_y": "523437.397627",
    "longitude": "-90.09611417689874",
    "latitude": "29.933535251551728",
    "geocoded_column": {
      "latitude": "29.933535251551728",
      "longitude": "-90.09611417689874"
    }
  },
  {
    "service_request": "2024-1076675",
    "request_type": "Traffic Signals/Signs/Striping/Streetlights",
    "request_reason": "Disabled Parking Sign ",
    "date_created": "2024-03-18T19:09:27.000",
    "date_modified": "2024-03-18T19:09:27.000",
    "request_status": "Pending",
    "responsible_agency": "Department of Public Works",
    "final_address": "1031 Burdette St",
    "address_councildis": "A",
    "status": "Pending",
    "rowid": "1076675",
    "final_x": "3662548.25613",
    "final_y": "527288.862207",
    "longitude": "-90.12805393782207",
    "latitude": "29.94442322762445",
    "geocoded_column": {
      "latitude": "29.94442322762445",
      "longitude": "-90.12805393782207"
    }
  },
  {
    "service_request": "2024-1076674",
    "request_type": "Abandoned Vehicles",
    "request_reason": "Vehicle Blocking Your Driveway",
    "date_created": "2024-03-18T18:58:53.000",
    "date_modified": "2024-03-18T18:58:53.000",
    "request_status": "Pending",
    "responsible_agency": "Department of Public Works",
    "final_address": "4114 n rampart st",
    "status": "Pending",
    "rowid": "1076674",
    "longitude": "0.0",
    "latitude": "0.0",
    "geocoded_column": {
      "latitude": "0.0",
      "longitude": "0.0"
    }
  },
  {
    "service_request": "2024-1076673",
    "request_type": "Abandoned Vehicles",
    "request_reason": "Abandoned/Junk Vehicles",
    "date_created": "2024-03-18T18:55:29.000",
    "date_modified": "2024-03-18T18:55:29.000",
    "request_status": "Pending",
    "responsible_agency": "Department of Public Works",
    "final_address": "1300 BLK Coliseum St",
    "address_councildis": "B",
    "status": "Pending",
    "rowid": "1076673",
    "final_x": "3680051.88067",
    "final_y": "525182.550472",
    "longitude": "-90.072863093034",
    "latitude": "29.938113705976836",
    "geocoded_column": {
      "latitude": "29.938113705976836",
      "longitude": "-90.072863093034"
    }
  },
  {
    "service_request": "2024-1076672",
    "request_type": "Trash/Recycling",
    "request_reason": "Missed Trash Pick-Up",
    "date_created": "2024-03-18T18:46:44.000",
    "date_modified": "2024-03-18T18:46:45.000",
    "request_status": "Pending",
    "responsible_agency": "Department of Sanitation",
    "final_address": "2541 St Peter St",
    "address_councildis": "D",
    "status": "Assigned to Contractor",
    "contractor": "Richards Disposal",
    "rowid": "1076672",
    "final_x": "3677215.54638",
    "final_y": "536489.044359",
    "longitude": "-90.08142766268782",
    "latitude": "29.969288265028716",
    "geocoded_column": {
      "latitude": "29.969288265028716",
      "longitude": "-90.08142766268782"
    }
  },
  {
    "service_request": "2024-1076671",
    "request_type": "Trash/Recycling",
    "request_reason": "Request a Large Item Pick Up",
    "date_created": "2024-03-18T18:39:11.000",
    "date_modified": "2024-03-18T18:39:12.000",
    "request_status": "Pending",
    "responsible_agency": "Department of Sanitation",
    "final_address": "7501 Arbor Dr",
    "address_councildis": "E",
    "status": "Assigned to Contractor",
    "contractor": "Waste Pro",
    "rowid": "1076671",
    "final_x": "3701461.84017",
    "final_y": "558301.5647",
    "longitude": "-90.00405741367722",
    "latitude": "30.028513868888417",
    "geocoded_column": {
      "latitude": "30.028513868888417",
      "longitude": "-90.00405741367722"
    }
  },
  {
    "service_request": "2024-1076670",
    "request_type": "Roads/Drainage",
    "request_reason": "Catch Basin - Clogged",
    "date_created": "2024-03-18T18:37:26.000",
    "date_modified": "2024-03-18T18:37:26.000",
    "request_status": "Pending",
    "responsible_agency": "Department of Public Works",
    "final_address": "4400 BLK Washington Ave",
    "address_councildis": "B",
    "status": "Pending",
    "rowid": "1076670",
    "final_x": "3670344.52574",
    "final_y": "531526.815343",
    "longitude": "-90.10329515509741",
    "latitude": "29.955848415001423",
    "geocoded_column": {
      "latitude": "29.955848415001423",
      "longitude": "-90.10329515509741"
    }
  },
  {
    "service_request": "2024-1076669",
    "request_type": "Property Maintenance",
    "request_reason": "Property Maintenance",
    "date_created": "2024-03-18T18:36:44.000",
    "date_modified": "2024-03-18T18:36:44.000",
    "request_status": "Pending",
    "responsible_agency": "Department of Code Enforcement",
    "final_address": "4219 Marais St",
    "address_councildis": "D",
    "status": "Pending",
    "rowid": "1076669",
    "final_x": "3692636.48547",
    "final_y": "535502.14343",
    "longitude": "-90.03276273464542",
    "latitude": "29.966102352524246",
    "geocoded_column": {
      "latitude": "29.966102352524246",
      "longitude": "-90.03276273464542"
    }
  },
  {
    "service_request": "2024-1076668",
    "request_type": "Roads/Drainage",
    "request_reason": "Catch Basin - Clogged",
    "date_created": "2024-03-18T18:31:56.000",
    "date_modified": "2024-03-18T18:31:56.000",
    "request_status": "Pending",
    "responsible_agency": "Department of Public Works",
    "final_address": "1401 S Rendon St",
    "address_councildis": "B",
    "status": "Pending",
    "rowid": "1076668",
    "final_x": "3670077.35284",
    "final_y": "531554.604995",
    "longitude": "-90.10413785485666",
    "latitude": "29.955932710853986",
    "geocoded_column": {
      "latitude": "29.955932710853986",
      "longitude": "-90.10413785485666"
    }
  },
  {
    "service_request": "2024-1076667",
    "request_type": "Abandoned Vehicles",
    "request_reason": "Abandoned/Junk Vehicles",
    "date_created": "2024-03-18T18:29:08.000",
    "date_modified": "2024-03-18T18:29:08.000",
    "request_status": "Pending",
    "responsible_agency": "Department of Public Works",
    "final_address": "1818 Camp St",
    "address_councildis": "B",
    "status": "Pending",
    "rowid": "1076667",
    "final_x": "3679535.12034",
    "final_y": "523175.003515",
    "longitude": "-90.07456417826322",
    "latitude": "29.932609234705733",
    "geocoded_column": {
      "latitude": "29.932609234705733",
      "longitude": "-90.07456417826322"
    }
  },
  {
    "service_request": "2024-1076666",
    "request_type": "Roads/Drainage",
    "request_reason": "Catch Basin - Clogged",
    "date_created": "2024-03-18T18:28:30.000",
    "date_modified": "2024-03-18T18:28:30.000",
    "request_status": "Pending",
    "responsible_agency": "Department of Public Works",
    "final_address": "1401 S Rendon St",
    "address_councildis": "B",
    "status": "Pending",
    "rowid": "1076666",
    "final_x": "3670077.35284",
    "final_y": "531554.604995",
    "longitude": "-90.10413785485666",
    "latitude": "29.955932710853986",
    "geocoded_column": {
      "latitude": "29.955932710853986",
      "longitude": "-90.10413785485666"
    }
  },
  {
    "service_request": "2024-1076665",
    "request_type": "Traffic Signals/Signs/Striping/Streetlights",
    "request_reason": "Traffic Sign Missing/Damaged",
    "date_created": "2024-03-18T18:22:24.000",
    "date_modified": "2024-03-18T18:22:24.000",
    "request_status": "Pending",
    "responsible_agency": "Department of Public Works",
    "final_address": "CANAL BLVD & RING ST",
    "address_councildis": "D",
    "status": "Pending",
    "rowid": "1076665",
    "final_x": "3669125.3",
    "final_y": "555046.28",
    "longitude": "-90.10634980056072",
    "latitude": "30.020554830459332",
    "geocoded_column": {
      "latitude": "30.020554830459332",
      "longitude": "-90.10634980056072"
    }
  },
  {
    "service_request": "2024-1076664",
    "request_type": "Trash/Recycling",
    "request_reason": "Missed Trash Pick-Up",
    "date_created": "2024-03-18T18:20:03.000",
    "date_modified": "2024-03-18T18:20:04.000",
    "request_status": "Pending",
    "responsible_agency": "Department of Sanitation",
    "final_address": "2420 Ursulines Ave",
    "address_councildis": "D",
    "status": "Assigned to Contractor",
    "contractor": "Richards Disposal",
    "rowid": "1076664",
    "final_x": "3678523.08565",
    "final_y": "537359.475272",
    "longitude": "-90.0772682197892",
    "latitude": "29.97164230635432",
    "geocoded_column": {
      "latitude": "29.97164230635432",
      "longitude": "-90.0772682197892"
    }
  },
  {
    "service_request": "2024-1076661",
    "request_type": "Trash/Recycling",
    "request_reason": "Request a Large Item Pick Up",
    "date_created": "2024-03-18T18:18:13.000",
    "date_modified": "2024-03-18T18:18:14.000",
    "request_status": "Pending",
    "responsible_agency": "Department of Sanitation",
    "final_address": "1861 Pleasure St",
    "address_councildis": "D",
    "status": "Assigned to Contractor",
    "contractor": "IV Waste",
    "rowid": "1076661",
    "final_x": "3681867.34428",
    "final_y": "545022.006415",
    "longitude": "-90.06643899520317",
    "latitude": "29.992610360839812",
    "geocoded_column": {
      "latitude": "29.992610360839812",
      "longitude": "-90.06643899520317"
    }
  },
  {
    "service_request": "2024-1076660",
    "request_type": "Traffic Signals/Signs/Striping/Streetlights",
    "request_reason": "Street Light Outage/Malfunction",
    "date_created": "2024-03-18T18:15:27.000",
    "date_modified": "2024-03-18T18:15:28.000",
    "request_status": "Pending",
    "responsible_agency": "Department of Public Works",
    "final_address": "BANKS ST & S NORMAN C FRANCIS PKWY",
    "address_councildis": "B",
    "status": "Assigned to Contractor",
    "contractor": "Legacy Professional Services",
    "rowid": "1076660",
    "final_x": "3672568.1",
    "final_y": "535734.98",
    "longitude": "-90.09613039534027",
    "latitude": "29.9673536412601",
    "geocoded_column": {
      "latitude": "29.9673536412601",
      "longitude": "-90.09613039534027"
    }
  },
  {
    "service_request": "2024-1076658",
    "request_type": "Abandoned Vehicles",
    "request_reason": "Abandoned/Junk Vehicles",
    "date_created": "2024-03-18T18:08:06.000",
    "date_modified": "2024-03-18T18:08:06.000",
    "request_status": "Pending",
    "responsible_agency": "Department of Public Works",
    "final_address": "836 Clouet St",
    "address_councildis": "C",
    "status": "Pending",
    "rowid": "1076658",
    "final_x": "3688754.61935",
    "final_y": "535138.916742",
    "longitude": "-90.04503443380094",
    "latitude": "29.965224186440185",
    "geocoded_column": {
      "latitude": "29.965224186440185",
      "longitude": "-90.04503443380094"
    }
  },
  {
    "service_request": "2024-1076657",
    "request_type": "Property Maintenance",
    "request_reason": "Property Maintenance",
    "date_created": "2024-03-18T18:06:00.000",
    "date_modified": "2024-03-18T18:06:00.000",
    "request_status": "Pending",
    "responsible_agency": "Department of Code Enforcement",
    "final_address": "5701 Bullard Ave",
    "address_councildis": "E",
    "status": "Pending",
    "rowid": "1076657",
    "final_x": "3716983.38597",
    "final_y": "562443.001631",
    "longitude": "-89.95485322485179",
    "latitude": "30.039396911398153",
    "geocoded_column": {
      "latitude": "30.039396911398153",
      "longitude": "-89.95485322485179"
    }
  },
  {
    "service_request": "2024-1076656",
    "request_type": "Roads/Drainage",
    "request_reason": "Catch Basin - Clogged",
    "date_created": "2024-03-18T18:04:09.000",
    "date_modified": "2024-03-18T18:04:09.000",
    "request_status": "Pending",
    "responsible_agency": "Department of Public Works",
    "final_address": "1313 S Rendon St",
    "address_councildis": "B",
    "status": "Pending",
    "rowid": "1076656",
    "final_x": "3670122.4331",
    "final_y": "531661.259971",
    "longitude": "-90.10399189339903",
    "latitude": "29.956224647044806",
    "geocoded_column": {
      "latitude": "29.956224647044806",
      "longitude": "-90.10399189339903"
    }
  },
  {
    "service_request": "2024-1076655",
    "request_type": "Roads/Drainage",
    "request_reason": "Unpermitted work in ROW",
    "date_created": "2024-03-18T18:02:52.000",
    "date_modified": "2024-03-18T18:02:52.000",
    "request_status": "Pending",
    "responsible_agency": "Department of Public Works",
    "final_address": "1017 Fourth St",
    "address_councildis": "B",
    "status": "Pending",
    "rowid": "1076655",
    "final_x": "3677473.39771",
    "final_y": "520836.992313",
    "longitude": "-90.08115352558661",
    "latitude": "29.92624258293277",
    "geocoded_column": {
      "latitude": "29.92624258293277",
      "longitude": "-90.08115352558661"
    }
  },
  {
    "service_request": "2024-1076654",
    "request_type": "Roads/Drainage",
    "request_reason": "Catch Basin - Clogged",
    "date_created": "2024-03-18T18:01:18.000",
    "date_modified": "2024-03-18T18:01:18.000",
    "request_status": "Pending",
    "responsible_agency": "Department of Public Works",
    "final_address": "1401 S Rendon St",
    "address_councildis": "B",
    "status": "Pending",
    "rowid": "1076654",
    "final_x": "3670077.35284",
    "final_y": "531554.604995",
    "longitude": "-90.10413785485666",
    "latitude": "29.955932710853986",
    "geocoded_column": {
      "latitude": "29.955932710853986",
      "longitude": "-90.10413785485666"
    }
  },
  {
    "service_request": "2024-1076653",
    "request_type": "Trash/Recycling",
    "request_reason": "Illegal Dumping",
    "date_created": "2024-03-18T17:59:42.000",
    "date_modified": "2024-03-18T17:59:42.000",
    "request_status": "Pending",
    "responsible_agency": "Department of Sanitation",
    "final_address": "PAUGER ST & N JOHNSON ST",
    "address_councildis": "D",
    "status": "Pending",
    "rowid": "1076653",
    "final_x": "3683608.7",
    "final_y": "539527.28",
    "longitude": "-90.06113109146264",
    "latitude": "29.97744874574606",
    "geocoded_column": {
      "latitude": "29.97744874574606",
      "longitude": "-90.06113109146264"
    }
  },
  {
    "service_request": "2024-1076652",
    "request_type": "Property Maintenance",
    "request_reason": "Property Maintenance",
    "date_created": "2024-03-18T17:56:56.000",
    "date_modified": "2024-03-18T17:56:56.000",
    "request_status": "Pending",
    "responsible_agency": "Department of Code Enforcement",
    "final_address": "5838 Providence Pl",
    "address_councildis": "D",
    "status": "Pending",
    "rowid": "1076652",
    "final_x": "3688147.58895",
    "final_y": "554884.189208",
    "longitude": "-90.04625099273447",
    "latitude": "30.019535339565376",
    "geocoded_column": {
      "latitude": "30.019535339565376",
      "longitude": "-90.04625099273447"
    }
  },
  {
    "service_request": "2024-1076651",
    "request_type": "Trash/Recycling",
    "request_reason": "Replace Trash Cart",
    "date_created": "2024-03-18T17:43:41.000",
    "date_modified": "2024-03-18T17:43:42.000",
    "request_status": "Pending",
    "responsible_agency": "Department of Sanitation",
    "final_address": "1019 L. B. Landry Ave",
    "address_councildis": "C",
    "status": "Assigned to Contractor",
    "contractor": "Richards Disposal",
    "rowid": "1076651",
    "final_x": "3690086.18294",
    "final_y": "527697.652799",
    "longitude": "-90.04109445409209",
    "latitude": "29.944722053762902",
    "geocoded_column": {
      "latitude": "29.944722053762902",
      "longitude": "-90.04109445409209"
    }
  },
  {
    "service_request": "2024-1076650",
    "request_type": "Trash/Recycling",
    "request_reason": "Order Recycling Cart",
    "date_created": "2024-03-18T17:32:25.000",
    "date_modified": "2024-03-18T17:32:25.000",
    "request_status": "Pending",
    "responsible_agency": "Department of Sanitation",
    "final_address": "5131 Carlisle Ct",
    "address_councildis": "C",
    "status": "Pending",
    "rowid": "1076650",
    "final_x": "3703133.09297",
    "final_y": "516438.140789",
    "longitude": "-90.00031532916334",
    "latitude": "29.913351281965195",
    "geocoded_column": {
      "latitude": "29.913351281965195",
      "longitude": "-90.00031532916334"
    }
  },
  {
    "service_request": "2024-1076649",
    "request_type": "Property Maintenance",
    "request_reason": "Property Maintenance",
    "date_created": "2024-03-18T17:32:10.000",
    "date_modified": "2024-03-18T17:32:10.000",
    "request_status": "Pending",
    "responsible_agency": "Department of Code Enforcement",
    "final_address": "3509 Danneel St",
    "address_councildis": "B",
    "status": "Pending",
    "rowid": "1076649",
    "final_x": "3673167.89985",
    "final_y": "522720.817978",
    "longitude": "-90.09468049417347",
    "latitude": "29.931551168278055",
    "geocoded_column": {
      "latitude": "29.931551168278055",
      "longitude": "-90.09468049417347"
    }
  },
  {
    "service_request": "2024-1076648",
    "request_type": "Traffic Signals/Signs/Striping/Streetlights",
    "request_reason": "Street Light Outage/Malfunction",
    "date_created": "2024-03-18T17:30:08.000",
    "date_modified": "2024-03-18T17:30:09.000",
    "request_status": "Pending",
    "responsible_agency": "Department of Public Works",
    "final_address": "2035 Gentilly Blvd",
    "address_councildis": "D",
    "status": "Assigned to Contractor",
    "contractor": "Legacy Professional Services",
    "rowid": "1076648",
    "final_x": "3679940.00904",
    "final_y": "544054.443406",
    "longitude": "-90.07256071789855",
    "latitude": "29.990008356062305",
    "geocoded_column": {
      "latitude": "29.990008356062305",
      "longitude": "-90.07256071789855"
    }
  },
  {
    "service_request": "2024-1076647",
    "request_type": "Abandoned Vehicles",
    "request_reason": "Abandoned/Junk Vehicles",
    "date_created": "2024-03-18T17:30:02.000",
    "date_modified": "2024-03-18T17:30:02.000",
    "request_status": "Pending",
    "responsible_agency": "Department of Public Works",
    "final_address": "3310 Danneel St",
    "address_councildis": "B",
    "status": "Pending",
    "rowid": "1076647",
    "final_x": "3673892.98702",
    "final_y": "522947.368699",
    "longitude": "-90.0923837299758",
    "latitude": "29.932152536999872",
    "geocoded_column": {
      "latitude": "29.932152536999872",
      "longitude": "-90.0923837299758"
    }
  },
  {
    "service_request": "2024-1076646",
    "request_type": "Trash/Recycling",
    "request_reason": "Repair Trash Cart",
    "date_created": "2024-03-18T17:17:43.000",
    "date_modified": "2024-03-18T17:17:43.000",
    "request_status": "Pending",
    "responsible_agency": "Department of Sanitation",
    "final_address": "2610 St Philip St",
    "address_councildis": "D",
    "status": "Assigned to Contractor",
    "contractor": "Richards Disposal",
    "rowid": "1076646",
    "final_x": "3677723.6491",
    "final_y": "537559.304584",
    "longitude": "-90.0797860580372",
    "latitude": "29.97221584064073",
    "geocoded_column": {
      "latitude": "29.97221584064073",
      "longitude": "-90.0797860580372"
    }
  },
  {
    "service_request": "2024-1076645",
    "request_type": "Trash/Recycling",
    "request_reason": "Order Recycling Cart",
    "date_created": "2024-03-18T17:14:14.000",
    "date_modified": "2024-03-18T17:14:14.000",
    "request_status": "Pending",
    "responsible_agency": "Department of Sanitation",
    "final_address": "4929 Iberville St",
    "address_councildis": "A",
    "status": "Pending",
    "rowid": "1076645",
    "final_x": "3668636.49447",
    "final_y": "540863.627147",
    "longitude": "-90.10837335705463",
    "latitude": "29.981571837825324",
    "geocoded_column": {
      "latitude": "29.981571837825324",
      "longitude": "-90.10837335705463"
    }
  },
  {
    "service_request": "2024-1076644",
    "request_type": "Roads/Drainage",
    "request_reason": "Catch Basin - Clogged",
    "date_created": "2024-03-18T17:12:32.000",
    "date_modified": "2024-03-18T17:12:32.000",
    "request_status": "Pending",
    "responsible_agency": "Department of Public Works",
    "final_address": "0 BLK English Turn Pkwy",
    "address_councildis": "C",
    "status": "Pending",
    "rowid": "1076644",
    "final_x": "3717809.09125",
    "final_y": "515802.357947",
    "longitude": "-89.95401809490531",
    "latitude": "29.911125486606146",
    "geocoded_column": {
      "latitude": "29.911125486606146",
      "longitude": "-89.95401809490531"
    }
  },
  {
    "service_request": "2024-1076643",
    "request_type": "Traffic Signals/Signs/Striping/Streetlights",
    "request_reason": "Traffic Sign Missing/Damaged",
    "date_created": "2024-03-18T17:01:33.000",
    "date_modified": "2024-03-18T17:01:33.000",
    "request_status": "Pending",
    "responsible_agency": "Department of Public Works",
    "final_address": "1800 BLK Saint Roch Ave",
    "address_councildis": "D",
    "status": "Pending",
    "rowid": "1076643",
    "final_x": "3686098.62252",
    "final_y": "539171.635683",
    "longitude": "-90.05327964745959",
    "latitude": "29.976394599523815",
    "geocoded_column": {
      "latitude": "29.976394599523815",
      "longitude": "-90.05327964745959"
    }
  },
  {
    "service_request": "2024-1076642",
    "request_type": "Traffic Signals/Signs/Striping/Streetlights",
    "request_reason": "Street Light Outage/Malfunction",
    "date_created": "2024-03-18T16:58:10.000",
    "date_modified": "2024-03-18T16:58:11.000",
    "request_status": "Pending",
    "responsible_agency": "Department of Public Works",
    "final_address": "3512 Paris Ave",
    "address_councildis": "D",
    "status": "Assigned to Contractor",
    "contractor": "Legacy Professional Services",
    "rowid": "1076642",
    "final_x": "3679625.54831",
    "final_y": "545252.771023",
    "longitude": "-90.07351239781532",
    "latitude": "29.9933128453861",
    "geocoded_column": {
      "latitude": "29.9933128453861",
      "longitude": "-90.07351239781532"
    }
  },
  {
    "service_request": "2024-1076641",
    "request_type": "Trash/Recycling",
    "request_reason": "Return Trash Cart",
    "date_created": "2024-03-18T16:55:05.000",
    "date_modified": "2024-03-18T16:55:06.000",
    "request_status": "Pending",
    "responsible_agency": "Department of Sanitation",
    "final_address": "145 W Harrison Ave",
    "address_councildis": "A",
    "status": "Assigned to Contractor",
    "contractor": "IV Waste",
    "rowid": "1076641",
    "final_x": "3665777.0896",
    "final_y": "549647.0141",
    "longitude": "-90.11711026268208",
    "latitude": "30.0058068956136",
    "geocoded_column": {
      "latitude": "30.0058068956136",
      "longitude": "-90.11711026268208"
    }
  },
  {
    "service_request": "2024-1076640",
    "request_type": "Trash/Recycling",
    "request_reason": "Order Trash Cart",
    "date_created": "2024-03-18T16:53:02.000",
    "date_modified": "2024-03-18T16:53:02.000",
    "request_status": "Pending",
    "responsible_agency": "Department of Sanitation",
    "final_address": "6050 Constance St",
    "address_councildis": "A",
    "status": "Assigned to Contractor",
    "contractor": "Richards Disposal",
    "rowid": "1076640",
    "final_x": "3664191.65978",
    "final_y": "518985.082295",
    "longitude": "-90.12314211190426",
    "latitude": "29.92154282652703",
    "geocoded_column": {
      "latitude": "29.92154282652703",
      "longitude": "-90.12314211190426"
    }
  },
  {
    "service_request": "2024-1076639",
    "request_type": "Trash/Recycling",
    "request_reason": "Missed Trash Pick-Up",
    "date_created": "2024-03-18T16:47:50.000",
    "date_modified": "2024-03-18T16:47:50.000",
    "request_status": "Pending",
    "responsible_agency": "Department of Sanitation",
    "final_address": "4424 Pauger St",
    "address_councildis": "D",
    "status": "Assigned to Contractor",
    "contractor": "IV Waste",
    "rowid": "1076639",
    "final_x": "3682800.83125",
    "final_y": "548969.433875",
    "longitude": "-90.06335208507231",
    "latitude": "30.00343596390155",
    "geocoded_column": {
      "latitude": "30.00343596390155",
      "longitude": "-90.06335208507231"
    }
  },
  {
    "service_request": "2024-1076638",
    "request_type": "Trash/Recycling",
    "request_reason": "Repair Trash Cart",
    "date_created": "2024-03-18T16:45:47.000",
    "date_modified": "2024-03-18T16:45:47.000",
    "request_status": "Pending",
    "responsible_agency": "Department of Sanitation",
    "final_address": "5231 S Derbigny St",
    "address_councildis": "B",
    "status": "Assigned to Contractor",
    "contractor": "Richards Disposal",
    "rowid": "1076638",
    "final_x": "3668589.04366",
    "final_y": "526313.825022",
    "longitude": "-90.10901425484877",
    "latitude": "29.941566090522752",
    "geocoded_column": {
      "latitude": "29.941566090522752",
      "longitude": "-90.10901425484877"
    }
  },
  {
    "service_request": "2024-1076637",
    "request_type": "Trash/Recycling",
    "request_reason": "Request a Large Item Pick Up",
    "date_created": "2024-03-18T16:45:45.000",
    "date_modified": "2024-03-18T16:45:46.000",
    "request_status": "Pending",
    "responsible_agency": "Department of Sanitation",
    "final_address": "904 Sumner St",
    "address_councildis": "C",
    "status": "Assigned to Contractor",
    "contractor": "Richards Disposal",
    "rowid": "1076637",
    "final_x": "3691187.6063",
    "final_y": "528127.690111",
    "longitude": "-90.03760159029277",
    "latitude": "29.94587030787431",
    "geocoded_column": {
      "latitude": "29.94587030787431",
      "longitude": "-90.03760159029277"
    }
  },
  {
    "service_request": "2024-1076636",
    "request_type": "Trash/Recycling",
    "request_reason": "Repair Trash Cart",
    "date_created": "2024-03-18T16:42:44.000",
    "date_modified": "2024-03-18T16:42:44.000",
    "request_status": "Pending",
    "responsible_agency": "Department of Sanitation",
    "final_address": "3601 Franklin Ave",
    "address_councildis": "D",
    "status": "Assigned to Contractor",
    "contractor": "IV Waste",
    "rowid": "1076636",
    "final_x": "3687224.25711",
    "final_y": "546110.127184",
    "longitude": "-90.04947903007469",
    "latitude": "29.995438356936866",
    "geocoded_column": {
      "latitude": "29.995438356936866",
      "longitude": "-90.04947903007469"
    }
  },
  {
    "service_request": "2024-1076635",
    "request_type": "Trash/Recycling",
    "request_reason": "Order Recycling Cart",
    "date_created": "2024-03-18T16:42:28.000",
    "date_modified": "2024-03-18T16:42:28.000",
    "request_status": "Pending",
    "responsible_agency": "Department of Sanitation",
    "final_address": "3601 Franklin Ave",
    "address_councildis": "D",
    "status": "Pending",
    "rowid": "1076635",
    "final_x": "3687224.25711",
    "final_y": "546110.127184",
    "longitude": "-90.04947903007469",
    "latitude": "29.995438356936866",
    "geocoded_column": {
      "latitude": "29.995438356936866",
      "longitude": "-90.04947903007469"
    }
  },
  {
    "service_request": "2024-1076634",
    "request_type": "Trash/Recycling",
    "request_reason": "Order Recycling Cart",
    "date_created": "2024-03-18T16:41:12.000",
    "date_modified": "2024-03-18T16:41:13.000",
    "request_status": "Pending",
    "responsible_agency": "Department of Sanitation",
    "final_address": "904 Sumner St",
    "address_councildis": "C",
    "status": "Pending",
    "rowid": "1076634",
    "final_x": "3691187.6063",
    "final_y": "528127.690111",
    "longitude": "-90.03760159029277",
    "latitude": "29.94587030787431",
    "geocoded_column": {
      "latitude": "29.94587030787431",
      "longitude": "-90.03760159029277"
    }
  },
  {
    "service_request": "2024-1076633",
    "request_type": "Trash/Recycling",
    "request_reason": "Order Recycling Cart",
    "date_created": "2024-03-18T16:40:38.000",
    "date_modified": "2024-03-18T16:40:38.000",
    "request_status": "Pending",
    "responsible_agency": "Department of Sanitation",
    "final_address": "6031 Coliseum St",
    "address_councildis": "A",
    "status": "Pending",
    "rowid": "1076633",
    "final_x": "3664749.75162",
    "final_y": "520314.556856",
    "longitude": "-90.1213360618867",
    "latitude": "29.925182245447033",
    "geocoded_column": {
      "latitude": "29.925182245447033",
      "longitude": "-90.1213360618867"
    }
  },
  {
    "service_request": "2024-1076632",
    "request_type": "Trash/Recycling",
    "request_reason": "Request a Large Item Pick Up",
    "date_created": "2024-03-18T16:37:24.000",
    "date_modified": "2024-03-18T16:37:25.000",
    "request_status": "Pending",
    "responsible_agency": "Department of Sanitation",
    "final_address": "7940 Windward Ct",
    "address_councildis": "E",
    "status": "Assigned to Contractor",
    "contractor": "Waste Pro",
    "rowid": "1076632",
    "final_x": "3715010.91986",
    "final_y": "570403.880935",
    "longitude": "-89.96078536894342",
    "latitude": "30.061351176320255",
    "geocoded_column": {
      "latitude": "30.061351176320255",
      "longitude": "-89.96078536894342"
    }
  },
  {
    "service_request": "2024-1076631",
    "request_type": "Parks & Parkways",
    "request_reason": "Request Tree Service (Right of Way/Public Property)",
    "date_created": "2024-03-18T16:35:36.000",
    "date_modified": "2024-03-18T16:35:36.000",
    "request_status": "Pending",
    "responsible_agency": "Department of Parks & Parkway",
    "final_address": "3247 Calhoun St",
    "address_councildis": "A",
    "status": "Pending",
    "rowid": "1076631",
    "final_x": "3667449.26938",
    "final_y": "528741.466688",
    "longitude": "-90.11253110210805",
    "latitude": "29.948274756990095",
    "geocoded_column": {
      "latitude": "29.948274756990095",
      "longitude": "-90.11253110210805"
    }
  },
  {
    "service_request": "2024-1076630",
    "request_type": "Trash/Recycling",
    "request_reason": "Order Trash Cart",
    "date_created": "2024-03-18T16:32:55.000",
    "date_modified": "2024-03-18T16:32:55.000",
    "request_status": "Pending",
    "responsible_agency": "Department of Sanitation",
    "final_address": "2926 Jackson Ave",
    "address_councildis": "B",
    "status": "Assigned to Contractor",
    "contractor": "Richards Disposal",
    "rowid": "1076630",
    "final_x": "3674340.09281",
    "final_y": "527876.041983",
    "longitude": "-90.09080353615315",
    "latitude": "29.9456914553183",
    "geocoded_column": {
      "latitude": "29.9456914553183",
      "longitude": "-90.09080353615315"
    }
  },
  {
    "service_request": "2024-1076629",
    "request_type": "Trash/Recycling",
    "request_reason": "Request a Large Item Pick Up",
    "date_created": "2024-03-18T16:26:27.000",
    "date_modified": "2024-03-18T16:26:27.000",
    "request_status": "Pending",
    "responsible_agency": "Department of Sanitation",
    "final_address": "5620 St Helena Pl",
    "address_councildis": "E",
    "status": "Assigned to Contractor",
    "contractor": "Waste Pro",
    "rowid": "1076629",
    "final_x": "3726380.20857",
    "final_y": "564443.079649",
    "longitude": "-89.92507924172597",
    "latitude": "30.044582113128058",
    "geocoded_column": {
      "latitude": "30.044582113128058",
      "longitude": "-89.92507924172597"
    }
  },
  {
    "service_request": "2024-1076628",
    "request_type": "Roads/Drainage",
    "request_reason": "Pothole",
    "date_created": "2024-03-18T16:25:35.000",
    "date_modified": "2024-03-18T16:25:36.000",
    "request_status": "Pending",
    "responsible_agency": "Department of Public Works",
    "final_address": "3000 St Roch Ave",
    "address_councildis": "D",
    "status": "Pending",
    "rowid": "1076628",
    "final_x": "3685812.19222",
    "final_y": "543820.392142",
    "longitude": "-90.05402035474606",
    "latitude": "29.989185831718906",
    "geocoded_column": {
      "latitude": "29.989185831718906",
      "longitude": "-90.05402035474606"
    }
  },
  {
    "service_request": "2024-1076627",
    "request_type": "Health Related Request",
    "request_reason": "Noise Ordinance Complaint",
    "date_created": "2024-03-18T16:23:12.000",
    "date_modified": "2024-03-18T16:23:12.000",
    "request_status": "Pending",
    "responsible_agency": "Health Department",
    "final_address": "1111 Canal St, New Orleans, Louisiana, 70112",
    "address_councildis": "C",
    "status": "Pending",
    "rowid": "1076627",
    "final_x": "3679986.71823",
    "final_y": "531707.587395",
    "longitude": "-90.07284220329849",
    "latitude": "29.956057344840524",
    "geocoded_column": {
      "latitude": "29.956057344840524",
      "longitude": "-90.07284220329849"
    }
  },
  {
    "service_request": "2024-1076626",
    "request_type": "Abandoned Vehicles",
    "request_reason": "Abandoned/Junk Vehicles",
    "date_created": "2024-03-18T16:22:26.000",
    "date_modified": "2024-03-18T16:22:26.000",
    "request_status": "Pending",
    "responsible_agency": "Department of Public Works",
    "final_address": "1228 Cambronne St",
    "address_councildis": "A",
    "status": "Pending",
    "rowid": "1076626",
    "final_x": "3661302.00704",
    "final_y": "529306.519361",
    "longitude": "-90.1319219350396",
    "latitude": "29.95000712672728",
    "geocoded_column": {
      "latitude": "29.95000712672728",
      "longitude": "-90.1319219350396"
    }
  },
  {
    "service_request": "2024-1076625",
    "request_type": "Trash/Recycling",
    "request_reason": "Replace Trash Cart",
    "date_created": "2024-03-18T16:20:30.000",
    "date_modified": "2024-03-18T16:20:30.000",
    "request_status": "Pending",
    "responsible_agency": "Department of Sanitation",
    "final_address": "1919 N Rampart St",
    "address_councildis": "C",
    "status": "Assigned to Contractor",
    "contractor": "IV Waste",
    "rowid": "1076625",
    "final_x": "3684061.78485",
    "final_y": "535893.855815",
    "longitude": "-90.05982764125154",
    "latitude": "29.967444253204583",
    "geocoded_column": {
      "latitude": "29.967444253204583",
      "longitude": "-90.05982764125154"
    }
  },
  {
    "service_request": "2024-1076624",
    "request_type": "Mosquito, Termite & Rodent Control",
    "request_reason": "Non-Rodent Complaint (Mice, Possums, Snakes)",
    "date_created": "2024-03-18T16:19:39.000",
    "date_modified": "2024-03-18T16:19:39.000",
    "request_status": "Pending",
    "responsible_agency": "Mosquito, Termite & Rodent Control Board",
    "final_address": "2312 Allen Toussaint Blvd",
    "address_councildis": "D",
    "status": "Pending",
    "rowid": "1076624",
    "final_x": "3684378.8781",
    "final_y": "555681.031449",
    "longitude": "-90.05813082709219",
    "latitude": "30.021842222997655",
    "geocoded_column": {
      "latitude": "30.021842222997655",
      "longitude": "-90.05813082709219"
    }
  },
  {
    "service_request": "2024-1076623",
    "request_type": "Parks & Parkways",
    "request_reason": "Request Tree Service (Right of Way/Public Property)",
    "date_created": "2024-03-18T16:19:12.000",
    "date_modified": "2024-03-18T16:19:12.000",
    "request_status": "Pending",
    "responsible_agency": "Department of Parks & Parkway",
    "final_address": "7802 Sycamore St",
    "address_councildis": "A",
    "status": "Pending",
    "rowid": "1076623",
    "final_x": "3665106.94279",
    "final_y": "530216.040961",
    "longitude": "-90.11987751600891",
    "latitude": "29.95239777081363",
    "geocoded_column": {
      "latitude": "29.95239777081363",
      "longitude": "-90.11987751600891"
    }
  },
  {
    "service_request": "2024-1076622",
    "request_type": "Parks & Parkways",
    "request_reason": "Request Tree Service (Right of Way/Public Property)",
    "date_created": "2024-03-18T16:18:18.000",
    "date_modified": "2024-03-18T16:18:18.000",
    "request_status": "Pending",
    "responsible_agency": "Department of Parks & Parkway",
    "final_address": "7802 Sycamore St",
    "address_councildis": "A",
    "status": "Pending",
    "rowid": "1076622",
    "final_x": "3665106.94279",
    "final_y": "530216.040961",
    "longitude": "-90.11987751600891",
    "latitude": "29.95239777081363",
    "geocoded_column": {
      "latitude": "29.95239777081363",
      "longitude": "-90.11987751600891"
    }
  },
  {
    "service_request": "2024-1076621",
    "request_type": "Abandoned Vehicles",
    "request_reason": "Abandoned/Junk Vehicles",
    "date_created": "2024-03-18T16:17:55.000",
    "date_modified": "2024-03-18T16:17:55.000",
    "request_status": "Pending",
    "responsible_agency": "Department of Public Works",
    "final_address": "1220 Cambronne St",
    "address_councildis": "A",
    "status": "Pending",
    "rowid": "1076621",
    "final_x": "3661266.36653",
    "final_y": "529266.946753",
    "longitude": "-90.13203577931166",
    "latitude": "29.949899342213094",
    "geocoded_column": {
      "latitude": "29.949899342213094",
      "longitude": "-90.13203577931166"
    }
  },
  {
    "service_request": "2024-1076620",
    "request_type": "Trash/Recycling",
    "request_reason": "Illegal Dumping",
    "date_created": "2024-03-18T16:13:41.000",
    "date_modified": "2024-03-18T16:13:41.000",
    "request_status": "Pending",
    "responsible_agency": "Department of Sanitation",
    "final_address": "ROBERT E LEE BLVD & PEOPLES AVE",
    "address_councildis": "D",
    "status": "Pending",
    "rowid": "1076620",
    "final_x": "3687747.6",
    "final_y": "556048.88",
    "longitude": "-90.04747352425831",
    "latitude": "30.0227501546197",
    "geocoded_column": {
      "latitude": "30.0227501546197",
      "longitude": "-90.04747352425831"
    }
  },
  {
    "service_request": "2024-1076619",
    "request_type": "Traffic Signals/Signs/Striping/Streetlights",
    "request_reason": "Additional signage",
    "date_created": "2024-03-18T16:13:00.000",
    "date_modified": "2024-03-18T16:13:00.000",
    "request_status": "Pending",
    "responsible_agency": "Department of Public Works",
    "final_address": "4500 BLK Touro St",
    "address_councildis": "D",
    "status": "Pending",
    "rowid": "1076619",
    "final_x": "3683180.70086",
    "final_y": "549316.440853",
    "longitude": "-90.06213985681975",
    "latitude": "30.00437852601105",
    "geocoded_column": {
      "latitude": "30.00437852601105",
      "longitude": "-90.06213985681975"
    }
  },
  {
    "service_request": "2024-1076617",
    "request_type": "Roads/Drainage",
    "request_reason": "Catch Basin - Clogged",
    "date_created": "2024-03-18T16:11:30.000",
    "date_modified": "2024-03-18T16:11:30.000",
    "request_status": "Pending",
    "responsible_agency": "Department of Public Works",
    "final_address": "1519 Calhoun St",
    "address_councildis": "A",
    "status": "Pending",
    "rowid": "1076617",
    "final_x": "3664625.87418",
    "final_y": "522354.201722",
    "longitude": "-90.12165902074278",
    "latitude": "29.930794228562856",
    "geocoded_column": {
      "latitude": "29.930794228562856",
      "longitude": "-90.12165902074278"
    }
  },
  {
    "service_request": "2024-1076618",
    "request_type": "Roads/Drainage",
    "request_reason": "Catch Basin - Clogged",
    "date_created": "2024-03-18T16:11:30.000",
    "date_modified": "2024-03-18T16:11:30.000",
    "request_status": "Pending",
    "responsible_agency": "Department of Public Works",
    "final_address": "1519 Calhoun St",
    "address_councildis": "A",
    "status": "Pending",
    "rowid": "1076618",
    "final_x": "3664625.87418",
    "final_y": "522354.201722",
    "longitude": "-90.12165902074278",
    "latitude": "29.930794228562856",
    "geocoded_column": {
      "latitude": "29.930794228562856",
      "longitude": "-90.12165902074278"
    }
  },
  {
    "service_request": "2024-1076616",
    "request_type": "Traffic Signals/Signs/Striping/Streetlights",
    "request_reason": "Request for Stop Sign",
    "date_created": "2024-03-18T16:10:31.000",
    "date_modified": "2024-03-18T16:10:31.000",
    "request_status": "Pending",
    "responsible_agency": "Department of Public Works",
    "final_address": "4400 BLK Touro St",
    "address_councildis": "D",
    "status": "Pending",
    "rowid": "1076616",
    "final_x": "3683209.38683",
    "final_y": "548948.139752",
    "longitude": "-90.0620621415667",
    "latitude": "30.003364955504743",
    "geocoded_column": {
      "latitude": "30.003364955504743",
      "longitude": "-90.0620621415667"
    }
  },
  {
    "service_request": "2024-1076615",
    "request_type": "Roads/Drainage",
    "request_reason": "Pothole",
    "date_created": "2024-03-18T16:10:22.000",
    "date_modified": "2024-03-18T16:10:23.000",
    "request_status": "Pending",
    "responsible_agency": "Department of Public Works",
    "final_address": "15532 Dwyer Blvd",
    "address_councildis": "E",
    "status": "Pending",
    "rowid": "1076615",
    "final_x": "3731047.68359",
    "final_y": "563718.351329",
    "longitude": "-89.91035655908873",
    "latitude": "30.04243086016733",
    "geocoded_column": {
      "latitude": "30.04243086016733",
      "longitude": "-89.91035655908873"
    }
  },
  {
    "service_request": "2024-1076614",
    "request_type": "Traffic Signals/Signs/Striping/Streetlights",
    "request_reason": "Street Light Knocked Down/Leaning",
    "date_created": "2024-03-18T16:09:21.000",
    "date_modified": "2024-03-18T16:26:35.000",
    "request_status": "Pending",
    "responsible_agency": "Department of Public Works",
    "final_address": "1141 Royal St",
    "address_councildis": "C",
    "status": "Pending",
    "contractor": "Legacy Professional Services",
    "rowid": "1076614",
    "final_x": "3683610.023",
    "final_y": "533903.300677",
    "longitude": "-90.06132409522782",
    "latitude": "29.961984710340097",
    "geocoded_column": {
      "latitude": "29.961984710340097",
      "longitude": "-90.06132409522782"
    }
  },
  {
    "service_request": "2024-1076613",
    "request_type": "Abandoned Vehicles",
    "request_reason": "Abandoned/Junk Vehicles",
    "date_created": "2024-03-18T16:07:50.000",
    "date_modified": "2024-03-18T16:07:50.000",
    "request_status": "Pending",
    "responsible_agency": "Department of Public Works",
    "final_address": "7827 Hampson St",
    "address_councildis": "A",
    "status": "Pending",
    "rowid": "1076613",
    "final_x": "3661461.30867",
    "final_y": "526543.025854",
    "longitude": "-90.13151046250039",
    "latitude": "29.94240380806146",
    "geocoded_column": {
      "latitude": "29.94240380806146",
      "longitude": "-90.13151046250039"
    }
  },
  {
    "service_request": "2024-1076612",
    "request_type": "Roads/Drainage",
    "request_reason": "Catch Basin - Clogged",
    "date_created": "2024-03-18T16:04:33.000",
    "date_modified": "2024-03-18T16:04:33.000",
    "request_status": "Pending",
    "responsible_agency": "Department of Public Works",
    "final_address": "1519 Calhoun St",
    "address_councildis": "A",
    "status": "Pending",
    "rowid": "1076612",
    "final_x": "3664625.87418",
    "final_y": "522354.201722",
    "longitude": "-90.12165902074278",
    "latitude": "29.930794228562856",
    "geocoded_column": {
      "latitude": "29.930794228562856",
      "longitude": "-90.12165902074278"
    }
  },
  {
    "service_request": "2024-1076611",
    "request_type": "Trash/Recycling",
    "request_reason": "Request a Large Item Pick Up",
    "date_created": "2024-03-18T16:04:13.000",
    "date_modified": "2024-03-18T16:04:14.000",
    "request_status": "Pending",
    "responsible_agency": "Department of Sanitation",
    "final_address": "DELACHAISE ST & S MIRO ST",
    "address_councildis": "B",
    "status": "Assigned to Contractor",
    "contractor": "Richards Disposal",
    "rowid": "1076611",
    "final_x": "3671299.8",
    "final_y": "527995.78",
    "longitude": "-90.10039869783982",
    "latitude": "29.946110997741766",
    "geocoded_column": {
      "latitude": "29.946110997741766",
      "longitude": "-90.10039869783982"
    }
  },
  {
    "service_request": "2024-1076610",
    "request_type": "Property Maintenance",
    "request_reason": "Property Maintenance",
    "date_created": "2024-03-18T16:04:11.000",
    "date_modified": "2024-03-18T16:04:11.000",
    "request_status": "Pending",
    "responsible_agency": "Department of Code Enforcement",
    "final_address": "607 Lang St",
    "address_councildis": "C",
    "status": "Pending",
    "rowid": "1076610",
    "final_x": "3702005.96106",
    "final_y": "520722.266937",
    "longitude": "-90.0037159709561",
    "latitude": "29.92516716499408",
    "geocoded_column": {
      "latitude": "29.92516716499408",
      "longitude": "-90.0037159709561"
    }
  },
  {
    "service_request": "2024-1076609",
    "request_type": "Abandoned Vehicles",
    "request_reason": "Abandoned/Junk Vehicles",
    "date_created": "2024-03-18T16:04:06.000",
    "date_modified": "2024-03-18T16:04:06.000",
    "request_status": "Pending",
    "responsible_agency": "Department of Public Works",
    "final_address": "1200 BLK Cambronne St",
    "address_councildis": "A",
    "status": "Pending",
    "rowid": "1076609",
    "final_x": "3661284.28402",
    "final_y": "529229.064689",
    "longitude": "-90.13198045926522",
    "latitude": "29.949794662147497",
    "geocoded_column": {
      "latitude": "29.949794662147497",
      "longitude": "-90.13198045926522"
    }
  },
  {
    "service_request": "2024-1076608",
    "request_type": "Property Maintenance",
    "request_reason": "Property Maintenance",
    "date_created": "2024-03-18T16:04:01.000",
    "date_modified": "2024-03-18T16:04:01.000",
    "request_status": "Pending",
    "responsible_agency": "Department of Code Enforcement",
    "final_address": "7835 Maple St",
    "address_councildis": "A",
    "status": "Pending",
    "rowid": "1076608",
    "final_x": "3661675.19731",
    "final_y": "526801.963966",
    "longitude": "-90.13082658471063",
    "latitude": "29.943109635193142",
    "geocoded_column": {
      "latitude": "29.943109635193142",
      "longitude": "-90.13082658471063"
    }
  },
  {
    "service_request": "2024-1076607",
    "request_type": "Roads/Drainage",
    "request_reason": "Catch Basin - Clogged",
    "date_created": "2024-03-18T16:00:35.000",
    "date_modified": "2024-03-18T16:00:36.000",
    "request_status": "Pending",
    "responsible_agency": "Department of Public Works",
    "final_address": "417 Audubon Blvd",
    "address_councildis": "B",
    "status": "Pending",
    "rowid": "1076607",
    "final_x": "3667485.91444",
    "final_y": "530330.48877",
    "longitude": "-90.11236193645047",
    "latitude": "29.952642976675925",
    "geocoded_column": {
      "latitude": "29.952642976675925",
      "longitude": "-90.11236193645047"
    }
  },
  {
    "service_request": "2024-1076606",
    "request_type": "Roads/Drainage",
    "request_reason": "Road Shoulder Repair",
    "date_created": "2024-03-18T16:00:11.000",
    "date_modified": "2024-03-18T16:00:12.000",
    "request_status": "Pending",
    "responsible_agency": "Department of Public Works",
    "final_address": "205 Norland Ave",
    "address_councildis": "C",
    "status": "Pending",
    "rowid": "1076606",
    "final_x": "3706292.04049",
    "final_y": "520327.67244",
    "longitude": "-89.9902009025948",
    "latitude": "29.923944717172876",
    "geocoded_column": {
      "latitude": "29.923944717172876",
      "longitude": "-89.9902009025948"
    }
  },
  {
    "service_request": "2024-1076605",
    "request_type": "Parks & Parkways",
    "request_reason": "Request Tree Service (Right of Way/Public Property)",
    "date_created": "2024-03-18T15:59:11.000",
    "date_modified": "2024-03-18T15:59:11.000",
    "request_status": "Pending",
    "responsible_agency": "Department of Parks & Parkway",
    "final_address": "AUDUBON BLVD & FONTAINEBLEAU DR",
    "address_councildis": "A",
    "status": "Pending",
    "rowid": "1076605",
    "final_x": "3667348.6",
    "final_y": "530285.98",
    "longitude": "-90.11279701214708",
    "latitude": "29.952524614624952",
    "geocoded_column": {
      "latitude": "29.952524614624952",
      "longitude": "-90.11279701214708"
    }
  },
  {
    "service_request": "2024-1076604",
    "request_type": "Roads/Drainage",
    "request_reason": "Catch Basin - Clogged",
    "date_created": "2024-03-18T15:59:07.000",
    "date_modified": "2024-03-18T15:59:07.000",
    "request_status": "Pending",
    "responsible_agency": "Department of Public Works",
    "final_address": "1519 Calhoun St",
    "address_councildis": "A",
    "status": "Pending",
    "rowid": "1076604",
    "final_x": "3664625.87418",
    "final_y": "522354.201722",
    "longitude": "-90.12165902074278",
    "latitude": "29.930794228562856",
    "geocoded_column": {
      "latitude": "29.930794228562856",
      "longitude": "-90.12165902074278"
    }
  },
  {
    "service_request": "2024-1076603",
    "request_type": "Roads/Drainage",
    "request_reason": "Pothole",
    "date_created": "2024-03-18T15:58:47.000",
    "date_modified": "2024-03-18T15:58:48.000",
    "request_status": "Pending",
    "responsible_agency": "Department of Public Works",
    "final_address": "200 BLK Norland Ave",
    "address_councildis": "C",
    "status": "Pending",
    "rowid": "1076603",
    "final_x": "3706505.18931",
    "final_y": "520398.34449",
    "longitude": "-89.9895254575577",
    "latitude": "29.924132168910276",
    "geocoded_column": {
      "latitude": "29.924132168910276",
      "longitude": "-89.9895254575577"
    }
  },
  {
    "service_request": "2024-1076602",
    "request_type": "Trash/Recycling",
    "request_reason": "Dead Animal Pick Up",
    "date_created": "2024-03-18T15:58:28.000",
    "date_modified": "2024-03-18T16:58:37.000",
    "case_close_date": "2024-03-18T11:58:37.000",
    "request_status": "Closed",
    "responsible_agency": "Department of Sanitation",
    "final_address": "1951 N Dorgenois St",
    "address_councildis": "D",
    "status": "Assigned to Contractor",
    "contractor": "IV Waste",
    "contractor_action": "Completed",
    "rowid": "1076602",
    "final_x": "3681819.59228",
    "final_y": "541269.862668",
    "longitude": "-90.06672085043864",
    "latitude": "29.982294738042732",
    "geocoded_column": {
      "latitude": "29.982294738042732",
      "longitude": "-90.06672085043864"
    }
  },
  {
    "service_request": "2024-1076601",
    "request_type": "Mosquito, Termite & Rodent Control",
    "request_reason": "Rodent Complaint (Rats)",
    "date_created": "2024-03-18T15:51:36.000",
    "date_modified": "2024-03-18T15:52:17.000",
    "request_status": "Pending",
    "responsible_agency": "Mosquito, Termite & Rodent Control Board",
    "final_address": "1000 BLK Philip St",
    "address_councildis": "B",
    "status": "Pending",
    "rowid": "1076601",
    "final_x": "3678658.32539",
    "final_y": "521693.676217",
    "longitude": "-90.07738340473408",
    "latitude": "29.928562525600142",
    "geocoded_column": {
      "latitude": "29.928562525600142",
      "longitude": "-90.07738340473408"
    }
  },
  {
    "service_request": "2024-1076600",
    "request_type": "Trash/Recycling",
    "request_reason": "Repair Trash Cart",
    "date_created": "2024-03-18T15:50:52.000",
    "date_modified": "2024-03-18T15:50:53.000",
    "request_status": "Pending",
    "responsible_agency": "Department of Sanitation",
    "final_address": "8133 Apple St",
    "address_councildis": "A",
    "status": "Assigned to Contractor",
    "contractor": "Richards Disposal",
    "rowid": "1076600",
    "final_x": "3665185.67584",
    "final_y": "532314.636291",
    "longitude": "-90.1195587193122",
    "latitude": "29.958165931731028",
    "geocoded_column": {
      "latitude": "29.958165931731028",
      "longitude": "-90.1195587193122"
    }
  },
  {
    "service_request": "2024-1076599",
    "request_type": "Trash/Recycling",
    "request_reason": "Request a Large Item Pick Up",
    "date_created": "2024-03-18T15:49:05.000",
    "date_modified": "2024-03-18T15:49:05.000",
    "request_status": "Pending",
    "responsible_agency": "Department of Sanitation",
    "final_address": "1511 Egania St",
    "address_councildis": "E",
    "status": "Assigned to Contractor",
    "contractor": "Waste Pro",
    "rowid": "1076599",
    "final_x": "3697285.79824",
    "final_y": "535622.505734",
    "longitude": "-90.01807603775082",
    "latitude": "29.966287383803177",
    "geocoded_column": {
      "latitude": "29.966287383803177",
      "longitude": "-90.01807603775082"
    }
  },
  {
    "service_request": "2024-1076598",
    "request_type": "Trash/Recycling",
    "request_reason": "Missed Trash Pick-Up",
    "date_created": "2024-03-18T15:46:45.000",
    "date_modified": "2024-03-18T16:57:55.000",
    "case_close_date": "2024-03-18T11:57:55.000",
    "request_status": "Closed",
    "responsible_agency": "Department of Sanitation",
    "final_address": "1715 France St",
    "address_councildis": "D",
    "status": "Assigned to Contractor",
    "contractor": "IV Waste",
    "contractor_action": "Completed",
    "rowid": "1076598",
    "final_x": "3693020.20886",
    "final_y": "537521.33044",
    "longitude": "-90.03147850327866",
    "latitude": "29.97164242045645",
    "geocoded_column": {
      "latitude": "29.97164242045645",
      "longitude": "-90.03147850327866"
    }
  },
  {
    "service_request": "2024-1076597",
    "request_type": "Trash/Recycling",
    "request_reason": "Request a Large Item Pick Up",
    "date_created": "2024-03-18T15:46:10.000",
    "date_modified": "2024-03-18T16:46:06.000",
    "case_close_date": "2024-03-18T11:46:06.000",
    "request_status": "Closed",
    "responsible_agency": "Department of Sanitation",
    "final_address": "3417 Derby Pl",
    "address_councildis": "A",
    "status": "Assigned to Contractor",
    "contractor": "IV Waste",
    "contractor_action": "Completed",
    "rowid": "1076597",
    "final_x": "3677219.63842",
    "final_y": "542979.327053",
    "longitude": "-90.0811907562416",
    "latitude": "29.987134183920354",
    "geocoded_column": {
      "latitude": "29.987134183920354",
      "longitude": "-90.0811907562416"
    }
  },
  {
    "service_request": "2024-1076596",
    "request_type": "Trash/Recycling",
    "request_reason": "Request a Large Item Pick Up",
    "date_created": "2024-03-18T15:46:02.000",
    "date_modified": "2024-03-18T15:46:02.000",
    "request_status": "Pending",
    "responsible_agency": "Department of Sanitation",
    "final_address": "3538 Franklin Ave",
    "address_councildis": "D",
    "status": "Assigned to Contractor",
    "contractor": "IV Waste",
    "rowid": "1076596",
    "final_x": "3687054.81596",
    "final_y": "546002.40584",
    "longitude": "-90.05001808822894",
    "latitude": "29.995147381097382",
    "geocoded_column": {
      "latitude": "29.995147381097382",
      "longitude": "-90.05001808822894"
    }
  },
  {
    "service_request": "2024-1076595",
    "request_type": "Traffic Signals/Signs/Striping/Streetlights",
    "request_reason": "Traffic Signal Malfunctioning/Damaged",
    "date_created": "2024-03-18T15:44:07.000",
    "date_modified": "2024-03-18T15:44:07.000",
    "request_status": "Pending",
    "responsible_agency": "Department of Public Works",
    "final_address": "6171 Canal Blvd",
    "address_councildis": "A",
    "status": "Pending",
    "rowid": "1076595",
    "final_x": "3668728.75687",
    "final_y": "548469.559698",
    "longitude": "-90.107825014835",
    "latitude": "30.00248283009365",
    "geocoded_column": {
      "latitude": "30.00248283009365",
      "longitude": "-90.107825014835"
    }
  },
  {
    "service_request": "2024-1076594",
    "request_type": "Trash/Recycling",
    "request_reason": "Request a Large Item Pick Up",
    "date_created": "2024-03-18T15:43:50.000",
    "date_modified": "2024-03-18T15:43:51.000",
    "request_status": "Pending",
    "responsible_agency": "Department of Sanitation",
    "final_address": "14 Castle Pines Dr",
    "address_councildis": "C",
    "status": "Assigned to Contractor",
    "contractor": "Richards Disposal",
    "rowid": "1076594",
    "final_x": "3719680.04479",
    "final_y": "511508.910576",
    "longitude": "-89.948276799906",
    "latitude": "29.899257967580226",
    "geocoded_column": {
      "latitude": "29.899257967580226",
      "longitude": "-89.948276799906"
    }
  },
  {
    "service_request": "2024-1076593",
    "request_type": "Trash/Recycling",
    "request_reason": "Return Trash Cart",
    "date_created": "2024-03-18T15:42:26.000",
    "date_modified": "2024-03-18T15:42:26.000",
    "request_status": "Pending",
    "responsible_agency": "Department of Sanitation",
    "final_address": "3717 Iberville St",
    "address_councildis": "B",
    "status": "Assigned to Contractor",
    "contractor": "Richards Disposal",
    "rowid": "1076593",
    "final_x": "3672505.70375",
    "final_y": "537869.020681",
    "longitude": "-90.09625468442958",
    "latitude": "29.973223385442683",
    "geocoded_column": {
      "latitude": "29.973223385442683",
      "longitude": "-90.09625468442958"
    }
  },
  {
    "service_request": "2024-1076592",
    "request_type": "Roads/Drainage",
    "request_reason": "Street Flooding / Drainage",
    "date_created": "2024-03-18T15:42:20.000",
    "date_modified": "2024-03-18T15:42:20.000",
    "request_status": "Pending",
    "responsible_agency": "Department of Public Works",
    "final_address": "6220 Perlita Dr",
    "address_councildis": "D",
    "status": "Pending",
    "rowid": "1076592",
    "final_x": "3678314.74446",
    "final_y": "555782.854169",
    "longitude": "-90.07728839474832",
    "latitude": "30.022306370456608",
    "geocoded_column": {
      "latitude": "30.022306370456608",
      "longitude": "-90.07728839474832"
    }
  },
  {
    "service_request": "2024-1076591",
    "request_type": "Trash/Recycling",
    "request_reason": "Request a Large Item Pick Up",
    "date_created": "2024-03-18T15:40:30.000",
    "date_modified": "2024-03-18T15:40:31.000",
    "request_status": "Pending",
    "responsible_agency": "Department of Sanitation",
    "final_address": "7701 Allison Rd",
    "address_councildis": "E",
    "status": "Assigned to Contractor",
    "contractor": "Waste Pro",
    "rowid": "1076591",
    "final_x": "3700034.22365",
    "final_y": "560730.194206",
    "longitude": "-90.00847985120188",
    "latitude": "30.035237121820533",
    "geocoded_column": {
      "latitude": "30.035237121820533",
      "longitude": "-90.00847985120188"
    }
  },
  {
    "service_request": "2024-1076590",
    "request_type": "Trash/Recycling",
    "request_reason": "Illegal Dumping",
    "date_created": "2024-03-18T15:38:47.000",
    "date_modified": "2024-03-18T15:38:48.000",
    "request_status": "Pending",
    "responsible_agency": "Department of Sanitation",
    "final_address": "OLIVE ST & CHERRY ST",
    "address_councildis": "A",
    "status": "Pending",
    "rowid": "1076590",
    "final_x": "3664121.4",
    "final_y": "537021.68",
    "longitude": "-90.12276239172266",
    "latitude": "29.971139712204224",
    "geocoded_column": {
      "latitude": "29.971139712204224",
      "longitude": "-90.12276239172266"
    }
  },
  {
    "service_request": "2024-1076589",
    "request_type": "Trash/Recycling",
    "request_reason": "Order Recycling Cart",
    "date_created": "2024-03-18T15:34:39.000",
    "date_modified": "2024-03-18T15:34:40.000",
    "request_status": "Pending",
    "responsible_agency": "Department of Sanitation",
    "final_address": "5800 Pembrook Dr",
    "address_councildis": "C",
    "status": "Pending",
    "rowid": "1076589",
    "final_x": "3705090.84414",
    "final_y": "520765.095737",
    "longitude": "-89.99397647888523",
    "latitude": "29.925186140238207",
    "geocoded_column": {
      "latitude": "29.925186140238207",
      "longitude": "-89.99397647888523"
    }
  },
  {
    "service_request": "2024-1076588",
    "request_type": "Trash/Recycling",
    "request_reason": "Request a Large Item Pick Up",
    "date_created": "2024-03-18T15:33:05.000",
    "date_modified": "2024-03-18T15:33:05.000",
    "request_status": "Pending",
    "responsible_agency": "Department of Sanitation",
    "final_address": "6751 Louisville St",
    "address_councildis": "A",
    "status": "Assigned to Contractor",
    "contractor": "IV Waste",
    "rowid": "1076588",
    "final_x": "3668284.57838",
    "final_y": "552489.133718",
    "longitude": "-90.10909256377103",
    "latitude": "30.01354830887861",
    "geocoded_column": {
      "latitude": "30.01354830887861",
      "longitude": "-90.10909256377103"
    }
  },
  {
    "service_request": "2024-1076587",
    "request_type": "Trash/Recycling",
    "request_reason": "Request a Large Item Pick Up",
    "date_created": "2024-03-18T15:32:26.000",
    "date_modified": "2024-03-18T15:32:27.000",
    "request_status": "Pending",
    "responsible_agency": "Department of Sanitation",
    "final_address": "7153 Bunker Hill Rd",
    "address_councildis": "E",
    "status": "Assigned to Contractor",
    "contractor": "Waste Pro",
    "rowid": "1076587",
    "final_x": "3705661.63249",
    "final_y": "561021.870366",
    "longitude": "-89.99068565718676",
    "latitude": "30.035859009657194",
    "geocoded_column": {
      "latitude": "30.035859009657194",
      "longitude": "-89.99068565718676"
    }
  },
  {
    "service_request": "2024-1076586",
    "request_type": "Trash/Recycling",
    "request_reason": "Request a Large Item Pick Up",
    "date_created": "2024-03-18T15:31:20.000",
    "date_modified": "2024-03-18T15:31:21.000",
    "request_status": "Pending",
    "responsible_agency": "Department of Sanitation",
    "final_address": "7232 Salem Dr",
    "address_councildis": "E",
    "status": "Assigned to Contractor",
    "contractor": "Waste Pro",
    "rowid": "1076586",
    "final_x": "3706257.78865",
    "final_y": "561607.953119",
    "longitude": "-89.98877997633424",
    "latitude": "30.037451285130988",
    "geocoded_column": {
      "latitude": "30.037451285130988",
      "longitude": "-89.98877997633424"
    }
  },
  {
    "service_request": "2024-1076585",
    "request_type": "Parks & Parkways",
    "request_reason": "Request Tree Service (Right of Way/Public Property)",
    "date_created": "2024-03-18T15:24:53.000",
    "date_modified": "2024-03-18T15:24:53.000",
    "request_status": "Pending",
    "responsible_agency": "Department of Parks & Parkway",
    "final_address": "6901 Coventry St",
    "address_councildis": "E",
    "status": "Pending",
    "rowid": "1076585",
    "final_x": "3698755.40816",
    "final_y": "559843.049885",
    "longitude": "-90.0125534100871",
    "latitude": "30.032838411888626",
    "geocoded_column": {
      "latitude": "30.032838411888626",
      "longitude": "-90.0125534100871"
    }
  },
  {
    "service_request": "2024-1076584",
    "request_type": "Trash/Recycling",
    "request_reason": "Request a Large Item Pick Up",
    "date_created": "2024-03-18T15:23:07.000",
    "date_modified": "2024-03-18T15:23:08.000",
    "request_status": "Pending",
    "responsible_agency": "Department of Sanitation",
    "final_address": "3327 General Taylor St",
    "address_councildis": "B",
    "status": "Assigned to Contractor",
    "contractor": "Richards Disposal",
    "rowid": "1076584",
    "final_x": "3671232.2578",
    "final_y": "527219.966783",
    "longitude": "-90.10063830407029",
    "latitude": "29.943979762985556",
    "geocoded_column": {
      "latitude": "29.943979762985556",
      "longitude": "-90.10063830407029"
    }
  },
  {
    "service_request": "2024-1076583",
    "request_type": "EMS",
    "request_reason": "EMS Lost & Found",
    "date_created": "2024-03-18T15:19:59.000",
    "date_modified": "2024-03-18T15:19:59.000",
    "request_status": "Pending",
    "responsible_agency": "Emergency Medical Services",
    "final_address": "4648 Lafon Dr",
    "address_councildis": "E",
    "status": "Pending",
    "rowid": "1076583",
    "final_x": "3701120.12868",
    "final_y": "553727.447767",
    "longitude": "-90.00530471953822",
    "latitude": "30.01594769647007",
    "geocoded_column": {
      "latitude": "30.01594769647007",
      "longitude": "-90.00530471953822"
    }
  },
  {
    "service_request": "2024-1076582",
    "request_type": "Property Maintenance",
    "request_reason": "Property Maintenance",
    "date_created": "2024-03-18T15:18:57.000",
    "date_modified": "2024-03-18T15:38:40.000",
    "request_status": "Pending",
    "responsible_agency": "Department of Code Enforcement",
    "final_address": "8800 Tilford Rd",
    "address_councildis": "E",
    "status": "Pending",
    "rowid": "1076582",
    "final_x": "3707606.04785",
    "final_y": "557189.168219",
    "longitude": "-89.98468355800516",
    "latitude": "30.02525779394253",
    "geocoded_column": {
      "latitude": "30.02525779394253",
      "longitude": "-89.98468355800516"
    }
  },
  {
    "service_request": "2024-1076581",
    "request_type": "Property Maintenance",
    "request_reason": "Property Maintenance",
    "date_created": "2024-03-18T15:17:26.000",
    "date_modified": "2024-03-18T15:17:26.000",
    "request_status": "Pending",
    "responsible_agency": "Department of Code Enforcement",
    "final_address": "6300 Carlson Dr",
    "address_councildis": "D",
    "status": "Pending",
    "rowid": "1076581",
    "final_x": "3679447.7565",
    "final_y": "556677.947098",
    "longitude": "-90.0736772621775",
    "latitude": "30.02473335029963",
    "geocoded_column": {
      "latitude": "30.02473335029963",
      "longitude": "-90.0736772621775"
    }
  },
  {
    "service_request": "2024-1076580",
    "request_type": "Abandoned Vehicles",
    "request_reason": "Abandoned/Junk Vehicles",
    "date_created": "2024-03-18T15:15:35.000",
    "date_modified": "2024-03-18T15:15:36.000",
    "request_status": "Pending",
    "responsible_agency": "Department of Public Works",
    "final_address": "MARAIS ST & URSULINES AVE",
    "address_councildis": "C",
    "status": "Pending",
    "rowid": "1076580",
    "final_x": "3681461.8",
    "final_y": "535165.28",
    "longitude": "-90.06806384133719",
    "latitude": "29.965520119602687",
    "geocoded_column": {
      "latitude": "29.965520119602687",
      "longitude": "-90.06806384133719"
    }
  },
  {
    "service_request": "2024-1076579",
    "request_type": "Abandoned Vehicles",
    "request_reason": "Abandoned/Junk Vehicles",
    "date_created": "2024-03-18T15:15:11.000",
    "date_modified": "2024-03-18T15:17:19.000",
    "request_status": "Pending",
    "responsible_agency": "Department of Public Works",
    "final_address": "8800 Tilford Rd",
    "address_councildis": "E",
    "status": "Pending",
    "rowid": "1076579",
    "final_x": "3707606.04785",
    "final_y": "557189.168219",
    "longitude": "-89.98468355800516",
    "latitude": "30.02525779394253",
    "geocoded_column": {
      "latitude": "30.02525779394253",
      "longitude": "-89.98468355800516"
    }
  },
  {
    "service_request": "2024-1076578",
    "request_type": "Traffic Signals/Signs/Striping/Streetlights",
    "request_reason": "Traffic Sign Missing/Damaged",
    "date_created": "2024-03-18T15:14:09.000",
    "date_modified": "2024-03-18T15:14:10.000",
    "request_status": "Pending",
    "responsible_agency": "Department of Public Works",
    "final_address": "2818 Martin Luther King, Jr. Blvd",
    "address_councildis": "B",
    "status": "Pending",
    "rowid": "1076578",
    "final_x": "3675449.27118",
    "final_y": "527794.248255",
    "longitude": "-90.0873042986679",
    "latitude": "29.945433430685195",
    "geocoded_column": {
      "latitude": "29.945433430685195",
      "longitude": "-90.0873042986679"
    }
  },
  {
    "service_request": "2024-1076577",
    "request_type": "Traffic Signals/Signs/Striping/Streetlights",
    "request_reason": "Traffic Sign Missing/Damaged",
    "date_created": "2024-03-18T15:11:07.000",
    "date_modified": "2024-03-18T15:11:07.000",
    "request_status": "Pending",
    "responsible_agency": "Department of Public Works",
    "final_address": "ST PHILIP ST & N VILLERE ST",
    "address_councildis": "C",
    "status": "Pending",
    "rowid": "1076577",
    "final_x": "3680997.1",
    "final_y": "535063.58",
    "longitude": "-90.06953488547543",
    "latitude": "29.96525458070901",
    "geocoded_column": {
      "latitude": "29.96525458070901",
      "longitude": "-90.06953488547543"
    }
  },
  {
    "service_request": "2024-1076576",
    "request_type": "Parks & Parkways",
    "request_reason": "Tree Stump (removal, grind)",
    "date_created": "2024-03-18T15:10:44.000",
    "date_modified": "2024-03-18T15:10:44.000",
    "request_status": "Pending",
    "responsible_agency": "Department of Parks & Parkway",
    "final_address": "7600 Burthe St",
    "address_councildis": "A",
    "status": "Pending",
    "rowid": "1076576",
    "final_x": "3662531.17575",
    "final_y": "526388.092158",
    "longitude": "-90.12813777896403",
    "latitude": "29.94194689128216",
    "geocoded_column": {
      "latitude": "29.94194689128216",
      "longitude": "-90.12813777896403"
    }
  },
  {
    "service_request": "2024-1076575",
    "request_type": "Parks & Parkways",
    "request_reason": "Tree Stump (removal, grind)",
    "date_created": "2024-03-18T15:09:03.000",
    "date_modified": "2024-03-18T15:09:03.000",
    "request_status": "Pending",
    "responsible_agency": "Department of Parks & Parkway",
    "final_address": "7600 Burthe St",
    "address_councildis": "A",
    "status": "Pending",
    "rowid": "1076575",
    "final_x": "3662531.17575",
    "final_y": "526388.092158",
    "longitude": "-90.12813777896403",
    "latitude": "29.94194689128216",
    "geocoded_column": {
      "latitude": "29.94194689128216",
      "longitude": "-90.12813777896403"
    }
  },
  {
    "service_request": "2024-1076574",
    "request_type": "Trash/Recycling",
    "request_reason": "Replace Trash Cart",
    "date_created": "2024-03-18T15:08:57.000",
    "date_modified": "2024-03-18T15:08:58.000",
    "request_status": "Pending",
    "responsible_agency": "Department of Sanitation",
    "final_address": "1625 Second St Apt 1A",
    "address_councildis": "B",
    "status": "Assigned to Contractor",
    "contractor": "Richards Disposal",
    "rowid": "1076574",
    "final_x": "3676601.00245",
    "final_y": "523273.416443",
    "longitude": "-90.08382356110488",
    "latitude": "29.93296814194022",
    "geocoded_column": {
      "latitude": "29.93296814194022",
      "longitude": "-90.08382356110488"
    }
  },