[
  {
    "service_request": "2026-1271909",
    "request_type": "Trash/Recycling",
    "request_reason": "Missed Trash Pick-Up",
    "date_created": "2026-04-07T23:10:04.000",
    "date_modified": "2026-04-07T23:10:07.000",
    "request_status": "Pending",
    "responsible_agency": "Department of Sanitation",
    "final_address": "4519 Knight Dr, New Orleans, Louisiana, 70127",
    "address_councildis": "E",
    "status": "Assigned to Contractor",
    "contractor": "Waste Pro",
    "rowid": "1271909",
    "final_x": "3708340.51486",
    "final_y": "554218.75708",
    "longitude": "-89.98247342866438",
    "latitude": "30.017066529695587",
    "geocoded_column": {
      "latitude": "30.017066529695587",
      "longitude": "-89.98247342866438"
    }
  },
  {
    "service_request": "2026-1271908",
    "request_type": "Trash/Recycling",
    "request_reason": "Repair Trash Cart",
    "date_created": "2026-04-07T22:57:40.000",
    "date_modified": "2026-04-07T22:57:42.000",
    "request_status": "Pending",
    "responsible_agency": "Department of Sanitation",
    "final_address": "4121 Orleans Ave",
    "address_councildis": "A",
    "status": "Assigned to Contractor",
    "contractor": "IV Waste",
    "rowid": "1271908",
    "final_x": "3672581.77979",
    "final_y": "540340.183243",
    "longitude": "-90.0959301397744",
    "latitude": "29.980015983721113",
    "geocoded_column": {
      "latitude": "29.980015983721113",
      "longitude": "-90.0959301397744"
    }
  },
  {
    "service_request": "2026-1271907",
    "request_type": "Trash/Recycling",
    "request_reason": "Repair Trash Cart",
    "date_created": "2026-04-07T22:43:07.000",
    "date_modified": "2026-04-07T22:43:10.000",
    "request_status": "Pending",
    "responsible_agency": "Department of Sanitation",
    "final_address": "1940 Clouet St",
    "address_councildis": "D",
    "status": "Assigned to Contractor",
    "contractor": "IV Waste",
    "rowid": "1271907",
    "final_x": "3689802.52976",
    "final_y": "539345.201738",
    "longitude": "-90.04157545059043",
    "latitude": "29.976757551095695",
    "geocoded_column": {
      "latitude": "29.976757551095695",
      "longitude": "-90.04157545059043"
    }
  },
  {
    "service_request": "2026-1271906",
    "request_type": "Streetlights",
    "request_reason": "Streetlight Outage/Malfunction",
    "date_created": "2026-04-07T22:07:58.000",
    "date_modified": "2026-04-07T22:07:59.000",
    "request_status": "Pending",
    "responsible_agency": "Department of Public Works",
    "final_address": "300 BLK S Murat St",
    "address_councildis": "A",
    "status": "Pending",
    "rowid": "1271906",
    "final_x": "3669105.25985",
    "final_y": "538608.594815",
    "longitude": "-90.10696900321648",
    "latitude": "29.975357473095364",
    "geocoded_column": {
      "latitude": "29.975357473095364",
      "longitude": "-90.10696900321648"
    }
  },
  {
    "service_request": "2026-1271905",
    "request_type": "Streetlights",
    "request_reason": "Streetlight Outage/Malfunction",
    "date_created": "2026-04-07T22:07:38.000",
    "date_modified": "2026-04-07T22:07:39.000",
    "request_status": "Pending",
    "responsible_agency": "Department of Public Works",
    "final_address": "3641 White Oak Ave",
    "address_councildis": "C",
    "status": "Pending",
    "rowid": "1271905",
    "final_x": "3703721.70974",
    "final_y": "514182.602738",
    "longitude": "-89.99854041933769",
    "latitude": "29.90713048098672",
    "geocoded_column": {
      "latitude": "29.90713048098672",
      "longitude": "-89.99854041933769"
    }
  },
  {
    "service_request": "2026-1271904",
    "request_type": "Abandoned Vehicles",
    "request_reason": "Abandoned/Junk Vehicles",
    "date_created": "2026-04-07T21:53:20.000",
    "date_modified": "2026-04-07T21:53:21.000",
    "request_status": "Pending",
    "responsible_agency": "Department of Public Works",
    "final_address": "620 Louisa St",
    "address_councildis": "C",
    "status": "Pending",
    "rowid": "1271904",
    "final_x": "3689103.35382",
    "final_y": "534198.165381",
    "longitude": "-90.04396658153927",
    "latitude": "29.962626662522272",
    "geocoded_column": {
      "latitude": "29.962626662522272",
      "longitude": "-90.04396658153927"
    }
  },
  {
    "service_request": "2026-1271903",
    "request_type": "Trash/Recycling",
    "request_reason": "Replace Trash Cart",
    "date_created": "2026-04-07T21:50:55.000",
    "date_modified": "2026-04-07T21:50:57.000",
    "request_status": "Pending",
    "responsible_agency": "Department of Sanitation",
    "final_address": "3208 Laurel St",
    "address_councildis": "B",
    "status": "Assigned to Contractor",
    "contractor": "IV Waste",
    "rowid": "1271903",
    "final_x": "3676074.09077",
    "final_y": "519269.524151",
    "longitude": "-90.08562462184489",
    "latitude": "29.921974524737443",
    "geocoded_column": {
      "latitude": "29.921974524737443",
      "longitude": "-90.08562462184489"
    }
  },
  {
    "service_request": "2026-1271902",
    "request_type": "Trash/Recycling",
    "request_reason": "Request a Large Item Pick Up",
    "date_created": "2026-04-07T21:50:34.000",
    "date_modified": "2026-04-07T21:50:36.000",
    "request_status": "Pending",
    "responsible_agency": "Department of Sanitation",
    "final_address": "5000 Mexico St",
    "address_councildis": "D",
    "status": "Assigned to Contractor",
    "contractor": "IV Waste",
    "rowid": "1271902",
    "final_x": "3690940.74819",
    "final_y": "556509.45129",
    "longitude": "-90.03736748920235",
    "latitude": "30.02391763759887",
    "geocoded_column": {
      "latitude": "30.02391763759887",
      "longitude": "-90.03736748920235"
    }
  },
  {
    "service_request": "2026-1271901",
    "request_type": "General Services",
    "request_reason": "General Service Request",
    "date_created": "2026-04-07T21:31:39.000",
    "date_modified": "2026-04-07T21:31:40.000",
    "request_status": "Pending",
    "responsible_agency": "Orleans Parish Communication District",
    "final_address": "0 BLK Palm Ter",
    "address_councildis": "B",
    "status": "Pending",
    "rowid": "1271901",
    "final_x": "3671824.91583",
    "final_y": "521166.107718",
    "longitude": "-90.09897301828778",
    "latitude": "29.927316065214317",
    "geocoded_column": {
      "latitude": "29.927316065214317",
      "longitude": "-90.09897301828778"
    }
  },
  {
    "service_request": "2026-1271900",
    "request_type": "Abandoned Vehicles",
    "request_reason": "Abandoned/Junk Vehicles",
    "date_created": "2026-04-07T21:29:49.000",
    "date_modified": "2026-04-07T21:29:51.000",
    "request_status": "Pending",
    "responsible_agency": "Department of Public Works",
    "final_address": "1101 N White St",
    "address_councildis": "A",
    "status": "Pending",
    "rowid": "1271900",
    "final_x": "3677161.52046",
    "final_y": "538828.694793",
    "longitude": "-90.08151755913669",
    "latitude": "29.975723126226015",
    "geocoded_column": {
      "latitude": "29.975723126226015",
      "longitude": "-90.08151755913669"
    }
  },
  {
    "service_request": "2026-1271899",
    "request_type": "Health Related Request",
    "request_reason": "Noise Ordinance Complaint",
    "date_created": "2026-04-07T21:13:31.000",
    "date_modified": "2026-04-07T21:13:32.000",
    "request_status": "Pending",
    "responsible_agency": "Health Department",
    "final_address": "800 Bourbon St, New Orleans, Louisiana, 70116",
    "address_councildis": "C",
    "status": "Pending",
    "rowid": "1271899",
    "final_x": "3682553.51528",
    "final_y": "533013.631428",
    "longitude": "-90.06469148499534",
    "latitude": "29.95957063099051",
    "geocoded_column": {
      "latitude": "29.95957063099051",
      "longitude": "-90.06469148499534"
    }
  },
  {
    "service_request": "2026-1271898",
    "request_type": "Health Related Request",
    "request_reason": "Noise Ordinance Complaint",
    "date_created": "2026-04-07T21:13:10.000",
    "date_modified": "2026-04-07T21:13:12.000",
    "request_status": "Pending",
    "responsible_agency": "Health Department",
    "final_address": "801 Bourbon St, New Orleans, Louisiana, 70116",
    "address_councildis": "C",
    "status": "Pending",
    "rowid": "1271898",
    "final_x": "3682490.98735",
    "final_y": "533018.672772",
    "longitude": "-90.06488875731978",
    "latitude": "29.959586396383013",
    "geocoded_column": {
      "latitude": "29.959586396383013",
      "longitude": "-90.06488875731978"
    }
  },
  {
    "service_request": "2026-1271897",
    "request_type": "Abandoned Vehicles",
    "request_reason": "Abandoned/Junk Vehicles",
    "date_created": "2026-04-07T21:07:07.000",
    "date_modified": "2026-04-07T21:07:08.000",
    "request_status": "Pending",
    "responsible_agency": "Department of Public Works",
    "final_address": "1101 N White St",
    "address_councildis": "A",
    "status": "Pending",
    "rowid": "1271897",
    "final_x": "3677161.52046",
    "final_y": "538828.694793",
    "longitude": "-90.08151755913669",
    "latitude": "29.975723126226015",
    "geocoded_column": {
      "latitude": "29.975723126226015",
      "longitude": "-90.08151755913669"
    }
  },
  {
    "service_request": "2026-1271896",
    "request_type": "Abandoned Vehicles",
    "request_reason": "Abandoned/Junk Vehicles",
    "date_created": "2026-04-07T20:55:52.000",
    "date_modified": "2026-04-07T20:55:54.000",
    "request_status": "Pending",
    "responsible_agency": "Department of Public Works",
    "final_address": "1415 Melpomene St",
    "address_councildis": "B",
    "status": "Pending",
    "rowid": "1271896",
    "final_x": "3679901.72795",
    "final_y": "525135.900349",
    "longitude": "-90.07333875809904",
    "latitude": "29.93798997447264",
    "geocoded_column": {
      "latitude": "29.93798997447264",
      "longitude": "-90.07333875809904"
    }
  },
  {
    "service_request": "2026-1271895",
    "request_type": "Trash/Recycling",
    "request_reason": "Return Trash Cart",
    "date_created": "2026-04-07T20:54:44.000",
    "date_modified": "2026-04-07T20:54:45.000",
    "request_status": "Pending",
    "responsible_agency": "Department of Sanitation",
    "final_address": "6204 Vermillion Blvd",
    "address_councildis": "D",
    "status": "Assigned to Contractor",
    "contractor": "IV Waste",
    "rowid": "1271895",
    "final_x": "3682971.40431",
    "final_y": "555775.786841",
    "longitude": "-90.06257475362337",
    "latitude": "30.022145759928886",
    "geocoded_column": {
      "latitude": "30.022145759928886",
      "longitude": "-90.06257475362337"
    }
  },
  {
    "service_request": "2026-1271894",
    "request_type": "Trash/Recycling",
    "request_reason": "Return Recycling Cart",
    "date_created": "2026-04-07T20:53:25.000",
    "date_modified": "2026-04-07T20:53:26.000",
    "request_status": "Pending",
    "responsible_agency": "Department of Sanitation",
    "final_address": "883 Hidalgo St",
    "address_councildis": "A",
    "status": "Pending",
    "rowid": "1271894",
    "final_x": "3669402.88526",
    "final_y": "544101.052174",
    "longitude": "-90.10584319201104",
    "latitude": "29.990451101622863",
    "geocoded_column": {
      "latitude": "29.990451101622863",
      "longitude": "-90.10584319201104"
    }
  },
  {
    "service_request": "2026-1271893",
    "request_type": "General Services",
    "request_reason": "General Service Request",
    "date_created": "2026-04-07T20:52:18.000",
    "date_modified": "2026-04-07T20:52:20.000",
    "request_status": "Pending",
    "responsible_agency": "Orleans Parish Communication District",
    "final_address": "2317 Sere St",
    "address_councildis": "D",
    "status": "Pending",
    "rowid": "1271893",
    "final_x": "3685182.1862",
    "final_y": "546043.284304",
    "longitude": "-90.055932078711",
    "latitude": "29.99531731770596",
    "geocoded_column": {
      "latitude": "29.99531731770596",
      "longitude": "-90.055932078711"
    }
  },
  {
    "service_request": "2026-1271892",
    "request_type": "Drainage",
    "request_reason": "Catch Basin Not Draining",
    "date_created": "2026-04-07T20:50:59.000",
    "date_modified": "2026-04-07T20:51:02.000",
    "request_status": "Pending",
    "responsible_agency": "Sewerage & Water Board",
    "final_address": "2734 S Carrollton Ave",
    "address_councildis": "A",
    "status": "Pending",
    "rowid": "1271892",
    "final_x": "3665768.62656",
    "final_y": "532573.619396",
    "longitude": "-90.11770923821021",
    "latitude": "29.958861058092825",
    "geocoded_column": {
      "latitude": "29.958861058092825",
      "longitude": "-90.11770923821021"
    }
  },
  {
    "service_request": "2026-1271891",
    "request_type": "Trash/Recycling",
    "request_reason": "Illegal Dumping",
    "date_created": "2026-04-07T20:39:44.000",
    "date_modified": "2026-04-07T20:39:47.000",
    "request_status": "Pending",
    "responsible_agency": "Department of Sanitation",
    "final_address": "1916 France St",
    "address_councildis": "D",
    "status": "Pending",
    "rowid": "1271891",
    "final_x": "3693129.90083",
    "final_y": "538314.505033",
    "longitude": "-90.03110361247862",
    "latitude": "29.97381994119079",
    "geocoded_column": {
      "latitude": "29.97381994119079",
      "longitude": "-90.03110361247862"
    }
  },
  {
    "service_request": "2026-1271890",
    "request_type": "Parks & Parkways",
    "request_reason": "Request Tree Service (Right of Way/Public Property)",
    "date_created": "2026-04-07T19:55:20.000",
    "date_modified": "2026-04-07T19:55:21.000",
    "request_status": "Pending",
    "responsible_agency": "Department of Parks & Parkway",
    "final_address": "3139 Royal St",
    "address_councildis": "C",
    "status": "Pending",
    "rowid": "1271890",
    "final_x": "3688964.21795",
    "final_y": "534522.755653",
    "longitude": "-90.04439442239479",
    "latitude": "29.9635234769454",
    "geocoded_column": {
      "latitude": "29.9635234769454",
      "longitude": "-90.04439442239479"
    }
  },
  {
    "service_request": "2026-1271889",
    "request_type": "Trash/Recycling",
    "request_reason": "Request a Large Item Pick Up",
    "date_created": "2026-04-07T19:51:31.000",
    "date_modified": "2026-04-07T19:51:34.000",
    "request_status": "Pending",
    "responsible_agency": "Department of Sanitation",
    "final_address": "2604 Robert St",
    "address_councildis": "B",
    "status": "Assigned to Contractor",
    "contractor": "IV Waste",
    "rowid": "1271889",
    "final_x": "3668809.41198",
    "final_y": "525038.823293",
    "longitude": "-90.10836154033858",
    "latitude": "29.93805377099104",
    "geocoded_column": {
      "latitude": "29.93805377099104",
      "longitude": "-90.10836154033858"
    }
  },
  {
    "service_request": "2026-1271888",
    "request_type": "Trash/Recycling",
    "request_reason": "Return Trash Cart",
    "date_created": "2026-04-07T19:15:00.000",
    "date_modified": "2026-04-07T19:15:01.000",
    "request_status": "Pending",
    "responsible_agency": "Department of Sanitation",
    "final_address": "5822 S Robertson St",
    "address_councildis": "A",
    "status": "Assigned to Contractor",
    "contractor": "IV Waste",
    "rowid": "1271888",
    "final_x": "3666746.21281",
    "final_y": "524582.468028",
    "longitude": "-90.11489058653717",
    "latitude": "29.9368594279457",
    "geocoded_column": {
      "latitude": "29.9368594279457",
      "longitude": "-90.11489058653717"
    }
  },
  {
    "service_request": "2026-1271887",
    "request_type": "Parks & Parkways",
    "request_reason": "Request Tree Service (Right of Way/Public Property)",
    "date_created": "2026-04-07T19:12:31.000",
    "date_modified": "2026-04-07T19:12:33.000",
    "request_status": "Pending",
    "responsible_agency": "Department of Parks & Parkway",
    "final_address": "5024 Magazine St",
    "address_councildis": "B",
    "status": "Pending",
    "rowid": "1271887",
    "final_x": "3668435.54868",
    "final_y": "518561.557047",
    "longitude": "-90.10976022936649",
    "latitude": "29.920254336757253",
    "geocoded_column": {
      "latitude": "29.920254336757253",
      "longitude": "-90.10976022936649"
    }
  },
  {
    "service_request": "2026-1271886",
    "request_type": "Trash/Recycling",
    "request_reason": "Request a Large Item Pick Up",
    "date_created": "2026-04-07T19:00:00.000",
    "date_modified": "2026-04-07T19:00:02.000",
    "request_status": "Pending",
    "responsible_agency": "Department of Sanitation",
    "final_address": "7170 Wayside Dr",
    "address_councildis": "E",
    "status": "Assigned to Contractor",
    "contractor": "Waste Pro",
    "rowid": "1271886",
    "final_x": "3717257.90847",
    "final_y": "568193.526565",
    "longitude": "-89.95376686033391",
    "latitude": "30.055199418538947",
    "geocoded_column": {
      "latitude": "30.055199418538947",
      "longitude": "-89.95376686033391"
    }
  },
  {
    "service_request": "2026-1271885",
    "request_type": "Street and Traffic Signs",
    "request_reason": "Stop Sign Missing or Damaged",
    "date_created": "2026-04-07T18:58:50.000",
    "date_modified": "2026-04-07T18:58:51.000",
    "request_status": "Pending",
    "responsible_agency": "Department of Public Works",
    "final_address": "1000 Lowerline St",
    "address_councildis": "A",
    "status": "Pending",
    "rowid": "1271885",
    "final_x": "3663274.68762",
    "final_y": "526288.52915",
    "longitude": "-90.1257936565094",
    "latitude": "29.941651600673485",
    "geocoded_column": {
      "latitude": "29.941651600673485",
      "longitude": "-90.1257936565094"
    }
  },
  {
    "service_request": "2026-1271884",
    "request_type": "Trash/Recycling",
    "request_reason": "Change Size of Trash Cart",
    "date_created": "2026-04-07T18:50:27.000",
    "date_modified": "2026-04-07T18:50:29.000",
    "request_status": "Pending",
    "responsible_agency": "Department of Sanitation",
    "final_address": "453 Audubon Blvd",
    "address_councildis": "B",
    "status": "Assigned to Contractor",
    "contractor": "IV Waste",
    "rowid": "1271884",
    "final_x": "3667692.22023",
    "final_y": "530654.810626",
    "longitude": "-90.11169959542475",
    "latitude": "29.95352870950375",
    "geocoded_column": {
      "latitude": "29.95352870950375",
      "longitude": "-90.11169959542475"
    }
  },
  {
    "service_request": "2026-1271883",
    "request_type": "Trash/Recycling",
    "request_reason": "Request a Large Item Pick Up",
    "date_created": "2026-04-07T18:46:17.000",
    "date_modified": "2026-04-07T18:46:21.000",
    "request_status": "Pending",
    "responsible_agency": "Department of Sanitation",
    "final_address": "11211 N Idlewood Ct",
    "address_councildis": "E",
    "status": "Assigned to Contractor",
    "contractor": "Waste Pro",
    "rowid": "1271883",
    "final_x": "3716025.86207",
    "final_y": "560277.469149",
    "longitude": "-89.9579613954362",
    "latitude": "30.03347420878148",
    "geocoded_column": {
      "latitude": "30.03347420878148",
      "longitude": "-89.9579613954362"
    }
  },
  {
    "service_request": "2026-1271882",
    "request_type": "Drainage",
    "request_reason": "Illegal Dumping (Sewer Odor)",
    "date_created": "2026-04-07T18:41:43.000",
    "date_modified": "2026-04-07T18:41:45.000",
    "request_status": "Pending",
    "responsible_agency": "Sewerage & Water Board",
    "final_address": "1938 St Philip St",
    "address_councildis": "C",
    "status": "Pending",
    "rowid": "1271882",
    "final_x": "3679599.32757",
    "final_y": "536102.788743",
    "longitude": "-90.07391290789428",
    "latitude": "29.968154366006424",
    "geocoded_column": {
      "latitude": "29.968154366006424",
      "longitude": "-90.07391290789428"
    }
  },
  {
    "service_request": "2026-1271880",
    "request_type": "General Services",
    "request_reason": "General Service Request",
    "date_created": "2026-04-07T18:21:53.000",
    "date_modified": "2026-04-07T18:21:55.000",
    "request_status": "Pending",
    "responsible_agency": "Orleans Parish Communication District",
    "final_address": "800 8th St, New Orleans, Louisiana, 70115",
    "address_councildis": "B",
    "status": "Pending",
    "rowid": "1271880",
    "final_x": "3676680.59502",
    "final_y": "519296.580343",
    "longitude": "-90.08370921003194",
    "latitude": "29.92203074708042",
    "geocoded_column": {
      "latitude": "29.92203074708042",
      "longitude": "-90.08370921003194"
    }
  },
  {
    "service_request": "2026-1271879",
    "request_type": "Trash/Recycling",
    "request_reason": "Repair Trash Cart",
    "date_created": "2026-04-07T18:20:26.000",
    "date_modified": "2026-04-07T18:20:30.000",
    "request_status": "Pending",
    "responsible_agency": "Department of Sanitation",
    "final_address": "800 8th St, New Orleans, Louisiana, 70115",
    "address_councildis": "B",
    "status": "Assigned to Contractor",
    "contractor": "IV Waste",
    "rowid": "1271879",
    "final_x": "3676680.59502",
    "final_y": "519296.580343",
    "longitude": "-90.08370921003194",
    "latitude": "29.92203074708042",
    "geocoded_column": {
      "latitude": "29.92203074708042",
      "longitude": "-90.08370921003194"
    }
  },
  {
    "service_request": "2026-1271878",
    "request_type": "Trash/Recycling",
    "request_reason": "Missed Trash Pick-Up",
    "date_created": "2026-04-07T18:12:07.000",
    "date_modified": "2026-04-07T18:12:08.000",
    "request_status": "Pending",
    "responsible_agency": "Department of Sanitation",
    "final_address": "900 Peniston St",
    "address_councildis": "B",
    "status": "Assigned to Contractor",
    "contractor": "IV Waste",
    "rowid": "1271878",
    "final_x": "3673327.86324",
    "final_y": "519140.475575",
    "longitude": "-90.09429772781856",
    "latitude": "29.921701622416034",
    "geocoded_column": {
      "latitude": "29.921701622416034",
      "longitude": "-90.09429772781856"
    }
  },
  {
    "service_request": "2026-1271877",
    "request_type": "Trash/Recycling",
    "request_reason": "Request a Large Item Pick Up",
    "date_created": "2026-04-07T18:07:09.000",
    "date_modified": "2026-04-07T18:07:11.000",
    "request_status": "Pending",
    "responsible_agency": "Department of Sanitation",
    "final_address": "0 BLK Alice Ct",
    "address_councildis": "E",
    "status": "Assigned to Contractor",
    "contractor": "Waste Pro",
    "rowid": "1271877",
    "final_x": "3696830.85368",
    "final_y": "533835.980016",
    "longitude": "-90.01957742212986",
    "latitude": "29.961389424106756",
    "geocoded_column": {
      "latitude": "29.961389424106756",
      "longitude": "-90.01957742212986"
    }
  },
  {
    "service_request": "2026-1271876",
    "request_type": "Drainage",
    "request_reason": "Catch Basin Not Draining",
    "date_created": "2026-04-07T17:52:44.000",
    "date_modified": "2026-04-07T17:52:47.000",
    "request_status": "Pending",
    "responsible_agency": "Sewerage & Water Board",
    "final_address": "5611 Painters St",
    "address_councildis": "D",
    "status": "Pending",
    "rowid": "1271876",
    "final_x": "3686223.08335",
    "final_y": "553710.706647",
    "longitude": "-90.05237322795638",
    "latitude": "30.016367994379024",
    "geocoded_column": {
      "latitude": "30.016367994379024",
      "longitude": "-90.05237322795638"
    }
  },
  {
    "service_request": "2026-1271875",
    "request_type": "Drainage",
    "request_reason": "Drainage Manhole Cover Missing or Damaged",
    "date_created": "2026-04-07T17:52:38.000",
    "date_modified": "2026-04-07T17:52:40.000",
    "request_status": "Pending",
    "responsible_agency": "Sewerage & Water Board",
    "final_address": "2761 Carver Rams Way",
    "address_councildis": "D",
    "status": "Pending",
    "rowid": "1271875",
    "final_x": "3689909.56502",
    "final_y": "545217.769935",
    "longitude": "-90.04102821919793",
    "latitude": "29.992901694060567",
    "geocoded_column": {
      "latitude": "29.992901694060567",
      "longitude": "-90.04102821919793"
    }
  },
  {
    "service_request": "2026-1271874",
    "request_type": "Trash/Recycling",
    "request_reason": "Order Trash Cart",
    "date_created": "2026-04-07T17:51:37.000",
    "date_modified": "2026-04-07T17:51:38.000",
    "request_status": "Pending",
    "responsible_agency": "Department of Sanitation",
    "final_address": "1408 Richland Rd",
    "address_councildis": "C",
    "status": "Assigned to Contractor",
    "contractor": "Richards Disposal",
    "rowid": "1271874",
    "final_x": "3698056.46186",
    "final_y": "526004.85395",
    "longitude": "-90.0159914927107",
    "latitude": "29.939817883574435",
    "geocoded_column": {
      "latitude": "29.939817883574435",
      "longitude": "-90.0159914927107"
    }
  },
  {
    "service_request": "2026-1271873",
    "request_type": "Trash/Recycling",
    "request_reason": "Request a Large Item Pick Up",
    "date_created": "2026-04-07T17:49:00.000",
    "date_modified": "2026-04-07T17:49:02.000",
    "request_status": "Pending",
    "responsible_agency": "Department of Sanitation",
    "final_address": "6035 Wales St",
    "address_councildis": "E",
    "status": "Assigned to Contractor",
    "contractor": "Waste Pro",
    "rowid": "1271873",
    "final_x": "3695181.32246",
    "final_y": "559517.436957",
    "longitude": "-90.02385954239634",
    "latitude": "30.032055894442404",
    "geocoded_column": {
      "latitude": "30.032055894442404",
      "longitude": "-90.02385954239634"
    }
  },
  {
    "service_request": "2026-1271872",
    "request_type": "Trash/Recycling",
    "request_reason": "Request a Large Item Pick Up",
    "date_created": "2026-04-07T17:42:55.000",
    "date_modified": "2026-04-07T17:42:57.000",
    "request_status": "Pending",
    "responsible_agency": "Department of Sanitation",
    "final_address": "1738 Philip St",
    "address_councildis": "B",
    "status": "Assigned to Contractor",
    "contractor": "IV Waste",
    "rowid": "1271872",
    "final_x": "3676751.5796",
    "final_y": "523878.61766",
    "longitude": "-90.0833273570193",
    "latitude": "29.934627731542204",
    "geocoded_column": {
      "latitude": "29.934627731542204",
      "longitude": "-90.0833273570193"
    }
  },
  {
    "service_request": "2026-1271871",
    "request_type": "Trash/Recycling",
    "request_reason": "Order Trash Cart",
    "date_created": "2026-04-07T17:15:31.000",
    "date_modified": "2026-04-07T17:15:34.000",
    "request_status": "Pending",
    "responsible_agency": "Department of Sanitation",
    "final_address": "231 20Th St",
    "address_councildis": "A",
    "status": "Assigned to Contractor",
    "contractor": "IV Waste",
    "rowid": "1271871",
    "final_x": "3665419.62919",
    "final_y": "549083.529107",
    "longitude": "-90.11825844535846",
    "latitude": "30.004267934582565",
    "geocoded_column": {
      "latitude": "30.004267934582565",
      "longitude": "-90.11825844535846"
    }
  },
  {
    "service_request": "2026-1271870",
    "request_type": "Traffic Signals",
    "request_reason": "Traffic Signal Malfunctioning or Damaged",
    "date_created": "2026-04-07T17:10:33.000",
    "date_modified": "2026-04-07T17:10:35.000",
    "request_status": "Pending",
    "responsible_agency": "Department of Public Works",
    "final_address": "4400 S Claiborne Ave",
    "address_councildis": "B",
    "status": "Pending",
    "rowid": "1271870",
    "final_x": "3670231.31655",
    "final_y": "525685.574333",
    "longitude": "-90.10385054127941",
    "latitude": "29.939790252726013",
    "geocoded_column": {
      "latitude": "29.939790252726013",
      "longitude": "-90.10385054127941"
    }
  },
  {
    "service_request": "2026-1271869",
    "request_type": "Trash/Recycling",
    "request_reason": "Missed Trash Pick-Up",
    "date_created": "2026-04-07T17:06:17.000",
    "date_modified": "2026-04-07T17:45:50.000",
    "case_close_date": "2026-04-07T12:45:50.000",
    "request_status": "Closed",
    "responsible_agency": "Department of Sanitation",
    "final_address": "332 Bragg St",
    "address_councildis": "A",
    "status": "Invalid Request",
    "contractor": "IV Waste",
    "contractor_action": "Invalid Request",
    "rowid": "1271869",
    "final_x": "3667564.40301",
    "final_y": "550069.334996",
    "longitude": "-90.11144947669369",
    "latitude": "30.0069158464596",
    "geocoded_column": {
      "latitude": "30.0069158464596",
      "longitude": "-90.11144947669369"
    }
  },
  {
    "service_request": "2026-1271868",
    "request_type": "Trash/Recycling",
    "request_reason": "Damaged Caused By Contractor",
    "date_created": "2026-04-07T16:59:53.000",
    "date_modified": "2026-04-07T16:59:55.000",
    "request_status": "Pending",
    "responsible_agency": "Department of Sanitation",
    "final_address": "2922 Cambronne St",
    "address_councildis": "A",
    "status": "Assigned to Contractor",
    "contractor": "IV Waste",
    "rowid": "1271868",
    "final_x": "3665362.46068",
    "final_y": "533765.775941",
    "longitude": "-90.11895191515589",
    "latitude": "29.96215093993837",
    "geocoded_column": {
      "latitude": "29.96215093993837",
      "longitude": "-90.11895191515589"
    }
  },
  {
    "service_request": "2026-1271867",
    "request_type": "New Orleans Recreation Development Commission (NORDC)",
    "request_reason": "Facilities and Parks Maintenance/Clean Up",
    "date_created": "2026-04-07T16:56:20.000",
    "date_modified": "2026-04-07T16:56:21.000",
    "request_status": "Pending",
    "responsible_agency": "New Orleans Recreation Development Commission",
    "final_address": "7904 St Charles Ave Apt R6",
    "address_councildis": "A",
    "status": "Pending",
    "rowid": "1271867",
    "final_x": "3661024.13094",
    "final_y": "526277.861182",
    "longitude": "-90.13289950942824",
    "latitude": "29.941687290378585",
    "geocoded_column": {
      "latitude": "29.941687290378585",
      "longitude": "-90.13289950942824"
    }
  },
  {
    "service_request": "2026-1271866",
    "request_type": "New Orleans Recreation Development Commission (NORDC)",
    "request_reason": "Facilities and Parks Maintenance/Clean Up",
    "date_created": "2026-04-07T16:56:20.000",
    "date_modified": "2026-04-07T16:56:22.000",
    "request_status": "Pending",
    "responsible_agency": "New Orleans Recreation Development Commission",
    "final_address": "7904 St Charles Ave Apt R6",
    "address_councildis": "A",
    "status": "Pending",
    "rowid": "1271866",
    "final_x": "3661024.13094",
    "final_y": "526277.861182",
    "longitude": "-90.13289950942824",
    "latitude": "29.941687290378585",
    "geocoded_column": {
      "latitude": "29.941687290378585",
      "longitude": "-90.13289950942824"
    }
  },
  {
    "service_request": "2026-1271865",
    "request_type": "Trash/Recycling",
    "request_reason": "Repair Trash Cart",
    "date_created": "2026-04-07T16:54:40.000",
    "date_modified": "2026-04-07T16:54:42.000",
    "request_status": "Pending",
    "responsible_agency": "Department of Sanitation",
    "final_address": "7828 Colapissa St",
    "address_councildis": "B",
    "status": "Assigned to Contractor",
    "contractor": "IV Waste",
    "rowid": "1271865",
    "final_x": "3667142.28282",
    "final_y": "532797.665156",
    "longitude": "-90.11336403202166",
    "latitude": "29.959436967540626",
    "geocoded_column": {
      "latitude": "29.959436967540626",
      "longitude": "-90.11336403202166"
    }
  },
  {
    "service_request": "2026-1271864",
    "request_type": "Trash/Recycling",
    "request_reason": "Request a Large Item Pick Up",
    "date_created": "2026-04-07T16:53:47.000",
    "date_modified": "2026-04-07T16:53:48.000",
    "request_status": "Pending",
    "responsible_agency": "Department of Sanitation",
    "final_address": "4727 Evangeline Dr",
    "address_councildis": "E",
    "status": "Assigned to Contractor",
    "contractor": "Waste Pro",
    "rowid": "1271864",
    "final_x": "3709184.9731",
    "final_y": "555680.580761",
    "longitude": "-89.97975075129744",
    "latitude": "30.021058574924965",
    "geocoded_column": {
      "latitude": "30.021058574924965",
      "longitude": "-89.97975075129744"
    }
  },
  {
    "service_request": "2026-1271863",
    "request_type": "Trash/Recycling",
    "request_reason": "Request a Large Item Pick Up",
    "date_created": "2026-04-07T16:53:38.000",
    "date_modified": "2026-04-07T16:53:39.000",
    "request_status": "Pending",
    "responsible_agency": "Department of Sanitation",
    "final_address": "4811 Sandalwood St",
    "address_councildis": "E",
    "status": "Assigned to Contractor",
    "contractor": "Waste Pro",
    "rowid": "1271863",
    "final_x": "3712273.2092",
    "final_y": "556477.429978",
    "longitude": "-89.96996294689595",
    "latitude": "30.023148925216304",
    "geocoded_column": {
      "latitude": "30.023148925216304",
      "longitude": "-89.96996294689595"
    }
  },
  {
    "service_request": "2026-1271862",
    "request_type": "Trash/Recycling",
    "request_reason": "Request a Large Item Pick Up",
    "date_created": "2026-04-07T16:48:48.000",
    "date_modified": "2026-04-07T16:48:51.000",
    "request_status": "Pending",
    "responsible_agency": "Department of Sanitation",
    "final_address": "3131 College Ct",
    "address_councildis": "B",
    "status": "Assigned to Contractor",
    "contractor": "IV Waste",
    "rowid": "1271862",
    "final_x": "3668539.98689",
    "final_y": "531922.410179",
    "longitude": "-90.1089799298148",
    "latitude": "29.95698931219033",
    "geocoded_column": {
      "latitude": "29.95698931219033",
      "longitude": "-90.1089799298148"
    }
  },
  {
    "service_request": "2026-1271861",
    "request_type": "Streetlights",
    "request_reason": "Streetlight Outage/Malfunction",
    "date_created": "2026-04-07T16:40:52.000",
    "date_modified": "2026-04-07T16:40:53.000",
    "request_status": "Pending",
    "responsible_agency": "Department of Public Works",
    "final_address": "2361 Urquhart St",
    "address_councildis": "C",
    "status": "Pending",
    "rowid": "1271861",
    "final_x": "3686239.72457",
    "final_y": "537174.851208",
    "longitude": "-90.05290447748668",
    "latitude": "29.97089980640983",
    "geocoded_column": {
      "latitude": "29.97089980640983",
      "longitude": "-90.05290447748668"
    }
  },
  {
    "service_request": "2026-1271860",
    "request_type": "Trash/Recycling",
    "request_reason": "Request a Large Item Pick Up",
    "date_created": "2026-04-07T16:40:19.000",
    "date_modified": "2026-04-07T16:40:20.000",
    "request_status": "Pending",
    "responsible_agency": "Department of Sanitation",
    "final_address": "6318 Patton St",
    "address_councildis": "A",
    "status": "Assigned to Contractor",
    "contractor": "IV Waste",
    "rowid": "1271860",
    "final_x": "3663009.41056",
    "final_y": "519136.758775",
    "longitude": "-90.12686893636786",
    "latitude": "29.921994170384522",
    "geocoded_column": {
      "latitude": "29.921994170384522",
      "longitude": "-90.12686893636786"
    }
  },
  {
    "service_request": "2026-1271859",
    "request_type": "Street and Traffic Signs",
    "request_reason": "Street Name Sign Damaged or Missing",
    "date_created": "2026-04-07T16:40:02.000",
    "date_modified": "2026-04-07T16:40:03.000",
    "request_status": "Pending",
    "responsible_agency": "Department of Public Works",
    "final_address": "PELICAN AVE & ELMIRE AVE & ELMIRA AVE",
    "address_councildis": "C",
    "status": "Pending",
    "rowid": "1271859",
    "final_x": "3688247.4",
    "final_y": "530758.48",
    "longitude": "-90.04679151956897",
    "latitude": "29.95319517296049",
    "geocoded_column": {
      "latitude": "29.95319517296049",
      "longitude": "-90.04679151956897"
    }
  },
  {
    "service_request": "2026-1271858",
    "request_type": "Trash/Recycling",
    "request_reason": "Repair Trash Cart",
    "date_created": "2026-04-07T16:39:14.000",
    "date_modified": "2026-04-07T16:39:16.000",
    "request_status": "Pending",
    "responsible_agency": "Department of Sanitation",
    "final_address": "124 Stafford Pl",
    "address_councildis": "A",
    "status": "Assigned to Contractor",
    "contractor": "IV Waste",
    "rowid": "1271858",
    "final_x": "3666144.2377",
    "final_y": "553815.782167",
    "longitude": "-90.11581041159879",
    "latitude": "30.017258831318497",
    "geocoded_column": {
      "latitude": "30.017258831318497",
      "longitude": "-90.11581041159879"
    }
  },
  {
    "service_request": "2026-1271857",
    "request_type": "Traffic Signals",
    "request_reason": "Traffic Signal Malfunctioning or Damaged",
    "date_created": "2026-04-07T16:38:03.000",
    "date_modified": "2026-04-07T16:38:04.000",
    "request_status": "Pending",
    "responsible_agency": "Department of Public Works",
    "final_address": "VENDOME PL & FONTAINEBLEAU DR",
    "address_councildis": "B",
    "status": "Pending",
    "rowid": "1271857",
    "final_x": "3668677.6",
    "final_y": "529725.18",
    "longitude": "-90.1086195468774",
    "latitude": "29.95094360586631",
    "geocoded_column": {
      "latitude": "29.95094360586631",
      "longitude": "-90.1086195468774"
    }
  },
  {
    "service_request": "2026-1271856",
    "request_type": "Trash/Recycling",
    "request_reason": "Request a Large Item Pick Up",
    "date_created": "2026-04-07T16:37:55.000",
    "date_modified": "2026-04-07T16:37:57.000",
    "request_status": "Pending",
    "responsible_agency": "Department of Sanitation",
    "final_address": "7404 Wayfarer St",
    "address_councildis": "E",
    "status": "Assigned to Contractor",
    "contractor": "Waste Pro",
    "rowid": "1271856",
    "final_x": "3725881.60761",
    "final_y": "569785.826918",
    "longitude": "-89.92644770404144",
    "latitude": "30.059289268093305",
    "geocoded_column": {
      "latitude": "30.059289268093305",
      "longitude": "-89.92644770404144"
    }
  },
  {
    "service_request": "2026-1271855",
    "request_type": "Trash/Recycling",
    "request_reason": "Order Second Trash Cart",
    "date_created": "2026-04-07T16:35:44.000",
    "date_modified": "2026-04-07T16:35:45.000",
    "request_status": "Pending",
    "responsible_agency": "Department of Sanitation",
    "final_address": "2506 Broadway St",
    "address_councildis": "A",
    "status": "Assigned to Contractor",
    "contractor": "IV Waste",
    "rowid": "1271855",
    "final_x": "3666801.06029",
    "final_y": "530504.189186",
    "longitude": "-90.11451857143167",
    "latitude": "29.95314064436353",
    "geocoded_column": {
      "latitude": "29.95314064436353",
      "longitude": "-90.11451857143167"
    }
  },
  {
    "service_request": "2026-1271854",
    "request_type": "Trash/Recycling",
    "request_reason": "Request a Large Item Pick Up",
    "date_created": "2026-04-07T16:34:26.000",
    "date_modified": "2026-04-07T16:34:27.000",
    "request_status": "Pending",
    "responsible_agency": "Department of Sanitation",
    "final_address": "1461 Constance St",
    "address_councildis": "B",
    "status": "Assigned to Contractor",
    "contractor": "IV Waste",
    "rowid": "1271854",
    "final_x": "3680567.04885",
    "final_y": "523927.700156",
    "longitude": "-90.07128029611026",
    "latitude": "29.934647690542807",
    "geocoded_column": {
      "latitude": "29.934647690542807",
      "longitude": "-90.07128029611026"
    }
  },
  {
    "service_request": "2026-1271853",
    "request_type": "Abandoned Vehicles",
    "request_reason": "Abandoned/Junk Vehicles",
    "date_created": "2026-04-07T16:34:21.000",
    "date_modified": "2026-04-07T16:34:23.000",
    "request_status": "Pending",
    "responsible_agency": "Department of Public Works",
    "final_address": "6301 Curran Rd",
    "address_councildis": "E",
    "status": "Pending",
    "rowid": "1271853",
    "final_x": "3696295.47786",
    "final_y": "559258.092444",
    "longitude": "-90.02034814931196",
    "latitude": "30.031307739382076",
    "geocoded_column": {
      "latitude": "30.031307739382076",
      "longitude": "-90.02034814931196"
    }
  },
  {
    "service_request": "2026-1271852",
    "request_type": "Trash/Recycling",
    "request_reason": "Order Second Trash Cart",
    "date_created": "2026-04-07T16:34:18.000",
    "date_modified": "2026-04-07T16:34:20.000",
    "request_status": "Pending",
    "responsible_agency": "Department of Sanitation",
    "final_address": "2504 Broadway St",
    "address_councildis": "A",
    "status": "Assigned to Contractor",
    "contractor": "IV Waste",
    "rowid": "1271852",
    "final_x": "3666792.31028",
    "final_y": "530493.355842",
    "longitude": "-90.1145465641097",
    "latitude": "29.953111112116147",
    "geocoded_column": {
      "latitude": "29.953111112116147",
      "longitude": "-90.1145465641097"
    }
  },
  {
    "service_request": "2026-1271851",
    "request_type": "Trash/Recycling",
    "request_reason": "Replace Trash Cart",
    "date_created": "2026-04-07T16:33:38.000",
    "date_modified": "2026-04-07T16:33:39.000",
    "request_status": "Pending",
    "responsible_agency": "Department of Sanitation",
    "final_address": "2506 Broadway St",
    "address_councildis": "A",
    "status": "Assigned to Contractor",
    "contractor": "IV Waste",
    "rowid": "1271851",
    "final_x": "3666801.06029",
    "final_y": "530504.189186",
    "longitude": "-90.11451857143167",
    "latitude": "29.95314064436353",
    "geocoded_column": {
      "latitude": "29.95314064436353",
      "longitude": "-90.11451857143167"
    }
  },
  {
    "service_request": "2026-1271850",
    "request_type": "Trash/Recycling",
    "request_reason": "Request a Large Item Pick Up",
    "date_created": "2026-04-07T16:32:15.000",
    "date_modified": "2026-04-07T16:32:16.000",
    "request_status": "Pending",
    "responsible_agency": "Department of Sanitation",
    "final_address": "5137 Lakeview Ct",
    "address_councildis": "E",
    "status": "Assigned to Contractor",
    "contractor": "Waste Pro",
    "rowid": "1271850",
    "final_x": "3698933.12144",
    "final_y": "556257.818778",
    "longitude": "-90.01212245995235",
    "latitude": "30.02297476927886",
    "geocoded_column": {
      "latitude": "30.02297476927886",
      "longitude": "-90.01212245995235"
    }
  },
  {
    "service_request": "2026-1271849",
    "request_type": "Trash/Recycling",
    "request_reason": "Request a Large Item Pick Up",
    "date_created": "2026-04-07T16:31:04.000",
    "date_modified": "2026-04-07T16:31:06.000",
    "request_status": "Pending",
    "responsible_agency": "Department of Sanitation",
    "final_address": "3007 Audubon St",
    "address_councildis": "B",
    "status": "Assigned to Contractor",
    "contractor": "IV Waste",
    "rowid": "1271849",
    "final_x": "3667990.9314",
    "final_y": "531698.041283",
    "longitude": "-90.11072124065271",
    "latitude": "29.956388491640435",
    "geocoded_column": {
      "latitude": "29.956388491640435",
      "longitude": "-90.11072124065271"
    }
  },
  {
    "service_request": "2026-1271848",
    "request_type": "Trash/Recycling",
    "request_reason": "Illegal Dumping",
    "date_created": "2026-04-07T16:22:44.000",
    "date_modified": "2026-04-07T16:22:45.000",
    "request_status": "Pending",
    "responsible_agency": "Department of Sanitation",
    "final_address": "5447 N Derbigny St",
    "address_councildis": "E",
    "status": "Pending",
    "rowid": "1271848",
    "final_x": "3698157.02403",
    "final_y": "536153.759047",
    "longitude": "-90.01530544113771",
    "latitude": "29.967720613956782",
    "geocoded_column": {
      "latitude": "29.967720613956782",
      "longitude": "-90.01530544113771"
    }
  },
  {
    "service_request": "2026-1271847",
    "request_type": "Trash/Recycling",
    "request_reason": "Order Recycling Cart",
    "date_created": "2026-04-07T16:22:32.000",
    "date_modified": "2026-04-07T16:22:34.000",
    "request_status": "Pending",
    "responsible_agency": "Department of Sanitation",
    "final_address": "2536 General Pershing St",
    "address_councildis": "B",
    "status": "Pending",
    "rowid": "1271847",
    "final_x": "3670855.98151",
    "final_y": "524361.055548",
    "longitude": "-90.10192331952312",
    "latitude": "29.936129809999056",
    "geocoded_column": {
      "latitude": "29.936129809999056",
      "longitude": "-90.10192331952312"
    }
  },
  {
    "service_request": "2026-1271846",
    "request_type": "Trash/Recycling",
    "request_reason": "Order Trash Cart",
    "date_created": "2026-04-07T16:22:16.000",
    "date_modified": "2026-04-07T16:22:18.000",
    "request_status": "Pending",
    "responsible_agency": "Department of Sanitation",
    "final_address": "7625 Lehigh St",
    "address_councildis": "E",
    "status": "Assigned to Contractor",
    "contractor": "Waste Pro",
    "rowid": "1271846",
    "final_x": "3710583.59729",
    "final_y": "565683.098018",
    "longitude": "-89.97495686766875",
    "latitude": "30.048516019072448",
    "geocoded_column": {
      "latitude": "30.048516019072448",
      "longitude": "-89.97495686766875"
    }
  },
  {
    "service_request": "2026-1271845",
    "request_type": "Trash/Recycling",
    "request_reason": "Replace Trash Cart",
    "date_created": "2026-04-07T16:19:26.000",
    "date_modified": "2026-04-07T16:19:27.000",
    "request_status": "Pending",
    "responsible_agency": "Department of Sanitation",
    "final_address": "327 Sharon Dr",
    "address_councildis": "A",
    "status": "Assigned to Contractor",
    "contractor": "IV Waste",
    "rowid": "1271845",
    "final_x": "3664857.74298",
    "final_y": "547216.447441",
    "longitude": "-90.12009600882344",
    "latitude": "29.99915047380302",
    "geocoded_column": {
      "latitude": "29.99915047380302",
      "longitude": "-90.12009600882344"
    }
  },
  {
    "service_request": "2026-1271844",
    "request_type": "Trash/Recycling",
    "request_reason": "Request a Large Item Pick Up",
    "date_created": "2026-04-07T16:16:45.000",
    "date_modified": "2026-04-07T16:16:48.000",
    "request_status": "Pending",
    "responsible_agency": "Department of Sanitation",
    "final_address": "7020 Curran Rd",
    "address_councildis": "E",
    "status": "Assigned to Contractor",
    "contractor": "Waste Pro",
    "rowid": "1271844",
    "final_x": "3699000.13456",
    "final_y": "560286.037405",
    "longitude": "-90.01176391197366",
    "latitude": "30.03404869767704",
    "geocoded_column": {
      "latitude": "30.03404869767704",
      "longitude": "-90.01176391197366"
    }
  },
  {
    "service_request": "2026-1271843",
    "request_type": "Trash/Recycling",
    "request_reason": "Request a Large Item Pick Up",
    "date_created": "2026-04-07T16:13:50.000",
    "date_modified": "2026-04-07T16:13:52.000",
    "request_status": "Pending",
    "responsible_agency": "Department of Sanitation",
    "final_address": "4783 Lancelot Dr",
    "address_councildis": "E",
    "status": "Assigned to Contractor",
    "contractor": "Waste Pro",
    "rowid": "1271843",
    "final_x": "3707491.54142",
    "final_y": "555797.698329",
    "longitude": "-89.98509711235381",
    "latitude": "30.02143549900781",
    "geocoded_column": {
      "latitude": "30.02143549900781",
      "longitude": "-89.98509711235381"
    }
  },
  {
    "service_request": "2026-1271842",
    "request_type": "Traffic Signals",
    "request_reason": "Traffic Signal Malfunctioning or Damaged",
    "date_created": "2026-04-07T16:13:39.000",
    "date_modified": "2026-04-07T16:13:41.000",
    "request_status": "Pending",
    "responsible_agency": "Department of Public Works",
    "final_address": "900 Poydras St",
    "address_councildis": "B",
    "status": "Pending",
    "rowid": "1271842",
    "final_x": "3679877.72443",
    "final_y": "529493.088449",
    "longitude": "-90.07326326562955",
    "latitude": "29.949971514920346",
    "geocoded_column": {
      "latitude": "29.949971514920346",
      "longitude": "-90.07326326562955"
    }
  },
  {
    "service_request": "2026-1271841",
    "request_type": "Abandoned Vehicles",
    "request_reason": "Abandoned/Junk Vehicles",
    "date_created": "2026-04-07T16:12:28.000",
    "date_modified": "2026-04-07T16:12:51.000",
    "request_status": "Pending",
    "responsible_agency": "Department of Public Works",
    "final_address": "1016 Leboeuf St",
    "address_councildis": "C",
    "status": "Pending",
    "rowid": "1271841",
    "final_x": "3689806.48291",
    "final_y": "527689.181311",
    "longitude": "-90.041977849298",
    "latitude": "29.944707430532457",
    "geocoded_column": {
      "latitude": "29.944707430532457",
      "longitude": "-90.041977849298"
    }
  },
  {
    "service_request": "2026-1271840",
    "request_type": "Trash/Recycling",
    "request_reason": "Request a Large Item Pick Up",
    "date_created": "2026-04-07T16:10:30.000",
    "date_modified": "2026-04-07T16:10:31.000",
    "request_status": "Pending",
    "responsible_agency": "Department of Sanitation",
    "final_address": "5810 Chamberlain Dr",
    "address_councildis": "D",
    "status": "Assigned to Contractor",
    "contractor": "IV Waste",
    "rowid": "1271840",
    "final_x": "3679258.26786",
    "final_y": "553924.250648",
    "longitude": "-90.074371616807",
    "latitude": "30.01716741409558",
    "geocoded_column": {
      "latitude": "30.01716741409558",
      "longitude": "-90.074371616807"
    }
  },
  {
    "service_request": "2026-1271839",
    "request_type": "Drainage",
    "request_reason": "Ditch and Culvert Maintenance",
    "date_created": "2026-04-07T16:09:58.000",
    "date_modified": "2026-04-07T16:10:54.000",
    "request_status": "Pending",
    "responsible_agency": "Department of Public Works",
    "final_address": "7680 Wave Dr",
    "address_councildis": "E",
    "status": "Pending",
    "rowid": "1271839",
    "final_x": "3714714.89887",
    "final_y": "568988.067302",
    "longitude": "-89.96177464824466",
    "latitude": "30.057468019290205",
    "geocoded_column": {
      "latitude": "30.057468019290205",
      "longitude": "-89.96177464824466"
    }
  },
  {
    "service_request": "2026-1271838",
    "request_type": "Trash/Recycling",
    "request_reason": "Repair Recycling Cart",
    "date_created": "2026-04-07T16:05:31.000",
    "date_modified": "2026-04-07T16:05:33.000",
    "request_status": "Pending",
    "responsible_agency": "Department of Sanitation",
    "final_address": "7220 Farwood Dr",
    "address_councildis": "E",
    "status": "Pending",
    "rowid": "1271838",
    "final_x": "3701157.74999",
    "final_y": "556728.537178",
    "longitude": "-90.00507593757095",
    "latitude": "30.02419834557102",
    "geocoded_column": {
      "latitude": "30.02419834557102",
      "longitude": "-90.00507593757095"
    }
  },
  {
    "service_request": "2026-1271837",
    "request_type": "Trash/Recycling",
    "request_reason": "Request a Large Item Pick Up",
    "date_created": "2026-04-07T16:03:25.000",
    "date_modified": "2026-04-07T16:03:37.000",
    "request_status": "Pending",
    "responsible_agency": "Department of Sanitation",
    "final_address": "7930 Pebble Dr",
    "address_councildis": "E",
    "status": "Assigned to Contractor",
    "contractor": "Waste Pro",
    "rowid": "1271837",
    "final_x": "3714359.93976",
    "final_y": "569879.716966",
    "longitude": "-89.96286290634953",
    "latitude": "30.05993136650596",
    "geocoded_column": {
      "latitude": "30.05993136650596",
      "longitude": "-89.96286290634953"
    }
  },
  {
    "service_request": "2026-1271836",
    "request_type": "Trash/Recycling",
    "request_reason": "Repair Trash Cart",
    "date_created": "2026-04-07T16:01:00.000",
    "date_modified": "2026-04-07T16:01:02.000",
    "request_status": "Pending",
    "responsible_agency": "Department of Sanitation",
    "final_address": "3312 Pauger St A",
    "address_councildis": "D",
    "status": "Assigned to Contractor",
    "contractor": "IV Waste",
    "rowid": "1271836",
    "final_x": "3683379.24879",
    "final_y": "541880.744716",
    "longitude": "-90.06177328860343",
    "latitude": "29.983926951508245",
    "geocoded_column": {
      "latitude": "29.983926951508245",
      "longitude": "-90.06177328860343"
    }
  },
  {
    "service_request": "2026-1271835",
    "request_type": "Property Maintenance",
    "request_reason": "Property Maintenance",
    "date_created": "2026-04-07T15:59:34.000",
    "date_modified": "2026-04-07T15:59:36.000",
    "request_status": "Pending",
    "responsible_agency": "Department of Code Enforcement",
    "final_address": "4908 Camelia St",
    "address_councildis": "E",
    "status": "Pending",
    "rowid": "1271835",
    "final_x": "3701403.24157",
    "final_y": "555151.385241",
    "longitude": "-90.00435803478184",
    "latitude": "30.0198539556285",
    "geocoded_column": {
      "latitude": "30.0198539556285",
      "longitude": "-90.00435803478184"
    }
  },
  {
    "service_request": "2026-1271834",
    "request_type": "Property Maintenance",
    "request_reason": "Property Maintenance",
    "date_created": "2026-04-07T15:57:13.000",
    "date_modified": "2026-04-07T15:57:14.000",
    "request_status": "Pending",
    "responsible_agency": "Department of Code Enforcement",
    "final_address": "4921 Camelia St",
    "address_councildis": "E",
    "status": "Pending",
    "rowid": "1271834",
    "final_x": "3701507.00247",
    "final_y": "555211.404377",
    "longitude": "-90.00402798602062",
    "latitude": "30.020015675844192",
    "geocoded_column": {
      "latitude": "30.020015675844192",
      "longitude": "-90.00402798602062"
    }
  },
  {
    "service_request": "2026-1271833",
    "request_type": "Property Maintenance",
    "request_reason": "Property Maintenance",
    "date_created": "2026-04-07T15:54:06.000",
    "date_modified": "2026-04-07T15:54:08.000",
    "request_status": "Pending",
    "responsible_agency": "Department of Code Enforcement",
    "final_address": "4915 Camelia St",
    "address_councildis": "E",
    "status": "Pending",
    "rowid": "1271833",
    "final_x": "3701510.89066",
    "final_y": "555156.966745",
    "longitude": "-90.00401769613138",
    "latitude": "30.019865869160803",
    "geocoded_column": {
      "latitude": "30.019865869160803",
      "longitude": "-90.00401769613138"
    }
  },
  {
    "service_request": "2026-1271832",
    "request_type": "Roads and Streets",
    "request_reason": "Pothole",
    "date_created": "2026-04-07T15:52:07.000",
    "date_modified": "2026-04-07T15:52:09.000",
    "request_status": "Pending",
    "responsible_agency": "Department of Public Works",
    "final_address": "1330 Toledano St",
    "address_councildis": "B",
    "status": "Pending",
    "rowid": "1271832",
    "final_x": "3674960.21909",
    "final_y": "520678.930361",
    "longitude": "-90.08909234135399",
    "latitude": "29.92588324177793",
    "geocoded_column": {
      "latitude": "29.92588324177793",
      "longitude": "-90.08909234135399"
    }
  },
  {
    "service_request": "2026-1271831",
    "request_type": "New Orleans Recreation Development Commission (NORDC)",
    "request_reason": "Facilities and Parks Maintenance/Clean Up",
    "date_created": "2026-04-07T15:50:26.000",
    "date_modified": "2026-04-07T15:50:28.000",
    "request_status": "Pending",
    "responsible_agency": "New Orleans Recreation Development Commission",
    "final_address": "2200 Lafitte Ave",
    "address_councildis": "C",
    "status": "Pending",
    "rowid": "1271831",
    "final_x": "3677930.13774",
    "final_y": "535372.56935",
    "longitude": "-90.07920951888887",
    "latitude": "29.9661968523466",
    "geocoded_column": {
      "latitude": "29.9661968523466",
      "longitude": "-90.07920951888887"
    }
  },
  {
    "service_request": "2026-1271830",
    "request_type": "Trash/Recycling",
    "request_reason": "Repair Trash Cart",
    "date_created": "2026-04-07T15:48:33.000",
    "date_modified": "2026-04-07T15:48:50.000",
    "request_status": "Pending",
    "responsible_agency": "Department of Sanitation",
    "final_address": "3312 Pauger St",
    "address_councildis": "D",
    "status": "Assigned to Contractor",
    "contractor": "IV Waste",
    "rowid": "1271830",
    "final_x": "3683381.33705",
    "final_y": "541870.074828",
    "longitude": "-90.06176706675033",
    "latitude": "29.983897549350843",
    "geocoded_column": {
      "latitude": "29.983897549350843",
      "longitude": "-90.06176706675033"
    }
  },
  {
    "service_request": "2026-1271829",
    "request_type": "Safety & Permits",
    "request_reason": "Zoning Enforcement",
    "date_created": "2026-04-07T15:45:05.000",
    "date_modified": "2026-04-07T15:45:39.000",
    "request_status": "Pending",
    "responsible_agency": "Safety and Permits",
    "final_address": "4020 St Charles Ave",
    "address_councildis": "B",
    "status": "Pending",
    "rowid": "1271829",
    "final_x": "3672137.74132",
    "final_y": "520910.079609",
    "longitude": "-90.09799421823894",
    "latitude": "29.926602800135775",
    "geocoded_column": {
      "latitude": "29.926602800135775",
      "longitude": "-90.09799421823894"
    }
  },
  {
    "service_request": "2026-1271828",
    "request_type": "Trash/Recycling",
    "request_reason": "Request a Large Item Pick Up",
    "date_created": "2026-04-07T15:44:35.000",
    "date_modified": "2026-04-07T16:22:26.000",
    "request_status": "Pending",
    "responsible_agency": "Department of Sanitation",
    "final_address": "4809 Mithra St",
    "address_councildis": "D",
    "status": "Assigned to Contractor",
    "contractor": "IV Waste",
    "rowid": "1271828",
    "final_x": "3691444.88105",
    "final_y": "553675.006935",
    "longitude": "-90.03587594672192",
    "latitude": "30.016108288114232",
    "geocoded_column": {
      "latitude": "30.016108288114232",
      "longitude": "-90.03587594672192"
    }
  },
  {
    "service_request": "2026-1271827",
    "request_type": "Abandoned Vehicles",
    "request_reason": "Abandoned/Junk Vehicles",
    "date_created": "2026-04-07T15:43:20.000",
    "date_modified": "2026-04-07T15:43:22.000",
    "request_status": "Pending",
    "responsible_agency": "Department of Public Works",
    "final_address": "3404 Momus Ct",
    "address_councildis": "B",
    "status": "Pending",
    "rowid": "1271827",
    "final_x": "3672485.47425",
    "final_y": "527968.079615",
    "longitude": "-90.09665605394466",
    "latitude": "29.9459996973493",
    "geocoded_column": {
      "latitude": "29.9459996973493",
      "longitude": "-90.09665605394466"
    }
  },
  {
    "service_request": "2026-1271826",
    "request_type": "Trash/Recycling",
    "request_reason": "MIssed Recycling Pick-Up",
    "date_created": "2026-04-07T15:42:40.000",
    "date_modified": "2026-04-07T16:16:29.000",
    "case_close_date": "2026-04-07T11:16:28.000",
    "request_status": "Closed",
    "responsible_agency": "Department of Sanitation",
    "final_address": "1712 Bayou Rd",
    "address_councildis": "C",
    "status": "Invalid Request",
    "contractor": "IV Waste",
    "contractor_action": "Invalid Request",
    "rowid": "1271826",
    "final_x": "3680801.22939",
    "final_y": "536302.336647",
    "longitude": "-90.0701103077498",
    "latitude": "29.968666675414664",
    "geocoded_column": {
      "latitude": "29.968666675414664",
      "longitude": "-90.0701103077498"
    }
  },
  {
    "service_request": "2026-1271825",
    "request_type": "Trash/Recycling",
    "request_reason": "Missed Trash Pick-Up",
    "date_created": "2026-04-07T15:41:58.000",
    "date_modified": "2026-04-07T16:55:34.000",
    "case_close_date": "2026-04-07T11:55:33.000",
    "request_status": "Closed",
    "responsible_agency": "Department of Sanitation",
    "final_address": "2001 Rev. John Raphael, Jr. Way",
    "address_councildis": "B",
    "status": "Invalid Request",
    "contractor": "IV Waste",
    "contractor_action": "Invalid Request",
    "rowid": "1271825",
    "final_x": "3676239.34632",
    "final_y": "526418.32467",
    "longitude": "-90.08485710874119",
    "latitude": "29.941626447527184",
    "geocoded_column": {
      "latitude": "29.941626447527184",
      "longitude": "-90.08485710874119"
    }
  },
  {
    "service_request": "2026-1271824",
    "request_type": "Trash/Recycling",
    "request_reason": "Request a Large Item Pick Up",
    "date_created": "2026-04-07T15:40:36.000",
    "date_modified": "2026-04-07T15:40:37.000",
    "request_status": "Pending",
    "responsible_agency": "Department of Sanitation",
    "final_address": "7308 Ligustrum Dr",
    "address_councildis": "E",
    "status": "Assigned to Contractor",
    "contractor": "Waste Pro",
    "rowid": "1271824",
    "final_x": "3701784.05162",
    "final_y": "560140.653853",
    "longitude": "-90.00297177548232",
    "latitude": "30.033560368882025",
    "geocoded_column": {
      "latitude": "30.033560368882025",
      "longitude": "-90.00297177548232"
    }
  },
  {
    "service_request": "2026-1271823",
    "request_type": "Trash/Recycling",
    "request_reason": "Request a Large Item Pick Up",
    "date_created": "2026-04-07T15:39:15.000",
    "date_modified": "2026-04-07T15:39:17.000",
    "request_status": "Pending",
    "responsible_agency": "Department of Sanitation",
    "final_address": "4856 Tchoupitoulas St",
    "address_councildis": "B",
    "status": "Assigned to Contractor",
    "contractor": "IV Waste",
    "rowid": "1271823",
    "final_x": "3669223.33018",
    "final_y": "517212.147509",
    "longitude": "-90.1073191445732",
    "latitude": "29.916520731579396",
    "geocoded_column": {
      "latitude": "29.916520731579396",
      "longitude": "-90.1073191445732"
    }
  },
  {
    "service_request": "2026-1271822",
    "request_type": "Streetlights",
    "request_reason": "Streetlight Outage/Malfunction",
    "date_created": "2026-04-07T15:38:45.000",
    "date_modified": "2026-04-07T15:38:46.000",
    "request_status": "Pending",
    "responsible_agency": "Department of Public Works",
    "final_address": "3510 Desaix Blvd",
    "address_councildis": "A",
    "status": "Pending",
    "rowid": "1271822",
    "final_x": "3676205.34209",
    "final_y": "543568.275598",
    "longitude": "-90.08437428049807",
    "latitude": "29.988784025718303",
    "geocoded_column": {
      "latitude": "29.988784025718303",
      "longitude": "-90.08437428049807"
    }
  },
  {
    "service_request": "2026-1271821",
    "request_type": "Parks & Parkways",
    "request_reason": "Request Tree Service (Right of Way/Public Property)",
    "date_created": "2026-04-07T15:37:59.000",
    "date_modified": "2026-04-07T15:38:00.000",
    "request_status": "Pending",
    "responsible_agency": "Department of Parks & Parkway",
    "final_address": "431 Calhoun St",
    "address_councildis": "A",
    "status": "Pending",
    "rowid": "1271821",
    "final_x": "3663034.85037",
    "final_y": "518654.008311",
    "longitude": "-90.12680467869804",
    "latitude": "29.920666020386562",
    "geocoded_column": {
      "latitude": "29.920666020386562",
      "longitude": "-90.12680467869804"
    }
  },
  {
    "service_request": "2026-1271820",
    "request_type": "Property Maintenance",
    "request_reason": "Property Maintenance",
    "date_created": "2026-04-07T15:37:58.000",
    "date_modified": "2026-04-07T15:38:00.000",
    "request_status": "Pending",
    "responsible_agency": "Department of Code Enforcement",
    "final_address": "2001 Rev. John Raphael, Jr. Way",
    "address_councildis": "B",
    "status": "Pending",
    "rowid": "1271820",
    "final_x": "3676239.34632",
    "final_y": "526418.32467",
    "longitude": "-90.08485710874119",
    "latitude": "29.941626447527184",
    "geocoded_column": {
      "latitude": "29.941626447527184",
      "longitude": "-90.08485710874119"
    }
  },
  {
    "service_request": "2026-1271819",
    "request_type": "Abandoned Vehicles",
    "request_reason": "Abandoned/Junk Vehicles",
    "date_created": "2026-04-07T15:36:44.000",
    "date_modified": "2026-04-07T15:36:46.000",
    "request_status": "Pending",
    "responsible_agency": "Department of Public Works",
    "final_address": "4226 General Ogden St",
    "address_councildis": "A",
    "status": "Pending",
    "rowid": "1271819",
    "final_x": "3667125.0962",
    "final_y": "538370.393097",
    "longitude": "-90.11323092480772",
    "latitude": "29.974760623608123",
    "geocoded_column": {
      "latitude": "29.974760623608123",
      "longitude": "-90.11323092480772"
    }
  },
  {
    "service_request": "2026-1271818",
    "request_type": "Streetlights",
    "request_reason": "Streetlight Outage/Malfunction",
    "date_created": "2026-04-07T15:36:22.000",
    "date_modified": "2026-04-07T15:36:23.000",
    "request_status": "Pending",
    "responsible_agency": "Department of Public Works",
    "final_address": "3510 Desaix Blvd",
    "address_councildis": "A",
    "status": "Pending",
    "rowid": "1271818",
    "final_x": "3676205.34209",
    "final_y": "543568.275598",
    "longitude": "-90.08437428049807",
    "latitude": "29.988784025718303",
    "geocoded_column": {
      "latitude": "29.988784025718303",
      "longitude": "-90.08437428049807"
    }
  },
  {
    "service_request": "2026-1271817",
    "request_type": "Trash/Recycling",
    "request_reason": "Illegal Dumping",
    "date_created": "2026-04-07T15:34:27.000",
    "date_modified": "2026-04-07T15:34:29.000",
    "request_status": "Pending",
    "responsible_agency": "Department of Sanitation",
    "final_address": "1141 Decatur St",
    "address_councildis": "C",
    "status": "Pending",
    "rowid": "1271817",
    "final_x": "3684218.80828",
    "final_y": "533442.343172",
    "longitude": "-90.05941783179756",
    "latitude": "29.960698638839144",
    "geocoded_column": {
      "latitude": "29.960698638839144",
      "longitude": "-90.05941783179756"
    }
  },
  {
    "service_request": "2026-1271816",
    "request_type": "Roads and Streets",
    "request_reason": "Road Shoulder Damage",
    "date_created": "2026-04-07T15:32:00.000",
    "date_modified": "2026-04-07T15:32:02.000",
    "request_status": "Pending",
    "responsible_agency": "Department of Public Works",
    "final_address": "3027 Napoleon Ave Apt 101",
    "address_councildis": "B",
    "status": "Pending",
    "rowid": "1271816",
    "final_x": "3670426.93831",
    "final_y": "526149.097406",
    "longitude": "-90.10321722335469",
    "latitude": "29.941059017822898",
    "geocoded_column": {
      "latitude": "29.941059017822898",
      "longitude": "-90.10321722335469"
    }
  },
  {
    "service_request": "2026-1271815",
    "request_type": "Trash/Recycling",
    "request_reason": "Request a Large Item Pick Up",
    "date_created": "2026-04-07T15:30:33.000",
    "date_modified": "2026-04-07T15:30:35.000",
    "request_status": "Pending",
    "responsible_agency": "Department of Sanitation",
    "final_address": "7539 Marquis St",
    "address_councildis": "E",
    "status": "Assigned to Contractor",
    "contractor": "Waste Pro",
    "rowid": "1271815",
    "final_x": "3711646.59102",
    "final_y": "565761.070499",
    "longitude": "-89.97159429030728",
    "latitude": "30.048695719373384",
    "geocoded_column": {
      "latitude": "30.048695719373384",
      "longitude": "-89.97159429030728"
    }
  },
  {
    "service_request": "2026-1271814",
    "request_type": "Parks & Parkways",
    "request_reason": "Request Tree Service (Right of Way/Public Property)",
    "date_created": "2026-04-07T15:26:26.000",
    "date_modified": "2026-04-07T15:26:27.000",
    "request_status": "Pending",
    "responsible_agency": "Department of Parks & Parkway",
    "final_address": "7220 Hanover Rd",
    "address_councildis": "E",
    "status": "Pending",
    "rowid": "1271814",
    "final_x": "3709666.66872",
    "final_y": "562870.867424",
    "longitude": "-89.9779600075801",
    "latitude": "30.040813369351973",
    "geocoded_column": {
      "latitude": "30.040813369351973",
      "longitude": "-89.9779600075801"
    }
  },
  {
    "service_request": "2026-1271813",
    "request_type": "Trash/Recycling",
    "request_reason": "Request a Large Item Pick Up",
    "date_created": "2026-04-07T15:23:04.000",
    "date_modified": "2026-04-07T15:23:06.000",
    "request_status": "Pending",
    "responsible_agency": "Department of Sanitation",
    "final_address": "3316 Short St",
    "address_councildis": "B",
    "status": "Assigned to Contractor",
    "contractor": "IV Waste",
    "rowid": "1271813",
    "final_x": "3667405.42535",
    "final_y": "533735.786245",
    "longitude": "-90.11250152447192",
    "latitude": "29.962008785162602",
    "geocoded_column": {
      "latitude": "29.962008785162602",
      "longitude": "-90.11250152447192"
    }
  },
  {
    "service_request": "2026-1271812",
    "request_type": "Trash/Recycling",
    "request_reason": "Request a Large Item Pick Up",
    "date_created": "2026-04-07T15:22:27.000",
    "date_modified": "2026-04-07T15:22:29.000",
    "request_status": "Pending",
    "responsible_agency": "Department of Sanitation",
    "final_address": "7832 Berg Rd",
    "address_councildis": "E",
    "status": "Assigned to Contractor",
    "contractor": "Waste Pro",
    "rowid": "1271812",
    "final_x": "3711430.44722",
    "final_y": "567442.437796",
    "longitude": "-89.97221430063018",
    "latitude": "30.05332585869509",
    "geocoded_column": {
      "latitude": "30.05332585869509",
      "longitude": "-89.97221430063018"
    }
  },
  {
    "service_request": "2026-1271811",
    "request_type": "Trash/Recycling",
    "request_reason": "Request a Large Item Pick Up",
    "date_created": "2026-04-07T15:20:56.000",
    "date_modified": "2026-04-07T15:20:58.000",
    "request_status": "Pending",
    "responsible_agency": "Department of Sanitation",
    "final_address": "6936 Dorian St",
    "address_councildis": "D",
    "status": "Assigned to Contractor",
    "contractor": "Waste Pro",
    "rowid": "1271811",
    "final_x": "3696196.07024",
    "final_y": "556440.797402",
    "longitude": "-90.0207642614726",
    "latitude": "30.023564384136616",
    "geocoded_column": {
      "latitude": "30.023564384136616",
      "longitude": "-90.0207642614726"
    }
  },
  {
    "service_request": "2026-1271810",
    "request_type": "Trash/Recycling",
    "request_reason": "Request a Large Item Pick Up",
    "date_created": "2026-04-07T15:18:58.000",
    "date_modified": "2026-04-07T15:18:59.000",
    "request_status": "Pending",
    "responsible_agency": "Department of Sanitation",
    "final_address": "5910 Morrison Rd",
    "address_councildis": "D",
    "status": "Assigned to Contractor",
    "contractor": "Waste Pro",
    "rowid": "1271810",
    "final_x": "3695181.87402",
    "final_y": "557275.479579",
    "longitude": "-90.02393875915179",
    "latitude": "30.025891348901304",
    "geocoded_column": {
      "latitude": "30.025891348901304",
      "longitude": "-90.02393875915179"
    }
  },
  {
    "service_request": "2026-1271809",
    "request_type": "Trash/Recycling",
    "request_reason": "Request a Large Item Pick Up",
    "date_created": "2026-04-07T15:18:34.000",
    "date_modified": "2026-04-07T15:18:36.000",
    "request_status": "Pending",
    "responsible_agency": "Department of Sanitation",
    "final_address": "7100 W Laverne St",
    "address_councildis": "D",
    "status": "Assigned to Contractor",
    "contractor": "Waste Pro",
    "rowid": "1271809",
    "final_x": "3695847.95318",
    "final_y": "556666.910618",
    "longitude": "-90.02185605690346",
    "latitude": "30.02419706979826",
    "geocoded_column": {
      "latitude": "30.02419706979826",
      "longitude": "-90.02185605690346"
    }
  },
  {
    "service_request": "2026-1271808",
    "request_type": "Trash/Recycling",
    "request_reason": "Request a Large Item Pick Up",
    "date_created": "2026-04-07T15:16:31.000",
    "date_modified": "2026-04-07T15:16:33.000",
    "request_status": "Pending",
    "responsible_agency": "Department of Sanitation",
    "final_address": "5453 Chartres St",
    "address_councildis": "E",
    "status": "Assigned to Contractor",
    "contractor": "Waste Pro",
    "rowid": "1271808",
    "final_x": "3697079.74448",
    "final_y": "532066.919427",
    "longitude": "-90.01885555795562",
    "latitude": "29.95651728432973",
    "geocoded_column": {
      "latitude": "29.95651728432973",
      "longitude": "-90.01885555795562"
    }
  },
  {
    "service_request": "2026-1271807",
    "request_type": "Trash/Recycling",
    "request_reason": "Request a Large Item Pick Up",
    "date_created": "2026-04-07T15:15:33.000",
    "date_modified": "2026-04-07T15:15:35.000",
    "request_status": "Pending",
    "responsible_agency": "Department of Sanitation",
    "final_address": "5585 Stillwater Dr",
    "address_councildis": "E",
    "status": "Assigned to Contractor",
    "contractor": "Waste Pro",
    "rowid": "1271807",
    "final_x": "3716459.41311",
    "final_y": "561115.61667",
    "longitude": "-89.956559518681",
    "latitude": "30.035764460900484",
    "geocoded_column": {
      "latitude": "30.035764460900484",
      "longitude": "-89.956559518681"
    }
  },
  {
    "service_request": "2026-1271806",
    "request_type": "Trash/Recycling",
    "request_reason": "Order Second Trash Cart",
    "date_created": "2026-04-07T15:14:23.000",
    "date_modified": "2026-04-07T15:18:52.000",
    "request_status": "Pending",
    "responsible_agency": "Department of Sanitation",
    "final_address": "5910 Morrison Rd",
    "address_councildis": "D",
    "status": "Assigned to Contractor",
    "contractor": "Waste Pro",
    "rowid": "1271806",
    "final_x": "3695181.87402",
    "final_y": "557275.479579",
    "longitude": "-90.02393875915179",
    "latitude": "30.025891348901304",
    "geocoded_column": {
      "latitude": "30.025891348901304",
      "longitude": "-90.02393875915179"
    }
  },
  {
    "service_request": "2026-1271805",
    "request_type": "Streetlights",
    "request_reason": "Streetlight Outage/Malfunction",
    "date_created": "2026-04-07T15:13:36.000",
    "date_modified": "2026-04-07T15:13:46.000",
    "request_status": "Pending",
    "responsible_agency": "Department of Public Works",
    "final_address": "15 S Roadway St",
    "address_councildis": "A",
    "status": "Pending",
    "rowid": "1271805",
    "final_x": "3666056.87776",
    "final_y": "556344.028762",
    "longitude": "-90.1160015682416",
    "latitude": "30.024213168576303",
    "geocoded_column": {
      "latitude": "30.024213168576303",
      "longitude": "-90.1160015682416"
    }
  },
  {
    "service_request": "2026-1271804",
    "request_type": "Trash/Recycling",
    "request_reason": "Request a Large Item Pick Up",
    "date_created": "2026-04-07T15:13:07.000",
    "date_modified": "2026-04-07T15:13:09.000",
    "request_status": "Pending",
    "responsible_agency": "Department of Sanitation",
    "final_address": "10138 Hammond St",
    "address_councildis": "E",
    "status": "Assigned to Contractor",
    "contractor": "Waste Pro",
    "rowid": "1271804",
    "final_x": "3713115.06776",
    "final_y": "556352.927258",
    "longitude": "-89.96730757583401",
    "latitude": "30.022779022531825",
    "geocoded_column": {
      "latitude": "30.022779022531825",
      "longitude": "-89.96730757583401"
    }
  },
  {
    "service_request": "2026-1271803",
    "request_type": "Safety & Permits",
    "request_reason": "Zoning Enforcement",
    "date_created": "2026-04-07T15:11:38.000",
    "date_modified": "2026-04-07T15:11:39.000",
    "request_status": "Pending",
    "responsible_agency": "Safety and Permits",
    "final_address": "200 S Roadway St",
    "address_councildis": "A",
    "status": "Pending",
    "rowid": "1271803",
    "final_x": "3666107.89511",
    "final_y": "556200.063834",
    "longitude": "-90.11584519566507",
    "latitude": "30.023815825669537",
    "geocoded_column": {
      "latitude": "30.023815825669537",
      "longitude": "-90.11584519566507"
    }
  },
  {
    "service_request": "2026-1271802",
    "request_type": "Trash/Recycling",
    "request_reason": "Request a Large Item Pick Up",
    "date_created": "2026-04-07T15:10:21.000",
    "date_modified": "2026-04-07T15:10:23.000",
    "request_status": "Pending",
    "responsible_agency": "Department of Sanitation",
    "final_address": "4706 W Adams Ct",
    "address_councildis": "E",
    "status": "Assigned to Contractor",
    "contractor": "Waste Pro",
    "rowid": "1271802",
    "final_x": "3718486.30373",
    "final_y": "556767.886682",
    "longitude": "-89.95032009037851",
    "latitude": "30.02374283268497",
    "geocoded_column": {
      "latitude": "30.02374283268497",
      "longitude": "-89.95032009037851"
    }
  },
  {
    "service_request": "2026-1271801",
    "request_type": "Trash/Recycling",
    "request_reason": "Order Second Trash Cart",
    "date_created": "2026-04-07T15:07:58.000",
    "date_modified": "2026-04-07T15:08:00.000",
    "request_status": "Pending",
    "responsible_agency": "Department of Sanitation",
    "final_address": "7330 Lake Barrington Dr",
    "address_councildis": "E",
    "status": "Assigned to Contractor",
    "contractor": "Waste Pro",
    "rowid": "1271801",
    "final_x": "3712166.40786",
    "final_y": "564972.351906",
    "longitude": "-89.9699810387647",
    "latitude": "30.046510066114426",
    "geocoded_column": {
      "latitude": "30.046510066114426",
      "longitude": "-89.9699810387647"
    }
  },
  {
    "service_request": "2026-1271800",
    "request_type": "Abandoned Vehicles",
    "request_reason": "Abandoned/Junk Vehicles",
    "date_created": "2026-04-07T15:06:35.000",
    "date_modified": "2026-04-07T15:07:33.000",
    "request_status": "Pending",
    "responsible_agency": "Department of Public Works",
    "final_address": "2809 Paris Ave",
    "address_councildis": "D",
    "status": "Pending",
    "rowid": "1271800",
    "final_x": "3680026.90683",
    "final_y": "542706.698381",
    "longitude": "-90.07233308132055",
    "latitude": "29.986299900718013",
    "geocoded_column": {
      "latitude": "29.986299900718013",
      "longitude": "-90.07233308132055"
    }
  },
  {
    "service_request": "2026-1271799",
    "request_type": "Trash/Recycling",
    "request_reason": "Request a Large Item Pick Up",
    "date_created": "2026-04-07T15:06:16.000",
    "date_modified": "2026-04-07T15:06:18.000",
    "request_status": "Pending",
    "responsible_agency": "Department of Sanitation",
    "final_address": "7330 Lake Barrington Dr",
    "address_councildis": "E",
    "status": "Assigned to Contractor",
    "contractor": "Waste Pro",
    "rowid": "1271799",
    "final_x": "3712166.40786",
    "final_y": "564972.351906",
    "longitude": "-89.9699810387647",
    "latitude": "30.046510066114426",
    "geocoded_column": {
      "latitude": "30.046510066114426",
      "longitude": "-89.9699810387647"
    }
  },
  {
    "service_request": "2026-1271798",
    "request_type": "Trash/Recycling",
    "request_reason": "Request a Large Item Pick Up",
    "date_created": "2026-04-07T15:00:04.000",
    "date_modified": "2026-04-07T15:00:06.000",
    "request_status": "Pending",
    "responsible_agency": "Department of Sanitation",
    "final_address": "322 Alix St",
    "address_councildis": "C",
    "status": "Assigned to Contractor",
    "contractor": "Richards Disposal",
    "rowid": "1271798",
    "final_x": "3686540.80905",
    "final_y": "530085.101249",
    "longitude": "-90.05220395578007",
    "latitude": "29.951396189025203",
    "geocoded_column": {
      "latitude": "29.951396189025203",
      "longitude": "-90.05220395578007"
    }
  },
  {
    "service_request": "2026-1271797",
    "request_type": "Trash/Recycling",
    "request_reason": "Request a Large Item Pick Up",
    "date_created": "2026-04-07T14:56:58.000",
    "date_modified": "2026-04-07T14:57:00.000",
    "request_status": "Pending",
    "responsible_agency": "Department of Sanitation",
    "final_address": "5551 Christian Ln",
    "address_councildis": "E",
    "status": "Assigned to Contractor",
    "contractor": "Waste Pro",
    "rowid": "1271797",
    "final_x": "3704526.48132",
    "final_y": "556806.355226",
    "longitude": "-89.99442858002503",
    "latitude": "30.024304511011003",
    "geocoded_column": {
      "latitude": "30.024304511011003",
      "longitude": "-89.99442858002503"
    }
  },
  {
    "service_request": "2026-1271796",
    "request_type": "Property Maintenance",
    "request_reason": "Property Maintenance",
    "date_created": "2026-04-07T14:56:27.000",
    "date_modified": "2026-04-07T14:56:28.000",
    "request_status": "Pending",
    "responsible_agency": "Department of Code Enforcement",
    "final_address": "4919 Lurline St",
    "address_councildis": "E",
    "status": "Pending",
    "rowid": "1271796",
    "final_x": "3711937.53278",
    "final_y": "557174.358107",
    "longitude": "-89.9709974181949",
    "latitude": "30.02507618089159",
    "geocoded_column": {
      "latitude": "30.02507618089159",
      "longitude": "-89.9709974181949"
    }
  },
  {
    "service_request": "2026-1271795",
    "request_type": "Trash/Recycling",
    "request_reason": "Request a Large Item Pick Up",
    "date_created": "2026-04-07T14:56:07.000",
    "date_modified": "2026-04-07T14:56:09.000",
    "request_status": "Pending",
    "responsible_agency": "Department of Sanitation",
    "final_address": "320 Alix St",
    "address_councildis": "C",
    "status": "Assigned to Contractor",
    "contractor": "Richards Disposal",
    "rowid": "1271795",
    "final_x": "3686532.61436",
    "final_y": "530078.590081",
    "longitude": "-90.05223006039935",
    "latitude": "29.95137853746635",
    "geocoded_column": {
      "latitude": "29.95137853746635",
      "longitude": "-90.05223006039935"
    }
  },
  {
    "service_request": "2026-1271794",
    "request_type": "Health Related Request",
    "request_reason": "Homeless Encampment Complaint",
    "date_created": "2026-04-07T14:55:23.000",
    "date_modified": "2026-04-07T14:55:24.000",
    "request_status": "Pending",
    "responsible_agency": "Office Of Homeless Services And Strategy",
    "final_address": "1433 N Robertson St",
    "address_councildis": "C",
    "status": "Pending",
    "rowid": "1271794",
    "final_x": "3681711.84079",
    "final_y": "536585.789447",
    "longitude": "-90.06722465634249",
    "latitude": "29.96941843782524",
    "geocoded_column": {
      "latitude": "29.96941843782524",
      "longitude": "-90.06722465634249"
    }
  },
  {
    "service_request": "2026-1271793",
    "request_type": "Trash/Recycling",
    "request_reason": "Request a Large Item Pick Up",
    "date_created": "2026-04-07T14:53:55.000",
    "date_modified": "2026-04-07T14:53:58.000",
    "request_status": "Pending",
    "responsible_agency": "Department of Sanitation",
    "final_address": "5521 Norgate Dr",
    "address_councildis": "E",
    "status": "Assigned to Contractor",
    "contractor": "Waste Pro",
    "rowid": "1271793",
    "final_x": "3707233.3628",
    "final_y": "558000.624091",
    "longitude": "-89.98583102272653",
    "latitude": "30.02750103655683",
    "geocoded_column": {
      "latitude": "30.02750103655683",
      "longitude": "-89.98583102272653"
    }
  },
  {
    "service_request": "2026-1271792",
    "request_type": "Abandoned Vehicles",
    "request_reason": "Abandoned/Junk Vehicles",
    "date_created": "2026-04-07T14:53:08.000",
    "date_modified": "2026-04-07T14:53:10.000",
    "request_status": "Pending",
    "responsible_agency": "Department of Public Works",
    "final_address": "3317 Banks St",
    "address_councildis": "B",
    "status": "Pending",
    "rowid": "1271792",
    "final_x": "3672758.57608",
    "final_y": "535628.185734",
    "longitude": "-90.09553251108103",
    "latitude": "29.967054336531028",
    "geocoded_column": {
      "latitude": "29.967054336531028",
      "longitude": "-90.09553251108103"
    }
  },
  {
    "service_request": "2026-1271791",
    "request_type": "General Services",
    "request_reason": "General Service Request",
    "date_created": "2026-04-07T14:51:43.000",
    "date_modified": "2026-04-07T14:53:20.000",
    "case_close_date": "2026-04-07T09:53:20.000",
    "request_status": "Closed",
    "responsible_agency": "Orleans Parish Communication District",
    "final_address": "4119 Annunciation St",
    "address_councildis": "B",
    "status": "Referred to External Agency",
    "rowid": "1271791",
    "final_x": "3672086.17383",
    "final_y": "517887.498934",
    "longitude": "-90.09825984815086",
    "latitude": "29.918293196370414",
    "geocoded_column": {
      "latitude": "29.918293196370414",
      "longitude": "-90.09825984815086"
    }
  },
  {
    "service_request": "2026-1271790",
    "request_type": "Trash/Recycling",
    "request_reason": "Replace Trash Cart",
    "date_created": "2026-04-07T14:51:20.000",
    "date_modified": "2026-04-07T14:51:22.000",
    "request_status": "Pending",
    "responsible_agency": "Department of Sanitation",
    "final_address": "4654 Baccich St",
    "address_councildis": "D",
    "status": "Assigned to Contractor",
    "contractor": "IV Waste",
    "rowid": "1271790",
    "final_x": "3687712.08271",
    "final_y": "550161.348628",
    "longitude": "-90.04779446332665",
    "latitude": "30.006562708676025",
    "geocoded_column": {
      "latitude": "30.006562708676025",
      "longitude": "-90.04779446332665"
    }
  },
  {
    "service_request": "2026-1271789",
    "request_type": "Roads and Streets",
    "request_reason": "Pothole",
    "date_created": "2026-04-07T14:44:57.000",
    "date_modified": "2026-04-07T14:47:54.000",
    "request_status": "Pending",
    "responsible_agency": "Department of Public Works",
    "final_address": "PRESS DR & MIRABEAU AVE",
    "address_councildis": "D",
    "status": "Pending",
    "rowid": "1271789",
    "final_x": "3689501.8",
    "final_y": "551260.48",
    "longitude": "-90.04210117473701",
    "latitude": "30.00952958454926",
    "geocoded_column": {
      "latitude": "30.00952958454926",
      "longitude": "-90.04210117473701"
    }
  },
  {
    "service_request": "2026-1271788",
    "request_type": "Trash/Recycling",
    "request_reason": "Request a Large Item Pick Up",
    "date_created": "2026-04-07T14:40:26.000",
    "date_modified": "2026-04-07T14:40:28.000",
    "request_status": "Pending",
    "responsible_agency": "Department of Sanitation",
    "final_address": "13951 Curran Rd",
    "address_councildis": "E",
    "status": "Assigned to Contractor",
    "contractor": "Waste Pro",
    "rowid": "1271788",
    "final_x": "3718363.19154",
    "final_y": "572156.490728",
    "longitude": "-89.95012211796367",
    "latitude": "30.066059283613626",
    "geocoded_column": {
      "latitude": "30.066059283613626",
      "longitude": "-89.95012211796367"
    }
  },
  {
    "service_request": "2026-1271787",
    "request_type": "Trash/Recycling",
    "request_reason": "Illegal Dumping",
    "date_created": "2026-04-07T14:38:10.000",
    "date_modified": "2026-04-07T14:38:12.000",
    "request_status": "Pending",
    "responsible_agency": "Department of Sanitation",
    "final_address": "2400 BLK Music St",
    "address_councildis": "D",
    "status": "Pending",
    "rowid": "1271787",
    "final_x": "3686449.48599",
    "final_y": "541422.335906",
    "longitude": "-90.05209203373869",
    "latitude": "29.98257244913452",
    "geocoded_column": {
      "latitude": "29.98257244913452",
      "longitude": "-90.05209203373869"
    }
  },
  {
    "service_request": "2026-1271786",
    "request_type": "Trash/Recycling",
    "request_reason": "Request a Large Item Pick Up",
    "date_created": "2026-04-07T14:34:47.000",
    "date_modified": "2026-04-07T14:34:48.000",
    "request_status": "Pending",
    "responsible_agency": "Department of Sanitation",
    "final_address": "1711 S White St",
    "address_councildis": "B",
    "status": "Assigned to Contractor",
    "contractor": "IV Waste",
    "rowid": "1271786",
    "final_x": "3670932.52379",
    "final_y": "529875.199297",
    "longitude": "-90.10149452430413",
    "latitude": "29.951289646156415",
    "geocoded_column": {
      "latitude": "29.951289646156415",
      "longitude": "-90.10149452430413"
    }
  },
  {
    "service_request": "2026-1271785",
    "request_type": "Trash/Recycling",
    "request_reason": "Request a Large Item Pick Up",
    "date_created": "2026-04-07T14:33:49.000",
    "date_modified": "2026-04-07T14:33:51.000",
    "request_status": "Pending",
    "responsible_agency": "Department of Sanitation",
    "final_address": "5435 Lafaye St",
    "address_councildis": "D",
    "status": "Assigned to Contractor",
    "contractor": "IV Waste",
    "rowid": "1271785",
    "final_x": "3687343.05974",
    "final_y": "553283.144599",
    "longitude": "-90.04884973980765",
    "latitude": "30.01515788209823",
    "geocoded_column": {
      "latitude": "30.01515788209823",
      "longitude": "-90.04884973980765"
    }
  },
  {
    "service_request": "2026-1271784",
    "request_type": "Trash/Recycling",
    "request_reason": "Order Recycling Cart",
    "date_created": "2026-04-07T14:32:45.000",
    "date_modified": "2026-04-07T14:32:46.000",
    "request_status": "Pending",
    "responsible_agency": "Department of Sanitation",
    "final_address": "15 Vivian Ct",
    "address_councildis": "C",
    "status": "Pending",
    "rowid": "1271784",
    "final_x": "3702132.80381",
    "final_y": "521277.857977",
    "longitude": "-90.0032952142542",
    "latitude": "29.926690800471036",
    "geocoded_column": {
      "latitude": "29.926690800471036",
      "longitude": "-90.0032952142542"
    }
  },
  {
    "service_request": "2026-1271783",
    "request_type": "Trash/Recycling",
    "request_reason": "Request a Large Item Pick Up",
    "date_created": "2026-04-07T14:32:28.000",
    "date_modified": "2026-04-07T14:32:58.000",
    "request_status": "Pending",
    "responsible_agency": "Department of Sanitation",
    "final_address": "2407 Joseph St",
    "address_councildis": "A",
    "status": "Assigned to Contractor",
    "contractor": "IV Waste",
    "rowid": "1271783",
    "final_x": "3667483.0754",
    "final_y": "524897.935356",
    "longitude": "-90.112553655288",
    "latitude": "29.937705296252975",
    "geocoded_column": {
      "latitude": "29.937705296252975",
      "longitude": "-90.112553655288"
    }
  },
  {
    "service_request": "2026-1271782",
    "request_type": "Trash/Recycling",
    "request_reason": "Repair Trash Cart",
    "date_created": "2026-04-07T14:32:17.000",
    "date_modified": "2026-04-07T14:32:18.000",
    "request_status": "Pending",
    "responsible_agency": "Department of Sanitation",
    "final_address": "4128 DHemecourt St",
    "address_councildis": "A",
    "status": "Assigned to Contractor",
    "contractor": "IV Waste",
    "rowid": "1271782",
    "final_x": "3669505.8041",
    "final_y": "537017.05332",
    "longitude": "-90.10575782398087",
    "latitude": "29.970969475233385",
    "geocoded_column": {
      "latitude": "29.970969475233385",
      "longitude": "-90.10575782398087"
    }
  },
  {
    "service_request": "2026-1271781",
    "request_type": "Trash/Recycling",
    "request_reason": "Request a Large Item Pick Up",
    "date_created": "2026-04-07T14:31:03.000",
    "date_modified": "2026-04-07T14:31:10.000",
    "request_status": "Pending",
    "responsible_agency": "Department of Sanitation",
    "final_address": "1816 Lizardi St",
    "address_councildis": "E",
    "status": "Assigned to Contractor",
    "contractor": "Waste Pro",
    "rowid": "1271781",
    "final_x": "3697262.28752",
    "final_y": "536904.08372",
    "longitude": "-90.01810382888874",
    "latitude": "29.96981200723804",
    "geocoded_column": {
      "latitude": "29.96981200723804",
      "longitude": "-90.01810382888874"
    }
  },
  {
    "service_request": "2026-1271780",
    "request_type": "Roads and Streets",
    "request_reason": "Curb Damage",
    "date_created": "2026-04-07T14:31:03.000",
    "date_modified": "2026-04-07T14:31:04.000",
    "request_status": "Pending",
    "responsible_agency": "Department of Public Works",
    "final_address": "7724 Cohn St",
    "address_councildis": "A",
    "status": "Pending",
    "rowid": "1271780",
    "final_x": "3664525.04231",
    "final_y": "529313.320513",
    "longitude": "-90.12174503851607",
    "latitude": "29.949932513311712",
    "geocoded_column": {
      "latitude": "29.949932513311712",
      "longitude": "-90.12174503851607"
    }
  },
  {
    "service_request": "2026-1271779",
    "request_type": "Property Maintenance",
    "request_reason": "Property Maintenance",
    "date_created": "2026-04-07T14:29:59.000",
    "date_modified": "2026-04-07T14:30:00.000",
    "request_status": "Pending",
    "responsible_agency": "Department of Code Enforcement",
    "final_address": "1906 Numa St",
    "address_councildis": "C",
    "status": "Pending",
    "rowid": "1271779",
    "final_x": "3691716.3576",
    "final_y": "524317.03334",
    "longitude": "-90.03606836637583",
    "latitude": "29.935375854146294",
    "geocoded_column": {
      "latitude": "29.935375854146294",
      "longitude": "-90.03606836637583"
    }
  },
  {
    "service_request": "2026-1271778",
    "request_type": "Roads and Streets",
    "request_reason": "Sidewalk Damaged or Missing",
    "date_created": "2026-04-07T14:29:32.000",
    "date_modified": "2026-04-07T14:29:34.000",
    "request_status": "Pending",
    "responsible_agency": "Department of Public Works",
    "final_address": "5036 Elysian Fields Ave",
    "address_councildis": "D",
    "status": "Pending",
    "rowid": "1271778",
    "final_x": "3683691.99004",
    "final_y": "551422.961493",
    "longitude": "-90.06045067336821",
    "latitude": "30.01015508892372",
    "geocoded_column": {
      "latitude": "30.01015508892372",
      "longitude": "-90.06045067336821"
    }
  },
  {
    "service_request": "2026-1271777",
    "request_type": "Trash/Recycling",
    "request_reason": "Order Recycling Cart",
    "date_created": "2026-04-07T14:24:48.000",
    "date_modified": "2026-04-07T14:24:50.000",
    "request_status": "Pending",
    "responsible_agency": "Department of Sanitation",
    "final_address": "333 Virginia St",
    "address_councildis": "A",
    "status": "Pending",
    "rowid": "1271777",
    "final_x": "3668542.8393",
    "final_y": "541602.62798",
    "longitude": "-90.10864421731138",
    "latitude": "29.983606592197273",
    "geocoded_column": {
      "latitude": "29.983606592197273",
      "longitude": "-90.10864421731138"
    }
  },
  {
    "service_request": "2026-1271776",
    "request_type": "Trash/Recycling",
    "request_reason": "Request a Large Item Pick Up",
    "date_created": "2026-04-07T14:23:58.000",
    "date_modified": "2026-04-07T14:26:00.000",
    "request_status": "Pending",
    "responsible_agency": "Department of Sanitation",
    "final_address": "5222 Cartier Ave",
    "address_councildis": "D",
    "status": "Pending",
    "contractor": "IV Waste",
    "rowid": "1271776",
    "final_x": "3677604.80987",
    "final_y": "551318.515605",
    "longitude": "-90.07968594955076",
    "latitude": "30.010052428428278",
    "geocoded_column": {
      "latitude": "30.010052428428278",
      "longitude": "-90.07968594955076"
    }
  },
  {
    "service_request": "2026-1271775",
    "request_type": "Trash/Recycling",
    "request_reason": "Repair Trash Cart",
    "date_created": "2026-04-07T14:23:55.000",
    "date_modified": "2026-04-07T14:24:03.000",
    "request_status": "Pending",
    "responsible_agency": "Department of Sanitation",
    "final_address": "331 Virginia St",
    "address_councildis": "A",
    "status": "Assigned to Contractor",
    "contractor": "IV Waste",
    "rowid": "1271775",
    "final_x": "3668531.57582",
    "final_y": "541588.914444",
    "longitude": "-90.10868025639896",
    "latitude": "29.983569215642838",
    "geocoded_column": {
      "latitude": "29.983569215642838",
      "longitude": "-90.10868025639896"
    }
  },
  {
    "service_request": "2026-1271774",
    "request_type": "Property Maintenance",
    "request_reason": "Property Maintenance",
    "date_created": "2026-04-07T14:21:04.000",
    "date_modified": "2026-04-07T15:37:12.000",
    "request_status": "Pending",
    "responsible_agency": "Office of Resilience and Sustainability",
    "final_address": "CONGRESS DR & MEXICO ST",
    "address_councildis": "D",
    "status": "Pending",
    "rowid": "1271774",
    "final_x": "3690603.2",
    "final_y": "556511.28",
    "longitude": "-90.03843400707797",
    "latitude": "30.023933158896067",
    "geocoded_column": {
      "latitude": "30.023933158896067",
      "longitude": "-90.03843400707797"
    }
  },
  {
    "service_request": "2026-1271773",
    "request_type": "Abandoned Vehicles",
    "request_reason": "Abandoned/Junk Vehicles",
    "date_created": "2026-04-07T14:16:28.000",
    "date_modified": "2026-04-07T14:16:29.000",
    "request_status": "Pending",
    "responsible_agency": "Department of Public Works",
    "final_address": "3621 Franklin Ave",
    "address_councildis": "D",
    "status": "Pending",
    "rowid": "1271773",
    "final_x": "3687210.8765",
    "final_y": "546239.980944",
    "longitude": "-90.04951670214828",
    "latitude": "29.99579582026325",
    "geocoded_column": {
      "latitude": "29.99579582026325",
      "longitude": "-90.04951670214828"
    }
  },
  {
    "service_request": "2026-1271772",
    "request_type": "Trash/Recycling",
    "request_reason": "Repair Trash Cart",
    "date_created": "2026-04-07T14:16:01.000",
    "date_modified": "2026-04-07T14:16:02.000",
    "request_status": "Pending",
    "responsible_agency": "Department of Sanitation",
    "final_address": "3632 Monroe St",
    "address_councildis": "A",
    "status": "Assigned to Contractor",
    "contractor": "IV Waste",
    "rowid": "1271772",
    "final_x": "3666276.06119",
    "final_y": "536344.301383",
    "longitude": "-90.11598038232509",
    "latitude": "29.969214377401162",
    "geocoded_column": {
      "latitude": "29.969214377401162",
      "longitude": "-90.11598038232509"
    }
  },
  {
    "service_request": "2026-1271771",
    "request_type": "Trash/Recycling",
    "request_reason": "Request a Large Item Pick Up",
    "date_created": "2026-04-07T14:14:17.000",
    "date_modified": "2026-04-07T14:14:18.000",
    "request_status": "Pending",
    "responsible_agency": "Department of Sanitation",
    "final_address": "3005 Chippewa St",
    "address_councildis": "B",
    "status": "Assigned to Contractor",
    "contractor": "IV Waste",
    "rowid": "1271771",
    "final_x": "3677122.27637",
    "final_y": "519119.802935",
    "longitude": "-90.08232109832457",
    "latitude": "29.921531414106457",
    "geocoded_column": {
      "latitude": "29.921531414106457",
      "longitude": "-90.08232109832457"
    }
  },