[
  {
    "service_request": "2022-945993",
    "request_type": "Traffic Signals/Signs/Striping/Streetlights",
    "request_reason": "Traffic Signal Malfunctioning/Damaged",
    "date_created": "2022-11-23T00:48:38.000",
    "date_modified": "2022-11-23T00:48:38.000",
    "request_status": "Pending",
    "responsible_agency": "Department of Public Works",
    "final_address": "200 S Claiborne Ave",
    "address_councildis": "B",
    "status": "Pending",
    "rowid": "945993",
    "final_x": "3678244.1668",
    "final_y": "532318.988291",
    "longitude": "-90.07832344046625",
    "latitude": "29.957791084763564",
    "geocoded_column": {
      "latitude": "29.957791084763564",
      "longitude": "-90.07832344046625"
    }
  },
  {
    "service_request": "2022-945992",
    "request_type": "Health Related Request",
    "request_reason": "Noise Ordinance Complaint",
    "date_created": "2022-11-23T00:29:44.000",
    "date_modified": "2022-11-23T00:29:44.000",
    "request_status": "Pending",
    "responsible_agency": "Health Department",
    "final_address": "1009 N Claiborne Ave, New Orleans, Louisiana, 70116",
    "address_councildis": "D",
    "status": "Pending",
    "rowid": "945992",
    "final_x": "3680417.66101",
    "final_y": "535635.218886",
    "longitude": "-90.07134484150656",
    "latitude": "29.966843952035386",
    "geocoded_column": {
      "latitude": "29.966843952035386",
      "longitude": "-90.07134484150656"
    }
  },
  {
    "service_request": "2022-945991",
    "request_type": "Trash/Recycling",
    "request_reason": "Order Recycling Cart",
    "date_created": "2022-11-23T00:21:04.000",
    "date_modified": "2022-11-23T00:21:04.000",
    "request_status": "Pending",
    "responsible_agency": "Department of Sanitation",
    "final_address": "11230 King Richard Dr",
    "address_councildis": "E",
    "status": "Pending",
    "rowid": "945991",
    "final_x": "3717049.92453",
    "final_y": "556358.153626",
    "longitude": "-89.95487428304811",
    "latitude": "30.022663821600972",
    "geocoded_column": {
      "latitude": "30.022663821600972",
      "longitude": "-89.95487428304811"
    }
  },
  {
    "service_request": "2022-945990",
    "request_type": "Trash/Recycling",
    "request_reason": "MIssed Recycling Pick-Up",
    "date_created": "2022-11-22T23:26:40.000",
    "date_modified": "2022-11-22T23:26:40.000",
    "request_status": "Pending",
    "responsible_agency": "Department of Sanitation",
    "final_address": "200 S Murat St",
    "address_councildis": "A",
    "status": "Assigned to Contractor",
    "contractor": "Richards Disposal",
    "rowid": "945990",
    "final_x": "3669453.39367",
    "final_y": "539006.379402",
    "longitude": "-90.10585604175023",
    "latitude": "29.976440996812592",
    "geocoded_column": {
      "latitude": "29.976440996812592",
      "longitude": "-90.10585604175023"
    }
  },
  {
    "service_request": "2022-945989",
    "request_type": "Health Related Request",
    "request_reason": "Noise Ordinance Complaint",
    "date_created": "2022-11-22T22:25:13.000",
    "date_modified": "2022-11-22T22:25:14.000",
    "request_status": "Pending",
    "responsible_agency": "Health Department",
    "final_address": "8480 Morrison Rd",
    "address_councildis": "E",
    "status": "Pending",
    "rowid": "945989",
    "final_x": "3704479.74218",
    "final_y": "561055.522014",
    "longitude": "-89.99441937676208",
    "latitude": "30.03598956474207",
    "geocoded_column": {
      "latitude": "30.03598956474207",
      "longitude": "-89.99441937676208"
    }
  },
  {
    "service_request": "2022-945988",
    "request_type": "Health Related Request",
    "request_reason": "Noise Ordinance Complaint",
    "date_created": "2022-11-22T22:10:24.000",
    "date_modified": "2022-11-22T22:10:24.000",
    "request_status": "Pending",
    "responsible_agency": "Health Department",
    "final_address": "1910 Magazine St, New Orleans, Louisiana, 70130",
    "address_councildis": "B",
    "status": "Pending",
    "rowid": "945988",
    "final_x": "3679709.95823",
    "final_y": "522712.498298",
    "longitude": "-90.07402827655409",
    "latitude": "29.9313322150059",
    "geocoded_column": {
      "latitude": "29.9313322150059",
      "longitude": "-90.07402827655409"
    }
  },
  {
    "service_request": "2022-945987",
    "request_type": "Parks & Parkways",
    "request_reason": "Request Grass Cutting Service (City Owned Property)",
    "date_created": "2022-11-22T22:07:57.000",
    "date_modified": "2022-11-22T22:07:57.000",
    "request_status": "Pending",
    "responsible_agency": "Department of Parks & Parkway",
    "final_address": "2831 St Claude Ave",
    "address_councildis": "C",
    "status": "Pending",
    "rowid": "945987",
    "final_x": "3688006.00092",
    "final_y": "536358.873159",
    "longitude": "-90.04735528804302",
    "latitude": "29.96860176320759",
    "geocoded_column": {
      "latitude": "29.96860176320759",
      "longitude": "-90.04735528804302"
    }
  },
  {
    "service_request": "2022-945986",
    "request_type": "Health Related Request",
    "request_reason": "Noise Ordinance Complaint",
    "date_created": "2022-11-22T21:45:04.000",
    "date_modified": "2022-11-22T21:45:04.000",
    "request_status": "Pending",
    "responsible_agency": "Health Department",
    "final_address": "1910 Magazine St, New Orleans, Louisiana, 70130",
    "address_councildis": "B",
    "status": "Pending",
    "rowid": "945986",
    "final_x": "3679709.95823",
    "final_y": "522712.498298",
    "longitude": "-90.07402827655409",
    "latitude": "29.9313322150059",
    "geocoded_column": {
      "latitude": "29.9313322150059",
      "longitude": "-90.07402827655409"
    }
  },
  {
    "service_request": "2022-945985",
    "request_type": "Trash/Recycling",
    "request_reason": "Order Trash Cart",
    "date_created": "2022-11-22T21:35:26.000",
    "date_modified": "2022-11-22T21:35:27.000",
    "request_status": "Pending",
    "responsible_agency": "Department of Sanitation",
    "final_address": "5552 Marcia Ave",
    "address_councildis": "A",
    "status": "Assigned to Contractor",
    "contractor": "IV Waste",
    "rowid": "945985",
    "final_x": "3664755.82477",
    "final_y": "544722.519503",
    "longitude": "-90.12050136199208",
    "latitude": "29.992295990363264",
    "geocoded_column": {
      "latitude": "29.992295990363264",
      "longitude": "-90.12050136199208"
    }
  },
  {
    "service_request": "2022-945984",
    "request_type": "Trash/Recycling",
    "request_reason": "MIssed Recycling Pick-Up",
    "date_created": "2022-11-22T21:34:33.000",
    "date_modified": "2022-11-22T21:34:34.000",
    "request_status": "Pending",
    "responsible_agency": "Department of Sanitation",
    "final_address": "9009 Heaton St",
    "address_councildis": "A",
    "status": "Assigned to Contractor",
    "contractor": "Richards Disposal",
    "rowid": "945984",
    "final_x": "3666957.57972",
    "final_y": "538813.395849",
    "longitude": "-90.11374509395326",
    "latitude": "29.975983636399985",
    "geocoded_column": {
      "latitude": "29.975983636399985",
      "longitude": "-90.11374509395326"
    }
  },
  {
    "service_request": "2022-945983",
    "request_type": "Trash/Recycling",
    "request_reason": "MIssed Recycling Pick-Up",
    "date_created": "2022-11-22T21:16:11.000",
    "date_modified": "2022-11-22T21:18:35.000",
    "request_status": "Pending",
    "responsible_agency": "Department of Sanitation",
    "status": "Assigned to Contractor",
    "rowid": "945983",
    "longitude": "0.0",
    "latitude": "0.0",
    "geocoded_column": {
      "latitude": "0.0",
      "longitude": "0.0"
    }
  },
  {
    "service_request": "2022-945982",
    "request_type": "Trash/Recycling",
    "request_reason": "Order Trash Cart",
    "date_created": "2022-11-22T21:15:30.000",
    "date_modified": "2022-11-22T21:15:31.000",
    "request_status": "Pending",
    "responsible_agency": "Department of Sanitation",
    "final_address": "7401 Burke Rd",
    "status": "Assigned to Contractor",
    "rowid": "945982",
    "longitude": "0.0",
    "latitude": "0.0",
    "geocoded_column": {
      "latitude": "0.0",
      "longitude": "0.0"
    }
  },
  {
    "service_request": "2022-945981",
    "request_type": "Trash/Recycling",
    "request_reason": "MIssed Recycling Pick-Up",
    "date_created": "2022-11-22T21:10:40.000",
    "date_modified": "2022-11-22T21:10:41.000",
    "request_status": "Pending",
    "responsible_agency": "Department of Sanitation",
    "final_address": "7401 Burke Rd",
    "status": "Assigned to Contractor",
    "rowid": "945981",
    "longitude": "0.0",
    "latitude": "0.0",
    "geocoded_column": {
      "latitude": "0.0",
      "longitude": "0.0"
    }
  },
  {
    "service_request": "2022-945980",
    "request_type": "Trash/Recycling",
    "request_reason": "Missed Trash Pick-Up",
    "date_created": "2022-11-22T21:10:31.000",
    "date_modified": "2022-11-22T21:10:32.000",
    "request_status": "Pending",
    "responsible_agency": "Department of Sanitation",
    "final_address": "430 Harrison Ave",
    "address_councildis": "A",
    "status": "Assigned to Contractor",
    "contractor": "IV Waste",
    "rowid": "945980",
    "final_x": "3667826.21191",
    "final_y": "549225.369747",
    "longitude": "-90.11065080070107",
    "latitude": "30.00458755668541",
    "geocoded_column": {
      "latitude": "30.00458755668541",
      "longitude": "-90.11065080070107"
    }
  },
  {
    "service_request": "2022-945979",
    "request_type": "Roads/Drainage",
    "request_reason": "Street Flooding / Drainage",
    "date_created": "2022-11-22T21:07:13.000",
    "date_modified": "2022-11-22T21:07:13.000",
    "request_status": "Pending",
    "responsible_agency": "Department of Public Works",
    "status": "Pending",
    "rowid": "945979",
    "longitude": "0.0",
    "latitude": "0.0",
    "geocoded_column": {
      "latitude": "0.0",
      "longitude": "0.0"
    }
  },
  {
    "service_request": "2022-945978",
    "request_type": "Trash/Recycling",
    "request_reason": "Damaged Caused By Contractor",
    "date_created": "2022-11-22T21:04:22.000",
    "date_modified": "2022-11-22T21:04:23.000",
    "request_status": "Pending",
    "responsible_agency": "Department of Sanitation",
    "final_address": "7401 Burke Ave",
    "address_councildis": "E",
    "status": "Assigned to Contractor",
    "contractor": "Waste Pro",
    "rowid": "945978",
    "final_x": "3705826.4522",
    "final_y": "562329.947807",
    "longitude": "-89.99011634265469",
    "latitude": "30.039450395350887",
    "geocoded_column": {
      "latitude": "30.039450395350887",
      "longitude": "-89.99011634265469"
    }
  },
  {
    "service_request": "2022-945977",
    "request_type": "Trash/Recycling",
    "request_reason": "Missed Trash Pick-Up",
    "date_created": "2022-11-22T21:01:57.000",
    "date_modified": "2022-11-22T21:01:58.000",
    "request_status": "Pending",
    "responsible_agency": "Department of Sanitation",
    "final_address": "3018 Paris Ave",
    "address_councildis": "D",
    "status": "Assigned to Contractor",
    "contractor": "IV Waste",
    "rowid": "945977",
    "final_x": "3679770.86363",
    "final_y": "543506.474126",
    "longitude": "-90.07311403954843",
    "latitude": "29.988506749234578",
    "geocoded_column": {
      "latitude": "29.988506749234578",
      "longitude": "-90.07311403954843"
    }
  },
  {
    "service_request": "2022-945976",
    "request_type": "Roads/Drainage",
    "request_reason": "Street Flooding / Drainage",
    "date_created": "2022-11-22T19:57:58.000",
    "date_modified": "2022-11-22T19:57:58.000",
    "request_status": "Pending",
    "responsible_agency": "Department of Public Works",
    "final_address": "4521 Martin Luther King, Jr. Blvd",
    "address_councildis": "B",
    "status": "Pending",
    "rowid": "945976",
    "final_x": "3669950.77825",
    "final_y": "531568.093315",
    "longitude": "-90.10453707793906",
    "latitude": "29.955973532239504",
    "geocoded_column": {
      "latitude": "29.955973532239504",
      "longitude": "-90.10453707793906"
    }
  },
  {
    "service_request": "2022-945975",
    "request_type": "Trash/Recycling",
    "request_reason": "Order Recycling Cart",
    "date_created": "2022-11-22T19:50:30.000",
    "date_modified": "2022-11-22T19:50:30.000",
    "request_status": "Pending",
    "responsible_agency": "Department of Sanitation",
    "final_address": "4431 De Montluzin St",
    "address_councildis": "D",
    "status": "Pending",
    "rowid": "945975",
    "final_x": "3687302.66863",
    "final_y": "549144.201235",
    "longitude": "-90.04912391896926",
    "latitude": "30.00377854718248",
    "geocoded_column": {
      "latitude": "30.00377854718248",
      "longitude": "-90.04912391896926"
    }
  },
  {
    "service_request": "2022-945974",
    "request_type": "Traffic Signals/Signs/Striping/Streetlights",
    "request_reason": "Street Name Sign Damaged or Missing",
    "date_created": "2022-11-22T19:31:39.000",
    "date_modified": "2022-11-22T19:31:39.000",
    "request_status": "Pending",
    "responsible_agency": "Department of Public Works",
    "final_address": "4600 Majestic Oaks Dr",
    "address_councildis": "D",
    "status": "Pending",
    "rowid": "945974",
    "final_x": "3697715.71984",
    "final_y": "553487.022167",
    "longitude": "-90.01606980367265",
    "latitude": "30.015394669955775",
    "geocoded_column": {
      "latitude": "30.015394669955775",
      "longitude": "-90.01606980367265"
    }
  },
  {
    "service_request": "2022-945973",
    "request_type": "Trash/Recycling",
    "request_reason": "Order Recycling Cart",
    "date_created": "2022-11-22T19:18:50.000",
    "date_modified": "2022-11-22T19:18:50.000",
    "request_status": "Pending",
    "responsible_agency": "Department of Sanitation",
    "status": "Pending",
    "rowid": "945973",
    "longitude": "0.0",
    "latitude": "0.0",
    "geocoded_column": {
      "latitude": "0.0",
      "longitude": "0.0"
    }
  },
  {
    "service_request": "2022-945972",
    "request_type": "Safety & Permits",
    "request_reason": "Licenses & Permits",
    "date_created": "2022-11-22T19:14:06.000",
    "date_modified": "2022-11-22T19:14:06.000",
    "request_status": "Pending",
    "responsible_agency": "Safety and Permits",
    "final_address": "1874 N Roman St",
    "address_councildis": "D",
    "status": "Pending",
    "rowid": "945972",
    "final_x": "3683540.45295",
    "final_y": "538746.979081",
    "longitude": "-90.06137399524636",
    "latitude": "29.97530527385337",
    "geocoded_column": {
      "latitude": "29.97530527385337",
      "longitude": "-90.06137399524636"
    }
  },
  {
    "service_request": "2022-945971",
    "request_type": "Trash/Recycling",
    "request_reason": "MIssed Recycling Pick-Up",
    "date_created": "2022-11-22T19:12:32.000",
    "date_modified": "2022-11-22T19:12:32.000",
    "request_status": "Pending",
    "responsible_agency": "Department of Sanitation",
    "status": "Assigned to Contractor",
    "rowid": "945971",
    "longitude": "0.0",
    "latitude": "0.0",
    "geocoded_column": {
      "latitude": "0.0",
      "longitude": "0.0"
    }
  },
  {
    "service_request": "2022-945970",
    "request_type": "Trash/Recycling",
    "request_reason": "Request a Large Item Pick Up",
    "date_created": "2022-11-22T18:38:26.000",
    "date_modified": "2022-11-22T18:38:27.000",
    "request_status": "Pending",
    "responsible_agency": "Department of Sanitation",
    "final_address": "1220 Joliet St",
    "address_councildis": "A",
    "status": "Assigned to Contractor",
    "contractor": "Richards Disposal",
    "rowid": "945970",
    "final_x": "3661002.43578",
    "final_y": "529493.895553",
    "longitude": "-90.13286162784152",
    "latitude": "29.95053098453264",
    "geocoded_column": {
      "latitude": "29.95053098453264",
      "longitude": "-90.13286162784152"
    }
  },
  {
    "service_request": "2022-945969",
    "request_type": "Trash/Recycling",
    "request_reason": "MIssed Recycling Pick-Up",
    "date_created": "2022-11-22T18:32:24.000",
    "date_modified": "2022-11-22T18:32:25.000",
    "request_status": "Pending",
    "responsible_agency": "Department of Sanitation",
    "final_address": "130 S Murat St",
    "address_councildis": "A",
    "status": "Assigned to Contractor",
    "contractor": "Richards Disposal",
    "rowid": "945969",
    "final_x": "3669543.29223",
    "final_y": "539119.185482",
    "longitude": "-90.10556829656949",
    "latitude": "29.976748527138856",
    "geocoded_column": {
      "latitude": "29.976748527138856",
      "longitude": "-90.10556829656949"
    }
  },
  {
    "service_request": "2022-945968",
    "request_type": "Trash/Recycling",
    "request_reason": "Request a Large Item Pick Up",
    "date_created": "2022-11-22T18:15:15.000",
    "date_modified": "2022-11-22T18:15:15.000",
    "request_status": "Pending",
    "responsible_agency": "Department of Sanitation",
    "final_address": "907 S Carrollton Ave",
    "address_councildis": "A",
    "status": "Assigned to Contractor",
    "contractor": "Richards Disposal",
    "rowid": "945968",
    "final_x": "3661433.98016",
    "final_y": "527546.282559",
    "longitude": "-90.13156352400713",
    "latitude": "29.945163232808884",
    "geocoded_column": {
      "latitude": "29.945163232808884",
      "longitude": "-90.13156352400713"
    }
  },
  {
    "service_request": "2022-945967",
    "request_type": "Parks & Parkways",
    "request_reason": "Request Tree Service (Right of Way/Public Property)",
    "date_created": "2022-11-22T17:59:46.000",
    "date_modified": "2022-11-22T19:00:18.000",
    "request_status": "Pending",
    "responsible_agency": "Department of Parks & Parkway",
    "final_address": "1500 BLK Westbrook Dr",
    "address_councildis": "D",
    "status": "Pending",
    "rowid": "945967",
    "final_x": "3678959.73555",
    "final_y": "549533.413844",
    "longitude": "-90.0754671533982",
    "latitude": "30.005103207355262",
    "geocoded_column": {
      "latitude": "30.005103207355262",
      "longitude": "-90.0754671533982"
    }
  },
  {
    "service_request": "2022-945966",
    "request_type": "Traffic Signals/Signs/Striping/Streetlights",
    "request_reason": "Street Light Outage/Malfunction",
    "date_created": "2022-11-22T17:59:14.000",
    "date_modified": "2022-11-22T17:59:15.000",
    "request_status": "Pending",
    "responsible_agency": "Department of Public Works",
    "final_address": "3940 Delgado Dr",
    "address_councildis": "A",
    "status": "Pending",
    "contractor": "Legacy Professional Services",
    "rowid": "945966",
    "final_x": "3673976.88321",
    "final_y": "540691.170507",
    "longitude": "-90.0915118017358",
    "latitude": "29.98093957879386",
    "geocoded_column": {
      "latitude": "29.98093957879386",
      "longitude": "-90.0915118017358"
    }
  },
  {
    "service_request": "2022-945965",
    "request_type": "Trash/Recycling",
    "request_reason": "Repair Recycling Cart",
    "date_created": "2022-11-22T17:55:56.000",
    "date_modified": "2022-11-22T17:55:56.000",
    "request_status": "Pending",
    "responsible_agency": "Department of Sanitation",
    "final_address": "2247 Halsey Ave",
    "address_councildis": "C",
    "status": "Pending",
    "rowid": "945965",
    "final_x": "3697666.56151",
    "final_y": "522587.840186",
    "longitude": "-90.01734635618506",
    "latitude": "29.93043459527219",
    "geocoded_column": {
      "latitude": "29.93043459527219",
      "longitude": "-90.01734635618506"
    }
  },
  {
    "service_request": "2022-945964",
    "request_type": "Trash/Recycling",
    "request_reason": "Order Recycling Cart",
    "date_created": "2022-11-22T17:53:25.000",
    "date_modified": "2022-11-22T17:53:25.000",
    "request_status": "Pending",
    "responsible_agency": "Department of Sanitation",
    "final_address": "2703 Frankfort St",
    "address_councildis": "D",
    "status": "Pending",
    "rowid": "945964",
    "final_x": "3687033.89148",
    "final_y": "557222.259035",
    "longitude": "-90.0496871381228",
    "latitude": "30.025998513404097",
    "geocoded_column": {
      "latitude": "30.025998513404097",
      "longitude": "-90.0496871381228"
    }
  },
  {
    "service_request": "2022-945963",
    "request_type": "Trash/Recycling",
    "request_reason": "Order Recycling Cart",
    "date_created": "2022-11-22T17:52:34.000",
    "date_modified": "2022-11-22T17:52:34.000",
    "request_status": "Pending",
    "responsible_agency": "Department of Sanitation",
    "final_address": "2701 Frankfort St",
    "address_councildis": "D",
    "status": "Pending",
    "rowid": "945963",
    "final_x": "3687013.14466",
    "final_y": "557222.458075",
    "longitude": "-90.04975268822211",
    "latitude": "30.025999699741835",
    "geocoded_column": {
      "latitude": "30.025999699741835",
      "longitude": "-90.04975268822211"
    }
  },
  {
    "service_request": "2022-945962",
    "request_type": "Traffic Signals/Signs/Striping/Streetlights",
    "request_reason": "Traffic Signal Malfunctioning/Damaged",
    "date_created": "2022-11-22T17:45:45.000",
    "date_modified": "2022-11-22T17:45:46.000",
    "request_status": "Pending",
    "responsible_agency": "Department of Public Works",
    "final_address": "N DORGENOIS ST & ELYSIAN FIELDS AVE",
    "address_councildis": "D",
    "status": "Pending",
    "rowid": "945962",
    "final_x": "3684538.1",
    "final_y": "541456.78",
    "longitude": "-90.05812791986351",
    "latitude": "29.982725786686974",
    "geocoded_column": {
      "latitude": "29.982725786686974",
      "longitude": "-90.05812791986351"
    }
  },
  {
    "service_request": "2022-945961",
    "request_type": "Trash/Recycling",
    "request_reason": "Missed Trash Pick-Up",
    "date_created": "2022-11-22T17:45:35.000",
    "date_modified": "2022-11-22T17:45:36.000",
    "request_status": "Pending",
    "responsible_agency": "Department of Sanitation",
    "final_address": "5214 Coliseum St",
    "address_councildis": "B",
    "status": "Assigned to Contractor",
    "contractor": "Richards Disposal",
    "rowid": "945961",
    "final_x": "3667917.61178",
    "final_y": "519585.271992",
    "longitude": "-90.11136065488955",
    "latitude": "29.92308442751501",
    "geocoded_column": {
      "latitude": "29.92308442751501",
      "longitude": "-90.11136065488955"
    }
  },
  {
    "service_request": "2022-945960",
    "request_type": "Trash/Recycling",
    "request_reason": "Request a Large Item Pick Up",
    "date_created": "2022-11-22T17:43:30.000",
    "date_modified": "2022-11-22T17:43:30.000",
    "case_close_date": "2022-11-15T18:00:00.000",
    "request_status": "Pending",
    "responsible_agency": "Department of Sanitation",
    "final_address": "11283 Winrock Dr",
    "address_councildis": "E",
    "status": "Assigned to Contractor",
    "contractor": "Waste Pro",
    "rowid": "945960",
    "final_x": "3716681.44594",
    "final_y": "561706.381535",
    "longitude": "-89.95583541936485",
    "latitude": "30.037381488445696",
    "geocoded_column": {
      "latitude": "30.037381488445696",
      "longitude": "-89.95583541936485"
    }
  },
  {
    "service_request": "2022-945959",
    "request_type": "Traffic Signals/Signs/Striping/Streetlights",
    "request_reason": "Street Light Outage/Malfunction",
    "date_created": "2022-11-22T17:42:36.000",
    "date_modified": "2022-11-22T17:42:37.000",
    "request_status": "Pending",
    "responsible_agency": "Department of Public Works",
    "final_address": "2606 Gordon St, New Orleans, Louisiana, 70117",
    "address_councildis": "E",
    "status": "Pending",
    "contractor": "Legacy Professional Services",
    "rowid": "945959",
    "final_x": "3701309.80452",
    "final_y": "538869.135625",
    "longitude": "-90.00524955372448",
    "latitude": "29.975086821609285",
    "geocoded_column": {
      "latitude": "29.975086821609285",
      "longitude": "-90.00524955372448"
    }
  },
  {
    "service_request": "2022-945958",
    "request_type": "Trash/Recycling",
    "request_reason": "Request a Large Item Pick Up",
    "date_created": "2022-11-22T17:33:42.000",
    "date_modified": "2022-11-22T17:33:43.000",
    "request_status": "Pending",
    "responsible_agency": "Department of Sanitation",
    "final_address": "7211 Westhaven Rd",
    "address_councildis": "E",
    "status": "Assigned to Contractor",
    "contractor": "Waste Pro",
    "rowid": "945958",
    "final_x": "3703629.33335",
    "final_y": "560383.41955",
    "longitude": "-89.9971315770522",
    "latitude": "30.034168841605336",
    "geocoded_column": {
      "latitude": "30.034168841605336",
      "longitude": "-89.9971315770522"
    }
  },
  {
    "service_request": "2022-945957",
    "request_type": "Trash/Recycling",
    "request_reason": "Replace Trash Cart",
    "date_created": "2022-11-22T17:31:09.000",
    "date_modified": "2022-11-22T17:31:10.000",
    "request_status": "Pending",
    "responsible_agency": "Department of Sanitation",
    "final_address": "2436 St Bernard Ave",
    "address_councildis": "D",
    "status": "Assigned to Contractor",
    "contractor": "IV Waste",
    "rowid": "945957",
    "final_x": "3680572.58133",
    "final_y": "540771.418379",
    "longitude": "-90.07067686633486",
    "latitude": "29.980962033557542",
    "geocoded_column": {
      "latitude": "29.980962033557542",
      "longitude": "-90.07067686633486"
    }
  },
  {
    "service_request": "2022-945956",
    "request_type": "Trash/Recycling",
    "request_reason": "Request a Large Item Pick Up",
    "date_created": "2022-11-22T17:19:18.000",
    "date_modified": "2022-11-22T17:19:18.000",
    "request_status": "Pending",
    "responsible_agency": "Department of Sanitation",
    "final_address": "7430 Hansbrough Ave",
    "address_councildis": "E",
    "status": "Assigned to Contractor",
    "contractor": "Waste Pro",
    "rowid": "945956",
    "final_x": "3707861.49336",
    "final_y": "563982.410145",
    "longitude": "-89.9836235487842",
    "latitude": "30.043928257415075",
    "geocoded_column": {
      "latitude": "30.043928257415075",
      "longitude": "-89.9836235487842"
    }
  },
  {
    "service_request": "2022-945955",
    "request_type": "Trash/Recycling",
    "request_reason": "MIssed Recycling Pick-Up",
    "date_created": "2022-11-22T17:18:23.000",
    "date_modified": "2022-11-22T17:18:24.000",
    "request_status": "Pending",
    "responsible_agency": "Department of Sanitation",
    "final_address": "517 S Murat St",
    "address_councildis": "A",
    "status": "Assigned to Contractor",
    "contractor": "Richards Disposal",
    "rowid": "945955",
    "final_x": "3668602.07079",
    "final_y": "538012.575561",
    "longitude": "-90.10857833471724",
    "latitude": "29.973733419064004",
    "geocoded_column": {
      "latitude": "29.973733419064004",
      "longitude": "-90.10857833471724"
    }
  },
  {
    "service_request": "2022-945954",
    "request_type": "Trash/Recycling",
    "request_reason": "Missed Trash Pick-Up",
    "date_created": "2022-11-22T17:09:26.000",
    "date_modified": "2022-11-22T17:09:27.000",
    "request_status": "Pending",
    "responsible_agency": "Department of Sanitation",
    "final_address": "3120 Toledano St",
    "address_councildis": "B",
    "status": "Assigned to Contractor",
    "contractor": "Richards Disposal",
    "rowid": "945954",
    "final_x": "3672176.2754",
    "final_y": "527200.816127",
    "longitude": "-90.09765842612813",
    "latitude": "29.943899146257813",
    "geocoded_column": {
      "latitude": "29.943899146257813",
      "longitude": "-90.09765842612813"
    }
  },
  {
    "service_request": "2022-945953",
    "request_type": "Trash/Recycling",
    "request_reason": "Missed Trash Pick-Up",
    "date_created": "2022-11-22T17:07:51.000",
    "date_modified": "2022-11-22T17:07:52.000",
    "request_status": "Pending",
    "responsible_agency": "Department of Sanitation",
    "final_address": "7311 Downman Rd",
    "address_councildis": "D",
    "status": "Assigned to Contractor",
    "contractor": "Waste Pro",
    "rowid": "945953",
    "final_x": "3695030.13987",
    "final_y": "557533.101915",
    "longitude": "-90.02440891769596",
    "latitude": "30.026604479243534",
    "geocoded_column": {
      "latitude": "30.026604479243534",
      "longitude": "-90.02440891769596"
    }
  },
  {
    "service_request": "2022-945952",
    "request_type": "Trash/Recycling",
    "request_reason": "MIssed Recycling Pick-Up",
    "date_created": "2022-11-22T17:05:47.000",
    "date_modified": "2022-11-22T17:05:48.000",
    "request_status": "Pending",
    "responsible_agency": "Department of Sanitation",
    "final_address": "418 S Scott St",
    "address_councildis": "B",
    "status": "Assigned to Contractor",
    "contractor": "Richards Disposal",
    "rowid": "945952",
    "final_x": "3670952.65121",
    "final_y": "536682.005383",
    "longitude": "-90.1011998601443",
    "latitude": "29.970005505535237",
    "geocoded_column": {
      "latitude": "29.970005505535237",
      "longitude": "-90.1011998601443"
    }
  },
  {
    "service_request": "2022-945951",
    "request_type": "Trash/Recycling",
    "request_reason": "Illegal Dumping",
    "date_created": "2022-11-22T17:03:03.000",
    "date_modified": "2022-11-22T17:03:05.000",
    "request_status": "Pending",
    "responsible_agency": "Department of Sanitation",
    "final_address": "2772 Clover St",
    "address_councildis": "D",
    "status": "Pending",
    "rowid": "945951",
    "final_x": "3688439.81321",
    "final_y": "546685.137361",
    "longitude": "-90.04561880261394",
    "latitude": "29.996981921954625",
    "geocoded_column": {
      "latitude": "29.996981921954625",
      "longitude": "-90.04561880261394"
    }
  },
  {
    "service_request": "2022-945950",
    "request_type": "Trash/Recycling",
    "request_reason": "Order Recycling Cart",
    "date_created": "2022-11-22T17:00:46.000",
    "date_modified": "2022-11-22T17:00:47.000",
    "case_close_date": "2022-01-17T18:00:00.000",
    "request_status": "Pending",
    "responsible_agency": "Department of Sanitation",
    "final_address": "2632 Frenchmen St",
    "address_councildis": "D",
    "status": "Pending",
    "rowid": "945950",
    "final_x": "3684087.25589",
    "final_y": "542056.773644",
    "longitude": "-90.059530842508",
    "latitude": "29.984389346315275",
    "geocoded_column": {
      "latitude": "29.984389346315275",
      "longitude": "-90.059530842508"
    }
  },
  {
    "service_request": "2022-945949",
    "request_type": "Trash/Recycling",
    "request_reason": "MIssed Recycling Pick-Up",
    "date_created": "2022-11-22T17:00:42.000",
    "date_modified": "2022-11-22T17:00:43.000",
    "request_status": "Pending",
    "responsible_agency": "Department of Sanitation",
    "final_address": "923 Arabella St",
    "address_councildis": "A",
    "status": "Assigned to Contractor",
    "contractor": "Richards Disposal",
    "rowid": "945949",
    "final_x": "3665983.9161",
    "final_y": "519442.389943",
    "longitude": "-90.11746939698402",
    "latitude": "29.922748108338315",
    "geocoded_column": {
      "latitude": "29.922748108338315",
      "longitude": "-90.11746939698402"
    }
  },
  {
    "service_request": "2022-945948",
    "request_type": "Trash/Recycling",
    "request_reason": "Return Trash Cart",
    "date_created": "2022-11-22T16:57:32.000",
    "date_modified": "2022-11-22T16:57:33.000",
    "request_status": "Pending",
    "responsible_agency": "Department of Sanitation",
    "final_address": "311 40Th St",
    "address_councildis": "A",
    "status": "Assigned to Contractor",
    "contractor": "IV Waste",
    "rowid": "945948",
    "final_x": "3665303.34317",
    "final_y": "553406.151127",
    "longitude": "-90.11848103128145",
    "latitude": "30.01615703090527",
    "geocoded_column": {
      "latitude": "30.01615703090527",
      "longitude": "-90.11848103128145"
    }
  },
  {
    "service_request": "2022-945947",
    "request_type": "Trash/Recycling",
    "request_reason": "Request a Large Item Pick Up",
    "date_created": "2022-11-22T16:47:45.000",
    "date_modified": "2022-11-22T17:02:40.000",
    "request_status": "Pending",
    "responsible_agency": "Department of Sanitation",
    "final_address": "5900 Painters St",
    "address_councildis": "D",
    "status": "Assigned to Contractor",
    "contractor": "IV Waste",
    "rowid": "945947",
    "final_x": "3686014.71062",
    "final_y": "554837.458712",
    "longitude": "-90.05299181489838",
    "latitude": "30.019472550883613",
    "geocoded_column": {
      "latitude": "30.019472550883613",
      "longitude": "-90.05299181489838"
    }
  },
  {
    "service_request": "2022-945946",
    "request_type": "Trash/Recycling",
    "request_reason": "Request a Large Item Pick Up",
    "date_created": "2022-11-22T16:44:32.000",
    "date_modified": "2022-11-22T16:44:33.000",
    "request_status": "Pending",
    "responsible_agency": "Department of Sanitation",
    "final_address": "4208 State Street Dr",
    "address_councildis": "B",
    "status": "Assigned to Contractor",
    "contractor": "Richards Disposal",
    "rowid": "945946",
    "final_x": "3668463.88705",
    "final_y": "531182.38253",
    "longitude": "-90.1092451936064",
    "latitude": "29.954956714928553",
    "geocoded_column": {
      "latitude": "29.954956714928553",
      "longitude": "-90.1092451936064"
    }
  },
  {
    "service_request": "2022-945945",
    "request_type": "Trash/Recycling",
    "request_reason": "Missed Trash Pick-Up",
    "date_created": "2022-11-22T16:43:49.000",
    "date_modified": "2022-11-22T16:43:50.000",
    "request_status": "Pending",
    "responsible_agency": "Department of Sanitation",
    "final_address": "2745 Audubon St",
    "address_councildis": "B",
    "status": "Assigned to Contractor",
    "contractor": "Richards Disposal",
    "rowid": "945945",
    "final_x": "3667439.58663",
    "final_y": "530940.28877",
    "longitude": "-90.1124877041725",
    "latitude": "29.95432108472608",
    "geocoded_column": {
      "latitude": "29.95432108472608",
      "longitude": "-90.1124877041725"
    }
  },
  {
    "service_request": "2022-945944",
    "request_type": "Trash/Recycling",
    "request_reason": "Missed Trash Pick-Up",
    "date_created": "2022-11-22T16:31:59.000",
    "date_modified": "2022-11-22T16:32:00.000",
    "request_status": "Pending",
    "responsible_agency": "Department of Sanitation",
    "final_address": "6564 Vicksburg St",
    "address_councildis": "A",
    "status": "Assigned to Contractor",
    "contractor": "IV Waste",
    "rowid": "945944",
    "final_x": "3669133.93198",
    "final_y": "551180.976469",
    "longitude": "-90.10645329592408",
    "latitude": "30.00992635714015",
    "geocoded_column": {
      "latitude": "30.00992635714015",
      "longitude": "-90.10645329592408"
    }
  },
  {
    "service_request": "2022-945943",
    "request_type": "Trash/Recycling",
    "request_reason": "Repair Trash Cart",
    "date_created": "2022-11-22T16:30:29.000",
    "date_modified": "2022-11-22T16:30:30.000",
    "request_status": "Pending",
    "responsible_agency": "Department of Sanitation",
    "final_address": "6564 Vicksburg St",
    "address_councildis": "A",
    "status": "Assigned to Contractor",
    "contractor": "IV Waste",
    "rowid": "945943",
    "final_x": "3669133.93198",
    "final_y": "551180.976469",
    "longitude": "-90.10645329592408",
    "latitude": "30.00992635714015",
    "geocoded_column": {
      "latitude": "30.00992635714015",
      "longitude": "-90.10645329592408"
    }
  },
  {
    "service_request": "2022-945942",
    "request_type": "Trash/Recycling",
    "request_reason": "Order Recycling Cart",
    "date_created": "2022-11-22T16:26:20.000",
    "date_modified": "2022-11-22T16:26:21.000",
    "request_status": "Pending",
    "responsible_agency": "Department of Sanitation",
    "final_address": "1712 Bayou Rd",
    "address_councildis": "D",
    "status": "Pending",
    "rowid": "945942",
    "final_x": "3680801.22939",
    "final_y": "536302.336647",
    "longitude": "-90.0701103077498",
    "latitude": "29.968666675414664",
    "geocoded_column": {
      "latitude": "29.968666675414664",
      "longitude": "-90.0701103077498"
    }
  },
  {
    "service_request": "2022-945941",
    "request_type": "Trash/Recycling",
    "request_reason": "Missed Trash Pick-Up",
    "date_created": "2022-11-22T16:20:32.000",
    "date_modified": "2022-11-22T16:20:33.000",
    "request_status": "Pending",
    "responsible_agency": "Department of Sanitation",
    "final_address": "338 36Th St",
    "address_councildis": "A",
    "status": "Assigned to Contractor",
    "contractor": "IV Waste",
    "rowid": "945941",
    "final_x": "3665085.3552",
    "final_y": "551877.471382",
    "longitude": "-90.11922095778962",
    "latitude": "30.01196004896911",
    "geocoded_column": {
      "latitude": "30.01196004896911",
      "longitude": "-90.11922095778962"
    }
  },
  {
    "service_request": "2022-945940",
    "request_type": "Trash/Recycling",
    "request_reason": "Request a Large Item Pick Up",
    "date_created": "2022-11-22T16:19:19.000",
    "date_modified": "2022-11-22T16:19:20.000",
    "request_status": "Pending",
    "responsible_agency": "Department of Sanitation",
    "final_address": "5946 Laurel St",
    "address_councildis": "A",
    "status": "Assigned to Contractor",
    "contractor": "Richards Disposal",
    "rowid": "945940",
    "final_x": "3664600.57082",
    "final_y": "518061.238454",
    "longitude": "-90.12188218321586",
    "latitude": "29.918990662923353",
    "geocoded_column": {
      "latitude": "29.918990662923353",
      "longitude": "-90.12188218321586"
    }
  },
  {
    "service_request": "2022-945939",
    "request_type": "Trash/Recycling",
    "request_reason": "Order Recycling Cart",
    "date_created": "2022-11-22T16:17:38.000",
    "date_modified": "2022-11-22T16:17:39.000",
    "request_status": "Pending",
    "responsible_agency": "Department of Sanitation",
    "final_address": "5643 Bancroft Dr",
    "address_councildis": "D",
    "status": "Pending",
    "rowid": "945939",
    "final_x": "3676597.64142",
    "final_y": "553098.973143",
    "longitude": "-90.08280657646137",
    "latitude": "30.014978309473893",
    "geocoded_column": {
      "latitude": "30.014978309473893",
      "longitude": "-90.08280657646137"
    }
  },
  {
    "service_request": "2022-945938",
    "request_type": "Trash/Recycling",
    "request_reason": "Request a Large Item Pick Up",
    "date_created": "2022-11-22T16:16:32.000",
    "date_modified": "2022-11-22T16:16:32.000",
    "request_status": "Pending",
    "responsible_agency": "Department of Sanitation",
    "final_address": "213 Chartres St",
    "address_councildis": "C",
    "status": "Assigned to Contractor",
    "contractor": "Empire Services",
    "rowid": "945938",
    "final_x": "3681773.10735",
    "final_y": "530896.572162",
    "longitude": "-90.06722969927763",
    "latitude": "29.953773172554495",
    "geocoded_column": {
      "latitude": "29.953773172554495",
      "longitude": "-90.06722969927763"
    }
  },
  {
    "service_request": "2022-945936",
    "request_type": "Trash/Recycling",
    "request_reason": "Repair Trash Cart",
    "date_created": "2022-11-22T16:10:47.000",
    "date_modified": "2022-11-22T16:10:47.000",
    "request_status": "Pending",
    "responsible_agency": "Department of Sanitation",
    "final_address": "1925 Cadiz St",
    "address_councildis": "B",
    "status": "Assigned to Contractor",
    "contractor": "Richards Disposal",
    "rowid": "945936",
    "final_x": "3670123.8514",
    "final_y": "522073.625914",
    "longitude": "-90.10431213771318",
    "latitude": "29.929861727689644",
    "geocoded_column": {
      "latitude": "29.929861727689644",
      "longitude": "-90.10431213771318"
    }
  },
  {
    "service_request": "2022-945934",
    "request_type": "Trash/Recycling",
    "request_reason": "Order Trash Cart",
    "date_created": "2022-11-22T16:06:03.000",
    "date_modified": "2022-11-22T16:06:04.000",
    "request_status": "Pending",
    "responsible_agency": "Department of Sanitation",
    "final_address": "1427 St Mary St",
    "address_councildis": "B",
    "status": "Assigned to Contractor",
    "contractor": "Richards Disposal",
    "rowid": "945934",
    "final_x": "3678984.6484",
    "final_y": "523767.974395",
    "longitude": "-90.07628143555137",
    "latitude": "29.934256326135813",
    "geocoded_column": {
      "latitude": "29.934256326135813",
      "longitude": "-90.07628143555137"
    }
  },
  {
    "service_request": "2022-945933",
    "request_type": "Trash/Recycling",
    "request_reason": "Missed Trash Pick-Up",
    "date_created": "2022-11-22T16:04:22.000",
    "date_modified": "2022-11-22T16:04:23.000",
    "request_status": "Pending",
    "responsible_agency": "Department of Sanitation",
    "final_address": "4702 Perrier St",
    "address_councildis": "B",
    "status": "Assigned to Contractor",
    "contractor": "Richards Disposal",
    "rowid": "945933",
    "final_x": "3669764.67463",
    "final_y": "519926.11404",
    "longitude": "-90.10551864389504",
    "latitude": "29.923967342927465",
    "geocoded_column": {
      "latitude": "29.923967342927465",
      "longitude": "-90.10551864389504"
    }
  },
  {
    "service_request": "2022-945932",
    "request_type": "Trash/Recycling",
    "request_reason": "Missed Trash Pick-Up",
    "date_created": "2022-11-22T16:02:42.000",
    "date_modified": "2022-11-22T16:02:43.000",
    "request_status": "Pending",
    "responsible_agency": "Department of Sanitation",
    "final_address": "4312 Coliseum St, New Orleans, Louisiana, 70115",
    "address_councildis": "B",
    "status": "Assigned to Contractor",
    "contractor": "Richards Disposal",
    "rowid": "945932",
    "final_x": "3671244.94766",
    "final_y": "519766.51916",
    "longitude": "-90.10085135858562",
    "latitude": "29.92348481027771",
    "geocoded_column": {
      "latitude": "29.92348481027771",
      "longitude": "-90.10085135858562"
    }
  },
  {
    "service_request": "2022-945931",
    "request_type": "Trash/Recycling",
    "request_reason": "Missed Trash Pick-Up",
    "date_created": "2022-11-22T16:01:22.000",
    "date_modified": "2022-11-22T16:01:23.000",
    "request_status": "Pending",
    "responsible_agency": "Department of Sanitation",
    "final_address": "11433 Curran Rd",
    "address_councildis": "E",
    "status": "Assigned to Contractor",
    "contractor": "Waste Pro",
    "rowid": "945931",
    "final_x": "3711581.03288",
    "final_y": "566893.298596",
    "longitude": "-89.97175896826867",
    "latitude": "30.051811029777852",
    "geocoded_column": {
      "latitude": "30.051811029777852",
      "longitude": "-89.97175896826867"
    }
  },
  {
    "service_request": "2022-945930",
    "request_type": "Traffic Signals/Signs/Striping/Streetlights",
    "request_reason": "Street Light Outage/Malfunction",
    "date_created": "2022-11-22T16:00:27.000",
    "date_modified": "2022-11-22T16:00:28.000",
    "request_status": "Pending",
    "responsible_agency": "Department of Public Works",
    "final_address": "3427 Vespasian St",
    "address_councildis": "C",
    "status": "Pending",
    "contractor": "Legacy Professional Services",
    "rowid": "945930",
    "final_x": "3695802.97885",
    "final_y": "522581.038202",
    "longitude": "-90.02322961714422",
    "latitude": "29.930474611918378",
    "geocoded_column": {
      "latitude": "29.930474611918378",
      "longitude": "-90.02322961714422"
    }
  },
  {
    "service_request": "2022-945929",
    "request_type": "Trash/Recycling",
    "request_reason": "Request a Large Item Pick Up",
    "date_created": "2022-11-22T15:59:51.000",
    "date_modified": "2022-11-22T15:59:52.000",
    "request_status": "Pending",
    "responsible_agency": "Department of Sanitation",
    "final_address": "53 Marywood Ct",
    "address_councildis": "E",
    "status": "Assigned to Contractor",
    "contractor": "Waste Pro",
    "rowid": "945929",
    "final_x": "3712068.5635",
    "final_y": "566980.591076",
    "longitude": "-89.97021476869486",
    "latitude": "30.052035110516993",
    "geocoded_column": {
      "latitude": "30.052035110516993",
      "longitude": "-89.97021476869486"
    }
  },
  {
    "service_request": "2022-945928",
    "request_type": "Trash/Recycling",
    "request_reason": "Order Recycling Cart",
    "date_created": "2022-11-22T15:55:33.000",
    "date_modified": "2022-11-22T15:55:34.000",
    "request_status": "Pending",
    "responsible_agency": "Department of Sanitation",
    "final_address": "3021 Deers St",
    "address_councildis": "D",
    "status": "Pending",
    "rowid": "945928",
    "final_x": "3688070.239",
    "final_y": "544145.62395",
    "longitude": "-90.04687633379721",
    "latitude": "29.990010588818627",
    "geocoded_column": {
      "latitude": "29.990010588818627",
      "longitude": "-90.04687633379721"
    }
  },
  {
    "service_request": "2022-945927",
    "request_type": "Trash/Recycling",
    "request_reason": "Missed Trash Pick-Up",
    "date_created": "2022-11-22T15:51:07.000",
    "date_modified": "2022-11-22T15:51:07.000",
    "request_status": "Pending",
    "responsible_agency": "Department of Sanitation",
    "final_address": "7832 Berg Rd",
    "address_councildis": "E",
    "status": "Assigned to Contractor",
    "contractor": "Waste Pro",
    "rowid": "945927",
    "final_x": "3711430.44722",
    "final_y": "567442.437796",
    "longitude": "-89.97221430063018",
    "latitude": "30.05332585869509",
    "geocoded_column": {
      "latitude": "30.05332585869509",
      "longitude": "-89.97221430063018"
    }
  },
  {
    "service_request": "2022-945926",
    "request_type": "Trash/Recycling",
    "request_reason": "MIssed Recycling Pick-Up",
    "date_created": "2022-11-22T15:46:20.000",
    "date_modified": "2022-11-22T15:46:21.000",
    "request_status": "Pending",
    "responsible_agency": "Department of Sanitation",
    "final_address": "1127 Octavia St",
    "address_councildis": "A",
    "status": "Assigned to Contractor",
    "contractor": "Richards Disposal",
    "rowid": "945926",
    "final_x": "3666760.63681",
    "final_y": "520087.331512",
    "longitude": "-90.11499594181214",
    "latitude": "29.924498809034915",
    "geocoded_column": {
      "latitude": "29.924498809034915",
      "longitude": "-90.11499594181214"
    }
  },
  {
    "service_request": "2022-945925",
    "request_type": "Trash/Recycling",
    "request_reason": "MIssed Recycling Pick-Up",
    "date_created": "2022-11-22T15:43:46.000",
    "date_modified": "2022-11-22T15:43:47.000",
    "request_status": "Pending",
    "responsible_agency": "Department of Sanitation",
    "final_address": "924 Fourth St",
    "address_councildis": "B",
    "status": "Assigned to Contractor",
    "contractor": "Richards Disposal",
    "rowid": "945925",
    "final_x": "3677568.96597",
    "final_y": "520526.477048",
    "longitude": "-90.08086255796822",
    "latitude": "29.925385894775783",
    "geocoded_column": {
      "latitude": "29.925385894775783",
      "longitude": "-90.08086255796822"
    }
  },
  {
    "service_request": "2022-945924",
    "request_type": "Trash/Recycling",
    "request_reason": "Order Recycling Cart",
    "date_created": "2022-11-22T15:41:37.000",
    "date_modified": "2022-11-22T15:41:38.000",
    "request_status": "Pending",
    "responsible_agency": "Department of Sanitation",
    "final_address": "2928 Dublin St",
    "address_councildis": "A",
    "status": "Pending",
    "rowid": "945924",
    "final_x": "3665957.37255",
    "final_y": "533339.25978",
    "longitude": "-90.117087561342",
    "latitude": "29.96096081069353",
    "geocoded_column": {
      "latitude": "29.96096081069353",
      "longitude": "-90.117087561342"
    }
  },
  {
    "service_request": "2022-945923",
    "request_type": "Trash/Recycling",
    "request_reason": "Replace Trash Cart",
    "date_created": "2022-11-22T15:40:49.000",
    "date_modified": "2022-11-22T15:40:50.000",
    "request_status": "Pending",
    "responsible_agency": "Department of Sanitation",
    "final_address": "2928 Dublin St",
    "address_councildis": "A",
    "status": "Assigned to Contractor",
    "contractor": "Richards Disposal",
    "rowid": "945923",
    "final_x": "3665957.37255",
    "final_y": "533339.25978",
    "longitude": "-90.117087561342",
    "latitude": "29.96096081069353",
    "geocoded_column": {
      "latitude": "29.96096081069353",
      "longitude": "-90.117087561342"
    }
  },
  {
    "service_request": "2022-945922",
    "request_type": "Trash/Recycling",
    "request_reason": "Repair Recycling Cart",
    "date_created": "2022-11-22T15:39:00.000",
    "date_modified": "2022-11-22T15:39:01.000",
    "request_status": "Pending",
    "responsible_agency": "Department of Sanitation",
    "final_address": "4490 Painters St",
    "address_councildis": "D",
    "status": "Pending",
    "rowid": "945922",
    "final_x": "3686203.38684",
    "final_y": "549561.500563",
    "longitude": "-90.05258199243708",
    "latitude": "30.004959799501624",
    "geocoded_column": {
      "latitude": "30.004959799501624",
      "longitude": "-90.05258199243708"
    }
  },
  {
    "service_request": "2022-945921",
    "request_type": "Parks & Parkways",
    "request_reason": "Request Tree Service (Right of Way/Public Property)",
    "date_created": "2022-11-22T15:37:26.000",
    "date_modified": "2022-11-22T15:38:05.000",
    "request_status": "Pending",
    "responsible_agency": "Department of Parks & Parkway",
    "final_address": "3333 Bienville Ave",
    "address_councildis": "B",
    "status": "Pending",
    "rowid": "945921",
    "final_x": "3673878.37659",
    "final_y": "537296.594248",
    "longitude": "-90.09193908682016",
    "latitude": "29.97160858643569",
    "geocoded_column": {
      "latitude": "29.97160858643569",
      "longitude": "-90.09193908682016"
    }
  },
  {
    "service_request": "2022-945920",
    "request_type": "Trash/Recycling",
    "request_reason": "Order Trash Cart",
    "date_created": "2022-11-22T15:35:07.000",
    "date_modified": "2022-11-22T15:35:08.000",
    "request_status": "Pending",
    "responsible_agency": "Department of Sanitation",
    "final_address": "3135 Somerset Dr",
    "address_councildis": "C",
    "status": "Assigned to Contractor",
    "contractor": "Richards Disposal",
    "rowid": "945920",
    "final_x": "3702491.50551",
    "final_y": "519527.520695",
    "longitude": "-90.00222708540214",
    "latitude": "29.921866524256764",
    "geocoded_column": {
      "latitude": "29.921866524256764",
      "longitude": "-90.00222708540214"
    }
  },
  {
    "service_request": "2022-945919",
    "request_type": "Trash/Recycling",
    "request_reason": "Missed Trash Pick-Up",
    "date_created": "2022-11-22T15:32:33.000",
    "date_modified": "2022-11-22T15:32:33.000",
    "request_status": "Pending",
    "responsible_agency": "Department of Sanitation",
    "final_address": "7366 Brevard Ave",
    "address_councildis": "E",
    "status": "Assigned to Contractor",
    "contractor": "Waste Pro",
    "rowid": "945919",
    "final_x": "3706595.78852",
    "final_y": "562935.072032",
    "longitude": "-89.98766257228559",
    "latitude": "30.041089427051862",
    "geocoded_column": {
      "latitude": "30.041089427051862",
      "longitude": "-89.98766257228559"
    }
  },
  {
    "service_request": "2022-945918",
    "request_type": "Trash/Recycling",
    "request_reason": "Order Recycling Cart",
    "date_created": "2022-11-22T15:31:49.000",
    "date_modified": "2022-11-22T15:31:50.000",
    "request_status": "Pending",
    "responsible_agency": "Department of Sanitation",
    "final_address": "3800 Mimosa Dr",
    "address_councildis": "C",
    "status": "Pending",
    "rowid": "945918",
    "final_x": "3704037.1073",
    "final_y": "513231.711858",
    "longitude": "-89.9975799827031",
    "latitude": "29.904505748523214",
    "geocoded_column": {
      "latitude": "29.904505748523214",
      "longitude": "-89.9975799827031"
    }
  },
  {
    "service_request": "2022-945917",
    "request_type": "Trash/Recycling",
    "request_reason": "Repair Trash Cart",
    "date_created": "2022-11-22T15:29:36.000",
    "date_modified": "2022-11-22T15:29:37.000",
    "request_status": "Pending",
    "responsible_agency": "Department of Sanitation",
    "final_address": "46 Gull St",
    "address_councildis": "D",
    "status": "Assigned to Contractor",
    "contractor": "IV Waste",
    "rowid": "945917",
    "final_x": "3675008.50312",
    "final_y": "555823.997913",
    "longitude": "-90.08773390831954",
    "latitude": "30.022518739565154",
    "geocoded_column": {
      "latitude": "30.022518739565154",
      "longitude": "-90.08773390831954"
    }
  },
  {
    "service_request": "2022-945916",
    "request_type": "Trash/Recycling",
    "request_reason": "Missed Trash Pick-Up",
    "date_created": "2022-11-22T15:28:37.000",
    "date_modified": "2022-11-22T15:28:38.000",
    "request_status": "Pending",
    "responsible_agency": "Department of Sanitation",
    "final_address": "531 Second St",
    "address_councildis": "B",
    "status": "Assigned to Contractor",
    "contractor": "Richards Disposal",
    "rowid": "945916",
    "final_x": "3678946.68136",
    "final_y": "519703.907704",
    "longitude": "-90.07654202089383",
    "latitude": "29.923082616838766",
    "geocoded_column": {
      "latitude": "29.923082616838766",
      "longitude": "-90.07654202089383"
    }
  },
  {
    "service_request": "2022-945915",
    "request_type": "Trash/Recycling",
    "request_reason": "Order Recycling Cart",
    "date_created": "2022-11-22T15:25:22.000",
    "date_modified": "2022-11-22T15:25:23.000",
    "request_status": "Pending",
    "responsible_agency": "Department of Sanitation",
    "final_address": "107 Maryland Dr",
    "address_councildis": "A",
    "status": "Pending",
    "rowid": "945915",
    "final_x": "3663768.69376",
    "final_y": "542122.094541",
    "longitude": "-90.12370624559995",
    "latitude": "29.985174392708142",
    "geocoded_column": {
      "latitude": "29.985174392708142",
      "longitude": "-90.12370624559995"
    }
  },
  {
    "service_request": "2022-945914",
    "request_type": "Trash/Recycling",
    "request_reason": "Order Recycling Cart",
    "date_created": "2022-11-22T15:24:33.000",
    "date_modified": "2022-11-22T15:24:33.000",
    "request_status": "Pending",
    "responsible_agency": "Department of Sanitation",
    "final_address": "2854 Hyman Pl",
    "address_councildis": "C",
    "status": "Pending",
    "rowid": "945914",
    "final_x": "3701076.20157",
    "final_y": "520478.98572",
    "longitude": "-90.00665979629251",
    "latitude": "29.92452785833219",
    "geocoded_column": {
      "latitude": "29.92452785833219",
      "longitude": "-90.00665979629251"
    }
  },
  {
    "service_request": "2022-945913",
    "request_type": "Trash/Recycling",
    "request_reason": "Order Recycling Cart",
    "date_created": "2022-11-22T15:23:35.000",
    "date_modified": "2022-11-22T15:23:36.000",
    "request_status": "Pending",
    "responsible_agency": "Department of Sanitation",
    "final_address": "3135 Somerset Dr",
    "address_councildis": "C",
    "status": "Pending",
    "rowid": "945913",
    "final_x": "3702491.50551",
    "final_y": "519527.520695",
    "longitude": "-90.00222708540214",
    "latitude": "29.921866524256764",
    "geocoded_column": {
      "latitude": "29.921866524256764",
      "longitude": "-90.00222708540214"
    }
  },
  {
    "service_request": "2022-945912",
    "request_type": "Trash/Recycling",
    "request_reason": "MIssed Recycling Pick-Up",
    "date_created": "2022-11-22T15:19:57.000",
    "date_modified": "2022-11-22T15:19:58.000",
    "request_status": "Pending",
    "responsible_agency": "Department of Sanitation",
    "final_address": "6950 Marshal Foch St",
    "address_councildis": "A",
    "status": "Assigned to Contractor",
    "contractor": "IV Waste",
    "rowid": "945912",
    "final_x": "3670320.72052",
    "final_y": "553623.539671",
    "longitude": "-90.10262090463155",
    "latitude": "30.016607549004167",
    "geocoded_column": {
      "latitude": "30.016607549004167",
      "longitude": "-90.10262090463155"
    }
  },
  {
    "service_request": "2022-945910",
    "request_type": "Trash/Recycling",
    "request_reason": "Order Trash Cart",
    "date_created": "2022-11-22T15:12:13.000",
    "date_modified": "2022-11-22T15:12:14.000",
    "request_status": "Pending",
    "responsible_agency": "Department of Sanitation",
    "final_address": "6940 connaught ct",
    "address_councildis": "E",
    "status": "Assigned to Contractor",
    "contractor": "Waste Pro",
    "rowid": "945910",
    "final_x": "3712880.97618",
    "final_y": "563583.11376",
    "longitude": "-89.96777497995419",
    "latitude": "30.04266682537765",
    "geocoded_column": {
      "latitude": "30.04266682537765",
      "longitude": "-89.96777497995419"
    }
  },
  {
    "service_request": "2022-945909",
    "request_type": "Trash/Recycling",
    "request_reason": "Order Recycling Cart",
    "date_created": "2022-11-22T15:09:16.000",
    "date_modified": "2022-11-22T15:09:16.000",
    "request_status": "Pending",
    "responsible_agency": "Department of Sanitation",
    "final_address": "500 New Orleans-Hammond Hwy",
    "address_councildis": "A",
    "status": "Pending",
    "rowid": "945909",
    "final_x": "3665154.11789",
    "final_y": "554548.88316",
    "longitude": "-90.11891425327782",
    "latitude": "30.019303492170426",
    "geocoded_column": {
      "latitude": "30.019303492170426",
      "longitude": "-90.11891425327782"
    }
  },
  {
    "service_request": "2022-945908",
    "request_type": "Trash/Recycling",
    "request_reason": "Missed Trash Pick-Up",
    "date_created": "2022-11-22T15:05:41.000",
    "date_modified": "2022-11-22T15:05:41.000",
    "request_status": "Pending",
    "responsible_agency": "Department of Sanitation",
    "final_address": "1300 BLK Leboeuf St",
    "address_councildis": "C",
    "status": "Assigned to Contractor",
    "contractor": "Richards Disposal",
    "rowid": "945908",
    "final_x": "3689698.73966",
    "final_y": "526487.355606",
    "longitude": "-90.04236077713612",
    "latitude": "29.9414061584055",
    "geocoded_column": {
      "latitude": "29.9414061584055",
      "longitude": "-90.04236077713612"
    }
  },
  {
    "service_request": "2022-945907",
    "request_type": "Parks & Parkways",
    "request_reason": "Request Tree Service (Right of Way/Public Property)",
    "date_created": "2022-11-22T15:04:29.000",
    "date_modified": "2022-11-22T15:04:30.000",
    "request_status": "Pending",
    "responsible_agency": "Department of Parks & Parkway",
    "final_address": "5624 Canal Blvd",
    "address_councildis": "A",
    "status": "Pending",
    "rowid": "945907",
    "final_x": "3668134.76609",
    "final_y": "544961.504847",
    "longitude": "-90.10981985003684",
    "latitude": "29.992854344356612",
    "geocoded_column": {
      "latitude": "29.992854344356612",
      "longitude": "-90.10981985003684"
    }
  },
  {
    "service_request": "2022-945906",
    "request_type": "Trash/Recycling",
    "request_reason": "Request a Large Item Pick Up",
    "date_created": "2022-11-22T15:03:52.000",
    "date_modified": "2022-11-22T15:03:53.000",
    "request_status": "Pending",
    "responsible_agency": "Department of Sanitation",
    "final_address": "6758 Memphis St",
    "address_councildis": "A",
    "status": "Assigned to Contractor",
    "contractor": "IV Waste",
    "rowid": "945906",
    "final_x": "3669566.60788",
    "final_y": "552421.371414",
    "longitude": "-90.10504430329284",
    "latitude": "30.013324260975253",
    "geocoded_column": {
      "latitude": "30.013324260975253",
      "longitude": "-90.10504430329284"
    }
  },
  {
    "service_request": "2022-945904",
    "request_type": "Trash/Recycling",
    "request_reason": "Order Recycling Cart",
    "date_created": "2022-11-22T15:02:03.000",
    "date_modified": "2022-11-22T15:02:04.000",
    "request_status": "Pending",
    "responsible_agency": "Department of Sanitation",
    "final_address": "6758 Memphis St",
    "address_councildis": "A",
    "status": "Pending",
    "contractor": "IV Waste",
    "rowid": "945904",
    "final_x": "3669566.60788",
    "final_y": "552421.371414",
    "longitude": "-90.10504430329284",
    "latitude": "30.013324260975253",
    "geocoded_column": {
      "latitude": "30.013324260975253",
      "longitude": "-90.10504430329284"
    }
  },
  {
    "service_request": "2022-945903",
    "request_type": "Trash/Recycling",
    "request_reason": "Missed Trash Pick-Up",
    "date_created": "2022-11-22T15:02:01.000",
    "date_modified": "2022-11-22T15:02:02.000",
    "request_status": "Pending",
    "responsible_agency": "Department of Sanitation",
    "final_address": "4910 Laurel St, New Orleans, Louisiana, 70115",
    "address_councildis": "B",
    "status": "Assigned to Contractor",
    "contractor": "Richards Disposal",
    "rowid": "945903",
    "final_x": "3668853.26362",
    "final_y": "517752.459062",
    "longitude": "-90.1084689983005",
    "latitude": "29.91801730078855",
    "geocoded_column": {
      "latitude": "29.91801730078855",
      "longitude": "-90.1084689983005"
    }
  },
  {
    "service_request": "2022-945901",
    "request_type": "Roads/Drainage",
    "request_reason": "Pothole",
    "date_created": "2022-11-22T15:00:13.000",
    "date_modified": "2022-11-22T15:00:14.000",
    "request_status": "Pending",
    "responsible_agency": "Department of Public Works",
    "final_address": "6953 Argonne Blvd",
    "address_councildis": "A",
    "status": "Pending",
    "rowid": "945901",
    "final_x": "3670814.49063",
    "final_y": "553629.394711",
    "longitude": "-90.1010605981906",
    "latitude": "30.016609056503423",
    "geocoded_column": {
      "latitude": "30.016609056503423",
      "longitude": "-90.1010605981906"
    }
  },
  {
    "service_request": "2022-945900",
    "request_type": "Trash/Recycling",
    "request_reason": "MIssed Recycling Pick-Up",
    "date_created": "2022-11-22T14:58:55.000",
    "date_modified": "2022-11-22T14:58:56.000",
    "request_status": "Pending",
    "responsible_agency": "Department of Sanitation",
    "final_address": "428 S Murat St",
    "address_councildis": "A",
    "status": "Assigned to Contractor",
    "contractor": "Richards Disposal",
    "rowid": "945900",
    "final_x": "3668828.65044",
    "final_y": "538161.621385",
    "longitude": "-90.10785771043841",
    "latitude": "29.97413658383633",
    "geocoded_column": {
      "latitude": "29.97413658383633",
      "longitude": "-90.10785771043841"
    }
  },
  {
    "service_request": "2022-945899",
    "request_type": "Trash/Recycling",
    "request_reason": "Order Recycling Cart",
    "date_created": "2022-11-22T14:58:45.000",
    "date_modified": "2022-11-22T14:58:45.000",
    "request_status": "Pending",
    "responsible_agency": "Department of Sanitation",
    "final_address": "5001 Hauck Dr",
    "address_councildis": "E",
    "status": "Pending",
    "rowid": "945899",
    "final_x": "3714522.35499",
    "final_y": "557804.972827",
    "longitude": "-89.96280604327599",
    "latitude": "30.026725366310885",
    "geocoded_column": {
      "latitude": "30.026725366310885",
      "longitude": "-89.96280604327599"
    }
  },
  {
    "service_request": "2022-945898",
    "request_type": "Trash/Recycling",
    "request_reason": "Request a Large Item Pick Up",
    "date_created": "2022-11-22T14:54:42.000",
    "date_modified": "2022-11-22T14:54:43.000",
    "request_status": "Pending",
    "responsible_agency": "Department of Sanitation",
    "final_address": "2306 Wirth Pl",
    "address_councildis": "A",
    "status": "Assigned to Contractor",
    "contractor": "Richards Disposal",
    "rowid": "945898",
    "final_x": "3667097.89889",
    "final_y": "524583.149948",
    "longitude": "-90.113780268961",
    "latitude": "29.936851015384125",
    "geocoded_column": {
      "latitude": "29.936851015384125",
      "longitude": "-90.113780268961"
    }
  },
  {
    "service_request": "2022-945897",
    "request_type": "Trash/Recycling",
    "request_reason": "Missed Trash Pick-Up",
    "date_created": "2022-11-22T14:53:57.000",
    "date_modified": "2022-11-22T14:53:58.000",
    "request_status": "Pending",
    "responsible_agency": "Department of Sanitation",
    "final_address": "7707 Downman Rd",
    "address_councildis": "D",
    "status": "Assigned to Contractor",
    "contractor": "Waste Pro",
    "rowid": "945897",
    "final_x": "3694625.9848",
    "final_y": "558779.065052",
    "longitude": "-90.0256410655267",
    "latitude": "30.03004309211574",
    "geocoded_column": {
      "latitude": "30.03004309211574",
      "longitude": "-90.0256410655267"
    }
  },
  {
    "service_request": "2022-945896",
    "request_type": "Traffic Signals/Signs/Striping/Streetlights",
    "request_reason": "Street Light Outage/Malfunction",
    "date_created": "2022-11-22T14:50:08.000",
    "date_modified": "2022-11-22T14:50:09.000",
    "request_status": "Pending",
    "responsible_agency": "Department of Public Works",
    "final_address": "2445 New York St",
    "address_councildis": "D",
    "status": "Pending",
    "contractor": "Legacy Professional Services",
    "rowid": "945896",
    "final_x": "3685379.03017",
    "final_y": "556717.31177",
    "longitude": "-90.05493408019623",
    "latitude": "30.02466096703402",
    "geocoded_column": {
      "latitude": "30.02466096703402",
      "longitude": "-90.05493408019623"
    }
  },
  {
    "service_request": "2022-945895",
    "request_type": "Traffic Signals/Signs/Striping/Streetlights",
    "request_reason": "Street Light Outage/Malfunction",
    "date_created": "2022-11-22T14:49:23.000",
    "date_modified": "2022-11-22T14:49:25.000",
    "request_status": "Pending",
    "responsible_agency": "Department of Public Works",
    "final_address": "1600 BLK Painters St",
    "address_councildis": "D",
    "status": "Pending",
    "contractor": "Legacy Professional Services",
    "rowid": "945895",
    "final_x": "3687401.24065",
    "final_y": "538534.081512",
    "longitude": "-90.0491881635153",
    "latitude": "29.974601472796227",
    "geocoded_column": {
      "latitude": "29.974601472796227",
      "longitude": "-90.0491881635153"
    }
  },
  {
    "service_request": "2022-945894",
    "request_type": "Trash/Recycling",
    "request_reason": "Replace Recycling Cart",
    "date_created": "2022-11-22T14:47:48.000",
    "date_modified": "2022-11-22T14:47:48.000",
    "request_status": "Pending",
    "responsible_agency": "Department of Sanitation",
    "final_address": "4419 Music St",
    "address_councildis": "D",
    "status": "Pending",
    "rowid": "945894",
    "final_x": "3685794.80994",
    "final_y": "549028.782867",
    "longitude": "-90.05389156026628",
    "latitude": "30.003507569687855",
    "geocoded_column": {
      "latitude": "30.003507569687855",
      "longitude": "-90.05389156026628"
    }
  },
  {
    "service_request": "2022-945893",
    "request_type": "Trash/Recycling",
    "request_reason": "Repair Recycling Cart",
    "date_created": "2022-11-22T14:45:41.000",
    "date_modified": "2022-11-22T14:45:54.000",
    "request_status": "Pending",
    "responsible_agency": "Department of Sanitation",
    "final_address": "3615 Elaine Pl",
    "address_councildis": "A",
    "status": "Pending",
    "rowid": "945893",
    "final_x": "3674193.41454",
    "final_y": "539457.550986",
    "longitude": "-90.0908701471465",
    "latitude": "29.977541093085016",
    "geocoded_column": {
      "latitude": "29.977541093085016",
      "longitude": "-90.0908701471465"
    }
  },
  {
    "service_request": "2022-945892",
    "request_type": "Trash/Recycling",
    "request_reason": "MIssed Recycling Pick-Up",
    "date_created": "2022-11-22T14:40:12.000",
    "date_modified": "2022-11-22T14:40:13.000",
    "request_status": "Pending",
    "responsible_agency": "Department of Sanitation",
    "final_address": "4400 BLK Jeanne Marie Pl",
    "address_councildis": "D",
    "status": "Assigned to Contractor",
    "contractor": "IV Waste",
    "rowid": "945892",
    "final_x": "3678524.11568",
    "final_y": "548748.434771",
    "longitude": "-90.07687056179029",
    "latitude": "30.002957936362364",
    "geocoded_column": {
      "latitude": "30.002957936362364",
      "longitude": "-90.07687056179029"
    }
  },
  {
    "service_request": "2022-945891",
    "request_type": "Property Maintenance",
    "request_reason": "Property Maintenance",
    "date_created": "2022-11-22T14:37:13.000",
    "date_modified": "2022-11-22T14:41:34.000",
    "case_close_date": "2022-11-22T08:41:34.000",
    "request_status": "Closed",
    "responsible_agency": "Department of Code Enforcement",
    "final_address": "510 Dumaine St",
    "address_councildis": "C",
    "status": "Referred to Code Enforcement",
    "rowid": "945891",
    "final_x": "3683500.43113",
    "final_y": "532632.006916",
    "longitude": "-90.06171472115535",
    "latitude": "29.958492432781345",
    "geocoded_column": {
      "latitude": "29.958492432781345",
      "longitude": "-90.06171472115535"
    }
  },
  {
    "service_request": "2022-945890",
    "request_type": "Roads/Drainage",
    "request_reason": "Street Subsidence (Sinking)",
    "date_created": "2022-11-22T14:35:53.000",
    "date_modified": "2022-11-22T15:14:22.000",
    "case_close_date": "2022-11-22T09:14:22.000",
    "request_status": "Closed",
    "responsible_agency": "Department of Public Works",
    "final_address": "746 Washington Ave",
    "address_councildis": "B",
    "status": "Duplicate Request",
    "rowid": "945890",
    "final_x": "3677650.07957",
    "final_y": "519851.57868",
    "longitude": "-90.08062979888523",
    "latitude": "29.923527705028746",
    "geocoded_column": {
      "latitude": "29.923527705028746",
      "longitude": "-90.08062979888523"
    }
  },
  {
    "service_request": "2022-945889",
    "request_type": "Roads/Drainage",
    "request_reason": "Street Subsidence (Sinking)",
    "date_created": "2022-11-22T14:34:38.000",
    "date_modified": "2022-11-22T15:14:37.000",
    "case_close_date": "2022-11-22T09:14:37.000",
    "request_status": "Closed",
    "responsible_agency": "Department of Public Works",
    "final_address": "2848 Annunciation St",
    "address_councildis": "B",
    "status": "Duplicate Request",
    "rowid": "945889",
    "final_x": "3677341.64315",
    "final_y": "519644.9278",
    "longitude": "-90.08161054468029",
    "latitude": "29.922968750350993",
    "geocoded_column": {
      "latitude": "29.922968750350993",
      "longitude": "-90.08161054468029"
    }
  },
  {
    "service_request": "2022-945888",
    "request_type": "Trash/Recycling",
    "request_reason": "Missed Trash Pick-Up",
    "date_created": "2022-11-22T14:33:31.000",
    "date_modified": "2022-11-22T14:33:32.000",
    "request_status": "Pending",
    "responsible_agency": "Department of Sanitation",
    "final_address": "315 Conrad St",
    "address_councildis": "A",
    "status": "Assigned to Contractor",
    "contractor": "IV Waste",
    "rowid": "945888",
    "final_x": "3667549.9682",
    "final_y": "554597.346776",
    "longitude": "-90.11134252112318",
    "latitude": "30.01936671233348",
    "geocoded_column": {
      "latitude": "30.01936671233348",
      "longitude": "-90.11134252112318"
    }
  },
  {
    "service_request": "2022-945887",
    "request_type": "Trash/Recycling",
    "request_reason": "Repair Trash Cart",
    "date_created": "2022-11-22T14:29:19.000",
    "date_modified": "2022-11-22T14:29:20.000",
    "request_status": "Pending",
    "responsible_agency": "Department of Sanitation",
    "final_address": "4741 Bienville Ave",
    "address_councildis": "A",
    "status": "Assigned to Contractor",
    "contractor": "Richards Disposal",
    "rowid": "945887",
    "final_x": "3669404.45722",
    "final_y": "540682.960459",
    "longitude": "-90.10595387869155",
    "latitude": "29.981052468981787",
    "geocoded_column": {
      "latitude": "29.981052468981787",
      "longitude": "-90.10595387869155"
    }
  },
  {
    "service_request": "2022-945886",
    "request_type": "Property Maintenance",
    "request_reason": "Property Maintenance",
    "date_created": "2022-11-22T14:28:37.000",
    "date_modified": "2022-11-22T14:45:15.000",
    "case_close_date": "2022-11-22T08:45:15.000",
    "request_status": "Closed",
    "responsible_agency": "Department of Code Enforcement",
    "final_address": "4432 W Poche Ct",
    "address_councildis": "E",
    "status": "Referred to Code Enforcement",
    "rowid": "945886",
    "final_x": "3726680.016",
    "final_y": "558794.173596",
    "longitude": "-89.92435125643269",
    "latitude": "30.02903981984754",
    "geocoded_column": {
      "latitude": "30.02903981984754",
      "longitude": "-89.92435125643269"
    }
  },
  {
    "service_request": "2022-945885",
    "request_type": "Trash/Recycling",
    "request_reason": "Order Recycling Cart",
    "date_created": "2022-11-22T14:26:44.000",
    "date_modified": "2022-11-22T14:26:45.000",
    "request_status": "Pending",
    "responsible_agency": "Department of Sanitation",
    "final_address": "2638 Lavender St",
    "address_councildis": "D",
    "status": "Pending",
    "rowid": "945885",
    "final_x": "3687433.01858",
    "final_y": "546909.946449",
    "longitude": "-90.0487912504023",
    "latitude": "29.997631138318926",
    "geocoded_column": {
      "latitude": "29.997631138318926",
      "longitude": "-90.0487912504023"
    }
  },
  {
    "service_request": "2022-945884",
    "request_type": "Roads/Drainage",
    "request_reason": "Man hole cover issue",
    "date_created": "2022-11-22T14:23:12.000",
    "date_modified": "2022-11-22T14:23:12.000",
    "request_status": "Pending",
    "responsible_agency": "Department of Public Works",
    "final_address": "PALM ST & CECIL ST",
    "address_councildis": "A",
    "status": "Pending",
    "rowid": "945884",
    "final_x": "3663608.7",
    "final_y": "538439.38",
    "longitude": "-90.12433433418438",
    "latitude": "29.975052801437307",
    "geocoded_column": {
      "latitude": "29.975052801437307",
      "longitude": "-90.12433433418438"
    }
  },
  {
    "service_request": "2022-945883",
    "request_type": "Trash/Recycling",
    "request_reason": "Order Recycling Cart",
    "date_created": "2022-11-22T14:18:32.000",
    "date_modified": "2022-11-22T14:18:32.000",
    "request_status": "Pending",
    "responsible_agency": "Department of Sanitation",
    "final_address": "6220 Colbert St",
    "address_councildis": "A",
    "status": "Pending",
    "rowid": "945883",
    "final_x": "3667472.42612",
    "final_y": "548919.283603",
    "longitude": "-90.1117787913836",
    "latitude": "30.00375630154051",
    "geocoded_column": {
      "latitude": "30.00375630154051",
      "longitude": "-90.1117787913836"
    }
  },
  {
    "service_request": "2022-945882",
    "request_type": "Trash/Recycling",
    "request_reason": "Request a Large Item Pick Up",
    "date_created": "2022-11-22T14:12:09.000",
    "date_modified": "2022-11-22T14:12:10.000",
    "request_status": "Pending",
    "responsible_agency": "Department of Sanitation",
    "final_address": "1701 Saux Ln",
    "address_councildis": "C",
    "status": "Assigned to Contractor",
    "contractor": "Richards Disposal",
    "rowid": "945882",
    "final_x": "3692571.7599",
    "final_y": "524987.272317",
    "longitude": "-90.03334386349864",
    "latitude": "29.937192125883314",
    "geocoded_column": {
      "latitude": "29.937192125883314",
      "longitude": "-90.03334386349864"
    }
  },
  {
    "service_request": "2022-945881",
    "request_type": "Trash/Recycling",
    "request_reason": "Repair Trash Cart",
    "date_created": "2022-11-22T14:11:50.000",
    "date_modified": "2022-11-22T14:11:51.000",
    "request_status": "Pending",
    "responsible_agency": "Department of Sanitation",
    "final_address": "5310 Lacour Monique St",
    "address_councildis": "C",
    "status": "Assigned to Contractor",
    "contractor": "Richards Disposal",
    "rowid": "945881",
    "final_x": "3703465.68209",
    "final_y": "517958.605686",
    "longitude": "-89.99920970759918",
    "latitude": "29.917521395313155",
    "geocoded_column": {
      "latitude": "29.917521395313155",
      "longitude": "-89.99920970759918"
    }
  },
  {
    "service_request": "2022-945880",
    "request_type": "Trash/Recycling",
    "request_reason": "Order Trash Cart",
    "date_created": "2022-11-22T14:08:25.000",
    "date_modified": "2022-11-22T14:08:26.000",
    "request_status": "Pending",
    "responsible_agency": "Department of Sanitation",
    "final_address": "4810 Rhodes Dr",
    "address_councildis": "E",
    "status": "Assigned to Contractor",
    "contractor": "Waste Pro",
    "rowid": "945880",
    "final_x": "3702446.02884",
    "final_y": "554804.16764",
    "longitude": "-90.00107594287581",
    "latitude": "30.018865943637717",
    "geocoded_column": {
      "latitude": "30.018865943637717",
      "longitude": "-90.00107594287581"
    }
  },
  {
    "service_request": "2022-945879",
    "request_type": "Trash/Recycling",
    "request_reason": "Missed Trash Pick-Up",
    "date_created": "2022-11-22T14:06:06.000",
    "date_modified": "2022-11-22T14:06:07.000",
    "request_status": "Pending",
    "responsible_agency": "Department of Sanitation",
    "final_address": "4827 St Charles Ave",
    "address_councildis": "B",
    "status": "Assigned to Contractor",
    "contractor": "Richards Disposal",
    "rowid": "945879",
    "final_x": "3669161.30273",
    "final_y": "520846.653561",
    "longitude": "-90.1073921895602",
    "latitude": "29.92651629804633",
    "geocoded_column": {
      "latitude": "29.92651629804633",
      "longitude": "-90.1073921895602"
    }
  },
  {
    "service_request": "2022-945878",
    "request_type": "Trash/Recycling",
    "request_reason": "Repair Recycling Cart",
    "date_created": "2022-11-22T14:05:34.000",
    "date_modified": "2022-11-22T14:05:34.000",
    "request_status": "Pending",
    "responsible_agency": "Department of Sanitation",
    "final_address": "5419 Chamberlain Dr",
    "address_councildis": "D",
    "status": "Pending",
    "rowid": "945878",
    "final_x": "3679551.81999",
    "final_y": "552437.273622",
    "longitude": "-90.07349576838763",
    "latitude": "30.013069893514754",
    "geocoded_column": {
      "latitude": "30.013069893514754",
      "longitude": "-90.07349576838763"
    }
  },
  {
    "service_request": "2022-945877",
    "request_type": "Trash/Recycling",
    "request_reason": "Return Trash Cart",
    "date_created": "2022-11-22T14:03:29.000",
    "date_modified": "2022-11-22T14:03:29.000",
    "request_status": "Pending",
    "responsible_agency": "Department of Sanitation",
    "final_address": "5419 Chamberlain Dr",
    "address_councildis": "D",
    "status": "Assigned to Contractor",
    "contractor": "IV Waste",
    "rowid": "945877",
    "final_x": "3679551.81999",
    "final_y": "552437.273622",
    "longitude": "-90.07349576838763",
    "latitude": "30.013069893514754",
    "geocoded_column": {
      "latitude": "30.013069893514754",
      "longitude": "-90.07349576838763"
    }
  },
  {
    "service_request": "2022-945876",
    "request_type": "Trash/Recycling",
    "request_reason": "Order Recycling Cart",
    "date_created": "2022-11-22T13:52:54.000",
    "date_modified": "2022-11-22T13:52:55.000",
    "request_status": "Pending",
    "responsible_agency": "Department of Sanitation",
    "final_address": "5139 Pauline Dr",
    "address_councildis": "D",
    "status": "Pending",
    "rowid": "945876",
    "final_x": "3692539.3039",
    "final_y": "553116.757591",
    "longitude": "-90.0324380924206",
    "latitude": "30.01453919070691",
    "geocoded_column": {
      "latitude": "30.01453919070691",
      "longitude": "-90.0324380924206"
    }
  },
  {
    "service_request": "2022-945875",
    "request_type": "Trash/Recycling",
    "request_reason": "Missed Trash Pick-Up",
    "date_created": "2022-11-22T13:48:18.000",
    "date_modified": "2022-11-22T13:48:19.000",
    "request_status": "Pending",
    "responsible_agency": "Department of Sanitation",
    "final_address": "1723 Saux Ln",
    "address_councildis": "C",
    "status": "Assigned to Contractor",
    "contractor": "Richards Disposal",
    "rowid": "945875",
    "final_x": "3692569.37315",
    "final_y": "524940.103357",
    "longitude": "-90.03335308805566",
    "latitude": "29.93706250181113",
    "geocoded_column": {
      "latitude": "29.93706250181113",
      "longitude": "-90.03335308805566"
    }
  },
  {
    "service_request": "2022-945874",
    "request_type": "Trash/Recycling",
    "request_reason": "Missed Trash Pick-Up",
    "date_created": "2022-11-22T13:46:41.000",
    "date_modified": "2022-11-22T13:46:41.000",
    "request_status": "Pending",
    "responsible_agency": "Department of Sanitation",
    "final_address": "9843 E Wheaton Cir",
    "address_councildis": "E",
    "status": "Assigned to Contractor",
    "contractor": "Waste Pro",
    "rowid": "945874",
    "final_x": "3708858.61835",
    "final_y": "562536.554208",
    "longitude": "-89.98052617289547",
    "latitude": "30.039920397655163",
    "geocoded_column": {
      "latitude": "30.039920397655163",
      "longitude": "-89.98052617289547"
    }
  },
  {
    "service_request": "2022-945873",
    "request_type": "Traffic Signals/Signs/Striping/Streetlights",
    "request_reason": "Traffic Sign Missing/Damaged",
    "date_created": "2022-11-22T13:44:32.000",
    "date_modified": "2022-11-22T13:45:01.000",
    "request_status": "Pending",
    "responsible_agency": "Department of Public Works",
    "final_address": "919 St Charles Ave",
    "address_councildis": "B",
    "contractor": "Legacy Professional Services",
    "rowid": "945873",
    "final_x": "3680174.97122",
    "final_y": "527316.807551",
    "longitude": "-90.07240033685378",
    "latitude": "29.94397847949933",
    "geocoded_column": {
      "latitude": "29.94397847949933",
      "longitude": "-90.07240033685378"
    }
  },
  {
    "service_request": "2022-945872",
    "request_type": "Trash/Recycling",
    "request_reason": "Request a Large Item Pick Up",
    "date_created": "2022-11-22T13:40:28.000",
    "date_modified": "2022-11-22T17:17:05.000",
    "case_close_date": "2022-11-22T11:17:05.000",
    "request_status": "Closed",
    "responsible_agency": "Department of Sanitation",
    "final_address": "935 Piety St, New Orleans, Louisiana, 70117",
    "address_councildis": "C",
    "status": "Assigned to Contractor",
    "contractor": "IV Waste",
    "contractor_action": "Completed",
    "rowid": "945872",
    "final_x": "3689734.11209",
    "final_y": "535272.841862",
    "longitude": "-90.04193649036444",
    "latitude": "29.965562116179317",
    "geocoded_column": {
      "latitude": "29.965562116179317",
      "longitude": "-90.04193649036444"
    }
  },
  {
    "service_request": "2022-945871",
    "request_type": "Parks & Parkways",
    "request_reason": "Request Tree Service (Right of Way/Public Property)",
    "date_created": "2022-11-22T13:40:26.000",
    "date_modified": "2022-11-22T13:40:27.000",
    "request_status": "Pending",
    "responsible_agency": "Department of Parks & Parkway",
    "final_address": "8519 Spruce St",
    "address_councildis": "A",
    "status": "Pending",
    "rowid": "945871",
    "final_x": "3662687.8425",
    "final_y": "531568.411523",
    "longitude": "-90.12747102529387",
    "latitude": "29.9561865733495",
    "geocoded_column": {
      "latitude": "29.9561865733495",
      "longitude": "-90.12747102529387"
    }
  },
  {
    "service_request": "2022-945870",
    "request_type": "Trash/Recycling",
    "request_reason": "Order Trash Cart",
    "date_created": "2022-11-22T13:39:55.000",
    "date_modified": "2022-11-22T13:39:56.000",
    "request_status": "Pending",
    "responsible_agency": "Department of Sanitation",
    "final_address": "4223 N Johnson St",
    "address_councildis": "D",
    "status": "Assigned to Contractor",
    "contractor": "IV Waste",
    "rowid": "945870",
    "final_x": "3693404.41245",
    "final_y": "538543.855945",
    "longitude": "-90.03022841069804",
    "latitude": "29.974441993271462",
    "geocoded_column": {
      "latitude": "29.974441993271462",
      "longitude": "-90.03022841069804"
    }
  },
  {
    "service_request": "2022-945869",
    "request_type": "Roads/Drainage",
    "request_reason": "Pothole",
    "date_created": "2022-11-22T13:38:02.000",
    "date_modified": "2022-11-22T13:38:02.000",
    "request_status": "Pending",
    "responsible_agency": "Department of Public Works",
    "final_address": "621 N Murat St",
    "address_councildis": "A",
    "status": "Pending",
    "rowid": "945869",
    "final_x": "3670866.73236",
    "final_y": "540979.575883",
    "longitude": "-90.10132527309715",
    "latitude": "29.98182491063595",
    "geocoded_column": {
      "latitude": "29.98182491063595",
      "longitude": "-90.10132527309715"
    }
  },
  {
    "service_request": "2022-945868",
    "request_type": "Trash/Recycling",
    "request_reason": "Repair Trash Cart",
    "date_created": "2022-11-22T13:37:31.000",
    "date_modified": "2022-11-22T13:37:33.000",
    "request_status": "Pending",
    "responsible_agency": "Department of Sanitation",
    "final_address": "4966 Tulip St",
    "address_councildis": "E",
    "status": "Assigned to Contractor",
    "contractor": "Waste Pro",
    "rowid": "945868",
    "final_x": "3701876.74749",
    "final_y": "555614.461337",
    "longitude": "-90.00284492978955",
    "latitude": "30.021112128371293",
    "geocoded_column": {
      "latitude": "30.021112128371293",
      "longitude": "-90.00284492978955"
    }
  },
  {
    "service_request": "2022-945866",
    "request_type": "Trash/Recycling",
    "request_reason": "MIssed Recycling Pick-Up",
    "date_created": "2022-11-22T13:26:05.000",
    "date_modified": "2022-11-22T13:26:06.000",
    "request_status": "Pending",
    "responsible_agency": "Department of Sanitation",
    "final_address": "2648 Hyman Pl",
    "address_councildis": "C",
    "status": "Assigned to Contractor",
    "contractor": "Richards Disposal",
    "rowid": "945866",
    "final_x": "3701103.39108",
    "final_y": "521241.727417",
    "longitude": "-90.00654608955338",
    "latitude": "29.926624269379325",
    "geocoded_column": {
      "latitude": "29.926624269379325",
      "longitude": "-90.00654608955338"
    }
  },
  {
    "service_request": "2022-945865",
    "request_type": "Traffic Signals/Signs/Striping/Streetlights",
    "request_reason": "Street Light Knocked Down/Leaning",
    "date_created": "2022-11-22T13:22:36.000",
    "date_modified": "2022-11-22T13:22:37.000",
    "request_status": "Pending",
    "responsible_agency": "Department of Public Works",
    "final_address": "1100 Shirley Dr",
    "address_councildis": "C",
    "status": "Pending",
    "contractor": "Legacy Professional Services",
    "rowid": "945865",
    "final_x": "3693232.33155",
    "final_y": "527384.902015",
    "longitude": "-90.03117238652676",
    "latitude": "29.943764160698077",
    "geocoded_column": {
      "latitude": "29.943764160698077",
      "longitude": "-90.03117238652676"
    }
  },
  {
    "service_request": "2022-945864",
    "request_type": "Roads/Drainage",
    "request_reason": "Pothole",
    "date_created": "2022-11-22T13:20:11.000",
    "date_modified": "2022-11-22T13:20:11.000",
    "request_status": "Pending",
    "responsible_agency": "Department of Public Works",
    "final_address": "8112 Forshey St",
    "address_councildis": "A",
    "status": "Pending",
    "rowid": "945864",
    "final_x": "3666885.43783",
    "final_y": "533973.996485",
    "longitude": "-90.11413556710153",
    "latitude": "29.962679008191735",
    "geocoded_column": {
      "latitude": "29.962679008191735",
      "longitude": "-90.11413556710153"
    }
  },
  {
    "service_request": "2022-945863",
    "request_type": "Abandoned Vehicles",
    "request_reason": "Abandoned/Junk Vehicles",
    "date_created": "2022-11-22T13:18:34.000",
    "date_modified": "2022-11-22T13:18:34.000",
    "request_status": "Pending",
    "responsible_agency": "Department of Public Works",
    "final_address": "5769 Cameron Blvd",
    "address_councildis": "D",
    "status": "Pending",
    "rowid": "945863",
    "final_x": "3682530.48943",
    "final_y": "554648.600408",
    "longitude": "-90.06400738767712",
    "latitude": "30.019059848432168",
    "geocoded_column": {
      "latitude": "30.019059848432168",
      "longitude": "-90.06400738767712"
    }
  },
  {
    "service_request": "2022-945861",
    "request_type": "Trash/Recycling",
    "request_reason": "Order Recycling Cart",
    "date_created": "2022-11-22T13:14:40.000",
    "date_modified": "2022-11-22T13:14:41.000",
    "request_status": "Pending",
    "responsible_agency": "Department of Sanitation",
    "final_address": "6200 Bellaire Dr",
    "address_councildis": "A",
    "status": "Pending",
    "rowid": "945861",
    "final_x": "3664288.10023",
    "final_y": "549002.619091",
    "longitude": "-90.12183587181177",
    "latitude": "30.004078404369448",
    "geocoded_column": {
      "latitude": "30.004078404369448",
      "longitude": "-90.12183587181177"
    }
  },
  {
    "service_request": "2022-945860",
    "request_type": "Trash/Recycling",
    "request_reason": "Order Trash Cart",
    "date_created": "2022-11-22T13:14:28.000",
    "date_modified": "2022-11-22T13:14:30.000",
    "request_status": "Pending",
    "responsible_agency": "Department of Sanitation",
    "final_address": "4511 Stephen Girard Ave",
    "address_councildis": "D",
    "status": "Assigned to Contractor",
    "contractor": "IV Waste",
    "rowid": "945860",
    "final_x": "3690906.67836",
    "final_y": "550390.956308",
    "longitude": "-90.03769375016789",
    "latitude": "30.007095109389052",
    "geocoded_column": {
      "latitude": "30.007095109389052",
      "longitude": "-90.03769375016789"
    }
  },
  {
    "service_request": "2022-945858",
    "request_type": "Trash/Recycling",
    "request_reason": "Order Trash Cart",
    "date_created": "2022-11-22T13:13:40.000",
    "date_modified": "2022-11-22T13:13:41.000",
    "request_status": "Pending",
    "responsible_agency": "Department of Sanitation",
    "final_address": "4500 Stephen Girard Ave",
    "address_councildis": "D",
    "status": "Assigned to Contractor",
    "contractor": "IV Waste",
    "rowid": "945858",
    "final_x": "3690892.97065",
    "final_y": "550200.693012",
    "longitude": "-90.03774385291085",
    "latitude": "30.006572381488997",
    "geocoded_column": {
      "latitude": "30.006572381488997",
      "longitude": "-90.03774385291085"
    }
  },
  {
    "service_request": "2022-945857",
    "request_type": "Trash/Recycling",
    "request_reason": "Missed Trash Pick-Up",
    "date_created": "2022-11-22T13:09:51.000",
    "date_modified": "2022-11-22T13:09:52.000",
    "request_status": "Pending",
    "responsible_agency": "Department of Sanitation",
    "final_address": "2651 Poydras St",
    "address_councildis": "B",
    "status": "Assigned to Contractor",
    "contractor": "Richards Disposal",
    "rowid": "945857",
    "final_x": "3673793.03764",
    "final_y": "532622.131972",
    "longitude": "-90.0923684825923",
    "latitude": "29.95875792984164",
    "geocoded_column": {
      "latitude": "29.95875792984164",
      "longitude": "-90.0923684825923"
    }
  },
  {
    "service_request": "2022-945856",
    "request_type": "Traffic Signals/Signs/Striping/Streetlights",
    "request_reason": "Street Light Outage/Malfunction",
    "date_created": "2022-11-22T13:09:41.000",
    "date_modified": "2022-11-22T13:09:43.000",
    "request_status": "Pending",
    "responsible_agency": "Department of Public Works",
    "final_address": "5914 General Diaz St",
    "address_councildis": "A",
    "status": "Pending",
    "contractor": "Legacy Professional Services",
    "rowid": "945856",
    "final_x": "3669362.60974",
    "final_y": "546680.300625",
    "longitude": "-90.10588313789094",
    "latitude": "29.99754433272243",
    "geocoded_column": {
      "latitude": "29.99754433272243",
      "longitude": "-90.10588313789094"
    }
  },
  {
    "service_request": "2022-945855",
    "request_type": "Roads/Drainage",
    "request_reason": "WaterMain Break",
    "date_created": "2022-11-22T13:09:40.000",
    "date_modified": "2022-11-22T15:22:37.000",
    "case_close_date": "2022-11-22T09:22:37.000",
    "request_status": "Closed",
    "responsible_agency": "Department of Public Works",
    "final_address": "1000 S Peters St",
    "address_councildis": "B",
    "status": "Referred to External Agency",
    "rowid": "945855",
    "final_x": "3682329.9165",
    "final_y": "526507.410366",
    "longitude": "-90.0656248601228",
    "latitude": "29.94168752696711",
    "geocoded_column": {
      "latitude": "29.94168752696711",
      "longitude": "-90.0656248601228"
    }
  },
  {
    "service_request": "2022-945854",
    "request_type": "Property Maintenance",
    "request_reason": "Property Maintenance",
    "date_created": "2022-11-22T13:05:52.000",
    "date_modified": "2022-11-22T14:50:52.000",
    "case_close_date": "2022-11-22T08:50:52.000",
    "request_status": "Closed",
    "responsible_agency": "Department of Code Enforcement",
    "final_address": "1320 Tennessee St",
    "address_councildis": "E",
    "status": "Referred to Code Enforcement",
    "rowid": "945854",
    "final_x": "3695883.34749",
    "final_y": "535251.742022",
    "longitude": "-90.02251832271844",
    "latitude": "29.965312104971808",
    "geocoded_column": {
      "latitude": "29.965312104971808",
      "longitude": "-90.02251832271844"
    }
  },
  {
    "service_request": "2022-945853",
    "request_type": "Property Maintenance",
    "request_reason": "Property Maintenance",
    "date_created": "2022-11-22T13:05:41.000",
    "date_modified": "2022-11-22T14:56:48.000",
    "case_close_date": "2022-11-22T08:56:48.000",
    "request_status": "Closed",
    "responsible_agency": "Department of Code Enforcement",
    "final_address": "5769 Cameron Blvd",
    "address_councildis": "D",
    "status": "Referred to Code Enforcement",
    "rowid": "945853",
    "final_x": "3682530.48943",
    "final_y": "554648.600408",
    "longitude": "-90.06400738767712",
    "latitude": "30.019059848432168",
    "geocoded_column": {
      "latitude": "30.019059848432168",
      "longitude": "-90.06400738767712"
    }
  },
  {
    "service_request": "2022-945851",
    "request_type": "Roads/Drainage",
    "request_reason": "Accessibility Ramps, Curbs and Sidewalk Repair",
    "date_created": "2022-11-22T13:01:34.000",
    "date_modified": "2022-11-22T13:01:34.000",
    "request_status": "Pending",
    "responsible_agency": "Department of Public Works",
    "final_address": "1310 Constance St",
    "address_councildis": "B",
    "status": "Pending",
    "rowid": "945851",
    "final_x": "3680926.49",
    "final_y": "525106.731581",
    "longitude": "-90.07010451298841",
    "latitude": "29.93787874551656",
    "geocoded_column": {
      "latitude": "29.93787874551656",
      "longitude": "-90.07010451298841"
    }
  },
  {
    "service_request": "2022-945850",
    "request_type": "Trash/Recycling",
    "request_reason": "Missed Trash Pick-Up",
    "date_created": "2022-11-22T12:58:23.000",
    "date_modified": "2022-11-22T12:58:24.000",
    "request_status": "Pending",
    "responsible_agency": "Department of Sanitation",
    "final_address": "200 N Norman C Francis Pkwy, New Orleans, Louisiana, 70119",
    "status": "Assigned to Contractor",
    "rowid": "945850",
    "longitude": "0.0",
    "latitude": "0.0",
    "geocoded_column": {
      "latitude": "0.0",
      "longitude": "0.0"
    }
  },
  {
    "service_request": "2022-945849",
    "request_type": "Abandoned Vehicles",
    "request_reason": "Abandoned/Junk Vehicles",
    "date_created": "2022-11-22T12:51:09.000",
    "date_modified": "2022-11-22T12:51:09.000",
    "request_status": "Pending",
    "responsible_agency": "Department of Public Works",
    "final_address": "2018 S Saratoga St",
    "address_councildis": "B",
    "status": "Pending",
    "rowid": "945849",
    "final_x": "3676928.79253",
    "final_y": "525528.326013",
    "longitude": "-90.08271105547263",
    "latitude": "29.939158570986802",
    "geocoded_column": {
      "latitude": "29.939158570986802",
      "longitude": "-90.08271105547263"
    }
  },
  {
    "service_request": "2022-945848",
    "request_type": "Roads/Drainage",
    "request_reason": "Accessibility Ramps, Curbs and Sidewalk Repair",
    "date_created": "2022-11-22T12:50:16.000",
    "date_modified": "2022-11-22T12:50:16.000",
    "request_status": "Pending",
    "responsible_agency": "Department of Public Works",
    "final_address": "1344 Constance St",
    "address_councildis": "B",
    "status": "Pending",
    "rowid": "945848",
    "final_x": "3680830.06632",
    "final_y": "524719.502204",
    "longitude": "-90.07042240455124",
    "latitude": "29.936816915777733",
    "geocoded_column": {
      "latitude": "29.936816915777733",
      "longitude": "-90.07042240455124"
    }
  },
  {
    "service_request": "2022-945847",
    "request_type": "Abandoned Vehicles",
    "request_reason": "Abandoned/Junk Vehicles",
    "date_created": "2022-11-22T12:50:01.000",
    "date_modified": "2022-11-22T12:50:01.000",
    "request_status": "Pending",
    "responsible_agency": "Department of Public Works",
    "final_address": "2018 S Saratoga St",
    "address_councildis": "B",
    "status": "Pending",
    "rowid": "945847",
    "final_x": "3676928.79253",
    "final_y": "525528.326013",
    "longitude": "-90.08271105547263",
    "latitude": "29.939158570986802",
    "geocoded_column": {
      "latitude": "29.939158570986802",
      "longitude": "-90.08271105547263"
    }
  },
  {
    "service_request": "2022-945846",
    "request_type": "Trash/Recycling",
    "request_reason": "Missed Trash Pick-Up",
    "date_created": "2022-11-22T12:49:47.000",
    "date_modified": "2022-11-22T12:49:48.000",
    "request_status": "Pending",
    "responsible_agency": "Department of Sanitation",
    "final_address": "3537 Republic St",
    "address_councildis": "D",
    "status": "Assigned to Contractor",
    "contractor": "IV Waste",
    "rowid": "945846",
    "final_x": "3680505.59976",
    "final_y": "545487.173648",
    "longitude": "-90.07072430093648",
    "latitude": "29.993930734999136",
    "geocoded_column": {
      "latitude": "29.993930734999136",
      "longitude": "-90.07072430093648"
    }
  },