[
  {
    "service_request": "2025-1174426",
    "request_type": "Streetlights",
    "request_reason": "Streetlight Outage/Malfunction",
    "date_created": "2025-03-10T23:44:30.000",
    "date_modified": "2025-03-10T23:44:31.000",
    "request_status": "Pending",
    "responsible_agency": "Department of Public Works",
    "final_address": "7501 Garnet St",
    "address_councildis": "D",
    "status": "Pending",
    "contractor": "Legacy Professional Services",
    "rowid": "1174426",
    "final_x": "3667479.9794",
    "final_y": "556446.589722",
    "longitude": "-90.11150135791937",
    "latitude": "30.024453526379755",
    "geocoded_column": {
      "latitude": "30.024453526379755",
      "longitude": "-90.11150135791937"
    }
  },
  {
    "service_request": "2025-1174425",
    "request_type": "Abandoned Vehicles",
    "request_reason": "Abandoned/Junk Vehicles",
    "date_created": "2025-03-10T21:50:58.000",
    "date_modified": "2025-03-10T21:51:01.000",
    "request_status": "Pending",
    "responsible_agency": "Department of Public Works",
    "final_address": "824 N Dorgenois St",
    "address_councildis": "D",
    "status": "Pending",
    "rowid": "1174425",
    "final_x": "3677524.26171",
    "final_y": "537027.23348",
    "longitude": "-90.08043413115932",
    "latitude": "29.970758823381004",
    "geocoded_column": {
      "latitude": "29.970758823381004",
      "longitude": "-90.08043413115932"
    }
  },
  {
    "service_request": "2025-1174424",
    "request_type": "Drainage",
    "request_reason": "Drainage Manhole Cover Missing or Damaged",
    "date_created": "2025-03-10T20:51:14.000",
    "date_modified": "2025-03-10T20:51:17.000",
    "request_status": "Pending",
    "responsible_agency": "Sewerage & Water Board ",
    "final_address": "2700 BLK Marengo St",
    "address_councildis": "B",
    "status": "Pending",
    "rowid": "1174424",
    "final_x": "3671552.74774",
    "final_y": "525022.776514",
    "longitude": "-90.099701113173",
    "latitude": "29.937928720381",
    "geocoded_column": {
      "latitude": "29.937928720381",
      "longitude": "-90.099701113173"
    }
  },
  {
    "service_request": "2025-1174423",
    "request_type": "Trash/Recycling",
    "request_reason": "Request a Large Item Pick Up",
    "date_created": "2025-03-10T20:50:29.000",
    "date_modified": "2025-03-10T20:50:32.000",
    "request_status": "Pending",
    "responsible_agency": "Department of Sanitation",
    "final_address": "3306 Delachaise St",
    "address_councildis": "B",
    "status": "Assigned to Contractor",
    "contractor": "IV Waste",
    "rowid": "1174423",
    "final_x": "3671504.92091",
    "final_y": "527134.490367",
    "longitude": "-90.09978033482088",
    "latitude": "29.943736662295535",
    "geocoded_column": {
      "latitude": "29.943736662295535",
      "longitude": "-90.09978033482088"
    }
  },
  {
    "service_request": "2025-1174422",
    "request_type": "Streetlights",
    "request_reason": "Streetlight Outage/Malfunction",
    "date_created": "2025-03-10T20:31:53.000",
    "date_modified": "2025-03-10T20:31:54.000",
    "request_status": "Pending",
    "responsible_agency": "Department of Public Works",
    "final_address": "33 Camellia Trce",
    "address_councildis": "C",
    "status": "Pending",
    "contractor": "Legacy Professional Services",
    "rowid": "1174422",
    "final_x": "3697087.02979",
    "final_y": "523509.041595",
    "longitude": "-90.01914248560087",
    "latitude": "29.932985871413187",
    "geocoded_column": {
      "latitude": "29.932985871413187",
      "longitude": "-90.01914248560087"
    }
  },
  {
    "service_request": "2025-1174421",
    "request_type": "Utility Poles",
    "request_reason": "Utility Pole Leaning",
    "date_created": "2025-03-10T20:28:21.000",
    "date_modified": "2025-03-10T20:28:24.000",
    "request_status": "Pending",
    "responsible_agency": "Utility Company Collective",
    "final_address": "3016 N Roman St",
    "address_councildis": "D",
    "status": "Pending",
    "rowid": "1174421",
    "final_x": "3689226.73865",
    "final_y": "538691.591433",
    "longitude": "-90.04341721208912",
    "latitude": "29.974978189721114",
    "geocoded_column": {
      "latitude": "29.974978189721114",
      "longitude": "-90.04341721208912"
    }
  },
  {
    "service_request": "2025-1174420",
    "request_type": "Trash/Recycling",
    "request_reason": "Request a Large Item Pick Up",
    "date_created": "2025-03-10T20:24:16.000",
    "date_modified": "2025-03-10T20:24:18.000",
    "request_status": "Pending",
    "responsible_agency": "Department of Sanitation",
    "final_address": "2415 Milan St",
    "address_councildis": "B",
    "status": "Assigned to Contractor",
    "contractor": "IV Waste",
    "rowid": "1174420",
    "final_x": "3671342.49793",
    "final_y": "523913.802108",
    "longitude": "-90.10040256341955",
    "latitude": "29.93488562199893",
    "geocoded_column": {
      "latitude": "29.93488562199893",
      "longitude": "-90.10040256341955"
    }
  },
  {
    "service_request": "2025-1174419",
    "request_type": "Property Maintenance",
    "request_reason": "Property Maintenance",
    "date_created": "2025-03-10T20:23:35.000",
    "date_modified": "2025-03-10T20:23:37.000",
    "request_status": "Pending",
    "responsible_agency": "Department of Code Enforcement",
    "final_address": "3026 N Roman St",
    "address_councildis": "D",
    "status": "Pending",
    "rowid": "1174419",
    "final_x": "3689285.25692",
    "final_y": "538674.234761",
    "longitude": "-90.04323301413655",
    "latitude": "29.97492865350749",
    "geocoded_column": {
      "latitude": "29.97492865350749",
      "longitude": "-90.04323301413655"
    }
  },
  {
    "service_request": "2025-1174418",
    "request_type": "Trash/Recycling",
    "request_reason": "Start Trash Service",
    "date_created": "2025-03-10T20:21:40.000",
    "date_modified": "2025-03-10T20:21:43.000",
    "request_status": "Pending",
    "responsible_agency": "Department of Sanitation",
    "final_address": "337 West Robert E Lee Blvd",
    "address_councildis": "A",
    "status": "Assigned to Contractor",
    "contractor": "IV Waste",
    "rowid": "1174418",
    "final_x": "3665206.73325",
    "final_y": "554975.519064",
    "longitude": "-90.1187337167465",
    "latitude": "30.0204750572495",
    "geocoded_column": {
      "latitude": "30.0204750572495",
      "longitude": "-90.1187337167465"
    }
  },
  {
    "service_request": "2025-1174417",
    "request_type": "Trash/Recycling",
    "request_reason": "Request a Large Item Pick Up",
    "date_created": "2025-03-10T20:19:55.000",
    "date_modified": "2025-03-10T20:19:58.000",
    "request_status": "Pending",
    "responsible_agency": "Department of Sanitation",
    "final_address": "5432 N Tonti St",
    "address_councildis": "E",
    "status": "Assigned to Contractor",
    "contractor": "Waste Pro",
    "rowid": "1174417",
    "final_x": "3698710.71248",
    "final_y": "538346.579401",
    "longitude": "-90.01347712230108",
    "latitude": "29.973732557170134",
    "geocoded_column": {
      "latitude": "29.973732557170134",
      "longitude": "-90.01347712230108"
    }
  },
  {
    "service_request": "2025-1174416",
    "request_type": "Trash/Recycling",
    "request_reason": "Request a Large Item Pick Up",
    "date_created": "2025-03-10T19:33:52.000",
    "date_modified": "2025-03-10T19:33:54.000",
    "request_status": "Pending",
    "responsible_agency": "Department of Sanitation",
    "final_address": "11300 S Parkwood Ct",
    "address_councildis": "E",
    "status": "Assigned to Contractor",
    "contractor": "Waste Pro",
    "rowid": "1174416",
    "final_x": "3716924.78373",
    "final_y": "559068.849116",
    "longitude": "-89.95516667639004",
    "latitude": "30.03012129048611",
    "geocoded_column": {
      "latitude": "30.03012129048611",
      "longitude": "-89.95516667639004"
    }
  },
  {
    "service_request": "2025-1174415",
    "request_type": "Trash/Recycling",
    "request_reason": "Request a Large Item Pick Up",
    "date_created": "2025-03-10T19:28:01.000",
    "date_modified": "2025-03-10T19:28:03.000",
    "request_status": "Pending",
    "responsible_agency": "Department of Sanitation",
    "final_address": "8921 Birch St",
    "address_councildis": "A",
    "status": "Assigned to Contractor",
    "contractor": "IV Waste",
    "rowid": "1174415",
    "final_x": "3660726.30112",
    "final_y": "531457.134275",
    "longitude": "-90.13366862215743",
    "latitude": "29.955937212163935",
    "geocoded_column": {
      "latitude": "29.955937212163935",
      "longitude": "-90.13366862215743"
    }
  },
  {
    "service_request": "2025-1174414",
    "request_type": "Parks & Parkways",
    "request_reason": "Tree Stump (removal, grind)",
    "date_created": "2025-03-10T19:23:45.000",
    "date_modified": "2025-03-10T19:23:47.000",
    "request_status": "Pending",
    "responsible_agency": "Department of Parks & Parkway",
    "final_address": "916 Kentucky St",
    "address_councildis": "C",
    "status": "Pending",
    "rowid": "1174414",
    "final_x": "3693112.74845",
    "final_y": "534284.154181",
    "longitude": "-90.03130242100907",
    "latitude": "29.962738438736277",
    "geocoded_column": {
      "latitude": "29.962738438736277",
      "longitude": "-90.03130242100907"
    }
  },
  {
    "service_request": "2025-1174413",
    "request_type": "Trash/Recycling",
    "request_reason": "Request a Large Item Pick Up",
    "date_created": "2025-03-10T19:16:33.000",
    "date_modified": "2025-03-10T19:16:35.000",
    "request_status": "Pending",
    "responsible_agency": "Department of Sanitation",
    "final_address": "2633 Peniston St",
    "address_councildis": "B",
    "status": "Assigned to Contractor",
    "contractor": "IV Waste",
    "rowid": "1174413",
    "final_x": "3672033.39137",
    "final_y": "524887.686716",
    "longitude": "-90.09818827481838",
    "latitude": "29.937543029822546",
    "geocoded_column": {
      "latitude": "29.937543029822546",
      "longitude": "-90.09818827481838"
    }
  },
  {
    "service_request": "2025-1174412",
    "request_type": "Roads and Streets",
    "request_reason": "Pothole",
    "date_created": "2025-03-10T19:09:56.000",
    "date_modified": "2025-03-10T19:09:59.000",
    "request_status": "Pending",
    "responsible_agency": "Department of Public Works",
    "final_address": "227 N Murat St",
    "address_councildis": "A",
    "status": "Pending",
    "rowid": "1174412",
    "final_x": "3670057.87655",
    "final_y": "539987.976011",
    "longitude": "-90.10391363343486",
    "latitude": "29.979122236076297",
    "geocoded_column": {
      "latitude": "29.979122236076297",
      "longitude": "-90.10391363343486"
    }
  },
  {
    "service_request": "2025-1174411",
    "request_type": "Drainage",
    "request_reason": "Catch Basin Clogged",
    "date_created": "2025-03-10T19:02:02.000",
    "date_modified": "2025-03-10T19:02:04.000",
    "request_status": "Pending",
    "responsible_agency": "Sewerage & Water Board ",
    "final_address": "4218 General Ogden St",
    "address_councildis": "A",
    "status": "Pending",
    "rowid": "1174411",
    "final_x": "538293.122953",
    "final_y": "538293.122953",
    "longitude": "-99.97950871700323",
    "latitude": "29.695545697809628",
    "geocoded_column": {
      "latitude": "29.695545697809628",
      "longitude": "-99.97950871700323"
    }
  },
  {
    "service_request": "2025-1174410",
    "request_type": "Trash/Recycling",
    "request_reason": "Illegal Dumping",
    "date_created": "2025-03-10T19:01:03.000",
    "date_modified": "2025-03-10T19:01:05.000",
    "request_status": "Pending",
    "responsible_agency": "Department of Sanitation",
    "final_address": "422 St Maurice Ave",
    "address_councildis": "E",
    "status": "Pending",
    "rowid": "1174410",
    "final_x": "3698923.22116",
    "final_y": "530992.95341",
    "longitude": "-90.01307357277312",
    "latitude": "29.953505979571517",
    "geocoded_column": {
      "latitude": "29.953505979571517",
      "longitude": "-90.01307357277312"
    }
  },
  {
    "service_request": "2025-1174409",
    "request_type": "Trash/Recycling",
    "request_reason": "Order Trash Cart",
    "date_created": "2025-03-10T18:58:06.000",
    "date_modified": "2025-03-10T18:58:09.000",
    "request_status": "Pending",
    "responsible_agency": "Department of Sanitation",
    "final_address": "2633 Peniston St",
    "address_councildis": "B",
    "status": "Assigned to Contractor",
    "contractor": "IV Waste",
    "rowid": "1174409",
    "final_x": "3672033.39137",
    "final_y": "524887.686716",
    "longitude": "-90.09818827481838",
    "latitude": "29.937543029822546",
    "geocoded_column": {
      "latitude": "29.937543029822546",
      "longitude": "-90.09818827481838"
    }
  },
  {
    "service_request": "2025-1174408",
    "request_type": "Trash/Recycling",
    "request_reason": "Order Recycling Cart",
    "date_created": "2025-03-10T18:56:08.000",
    "date_modified": "2025-03-10T18:56:10.000",
    "request_status": "Pending",
    "responsible_agency": "Department of Sanitation",
    "final_address": "2814 Palmer Ave",
    "address_councildis": "A",
    "status": "Pending",
    "rowid": "1174408",
    "final_x": "3666851.50989",
    "final_y": "526969.93011",
    "longitude": "-90.11447798073934",
    "latitude": "29.943421102460675",
    "geocoded_column": {
      "latitude": "29.943421102460675",
      "longitude": "-90.11447798073934"
    }
  },
  {
    "service_request": "2025-1174407",
    "request_type": "Drainage",
    "request_reason": "Street Flooding",
    "date_created": "2025-03-10T18:49:28.000",
    "date_modified": "2025-03-10T18:49:30.000",
    "request_status": "Pending",
    "responsible_agency": "Sewerage & Water Board ",
    "final_address": "1516 Cambronne St",
    "address_councildis": "A",
    "status": "Pending",
    "rowid": "1174407",
    "final_x": "3661959.00877",
    "final_y": "530019.203137",
    "longitude": "-90.12982382833644",
    "latitude": "29.951947820187648",
    "geocoded_column": {
      "latitude": "29.951947820187648",
      "longitude": "-90.12982382833644"
    }
  },
  {
    "service_request": "2025-1174405",
    "request_type": "Traffic Signals",
    "request_reason": "Traffic Signal Malfunctioning or Damaged",
    "date_created": "2025-03-10T18:48:19.000",
    "date_modified": "2025-03-10T18:48:21.000",
    "request_status": "Pending",
    "responsible_agency": "Department of Public Works",
    "final_address": "POLK AVE & WEST END BLVD",
    "address_councildis": "A",
    "status": "Pending",
    "rowid": "1174405",
    "final_x": "3666453.2",
    "final_y": "547537.78",
    "longitude": "-90.11504511338072",
    "latitude": "29.999987481371257",
    "geocoded_column": {
      "latitude": "29.999987481371257",
      "longitude": "-90.11504511338072"
    }
  },
  {
    "service_request": "2025-1174404",
    "request_type": "Abandoned Vehicles",
    "request_reason": "Abandoned/Junk Vehicles",
    "date_created": "2025-03-10T18:47:05.000",
    "date_modified": "2025-03-10T18:47:09.000",
    "request_status": "Pending",
    "responsible_agency": "Department of Public Works",
    "final_address": "4320 Laurel St",
    "address_councildis": "B",
    "status": "Pending",
    "rowid": "1174404",
    "final_x": "3671350.1163",
    "final_y": "518034.747382",
    "longitude": "-90.1005781917341",
    "latitude": "29.918719877746753",
    "geocoded_column": {
      "latitude": "29.918719877746753",
      "longitude": "-90.1005781917341"
    }
  },
  {
    "service_request": "2025-1174402",
    "request_type": "Trash/Recycling",
    "request_reason": "Replace Trash Cart",
    "date_created": "2025-03-10T18:26:23.000",
    "date_modified": "2025-03-10T18:26:26.000",
    "request_status": "Pending",
    "responsible_agency": "Department of Sanitation",
    "final_address": "407 State St",
    "address_councildis": "A",
    "status": "Assigned to Contractor",
    "contractor": "IV Waste",
    "rowid": "1174402",
    "final_x": "3664334.52423",
    "final_y": "517900.514102",
    "longitude": "-90.1227273190627",
    "latitude": "29.918556452656237",
    "geocoded_column": {
      "latitude": "29.918556452656237",
      "longitude": "-90.1227273190627"
    }
  },
  {
    "service_request": "2025-1174401",
    "request_type": "Drainage",
    "request_reason": "Street Flooding",
    "date_created": "2025-03-10T18:16:06.000",
    "date_modified": "2025-03-10T18:16:08.000",
    "request_status": "Pending",
    "responsible_agency": "Sewerage & Water Board ",
    "final_address": "4112 General Ogden St",
    "address_councildis": "A",
    "status": "Pending",
    "rowid": "1174401",
    "final_x": "3666859.10829",
    "final_y": "538012.156617",
    "longitude": "-90.11408302296964",
    "latitude": "29.9737833781642",
    "geocoded_column": {
      "latitude": "29.9737833781642",
      "longitude": "-90.11408302296964"
    }
  },
  {
    "service_request": "2025-1174400",
    "request_type": "Trash/Recycling",
    "request_reason": "Replace Recycling Cart",
    "date_created": "2025-03-10T18:10:03.000",
    "date_modified": "2025-03-10T18:10:05.000",
    "request_status": "Pending",
    "responsible_agency": "Department of Sanitation",
    "final_address": "3052 Royal St",
    "address_councildis": "C",
    "status": "Pending",
    "rowid": "1174400",
    "final_x": "3688452.27203",
    "final_y": "534505.917317",
    "longitude": "-90.04601168612344",
    "latitude": "29.963493002186482",
    "geocoded_column": {
      "latitude": "29.963493002186482",
      "longitude": "-90.04601168612344"
    }
  },
  {
    "service_request": "2025-1174399",
    "request_type": "Street and Traffic Signs",
    "request_reason": "Stop Sign Missing or Damaged",
    "date_created": "2025-03-10T18:08:08.000",
    "date_modified": "2025-03-10T18:08:10.000",
    "request_status": "Pending",
    "responsible_agency": "Department of Public Works",
    "final_address": "1200 BLK Lesseps St",
    "address_councildis": "D",
    "status": "Pending",
    "rowid": "1174399",
    "final_x": "3692836.25045",
    "final_y": "535622.196588",
    "longitude": "-90.03212757906981",
    "latitude": "29.96642622025079",
    "geocoded_column": {
      "latitude": "29.96642622025079",
      "longitude": "-90.03212757906981"
    }
  },
  {
    "service_request": "2025-1174398",
    "request_type": "Roads and Streets",
    "request_reason": "Pothole",
    "date_created": "2025-03-10T18:03:14.000",
    "date_modified": "2025-03-10T18:03:15.000",
    "request_status": "Pending",
    "responsible_agency": "Department of Public Works",
    "final_address": "1412 Euterpe St",
    "address_councildis": "B",
    "status": "Pending",
    "rowid": "1174398",
    "final_x": "3679609.87515",
    "final_y": "524518.854204",
    "longitude": "-90.07428156781218",
    "latitude": "29.936302122826206",
    "geocoded_column": {
      "latitude": "29.936302122826206",
      "longitude": "-90.07428156781218"
    }
  },
  {
    "service_request": "2025-1174397",
    "request_type": "Trash/Recycling",
    "request_reason": "Repair Recycling Cart",
    "date_created": "2025-03-10T18:00:29.000",
    "date_modified": "2025-03-10T18:00:30.000",
    "request_status": "Pending",
    "responsible_agency": "Department of Sanitation",
    "final_address": "1424 Arabella St",
    "address_councildis": "A",
    "status": "Pending",
    "rowid": "1174397",
    "final_x": "3666262.52308",
    "final_y": "521122.607737",
    "longitude": "-90.11653361927125",
    "latitude": "29.927360045598025",
    "geocoded_column": {
      "latitude": "29.927360045598025",
      "longitude": "-90.11653361927125"
    }
  },
  {
    "service_request": "2025-1174396",
    "request_type": "Trash/Recycling",
    "request_reason": "Request a Large Item Pick Up",
    "date_created": "2025-03-10T17:46:53.000",
    "date_modified": "2025-03-10T17:46:55.000",
    "request_status": "Pending",
    "responsible_agency": "Department of Sanitation",
    "final_address": "1007 Gordon St",
    "address_councildis": "E",
    "status": "Assigned to Contractor",
    "contractor": "Waste Pro",
    "rowid": "1174396",
    "final_x": "3699043.09527",
    "final_y": "533081.365252",
    "longitude": "-90.0126190563221",
    "latitude": "29.95924457355358",
    "geocoded_column": {
      "latitude": "29.95924457355358",
      "longitude": "-90.0126190563221"
    }
  },
  {
    "service_request": "2025-1174395",
    "request_type": "Safety & Permits",
    "request_reason": "Construction permit",
    "date_created": "2025-03-10T17:37:28.000",
    "date_modified": "2025-03-10T17:37:29.000",
    "request_status": "Pending",
    "responsible_agency": "Safety and Permits",
    "final_address": "2032 Piety St",
    "address_councildis": "D",
    "status": "Pending",
    "rowid": "1174395",
    "final_x": "3690676.27363",
    "final_y": "539454.82337",
    "longitude": "-90.03881199243361",
    "latitude": "29.977031858341274",
    "geocoded_column": {
      "latitude": "29.977031858341274",
      "longitude": "-90.03881199243361"
    }
  },
  {
    "service_request": "2025-1174394",
    "request_type": "Safety & Permits",
    "request_reason": "Construction permit",
    "date_created": "2025-03-10T17:34:21.000",
    "date_modified": "2025-03-10T17:34:23.000",
    "request_status": "Pending",
    "responsible_agency": "Safety and Permits",
    "final_address": "2032 Piety St",
    "address_councildis": "D",
    "status": "Pending",
    "rowid": "1174394",
    "final_x": "3690676.27363",
    "final_y": "539454.82337",
    "longitude": "-90.03881199243361",
    "latitude": "29.977031858341274",
    "geocoded_column": {
      "latitude": "29.977031858341274",
      "longitude": "-90.03881199243361"
    }
  },
  {
    "service_request": "2025-1174393",
    "request_type": "Abandoned Vehicles",
    "request_reason": "Abandoned/Junk Vehicles",
    "date_created": "2025-03-10T17:25:26.000",
    "date_modified": "2025-03-10T17:25:28.000",
    "request_status": "Pending",
    "responsible_agency": "Department of Public Works",
    "final_address": "502 S Scott St",
    "address_councildis": "B",
    "status": "Pending",
    "rowid": "1174393",
    "final_x": "3670824.25217",
    "final_y": "536445.320263",
    "longitude": "-90.10161339303356",
    "latitude": "29.969358496726638",
    "geocoded_column": {
      "latitude": "29.969358496726638",
      "longitude": "-90.10161339303356"
    }
  },
  {
    "service_request": "2025-1174392",
    "request_type": "Trash/Recycling",
    "request_reason": "Replace Trash Cart",
    "date_created": "2025-03-10T17:22:48.000",
    "date_modified": "2025-03-10T17:22:50.000",
    "request_status": "Pending",
    "responsible_agency": "Department of Sanitation",
    "final_address": "2030 Napoleon Ave",
    "address_councildis": "B",
    "status": "Assigned to Contractor",
    "contractor": "IV Waste",
    "rowid": "1174392",
    "final_x": "3670582.94811",
    "final_y": "522607.154042",
    "longitude": "-90.10284475734016",
    "latitude": "29.931315210844545",
    "geocoded_column": {
      "latitude": "29.931315210844545",
      "longitude": "-90.10284475734016"
    }
  },
  {
    "service_request": "2025-1174391",
    "request_type": "Trash/Recycling",
    "request_reason": "Replace Trash Cart",
    "date_created": "2025-03-10T17:18:55.000",
    "date_modified": "2025-03-10T17:18:56.000",
    "request_status": "Pending",
    "responsible_agency": "Department of Sanitation",
    "final_address": "2719 S Johnson St",
    "address_councildis": "B",
    "status": "Assigned to Contractor",
    "contractor": "IV Waste",
    "rowid": "1174391",
    "final_x": "3672524.54043",
    "final_y": "527995.194751",
    "longitude": "-90.0965317844263",
    "latitude": "29.94607309567279",
    "geocoded_column": {
      "latitude": "29.94607309567279",
      "longitude": "-90.0965317844263"
    }
  },
  {
    "service_request": "2025-1174390",
    "request_type": "Abandoned Vehicles",
    "request_reason": "Abandoned/Junk Vehicles",
    "date_created": "2025-03-10T17:15:39.000",
    "date_modified": "2025-03-10T17:15:41.000",
    "request_status": "Pending",
    "responsible_agency": "Department of Public Works",
    "final_address": "502 S Scott St",
    "address_councildis": "B",
    "status": "Pending",
    "rowid": "1174390",
    "final_x": "3670824.25217",
    "final_y": "536445.320263",
    "longitude": "-90.10161339303356",
    "latitude": "29.969358496726638",
    "geocoded_column": {
      "latitude": "29.969358496726638",
      "longitude": "-90.10161339303356"
    }
  },
  {
    "service_request": "2025-1174389",
    "request_type": "Abandoned Vehicles",
    "request_reason": "Abandoned/Junk Vehicles",
    "date_created": "2025-03-10T17:06:41.000",
    "date_modified": "2025-03-10T17:06:43.000",
    "request_status": "Pending",
    "responsible_agency": "Department of Public Works",
    "final_address": "1951 N Johnson St",
    "address_councildis": "D",
    "status": "Pending",
    "rowid": "1174389",
    "final_x": "3683343.69769",
    "final_y": "539544.726794",
    "longitude": "-90.06196744500079",
    "latitude": "29.977504805880546",
    "geocoded_column": {
      "latitude": "29.977504805880546",
      "longitude": "-90.06196744500079"
    }
  },
  {
    "service_request": "2025-1174388",
    "request_type": "Drainage",
    "request_reason": "Ditch and Culvert Maintenance",
    "date_created": "2025-03-10T16:57:29.000",
    "date_modified": "2025-03-10T16:57:31.000",
    "request_status": "Pending",
    "responsible_agency": "Department of Public Works",
    "final_address": "4730 Pontchartrain Blvd",
    "address_councildis": "A",
    "status": "Pending",
    "rowid": "1174388",
    "final_x": "3667497.33172",
    "final_y": "538483.786121",
    "longitude": "-90.11205149100157",
    "latitude": "29.975061512618705",
    "geocoded_column": {
      "latitude": "29.975061512618705",
      "longitude": "-90.11205149100157"
    }
  },
  {
    "service_request": "2025-1174387",
    "request_type": "Abandoned Vehicles",
    "request_reason": "Abandoned/Junk Vehicles",
    "date_created": "2025-03-10T16:46:18.000",
    "date_modified": "2025-03-10T16:46:20.000",
    "request_status": "Pending",
    "responsible_agency": "Department of Public Works",
    "final_address": "2928 Conti St",
    "address_councildis": "B",
    "status": "Pending",
    "rowid": "1174387",
    "final_x": "3675122.79105",
    "final_y": "536699.680071",
    "longitude": "-90.08802952251453",
    "latitude": "29.969930145987455",
    "geocoded_column": {
      "latitude": "29.969930145987455",
      "longitude": "-90.08802952251453"
    }
  },
  {
    "service_request": "2025-1174386",
    "request_type": "Trash/Recycling",
    "request_reason": "Order Second Trash Cart",
    "date_created": "2025-03-10T16:39:56.000",
    "date_modified": "2025-03-10T16:39:58.000",
    "request_status": "Pending",
    "responsible_agency": "Department of Sanitation",
    "final_address": "1636 Arabella St",
    "address_councildis": "A",
    "status": "Assigned to Contractor",
    "contractor": "IV Waste",
    "rowid": "1174386",
    "final_x": "3666595.36935",
    "final_y": "522424.82841",
    "longitude": "-90.11543921001898",
    "latitude": "29.930931016425568",
    "geocoded_column": {
      "latitude": "29.930931016425568",
      "longitude": "-90.11543921001898"
    }
  },
  {
    "service_request": "2025-1174385",
    "request_type": "Trash/Recycling",
    "request_reason": "Request a Large Item Pick Up",
    "date_created": "2025-03-10T16:38:55.000",
    "date_modified": "2025-03-10T16:46:11.000",
    "request_status": "Pending",
    "responsible_agency": "Department of Sanitation",
    "final_address": "4125 Stephen Girard Ave",
    "address_councildis": "D",
    "status": "Assigned to Contractor",
    "contractor": "IV Waste",
    "rowid": "1174385",
    "final_x": "3689710.97455",
    "final_y": "549826.410644",
    "longitude": "-90.04149140135758",
    "latitude": "30.005579937301693",
    "geocoded_column": {
      "latitude": "30.005579937301693",
      "longitude": "-90.04149140135758"
    }
  },
  {
    "service_request": "2025-1174384",
    "request_type": "Streetlights",
    "request_reason": "Streetlight Outage/Malfunction",
    "date_created": "2025-03-10T16:35:53.000",
    "date_modified": "2025-03-10T16:35:54.000",
    "request_status": "Pending",
    "responsible_agency": "Department of Public Works",
    "final_address": "7240 E Tamaron Blvd",
    "address_councildis": "E",
    "status": "Pending",
    "contractor": "Legacy Professional Services",
    "rowid": "1174384",
    "final_x": "3717916.79289",
    "final_y": "569695.779494",
    "longitude": "-89.95162702840578",
    "latitude": "30.059308163000818",
    "geocoded_column": {
      "latitude": "30.059308163000818",
      "longitude": "-89.95162702840578"
    }
  },
  {
    "service_request": "2025-1174383",
    "request_type": "Trash/Recycling",
    "request_reason": "Request a Large Item Pick Up",
    "date_created": "2025-03-10T16:34:36.000",
    "date_modified": "2025-03-10T16:34:39.000",
    "request_status": "Pending",
    "responsible_agency": "Department of Sanitation",
    "final_address": "7160 Yorktown Dr",
    "address_councildis": "E",
    "status": "Assigned to Contractor",
    "contractor": "Waste Pro",
    "rowid": "1174383",
    "final_x": "3705822.20932",
    "final_y": "561149.013022",
    "longitude": "-89.99017349912816",
    "latitude": "30.03620342731933",
    "geocoded_column": {
      "latitude": "30.03620342731933",
      "longitude": "-89.99017349912816"
    }
  },
  {
    "service_request": "2025-1174382",
    "request_type": "Utility Poles",
    "request_reason": "Utility Pole Leaning",
    "date_created": "2025-03-10T16:32:18.000",
    "date_modified": "2025-03-10T16:32:21.000",
    "request_status": "Pending",
    "responsible_agency": "Utility Company Collective",
    "final_address": "1100 Ursulines Ave",
    "address_councildis": "C",
    "status": "Pending",
    "rowid": "1174382",
    "final_x": "3682179.14056",
    "final_y": "534564.952005",
    "longitude": "-90.06581948385016",
    "latitude": "29.963847623896793",
    "geocoded_column": {
      "latitude": "29.963847623896793",
      "longitude": "-90.06581948385016"
    }
  },
  {
    "service_request": "2025-1174381",
    "request_type": "Streetlights",
    "request_reason": "Streetlight Outage/Malfunction",
    "date_created": "2025-03-10T16:30:19.000",
    "date_modified": "2025-03-10T16:30:20.000",
    "request_status": "Pending",
    "responsible_agency": "Department of Public Works",
    "status": "Pending",
    "contractor": "Legacy Professional Services",
    "rowid": "1174381",
    "longitude": "0.0",
    "latitude": "0.0",
    "geocoded_column": {
      "latitude": "0.0",
      "longitude": "0.0"
    }
  },
  {
    "service_request": "2025-1174380",
    "request_type": "Trash/Recycling",
    "request_reason": "Request a Large Item Pick Up",
    "date_created": "2025-03-10T16:29:57.000",
    "date_modified": "2025-03-10T16:29:59.000",
    "request_status": "Pending",
    "responsible_agency": "Department of Sanitation",
    "final_address": "10940 Harrow Rd",
    "address_councildis": "E",
    "status": "Assigned to Contractor",
    "contractor": "Waste Pro",
    "rowid": "1174380",
    "final_x": "3711778.88235",
    "final_y": "563817.623201",
    "longitude": "-89.97124919197346",
    "latitude": "30.043347700071017",
    "geocoded_column": {
      "latitude": "30.043347700071017",
      "longitude": "-89.97124919197346"
    }
  },
  {
    "service_request": "2025-1174379",
    "request_type": "Streetlights",
    "request_reason": "Streetlight Outage/Malfunction",
    "date_created": "2025-03-10T16:29:25.000",
    "date_modified": "2025-03-10T16:29:26.000",
    "request_status": "Pending",
    "responsible_agency": "Department of Public Works",
    "status": "Pending",
    "contractor": "Legacy Professional Services",
    "rowid": "1174379",
    "longitude": "0.0",
    "latitude": "0.0",
    "geocoded_column": {
      "latitude": "0.0",
      "longitude": "0.0"
    }
  },
  {
    "service_request": "2025-1174378",
    "request_type": "Trash/Recycling",
    "request_reason": "Replace Trash Cart",
    "date_created": "2025-03-10T16:28:46.000",
    "date_modified": "2025-03-10T16:29:03.000",
    "request_status": "Pending",
    "responsible_agency": "Department of Sanitation",
    "final_address": "3906 Iroquois St",
    "address_councildis": "D",
    "status": "Assigned to Contractor",
    "contractor": "IV Waste",
    "rowid": "1174378",
    "final_x": "3689117.92047",
    "final_y": "547618.712466",
    "longitude": "-90.04344350143077",
    "latitude": "29.999527943321876",
    "geocoded_column": {
      "latitude": "29.999527943321876",
      "longitude": "-90.04344350143077"
    }
  },
  {
    "service_request": "2025-1174377",
    "request_type": "Trash/Recycling",
    "request_reason": "Request a Large Item Pick Up",
    "date_created": "2025-03-10T16:27:41.000",
    "date_modified": "2025-03-10T16:27:43.000",
    "request_status": "Pending",
    "responsible_agency": "Department of Sanitation",
    "final_address": "1211 S Clark St",
    "address_councildis": "B",
    "status": "Assigned to Contractor",
    "contractor": "IV Waste",
    "rowid": "1174377",
    "final_x": "3669671.28327",
    "final_y": "532563.53178",
    "longitude": "-90.1053859442902",
    "latitude": "29.95871889808498",
    "geocoded_column": {
      "latitude": "29.95871889808498",
      "longitude": "-90.1053859442902"
    }
  },
  {
    "service_request": "2025-1174376",
    "request_type": "Trash/Recycling",
    "request_reason": "Repair Recycling Cart",
    "date_created": "2025-03-10T16:26:23.000",
    "date_modified": "2025-03-10T16:26:32.000",
    "request_status": "Pending",
    "responsible_agency": "Department of Sanitation",
    "final_address": "11412 Campbell Ln",
    "address_councildis": "E",
    "status": "Pending",
    "rowid": "1174376",
    "final_x": "3718003.88178",
    "final_y": "561318.794974",
    "longitude": "-89.95167103494012",
    "latitude": "30.036272002757624",
    "geocoded_column": {
      "latitude": "30.036272002757624",
      "longitude": "-89.95167103494012"
    }
  },
  {
    "service_request": "2025-1174375",
    "request_type": "Trash/Recycling",
    "request_reason": "Request a Large Item Pick Up",
    "date_created": "2025-03-10T16:26:14.000",
    "date_modified": "2025-03-10T16:26:16.000",
    "request_status": "Pending",
    "responsible_agency": "Department of Sanitation",
    "final_address": "4432 Carondelet St",
    "address_councildis": "B",
    "status": "Assigned to Contractor",
    "contractor": "IV Waste",
    "rowid": "1174375",
    "final_x": "3670522.76123",
    "final_y": "521137.070841",
    "longitude": "-90.10308458771543",
    "latitude": "29.92727472993611",
    "geocoded_column": {
      "latitude": "29.92727472993611",
      "longitude": "-90.10308458771543"
    }
  },
  {
    "service_request": "2025-1174374",
    "request_type": "Trash/Recycling",
    "request_reason": "Request a Large Item Pick Up",
    "date_created": "2025-03-10T16:24:54.000",
    "date_modified": "2025-03-10T16:24:56.000",
    "request_status": "Pending",
    "responsible_agency": "Department of Sanitation",
    "final_address": "7643 Marquis St",
    "address_councildis": "E",
    "status": "Assigned to Contractor",
    "contractor": "Waste Pro",
    "rowid": "1174374",
    "final_x": "3711274.03851",
    "final_y": "566299.420579",
    "longitude": "-89.9727515609813",
    "latitude": "30.050188132844294",
    "geocoded_column": {
      "latitude": "30.050188132844294",
      "longitude": "-89.9727515609813"
    }
  },
  {
    "service_request": "2025-1174373",
    "request_type": "Roads and Streets",
    "request_reason": "Sidewalk Damaged or Missing",
    "date_created": "2025-03-10T16:23:42.000",
    "date_modified": "2025-03-10T16:23:45.000",
    "request_status": "Pending",
    "responsible_agency": "Department of Public Works",
    "final_address": "2731 N Robertson St",
    "address_councildis": "C",
    "status": "Pending",
    "rowid": "1174373",
    "final_x": "3688063.40099",
    "final_y": "537844.989257",
    "longitude": "-90.04712133420361",
    "latitude": "29.972686290102963",
    "geocoded_column": {
      "latitude": "29.972686290102963",
      "longitude": "-90.04712133420361"
    }
  },
  {
    "service_request": "2025-1174372",
    "request_type": "Roads and Streets",
    "request_reason": "Curb Damage",
    "date_created": "2025-03-10T16:23:07.000",
    "date_modified": "2025-03-10T16:23:09.000",
    "request_status": "Pending",
    "responsible_agency": "Department of Public Works",
    "final_address": "2731 N Robertson St",
    "address_councildis": "C",
    "status": "Pending",
    "rowid": "1174372",
    "final_x": "3688063.40099",
    "final_y": "537844.989257",
    "longitude": "-90.04712133420361",
    "latitude": "29.972686290102963",
    "geocoded_column": {
      "latitude": "29.972686290102963",
      "longitude": "-90.04712133420361"
    }
  },
  {
    "service_request": "2025-1174371",
    "request_type": "Trash/Recycling",
    "request_reason": "Request a Large Item Pick Up",
    "date_created": "2025-03-10T16:20:54.000",
    "date_modified": "2025-03-10T16:20:56.000",
    "request_status": "Pending",
    "responsible_agency": "Department of Sanitation",
    "final_address": "1015 Touro St",
    "address_councildis": "C",
    "status": "Assigned to Contractor",
    "contractor": "IV Waste",
    "rowid": "1174371",
    "final_x": "3684277.86933",
    "final_y": "536021.748807",
    "longitude": "-90.05914075232619",
    "latitude": "29.967789309326708",
    "geocoded_column": {
      "latitude": "29.967789309326708",
      "longitude": "-90.05914075232619"
    }
  },
  {
    "service_request": "2025-1174370",
    "request_type": "Traffic Signals",
    "request_reason": "Traffic Signal Malfunctioning or Damaged",
    "date_created": "2025-03-10T16:19:56.000",
    "date_modified": "2025-03-10T16:19:58.000",
    "request_status": "Pending",
    "responsible_agency": "Department of Public Works",
    "final_address": "GRAVIER ST & OKEEFE AVE",
    "address_councildis": "B",
    "status": "Pending",
    "rowid": "1174370",
    "final_x": "3679777.7",
    "final_y": "530544.38",
    "longitude": "-90.07354259400458",
    "latitude": "29.952865237498823",
    "geocoded_column": {
      "latitude": "29.952865237498823",
      "longitude": "-90.07354259400458"
    }
  },
  {
    "service_request": "2025-1174369",
    "request_type": "Trash/Recycling",
    "request_reason": "Request a Large Item Pick Up",
    "date_created": "2025-03-10T16:19:28.000",
    "date_modified": "2025-03-10T16:19:30.000",
    "request_status": "Pending",
    "responsible_agency": "Department of Sanitation",
    "final_address": "9114 Dixon St",
    "address_councildis": "A",
    "status": "Assigned to Contractor",
    "contractor": "IV Waste",
    "rowid": "1174369",
    "final_x": "3665700.1634",
    "final_y": "537903.008713",
    "longitude": "-90.11774689600438",
    "latitude": "29.97351711554177",
    "geocoded_column": {
      "latitude": "29.97351711554177",
      "longitude": "-90.11774689600438"
    }
  },
  {
    "service_request": "2025-1174368",
    "request_type": "Trash/Recycling",
    "request_reason": "Request a Large Item Pick Up",
    "date_created": "2025-03-10T16:16:29.000",
    "date_modified": "2025-03-10T16:16:30.000",
    "request_status": "Pending",
    "responsible_agency": "Department of Sanitation",
    "final_address": "11414 S St Andrews Cir",
    "address_councildis": "E",
    "status": "Assigned to Contractor",
    "contractor": "Waste Pro",
    "rowid": "1174368",
    "final_x": "3719621.64428",
    "final_y": "559403.849245",
    "longitude": "-89.9466318876631",
    "latitude": "30.03095294136438",
    "geocoded_column": {
      "latitude": "30.03095294136438",
      "longitude": "-89.9466318876631"
    }
  },
  {
    "service_request": "2025-1174367",
    "request_type": "Abandoned Vehicles",
    "request_reason": "Abandoned/Junk Vehicles",
    "date_created": "2025-03-10T16:16:26.000",
    "date_modified": "2025-03-10T16:16:28.000",
    "request_status": "Pending",
    "responsible_agency": "Department of Public Works",
    "final_address": "1807 Baronne St",
    "address_councildis": "B",
    "status": "Pending",
    "rowid": "1174367",
    "final_x": "3677797.3524",
    "final_y": "525141.087165",
    "longitude": "-90.0799822766055",
    "latitude": "29.938067696756594",
    "geocoded_column": {
      "latitude": "29.938067696756594",
      "longitude": "-90.0799822766055"
    }
  },
  {
    "service_request": "2025-1174366",
    "request_type": "Drainage",
    "request_reason": "Drainage Manhole Cover Missing or Damaged",
    "date_created": "2025-03-10T16:11:32.000",
    "date_modified": "2025-03-10T16:11:34.000",
    "request_status": "Pending",
    "responsible_agency": "Sewerage & Water Board ",
    "final_address": "454 Aurora Oaks Dr",
    "address_councildis": "C",
    "status": "Pending",
    "rowid": "1174366",
    "final_x": "3701370.40663",
    "final_y": "521826.181178",
    "longitude": "-90.00568182329543",
    "latitude": "29.928222811019996",
    "geocoded_column": {
      "latitude": "29.928222811019996",
      "longitude": "-90.00568182329543"
    }
  },
  {
    "service_request": "2025-1174365",
    "request_type": "Trash/Recycling",
    "request_reason": "Order Recycling Cart",
    "date_created": "2025-03-10T16:11:08.000",
    "date_modified": "2025-03-10T16:11:10.000",
    "request_status": "Pending",
    "responsible_agency": "Department of Sanitation",
    "final_address": "1642 Bartholomew St",
    "address_councildis": "D",
    "status": "Pending",
    "rowid": "1174365",
    "final_x": "3692317.92483",
    "final_y": "537528.340168",
    "longitude": "-90.03369616217108",
    "latitude": "29.971683615651592",
    "geocoded_column": {
      "latitude": "29.971683615651592",
      "longitude": "-90.03369616217108"
    }
  },
  {
    "service_request": "2025-1174364",
    "request_type": "Healthy Homes",
    "request_reason": "Healthy Homes",
    "date_created": "2025-03-10T16:10:52.000",
    "date_modified": "2025-03-10T16:10:54.000",
    "request_status": "Pending",
    "responsible_agency": "Department of Code Enforcement",
    "final_address": "1809 Adams St",
    "address_councildis": "A",
    "status": "Pending",
    "rowid": "1174364",
    "final_x": "3664561.55136",
    "final_y": "528982.202432",
    "longitude": "-90.121640817808",
    "latitude": "29.949020983982134",
    "geocoded_column": {
      "latitude": "29.949020983982134",
      "longitude": "-90.121640817808"
    }
  },
  {
    "service_request": "2025-1174363",
    "request_type": "Trash/Recycling",
    "request_reason": "Repair Trash Cart",
    "date_created": "2025-03-10T16:09:44.000",
    "date_modified": "2025-03-10T16:09:46.000",
    "request_status": "Pending",
    "responsible_agency": "Department of Sanitation",
    "final_address": "4311 S Carrollton Ave",
    "address_councildis": "A",
    "status": "Assigned to Contractor",
    "contractor": "IV Waste",
    "rowid": "1174363",
    "final_x": "3669791.6562",
    "final_y": "536982.737992",
    "longitude": "-90.1048562253452",
    "latitude": "29.970866695870093",
    "geocoded_column": {
      "latitude": "29.970866695870093",
      "longitude": "-90.1048562253452"
    }
  },
  {
    "service_request": "2025-1174362",
    "request_type": "Mosquito, Termite & Rodent Control",
    "request_reason": "Mosquito Complaint",
    "date_created": "2025-03-10T16:09:37.000",
    "date_modified": "2025-03-10T16:09:39.000",
    "request_status": "Pending",
    "responsible_agency": "Mosquito, Termite & Rodent Control Board",
    "final_address": "1208 Louisa St",
    "address_councildis": "C",
    "status": "Pending",
    "rowid": "1174362",
    "final_x": "3689634.39708",
    "final_y": "536307.329927",
    "longitude": "-90.04221457456592",
    "latitude": "29.968409685591183",
    "geocoded_column": {
      "latitude": "29.968409685591183",
      "longitude": "-90.04221457456592"
    }
  },
  {
    "service_request": "2025-1174361",
    "request_type": "Abandoned Vehicles",
    "request_reason": "Abandoned/Junk Vehicles",
    "date_created": "2025-03-10T16:08:57.000",
    "date_modified": "2025-03-10T16:08:59.000",
    "request_status": "Pending",
    "responsible_agency": "Department of Public Works",
    "final_address": "1808 Fourth St",
    "address_councildis": "B",
    "status": "Pending",
    "rowid": "1174361",
    "final_x": "3675697.1115",
    "final_y": "523371.642299",
    "longitude": "-90.08667370834384",
    "latitude": "29.933265302777222",
    "geocoded_column": {
      "latitude": "29.933265302777222",
      "longitude": "-90.08667370834384"
    }
  },
  {
    "service_request": "2025-1174360",
    "request_type": "Mosquito, Termite & Rodent Control",
    "request_reason": "Rodent Complaint (Rats)",
    "date_created": "2025-03-10T16:06:52.000",
    "date_modified": "2025-03-10T16:06:55.000",
    "request_status": "Pending",
    "responsible_agency": "Mosquito, Termite & Rodent Control Board",
    "final_address": "14813 Emory Rd",
    "address_councildis": "E",
    "status": "Pending",
    "rowid": "1174360",
    "final_x": "3720584.35359",
    "final_y": "573899.878314",
    "longitude": "-89.94303393337663",
    "latitude": "30.070778951509556",
    "geocoded_column": {
      "latitude": "30.070778951509556",
      "longitude": "-89.94303393337663"
    }
  },
  {
    "service_request": "2025-1174359",
    "request_type": "Trash/Recycling",
    "request_reason": "Missed Trash Pick-Up",
    "date_created": "2025-03-10T16:04:39.000",
    "date_modified": "2025-03-10T16:04:42.000",
    "request_status": "Pending",
    "responsible_agency": "Department of Sanitation",
    "final_address": "4355 General Meyer Ave",
    "address_councildis": "C",
    "status": "Assigned to Contractor",
    "contractor": "Richards Disposal",
    "rowid": "1174359",
    "final_x": "3699953.95274",
    "final_y": "524186.90854",
    "longitude": "-90.01006716171995",
    "latitude": "29.934759046262933",
    "geocoded_column": {
      "latitude": "29.934759046262933",
      "longitude": "-90.01006716171995"
    }
  },
  {
    "service_request": "2025-1174358",
    "request_type": "Drainage",
    "request_reason": "Drainage Manhole Cover Missing or Damaged",
    "date_created": "2025-03-10T16:02:40.000",
    "date_modified": "2025-03-10T16:02:41.000",
    "request_status": "Pending",
    "responsible_agency": "Sewerage & Water Board ",
    "final_address": "454 Aurora Oaks Dr",
    "address_councildis": "C",
    "status": "Pending",
    "rowid": "1174358",
    "final_x": "3701370.40663",
    "final_y": "521826.181178",
    "longitude": "-90.00568182329543",
    "latitude": "29.928222811019996",
    "geocoded_column": {
      "latitude": "29.928222811019996",
      "longitude": "-90.00568182329543"
    }
  },
  {
    "service_request": "2025-1174357",
    "request_type": "Trash/Recycling",
    "request_reason": "Repair Trash Cart",
    "date_created": "2025-03-10T16:02:34.000",
    "date_modified": "2025-03-10T16:02:35.000",
    "request_status": "Pending",
    "responsible_agency": "Department of Sanitation",
    "final_address": "5743 Tullis Dr Apt D",
    "address_councildis": "C",
    "status": "Assigned to Contractor",
    "contractor": "Richards Disposal",
    "rowid": "1174357",
    "final_x": "3705375.4355",
    "final_y": "512666.880497",
    "longitude": "-89.99337706289766",
    "latitude": "29.902909688132926",
    "geocoded_column": {
      "latitude": "29.902909688132926",
      "longitude": "-89.99337706289766"
    }
  },
  {
    "service_request": "2025-1174356",
    "request_type": "Trash/Recycling",
    "request_reason": "Order Recycling Cart",
    "date_created": "2025-03-10T16:02:33.000",
    "date_modified": "2025-03-10T16:02:35.000",
    "request_status": "Pending",
    "responsible_agency": "Department of Sanitation",
    "final_address": "2257 Carondelet St",
    "address_councildis": "B",
    "status": "Pending",
    "rowid": "1174356",
    "final_x": "3676946.78216",
    "final_y": "523751.035835",
    "longitude": "-90.0827155021044",
    "latitude": "29.934271066483923",
    "geocoded_column": {
      "latitude": "29.934271066483923",
      "longitude": "-90.0827155021044"
    }
  },
  {
    "service_request": "2025-1174355",
    "request_type": "Trash/Recycling",
    "request_reason": "Request a Large Item Pick Up",
    "date_created": "2025-03-10T16:02:04.000",
    "date_modified": "2025-03-10T16:02:06.000",
    "request_status": "Pending",
    "responsible_agency": "Department of Sanitation",
    "final_address": "83 Flamingo St",
    "address_councildis": "D",
    "status": "Assigned to Contractor",
    "contractor": "IV Waste",
    "rowid": "1174355",
    "final_x": "3674377.46312",
    "final_y": "555896.071641",
    "longitude": "-90.08972537577131",
    "latitude": "30.022735763159798",
    "geocoded_column": {
      "latitude": "30.022735763159798",
      "longitude": "-90.08972537577131"
    }
  },
  {
    "service_request": "2025-1174354",
    "request_type": "Trash/Recycling",
    "request_reason": "Repair Trash Cart",
    "date_created": "2025-03-10T16:01:31.000",
    "date_modified": "2025-03-10T16:01:34.000",
    "request_status": "Pending",
    "responsible_agency": "Department of Sanitation",
    "final_address": "5743 Tullis Dr Apt C",
    "address_councildis": "C",
    "status": "Assigned to Contractor",
    "contractor": "Richards Disposal",
    "rowid": "1174354",
    "final_x": "3705364.32439",
    "final_y": "512677.297137",
    "longitude": "-89.9934117445894",
    "latitude": "29.902938687617027",
    "geocoded_column": {
      "latitude": "29.902938687617027",
      "longitude": "-89.9934117445894"
    }
  },
  {
    "service_request": "2025-1174353",
    "request_type": "Trash/Recycling",
    "request_reason": "Request a Large Item Pick Up",
    "date_created": "2025-03-10T16:00:36.000",
    "date_modified": "2025-03-10T16:00:40.000",
    "request_status": "Pending",
    "responsible_agency": "Department of Sanitation",
    "final_address": "29 Christopher Ct",
    "address_councildis": "E",
    "status": "Assigned to Contractor",
    "contractor": "Waste Pro",
    "rowid": "1174353",
    "final_x": "3716375.96056",
    "final_y": "570075.287463",
    "longitude": "-89.95648301674474",
    "latitude": "30.060402650545566",
    "geocoded_column": {
      "latitude": "30.060402650545566",
      "longitude": "-89.95648301674474"
    }
  },
  {
    "service_request": "2025-1174351",
    "request_type": "Trash/Recycling",
    "request_reason": "Order Recycling Cart",
    "date_created": "2025-03-10T16:00:32.000",
    "date_modified": "2025-03-10T16:00:33.000",
    "request_status": "Pending",
    "responsible_agency": "Department of Sanitation",
    "final_address": "1513 Monroe St",
    "address_councildis": "A",
    "status": "Pending",
    "rowid": "1174351",
    "final_x": "3661203.94854",
    "final_y": "530653.547202",
    "longitude": "-90.13218696818693",
    "latitude": "29.953713847386627",
    "geocoded_column": {
      "latitude": "29.953713847386627",
      "longitude": "-90.13218696818693"
    }
  },
  {
    "service_request": "2025-1174352",
    "request_type": "Trash/Recycling",
    "request_reason": "Order Recycling Cart",
    "date_created": "2025-03-10T16:00:32.000",
    "date_modified": "2025-03-10T16:00:34.000",
    "request_status": "Pending",
    "responsible_agency": "Department of Sanitation",
    "final_address": "1513 Monroe St",
    "address_councildis": "A",
    "status": "Pending",
    "rowid": "1174352",
    "final_x": "3661203.94854",
    "final_y": "530653.547202",
    "longitude": "-90.13218696818693",
    "latitude": "29.953713847386627",
    "geocoded_column": {
      "latitude": "29.953713847386627",
      "longitude": "-90.13218696818693"
    }
  },
  {
    "service_request": "2025-1174350",
    "request_type": "Trash/Recycling",
    "request_reason": "Repair Trash Cart",
    "date_created": "2025-03-10T15:58:46.000",
    "date_modified": "2025-03-10T15:58:50.000",
    "request_status": "Pending",
    "responsible_agency": "Department of Sanitation",
    "final_address": "5743 Tullis Dr Apt B",
    "address_councildis": "C",
    "status": "Assigned to Contractor",
    "contractor": "Richards Disposal",
    "rowid": "1174350",
    "final_x": "3705354.60215",
    "final_y": "512687.713777",
    "longitude": "-89.99344204309287",
    "latitude": "29.902967642435087",
    "geocoded_column": {
      "latitude": "29.902967642435087",
      "longitude": "-89.99344204309287"
    }
  },
  {
    "service_request": "2025-1174349",
    "request_type": "Trash/Recycling",
    "request_reason": "Replace Trash Cart",
    "date_created": "2025-03-10T15:57:38.000",
    "date_modified": "2025-03-10T15:57:40.000",
    "request_status": "Pending",
    "responsible_agency": "Department of Sanitation",
    "final_address": "6013 Tullis Dr",
    "address_councildis": "C",
    "status": "Assigned to Contractor",
    "contractor": "Richards Disposal",
    "rowid": "1174349",
    "final_x": "3706658.16017",
    "final_y": "513803.06853",
    "longitude": "-89.98928678787767",
    "latitude": "29.905992508069733",
    "geocoded_column": {
      "latitude": "29.905992508069733",
      "longitude": "-89.98928678787767"
    }
  },
  {
    "service_request": "2025-1174348",
    "request_type": "Trash/Recycling",
    "request_reason": "Replace Trash Cart",
    "date_created": "2025-03-10T15:56:53.000",
    "date_modified": "2025-03-10T15:56:55.000",
    "request_status": "Pending",
    "responsible_agency": "Department of Sanitation",
    "final_address": "6015 Tullis Dr",
    "address_councildis": "C",
    "status": "Assigned to Contractor",
    "contractor": "Richards Disposal",
    "rowid": "1174348",
    "final_x": "3706667.30519",
    "final_y": "513793.265138",
    "longitude": "-89.98925828869152",
    "latitude": "29.90596525714447",
    "geocoded_column": {
      "latitude": "29.90596525714447",
      "longitude": "-89.98925828869152"
    }
  },
  {
    "service_request": "2025-1174347",
    "request_type": "Trash/Recycling",
    "request_reason": "Replace Trash Cart",
    "date_created": "2025-03-10T15:55:39.000",
    "date_modified": "2025-03-10T15:55:42.000",
    "request_status": "Pending",
    "responsible_agency": "Department of Sanitation",
    "final_address": "6011 Tullis Dr",
    "address_councildis": "C",
    "status": "Assigned to Contractor",
    "contractor": "Richards Disposal",
    "rowid": "1174347",
    "final_x": "3706644.79991",
    "final_y": "513818.879794",
    "longitude": "-89.98932836817526",
    "latitude": "29.906036414527946",
    "geocoded_column": {
      "latitude": "29.906036414527946",
      "longitude": "-89.98932836817526"
    }
  },
  {
    "service_request": "2025-1174346",
    "request_type": "Trash/Recycling",
    "request_reason": "Repair Trash Cart",
    "date_created": "2025-03-10T15:54:17.000",
    "date_modified": "2025-03-10T15:54:18.000",
    "request_status": "Pending",
    "responsible_agency": "Department of Sanitation",
    "final_address": "5743 Tullis Dr Apt A",
    "address_councildis": "C",
    "status": "Assigned to Contractor",
    "contractor": "Richards Disposal",
    "rowid": "1174346",
    "final_x": "3705343.01943",
    "final_y": "512702.926065",
    "longitude": "-89.99347803622717",
    "latitude": "29.90300984346366",
    "geocoded_column": {
      "latitude": "29.90300984346366",
      "longitude": "-89.99347803622717"
    }
  },
  {
    "service_request": "2025-1174345",
    "request_type": "Streetlights",
    "request_reason": "Streetlight Knocked Down/Leaning",
    "date_created": "2025-03-10T15:53:34.000",
    "date_modified": "2025-03-10T15:53:35.000",
    "request_status": "Pending",
    "responsible_agency": "Department of Public Works",
    "final_address": "779 Jewel St",
    "address_councildis": "D",
    "status": "Pending",
    "contractor": "Legacy Professional Services",
    "rowid": "1174345",
    "final_x": "3670070.24654",
    "final_y": "555970.642905",
    "longitude": "-90.10333269267107",
    "latitude": "30.023068642104892",
    "geocoded_column": {
      "latitude": "30.023068642104892",
      "longitude": "-90.10333269267107"
    }
  },
  {
    "service_request": "2025-1174344",
    "request_type": "Trash/Recycling",
    "request_reason": "Request a Large Item Pick Up",
    "date_created": "2025-03-10T15:52:53.000",
    "date_modified": "2025-03-10T20:08:44.000",
    "case_close_date": "2025-03-10T15:08:43.000",
    "request_status": "Closed",
    "responsible_agency": "Department of Sanitation",
    "final_address": "5918 Babylon St",
    "address_councildis": "D",
    "status": "Duplicate Request",
    "contractor": "Waste Pro",
    "contractor_action": "Duplicate",
    "rowid": "1174344",
    "final_x": "3695927.19568",
    "final_y": "555141.864473",
    "longitude": "-90.02166082920172",
    "latitude": "30.020001276475117",
    "geocoded_column": {
      "latitude": "30.020001276475117",
      "longitude": "-90.02166082920172"
    }
  },
  {
    "service_request": "2025-1174343",
    "request_type": "Trash/Recycling",
    "request_reason": "Replace Trash Cart",
    "date_created": "2025-03-10T15:51:58.000",
    "date_modified": "2025-03-10T15:52:00.000",
    "request_status": "Pending",
    "responsible_agency": "Department of Sanitation",
    "final_address": "6009 Tullis Dr",
    "address_councildis": "C",
    "status": "Assigned to Contractor",
    "contractor": "Richards Disposal",
    "rowid": "1174343",
    "final_x": "3706636.11204",
    "final_y": "513830.023346",
    "longitude": "-89.98935537500263",
    "latitude": "29.90606733567459",
    "geocoded_column": {
      "latitude": "29.90606733567459",
      "longitude": "-89.98935537500263"
    }
  },
  {
    "service_request": "2025-1174342",
    "request_type": "Trash/Recycling",
    "request_reason": "Damaged Caused By Contractor",
    "date_created": "2025-03-10T15:51:42.000",
    "date_modified": "2025-03-10T15:51:45.000",
    "request_status": "Pending",
    "responsible_agency": "Department of Sanitation",
    "final_address": "3056 Royal St",
    "address_councildis": "C",
    "status": "Assigned to Contractor",
    "contractor": "IV Waste",
    "rowid": "1174342",
    "final_x": "3688492.65417",
    "final_y": "534511.168837",
    "longitude": "-90.04588397767795",
    "latitude": "29.963506194504788",
    "geocoded_column": {
      "latitude": "29.963506194504788",
      "longitude": "-90.04588397767795"
    }
  },
  {
    "service_request": "2025-1174341",
    "request_type": "Abandoned Vehicles",
    "request_reason": "Abandoned/Junk Vehicles",
    "date_created": "2025-03-10T15:51:07.000",
    "date_modified": "2025-03-10T15:54:40.000",
    "request_status": "Pending",
    "responsible_agency": "Department of Public Works",
    "final_address": "4411 Alba Rd",
    "address_councildis": "E",
    "status": "Pending",
    "rowid": "1174341",
    "final_x": "3761708.64387",
    "final_y": "572974.236329",
    "longitude": "-89.81307043483993",
    "latitude": "30.066797726621093",
    "geocoded_column": {
      "latitude": "30.066797726621093",
      "longitude": "-89.81307043483993"
    }
  },
  {
    "service_request": "2025-1174340",
    "request_type": "Roads and Streets",
    "request_reason": "Sidewalk Damaged or Missing",
    "date_created": "2025-03-10T15:51:01.000",
    "date_modified": "2025-03-10T15:51:02.000",
    "request_status": "Pending",
    "responsible_agency": "Department of Public Works",
    "final_address": "2844 Annunciation St",
    "address_councildis": "B",
    "status": "Pending",
    "rowid": "1174340",
    "final_x": "3677373.5419",
    "final_y": "519660.974712",
    "longitude": "-90.08150929928735",
    "latitude": "29.923011915964793",
    "geocoded_column": {
      "latitude": "29.923011915964793",
      "longitude": "-90.08150929928735"
    }
  },
  {
    "service_request": "2025-1174339",
    "request_type": "Parks & Parkways",
    "request_reason": "Tree Stump (removal, grind)",
    "date_created": "2025-03-10T15:50:53.000",
    "date_modified": "2025-03-10T15:50:56.000",
    "request_status": "Pending",
    "responsible_agency": "Department of Parks & Parkway",
    "final_address": "3204 Prytania St",
    "address_councildis": "B",
    "status": "Pending",
    "rowid": "1174339",
    "final_x": "3675079.70869",
    "final_y": "521293.683065",
    "longitude": "-90.08869406850286",
    "latitude": "29.92757004483197",
    "geocoded_column": {
      "latitude": "29.92757004483197",
      "longitude": "-90.08869406850286"
    }
  },
  {
    "service_request": "2025-1174338",
    "request_type": "Trash/Recycling",
    "request_reason": "Request a Large Item Pick Up",
    "date_created": "2025-03-10T15:49:33.000",
    "date_modified": "2025-03-10T15:49:34.000",
    "request_status": "Pending",
    "responsible_agency": "Department of Sanitation",
    "final_address": "12900 Jeanne Ct",
    "address_councildis": "E",
    "status": "Assigned to Contractor",
    "contractor": "Waste Pro",
    "rowid": "1174338",
    "final_x": "3716563.27647",
    "final_y": "567890.087588",
    "longitude": "-89.95597395455535",
    "latitude": "30.054388063640225",
    "geocoded_column": {
      "latitude": "30.054388063640225",
      "longitude": "-89.95597395455535"
    }
  },
  {
    "service_request": "2025-1174337",
    "request_type": "Trash/Recycling",
    "request_reason": "Request a Large Item Pick Up",
    "date_created": "2025-03-10T15:49:03.000",
    "date_modified": "2025-03-10T15:49:06.000",
    "request_status": "Pending",
    "responsible_agency": "Department of Sanitation",
    "final_address": "8321 Aberdeen Rd",
    "address_councildis": "E",
    "status": "Assigned to Contractor",
    "contractor": "Waste Pro",
    "rowid": "1174337",
    "final_x": "3703253.15057",
    "final_y": "561641.339039",
    "longitude": "-89.99827403881623",
    "latitude": "30.03763968456865",
    "geocoded_column": {
      "latitude": "30.03763968456865",
      "longitude": "-89.99827403881623"
    }
  },
  {
    "service_request": "2025-1174336",
    "request_type": "Safety & Permits",
    "request_reason": "Zoning Enforcement",
    "date_created": "2025-03-10T15:47:58.000",
    "date_modified": "2025-03-10T15:48:00.000",
    "request_status": "Pending",
    "responsible_agency": "Safety and Permits",
    "final_address": "5539 Montegut Dr",
    "address_councildis": "D",
    "status": "Pending",
    "rowid": "1174336",
    "final_x": "3689733.84604",
    "final_y": "553755.959447",
    "longitude": "-90.04127916107161",
    "latitude": "30.016384038988658",
    "geocoded_column": {
      "latitude": "30.016384038988658",
      "longitude": "-90.04127916107161"
    }
  },
  {
    "service_request": "2025-1174335",
    "request_type": "Trash/Recycling",
    "request_reason": "Missed Trash Pick-Up",
    "date_created": "2025-03-10T15:47:39.000",
    "date_modified": "2025-03-10T15:47:40.000",
    "request_status": "Pending",
    "responsible_agency": "Department of Sanitation",
    "final_address": "3140 Garden Oaks Dr",
    "address_councildis": "C",
    "status": "Assigned to Contractor",
    "contractor": "Richards Disposal",
    "rowid": "1174335",
    "final_x": "3696276.53559",
    "final_y": "520202.746552",
    "longitude": "-90.02182061244983",
    "latitude": "29.923920224850203",
    "geocoded_column": {
      "latitude": "29.923920224850203",
      "longitude": "-90.02182061244983"
    }
  },
  {
    "service_request": "2025-1174334",
    "request_type": "Trash/Recycling",
    "request_reason": "Repair Trash Cart",
    "date_created": "2025-03-10T15:46:19.000",
    "date_modified": "2025-03-10T15:46:21.000",
    "request_status": "Pending",
    "responsible_agency": "Department of Sanitation",
    "final_address": "2756 Jonquil St",
    "address_councildis": "D",
    "status": "Assigned to Contractor",
    "contractor": "IV Waste",
    "rowid": "1174334",
    "final_x": "3688227.07779",
    "final_y": "547258.922385",
    "longitude": "-90.04627046245149",
    "latitude": "29.998566195233536",
    "geocoded_column": {
      "latitude": "29.998566195233536",
      "longitude": "-90.04627046245149"
    }
  },
  {
    "service_request": "2025-1174333",
    "request_type": "Trash/Recycling",
    "request_reason": "Illegal Dumping",
    "date_created": "2025-03-10T15:44:16.000",
    "date_modified": "2025-03-10T15:44:18.000",
    "request_status": "Pending",
    "responsible_agency": "Department of Sanitation",
    "final_address": "6327 Mandeville St",
    "address_councildis": "D",
    "status": "Pending",
    "rowid": "1174333",
    "final_x": "3684199.18089",
    "final_y": "556470.308826",
    "longitude": "-90.05867087988969",
    "latitude": "30.024017942072888",
    "geocoded_column": {
      "latitude": "30.024017942072888",
      "longitude": "-90.05867087988969"
    }
  },
  {
    "service_request": "2025-1174332",
    "request_type": "Trash/Recycling",
    "request_reason": "Order Trash Cart",
    "date_created": "2025-03-10T15:43:26.000",
    "date_modified": "2025-03-10T15:43:28.000",
    "request_status": "Pending",
    "responsible_agency": "Department of Sanitation",
    "final_address": "7820 Mill St",
    "address_councildis": "E",
    "status": "Assigned to Contractor",
    "contractor": "Waste Pro",
    "rowid": "1174332",
    "final_x": "3696334.9025",
    "final_y": "559685.060125",
    "longitude": "-90.02020810439797",
    "latitude": "30.032480494553838",
    "geocoded_column": {
      "latitude": "30.032480494553838",
      "longitude": "-90.02020810439797"
    }
  },
  {
    "service_request": "2025-1174331",
    "request_type": "Trash/Recycling",
    "request_reason": "Repair Trash Cart",
    "date_created": "2025-03-10T15:42:12.000",
    "date_modified": "2025-03-10T15:42:14.000",
    "request_status": "Pending",
    "responsible_agency": "Department of Sanitation",
    "final_address": "7822 Mill St",
    "address_councildis": "E",
    "status": "Assigned to Contractor",
    "contractor": "Waste Pro",
    "rowid": "1174331",
    "final_x": "3696325.31914",
    "final_y": "559707.144285",
    "longitude": "-90.02023758865708",
    "latitude": "30.032541519492348",
    "geocoded_column": {
      "latitude": "30.032541519492348",
      "longitude": "-90.02023758865708"
    }
  },
  {
    "service_request": "2025-1174330",
    "request_type": "Trash/Recycling",
    "request_reason": "Repair Trash Cart",
    "date_created": "2025-03-10T15:42:10.000",
    "date_modified": "2025-03-10T15:43:56.000",
    "request_status": "Pending",
    "responsible_agency": "Department of Sanitation",
    "final_address": "815 Atlantic Ave",
    "address_councildis": "C",
    "status": "Assigned to Contractor",
    "contractor": "Richards Disposal",
    "rowid": "1174330",
    "final_x": "3688696.12342",
    "final_y": "528553.83712",
    "longitude": "-90.04545289169806",
    "latitude": "29.94711930043054",
    "geocoded_column": {
      "latitude": "29.94711930043054",
      "longitude": "-90.04545289169806"
    }
  },
  {
    "service_request": "2025-1174329",
    "request_type": "Abandoned Vehicles",
    "request_reason": "Abandoned/Junk Vehicles",
    "date_created": "2025-03-10T15:40:37.000",
    "date_modified": "2025-03-10T15:40:40.000",
    "request_status": "Pending",
    "responsible_agency": "Department of Public Works",
    "final_address": "4417 Mendez St",
    "address_councildis": "D",
    "status": "Pending",
    "rowid": "1174329",
    "final_x": "3690107.69948",
    "final_y": "553884.256855",
    "longitude": "-90.04009337469358",
    "latitude": "30.016725212597706",
    "geocoded_column": {
      "latitude": "30.016725212597706",
      "longitude": "-90.04009337469358"
    }
  },
  {
    "service_request": "2025-1174328",
    "request_type": "Trash/Recycling",
    "request_reason": "Request a Large Item Pick Up",
    "date_created": "2025-03-10T15:40:21.000",
    "date_modified": "2025-03-10T15:40:23.000",
    "request_status": "Pending",
    "responsible_agency": "Department of Sanitation",
    "final_address": "1606 Music St",
    "address_councildis": "D",
    "status": "Assigned to Contractor",
    "contractor": "IV Waste",
    "rowid": "1174328",
    "final_x": "3686662.90198",
    "final_y": "538369.657801",
    "longitude": "-90.05152582137718",
    "latitude": "29.974172096822983",
    "geocoded_column": {
      "latitude": "29.974172096822983",
      "longitude": "-90.05152582137718"
    }
  },
  {
    "service_request": "2025-1174327",
    "request_type": "Abandoned Vehicles",
    "request_reason": "Abandoned/Junk Vehicles",
    "date_created": "2025-03-10T15:38:36.000",
    "date_modified": "2025-03-10T15:38:38.000",
    "request_status": "Pending",
    "responsible_agency": "Department of Public Works",
    "final_address": "5415 Montegut Dr",
    "address_councildis": "D",
    "status": "Pending",
    "rowid": "1174327",
    "final_x": "3689765.53891",
    "final_y": "553330.689623",
    "longitude": "-90.04119417787132",
    "latitude": "30.0152137219527",
    "geocoded_column": {
      "latitude": "30.0152137219527",
      "longitude": "-90.04119417787132"
    }
  },
  {
    "service_request": "2025-1174326",
    "request_type": "Trash/Recycling",
    "request_reason": "Request a Large Item Pick Up",
    "date_created": "2025-03-10T15:36:37.000",
    "date_modified": "2025-03-10T15:36:39.000",
    "request_status": "Pending",
    "responsible_agency": "Department of Sanitation",
    "final_address": "8009 Vanderkloot Ave",
    "address_councildis": "E",
    "status": "Assigned to Contractor",
    "contractor": "Waste Pro",
    "rowid": "1174326",
    "final_x": "3705390.98705",
    "final_y": "564316.570273",
    "longitude": "-89.99141900491878",
    "latitude": "30.044926849203407",
    "geocoded_column": {
      "latitude": "30.044926849203407",
      "longitude": "-89.99141900491878"
    }
  },
  {
    "service_request": "2025-1174325",
    "request_type": "Trash/Recycling",
    "request_reason": "Request a Large Item Pick Up",
    "date_created": "2025-03-10T15:33:15.000",
    "date_modified": "2025-03-10T15:33:17.000",
    "request_status": "Pending",
    "responsible_agency": "Department of Sanitation",
    "final_address": "5258 Revel St",
    "address_councildis": "E",
    "status": "Assigned to Contractor",
    "contractor": "Waste Pro",
    "rowid": "1174325",
    "final_x": "3725020.83334",
    "final_y": "562839.948512",
    "longitude": "-89.9294375080065",
    "latitude": "30.040220033715222",
    "geocoded_column": {
      "latitude": "30.040220033715222",
      "longitude": "-89.9294375080065"
    }
  },
  {
    "service_request": "2025-1174324",
    "request_type": "Trash/Recycling",
    "request_reason": "Dead Animal Pick Up",
    "date_created": "2025-03-10T15:27:24.000",
    "date_modified": "2025-03-10T15:28:50.000",
    "request_status": "Pending",
    "responsible_agency": "Department of Sanitation",
    "final_address": "4917 N Prieur St",
    "address_councildis": "E",
    "status": "Assigned to Contractor",
    "contractor": "Waste Pro",
    "rowid": "1174324",
    "final_x": "3696376.10896",
    "final_y": "537391.09812",
    "longitude": "-90.02088483161002",
    "latitude": "29.97117906188385",
    "geocoded_column": {
      "latitude": "29.97117906188385",
      "longitude": "-90.02088483161002"
    }
  },
  {
    "service_request": "2025-1174323",
    "request_type": "Trash/Recycling",
    "request_reason": "Order Recycling Cart",
    "date_created": "2025-03-10T15:27:00.000",
    "date_modified": "2025-03-10T15:27:02.000",
    "request_status": "Pending",
    "responsible_agency": "Department of Sanitation",
    "final_address": "5620 Vicksburg St",
    "address_councildis": "A",
    "status": "Pending",
    "rowid": "1174323",
    "final_x": "3668722.47361",
    "final_y": "544563.669775",
    "longitude": "-90.10797681953342",
    "latitude": "29.99174316602784",
    "geocoded_column": {
      "latitude": "29.99174316602784",
      "longitude": "-90.10797681953342"
    }
  },
  {
    "service_request": "2025-1174322",
    "request_type": "Abandoned Vehicles",
    "request_reason": "Abandoned/Junk Vehicles",
    "date_created": "2025-03-10T15:26:46.000",
    "date_modified": "2025-03-10T15:26:48.000",
    "request_status": "Pending",
    "responsible_agency": "Department of Public Works",
    "final_address": "5718 Louis Xiv St",
    "address_councildis": "A",
    "status": "Pending",
    "rowid": "1174322",
    "final_x": "3667874.39469",
    "final_y": "545591.296912",
    "longitude": "-90.11062109115147",
    "latitude": "29.994593698476205",
    "geocoded_column": {
      "latitude": "29.994593698476205",
      "longitude": "-90.11062109115147"
    }
  },
  {
    "service_request": "2025-1174321",
    "request_type": "Roads and Streets",
    "request_reason": "Street Subsidence (Sinking)",
    "date_created": "2025-03-10T15:26:43.000",
    "date_modified": "2025-03-10T15:26:52.000",
    "request_status": "Pending",
    "responsible_agency": "Department of Public Works",
    "final_address": "1108 Pine St",
    "address_councildis": "A",
    "status": "Pending",
    "rowid": "1174321",
    "final_x": "3663747.09031",
    "final_y": "526469.149694",
    "longitude": "-90.12429616191316",
    "latitude": "29.942134552058455",
    "geocoded_column": {
      "latitude": "29.942134552058455",
      "longitude": "-90.12429616191316"
    }
  },
  {
    "service_request": "2025-1174320",
    "request_type": "Trash/Recycling",
    "request_reason": "Request a Large Item Pick Up",
    "date_created": "2025-03-10T15:26:18.000",
    "date_modified": "2025-03-10T15:26:20.000",
    "request_status": "Pending",
    "responsible_agency": "Department of Sanitation",
    "final_address": "1817 Reynes St, New Orleans, Louisiana, 70117",
    "address_councildis": "E",
    "status": "Assigned to Contractor",
    "contractor": "Waste Pro",
    "rowid": "1174320",
    "final_x": "3696863.50947",
    "final_y": "537069.511496",
    "longitude": "-90.0193572092044",
    "latitude": "29.970279454358625",
    "geocoded_column": {
      "latitude": "29.970279454358625",
      "longitude": "-90.0193572092044"
    }
  },
  {
    "service_request": "2025-1174319",
    "request_type": "Trash/Recycling",
    "request_reason": "Illegal Dumping",
    "date_created": "2025-03-10T15:25:00.000",
    "date_modified": "2025-03-10T15:25:02.000",
    "request_status": "Pending",
    "responsible_agency": "Department of Sanitation",
    "final_address": "5718 Louis Xiv St",
    "address_councildis": "A",
    "status": "Pending",
    "rowid": "1174319",
    "final_x": "3667874.39469",
    "final_y": "545591.296912",
    "longitude": "-90.11062109115147",
    "latitude": "29.994593698476205",
    "geocoded_column": {
      "latitude": "29.994593698476205",
      "longitude": "-90.11062109115147"
    }
  },
  {
    "service_request": "2025-1174318",
    "request_type": "Abandoned Vehicles",
    "request_reason": "Abandoned/Junk Vehicles",
    "date_created": "2025-03-10T15:23:42.000",
    "date_modified": "2025-03-10T15:23:43.000",
    "request_status": "Pending",
    "responsible_agency": "Department of Public Works",
    "final_address": "3135 Bell St",
    "address_councildis": "A",
    "status": "Pending",
    "rowid": "1174318",
    "final_x": "3675972.1563",
    "final_y": "539574.853834",
    "longitude": "-90.08524823928616",
    "latitude": "29.977810482233114",
    "geocoded_column": {
      "latitude": "29.977810482233114",
      "longitude": "-90.08524823928616"
    }
  },
  {
    "service_request": "2025-1174317",
    "request_type": "Roads and Streets",
    "request_reason": "Sidewalk Damaged or Missing",
    "date_created": "2025-03-10T15:23:20.000",
    "date_modified": "2025-03-10T15:23:37.000",
    "request_status": "Pending",
    "responsible_agency": "Department of Public Works",
    "final_address": "1804 Conti St",
    "address_councildis": "B",
    "status": "Pending",
    "rowid": "1174317",
    "final_x": "3678722.94894",
    "final_y": "533956.155589",
    "longitude": "-90.07675489067077",
    "latitude": "29.962278312777713",
    "geocoded_column": {
      "latitude": "29.962278312777713",
      "longitude": "-90.07675489067077"
    }
  },
  {
    "service_request": "2025-1174316",
    "request_type": "Trash/Recycling",
    "request_reason": "Request a Large Item Pick Up",
    "date_created": "2025-03-10T15:21:40.000",
    "date_modified": "2025-03-10T15:21:43.000",
    "request_status": "Pending",
    "responsible_agency": "Department of Sanitation",
    "final_address": "6558 Catina St",
    "address_councildis": "A",
    "status": "Assigned to Contractor",
    "contractor": "IV Waste",
    "rowid": "1174316",
    "final_x": "3666940.19501",
    "final_y": "551337.365589",
    "longitude": "-90.11337887241194",
    "latitude": "30.010420776243198",
    "geocoded_column": {
      "latitude": "30.010420776243198",
      "longitude": "-90.11337887241194"
    }
  },
  {
    "service_request": "2025-1174315",
    "request_type": "Trash/Recycling",
    "request_reason": "Request a Large Item Pick Up",
    "date_created": "2025-03-10T15:15:31.000",
    "date_modified": "2025-03-10T15:15:33.000",
    "request_status": "Pending",
    "responsible_agency": "Department of Sanitation",
    "final_address": "8637 Belfast St",
    "address_councildis": "A",
    "status": "Assigned to Contractor",
    "contractor": "IV Waste",
    "rowid": "1174315",
    "final_x": "3664067.7906",
    "final_y": "533799.280517",
    "longitude": "-90.12303919054165",
    "latitude": "29.962280731559844",
    "geocoded_column": {
      "latitude": "29.962280731559844",
      "longitude": "-90.12303919054165"
    }
  },
  {
    "service_request": "2025-1174314",
    "request_type": "Streetlights",
    "request_reason": "Streetlight Outage/Malfunction",
    "date_created": "2025-03-10T15:13:47.000",
    "date_modified": "2025-03-10T15:13:48.000",
    "request_status": "Pending",
    "responsible_agency": "Department of Public Works",
    "final_address": "5163 General De Gaulle Dr",
    "address_councildis": "C",
    "status": "Pending",
    "contractor": "Legacy Professional Services",
    "rowid": "1174314",
    "final_x": "3703270.68497",
    "final_y": "515726.661748",
    "longitude": "-89.99990718257494",
    "latitude": "29.911390555885003",
    "geocoded_column": {
      "latitude": "29.911390555885003",
      "longitude": "-89.99990718257494"
    }
  },
  {
    "service_request": "2025-1174313",
    "request_type": "Streetlights",
    "request_reason": "New Streetlight Request",
    "date_created": "2025-03-10T15:11:00.000",
    "date_modified": "2025-03-10T15:11:01.000",
    "request_status": "Pending",
    "responsible_agency": "Department of Public Works",
    "final_address": "NAPOLEON AVE & TCHOUPITOULAS ST",
    "address_councildis": "B",
    "status": "Pending",
    "contractor": "Legacy Professional Services",
    "rowid": "1174313",
    "final_x": "3671152.2",
    "final_y": "517462.38",
    "longitude": "-90.10122233833027",
    "latitude": "29.91715190210986",
    "geocoded_column": {
      "latitude": "29.91715190210986",
      "longitude": "-90.10122233833027"
    }
  },
  {
    "service_request": "2025-1174312",
    "request_type": "Trash/Recycling",
    "request_reason": "Request a Large Item Pick Up",
    "date_created": "2025-03-10T15:05:49.000",
    "date_modified": "2025-03-10T15:05:50.000",
    "request_status": "Pending",
    "responsible_agency": "Department of Sanitation",
    "final_address": "8843 Bunker Hill Rd",
    "address_councildis": "E",
    "status": "Assigned to Contractor",
    "contractor": "Waste Pro",
    "rowid": "1174312",
    "final_x": "3705672.89886",
    "final_y": "561530.413215",
    "longitude": "-89.99063122176135",
    "latitude": "30.03725693924065",
    "geocoded_column": {
      "latitude": "30.03725693924065",
      "longitude": "-89.99063122176135"
    }
  },
  {
    "service_request": "2025-1174311",
    "request_type": "Street and Traffic Signs",
    "request_reason": "Additional Signage Request",
    "date_created": "2025-03-10T15:04:12.000",
    "date_modified": "2025-03-10T15:04:14.000",
    "request_status": "Pending",
    "responsible_agency": "Department of Public Works",
    "final_address": "4325 Tchoupitoulas St",
    "address_councildis": "B",
    "status": "Pending",
    "rowid": "1174311",
    "final_x": "3671371.49819",
    "final_y": "517522.483062",
    "longitude": "-90.10052809685652",
    "latitude": "29.91731068068045",
    "geocoded_column": {
      "latitude": "29.91731068068045",
      "longitude": "-90.10052809685652"
    }
  },
  {
    "service_request": "2025-1174310",
    "request_type": "Trash/Recycling",
    "request_reason": "Request a Large Item Pick Up",
    "date_created": "2025-03-10T15:01:51.000",
    "date_modified": "2025-03-10T15:07:48.000",
    "case_close_date": "2025-03-10T10:07:48.000",
    "request_status": "Closed",
    "responsible_agency": "Department of Sanitation",
    "final_address": "7307 Devine Ave",
    "address_councildis": "E",
    "status": "Duplicate Request",
    "contractor": "Waste Pro",
    "contractor_action": "Duplicate",
    "rowid": "1174310",
    "final_x": "3706168.53022",
    "final_y": "562291.787167",
    "longitude": "-89.98903669796927",
    "latitude": "30.03933443819819",
    "geocoded_column": {
      "latitude": "30.03933443819819",
      "longitude": "-89.98903669796927"
    }
  },
  {
    "service_request": "2025-1174309",
    "request_type": "Trash/Recycling",
    "request_reason": "Request a Large Item Pick Up",
    "date_created": "2025-03-10T15:01:49.000",
    "date_modified": "2025-03-10T15:01:51.000",
    "request_status": "Pending",
    "responsible_agency": "Department of Sanitation",
    "final_address": "7905 Spruce St",
    "address_councildis": "A",
    "status": "Assigned to Contractor",
    "contractor": "IV Waste",
    "rowid": "1174309",
    "final_x": "3664407.36788",
    "final_y": "530006.073409",
    "longitude": "-90.1220934710186",
    "latitude": "29.95184078058232",
    "geocoded_column": {
      "latitude": "29.95184078058232",
      "longitude": "-90.1220934710186"
    }
  },
  {
    "service_request": "2025-1174308",
    "request_type": "Trash/Recycling",
    "request_reason": "Order Recycling Cart",
    "date_created": "2025-03-10T15:01:45.000",
    "date_modified": "2025-03-10T15:01:47.000",
    "request_status": "Pending",
    "responsible_agency": "Department of Sanitation",
    "final_address": "3801 S Robertson St",
    "address_councildis": "B",
    "status": "Pending",
    "rowid": "1174308",
    "final_x": "3672210.0811",
    "final_y": "524644.717756",
    "longitude": "-90.09763872368487",
    "latitude": "29.936869705810558",
    "geocoded_column": {
      "latitude": "29.936869705810558",
      "longitude": "-90.09763872368487"
    }
  },
  {
    "service_request": "2025-1174307",
    "request_type": "Road Striping",
    "request_reason": "Crosswalks",
    "date_created": "2025-03-10T15:00:41.000",
    "date_modified": "2025-03-10T15:00:55.000",
    "request_status": "Pending",
    "responsible_agency": "Department of Public Works",
    "final_address": "NAPOLEON AVE & TCHOUPITOULAS ST",
    "address_councildis": "B",
    "status": "Pending",
    "rowid": "1174307",
    "final_x": "3671152.2",
    "final_y": "517462.38",
    "longitude": "-90.10122233833027",
    "latitude": "29.91715190210986",
    "geocoded_column": {
      "latitude": "29.91715190210986",
      "longitude": "-90.10122233833027"
    }
  },
  {
    "service_request": "2025-1174306",
    "request_type": "Drainage",
    "request_reason": "Catch Basin Damaged",
    "date_created": "2025-03-10T14:58:29.000",
    "date_modified": "2025-03-10T14:58:30.000",
    "request_status": "Pending",
    "responsible_agency": "Sewerage & Water Board ",
    "final_address": "3800 BLK Hamburg St",
    "address_councildis": "D",
    "status": "Pending",
    "rowid": "1174306",
    "final_x": "3679199.18947",
    "final_y": "546399.11237",
    "longitude": "-90.0748194240831",
    "latitude": "29.99647776216612",
    "geocoded_column": {
      "latitude": "29.99647776216612",
      "longitude": "-90.0748194240831"
    }
  },
  {
    "service_request": "2025-1174305",
    "request_type": "Property Maintenance",
    "request_reason": "Property Maintenance",
    "date_created": "2025-03-10T14:57:32.000",
    "date_modified": "2025-03-10T14:57:34.000",
    "request_status": "Pending",
    "responsible_agency": "Department of Code Enforcement",
    "final_address": "1342 Granada Dr",
    "address_councildis": "D",
    "status": "Pending",
    "rowid": "1174305",
    "final_x": "3677583.26958",
    "final_y": "550460.132692",
    "longitude": "-90.07978367197539",
    "latitude": "30.00769283025352",
    "geocoded_column": {
      "latitude": "30.00769283025352",
      "longitude": "-90.07978367197539"
    }
  },
  {
    "service_request": "2025-1174304",
    "request_type": "Trash/Recycling",
    "request_reason": "Order Trash Cart",
    "date_created": "2025-03-10T14:56:21.000",
    "date_modified": "2025-03-10T14:56:24.000",
    "request_status": "Pending",
    "responsible_agency": "Department of Sanitation",
    "final_address": "1601 France St",
    "address_councildis": "D",
    "status": "Assigned to Contractor",
    "contractor": "IV Waste",
    "rowid": "1174304",
    "final_x": "3692888.86768",
    "final_y": "537052.646536",
    "longitude": "-90.03191010830511",
    "latitude": "29.970357808500644",
    "geocoded_column": {
      "latitude": "29.970357808500644",
      "longitude": "-90.03191010830511"
    }
  },
  {
    "service_request": "2025-1174303",
    "request_type": "Abandoned Vehicles",
    "request_reason": "Abandoned/Junk Vehicles",
    "date_created": "2025-03-10T14:54:47.000",
    "date_modified": "2025-03-10T14:54:48.000",
    "request_status": "Pending",
    "responsible_agency": "Department of Public Works",
    "final_address": "3240 Constance St",
    "address_councildis": "B",
    "status": "Pending",
    "rowid": "1174303",
    "final_x": "3675654.14081",
    "final_y": "519473.131447",
    "longitude": "-90.08694323773106",
    "latitude": "29.922546946414577",
    "geocoded_column": {
      "latitude": "29.922546946414577",
      "longitude": "-90.08694323773106"
    }
  },
  {
    "service_request": "2025-1174302",
    "request_type": "Abandoned Vehicles",
    "request_reason": "Abandoned/Junk Vehicles",
    "date_created": "2025-03-10T14:54:13.000",
    "date_modified": "2025-03-10T14:54:15.000",
    "request_status": "Pending",
    "responsible_agency": "Department of Public Works",
    "final_address": "9200 BLK Dixon St",
    "address_councildis": "A",
    "status": "Pending",
    "rowid": "1174302",
    "final_x": "3665433.88137",
    "final_y": "538193.628125",
    "longitude": "-90.11857814367423",
    "latitude": "29.974323986951894",
    "geocoded_column": {
      "latitude": "29.974323986951894",
      "longitude": "-90.11857814367423"
    }
  },
  {
    "service_request": "2025-1174301",
    "request_type": "Abandoned Vehicles",
    "request_reason": "Abandoned/Junk Vehicles",
    "date_created": "2025-03-10T14:54:05.000",
    "date_modified": "2025-03-10T14:54:07.000",
    "request_status": "Pending",
    "responsible_agency": "Department of Public Works",
    "final_address": "9200 BLK Dixon St",
    "address_councildis": "A",
    "status": "Pending",
    "rowid": "1174301",
    "final_x": "3665433.88137",
    "final_y": "538193.628125",
    "longitude": "-90.11857814367423",
    "latitude": "29.974323986951894",
    "geocoded_column": {
      "latitude": "29.974323986951894",
      "longitude": "-90.11857814367423"
    }
  },
  {
    "service_request": "2025-1174300",
    "request_type": "Trash/Recycling",
    "request_reason": "Missed Trash Pick-Up",
    "date_created": "2025-03-10T14:52:49.000",
    "date_modified": "2025-03-10T18:18:50.000",
    "case_close_date": "2025-03-10T13:18:49.000",
    "request_status": "Closed",
    "responsible_agency": "Department of Sanitation",
    "final_address": "5670 New England Dr",
    "address_councildis": "E",
    "status": "Invalid Request",
    "contractor": "Waste Pro",
    "contractor_action": "Invalid Request",
    "rowid": "1174300",
    "final_x": "3723553.15507",
    "final_y": "564478.714849",
    "longitude": "-89.9340125325536",
    "latitude": "30.04477532708266",
    "geocoded_column": {
      "latitude": "30.04477532708266",
      "longitude": "-89.9340125325536"
    }
  },
  {
    "service_request": "2025-1174299",
    "request_type": "Trash/Recycling",
    "request_reason": "Request a Large Item Pick Up",
    "date_created": "2025-03-10T14:51:13.000",
    "date_modified": "2025-03-10T14:51:15.000",
    "request_status": "Pending",
    "responsible_agency": "Department of Sanitation",
    "final_address": "7307 Devine Ave",
    "address_councildis": "E",
    "status": "Assigned to Contractor",
    "contractor": "Waste Pro",
    "rowid": "1174299",
    "final_x": "3706168.53022",
    "final_y": "562291.787167",
    "longitude": "-89.98903669796927",
    "latitude": "30.03933443819819",
    "geocoded_column": {
      "latitude": "30.03933443819819",
      "longitude": "-89.98903669796927"
    }
  },
  {
    "service_request": "2025-1174298",
    "request_type": "Trash/Recycling",
    "request_reason": "Replace Trash Cart",
    "date_created": "2025-03-10T14:50:44.000",
    "date_modified": "2025-03-10T14:50:46.000",
    "request_status": "Pending",
    "responsible_agency": "Department of Sanitation",
    "final_address": "4510 Cerise Ave",
    "address_councildis": "E",
    "status": "Assigned to Contractor",
    "contractor": "Waste Pro",
    "rowid": "1174298",
    "final_x": "3708687.11729",
    "final_y": "554174.57532",
    "longitude": "-89.98137996454575",
    "latitude": "30.016933806947524",
    "geocoded_column": {
      "latitude": "30.016933806947524",
      "longitude": "-89.98137996454575"
    }
  },
  {
    "service_request": "2025-1174297",
    "request_type": "Trash/Recycling",
    "request_reason": "Repair Trash Cart",
    "date_created": "2025-03-10T14:47:04.000",
    "date_modified": "2025-03-10T14:47:06.000",
    "request_status": "Pending",
    "responsible_agency": "Department of Sanitation",
    "final_address": "510 S Cortez St",
    "address_councildis": "B",
    "status": "Assigned to Contractor",
    "contractor": "IV Waste",
    "rowid": "1174297",
    "final_x": "3671070.69396",
    "final_y": "536223.561351",
    "longitude": "-90.10084264152273",
    "latitude": "29.96874144768212",
    "geocoded_column": {
      "latitude": "29.96874144768212",
      "longitude": "-90.10084264152273"
    }
  },
  {
    "service_request": "2025-1174296",
    "request_type": "Trash/Recycling",
    "request_reason": "Replace Recycling Cart",
    "date_created": "2025-03-10T14:45:29.000",
    "date_modified": "2025-03-10T14:45:31.000",
    "request_status": "Pending",
    "responsible_agency": "Department of Sanitation",
    "final_address": "2701 St Claude Ave",
    "address_councildis": "C",
    "status": "Pending",
    "rowid": "1174296",
    "final_x": "3687473.10665",
    "final_y": "536487.823047",
    "longitude": "-90.04903362862606",
    "latitude": "29.968972764402857",
    "geocoded_column": {
      "latitude": "29.968972764402857",
      "longitude": "-90.04903362862606"
    }
  },
  {
    "service_request": "2025-1174295",
    "request_type": "Tax and Revenue",
    "request_reason": "General Tax Question",
    "date_created": "2025-03-10T14:44:13.000",
    "date_modified": "2025-03-10T18:00:20.000",
    "case_close_date": "2025-03-10T13:00:18.000",
    "request_status": "Closed",
    "responsible_agency": "Bureau of Revenue",
    "final_address": "650 Poydras St",
    "address_councildis": "B",
    "status": "Question Answered.",
    "rowid": "1174295",
    "final_x": "3680812.92642",
    "final_y": "529260.434689",
    "longitude": "-90.07031849656484",
    "latitude": "29.949303483725547",
    "geocoded_column": {
      "latitude": "29.949303483725547",
      "longitude": "-90.07031849656484"
    }
  },
  {
    "service_request": "2025-1174294",
    "request_type": "Roads and Streets",
    "request_reason": "Abandoned Service Cut",
    "date_created": "2025-03-10T14:44:06.000",
    "date_modified": "2025-03-10T14:44:08.000",
    "request_status": "Pending",
    "responsible_agency": "Department of Public Works",
    "final_address": "2317 Painters St",
    "address_councildis": "D",
    "status": "Pending",
    "rowid": "1174294",
    "final_x": "3687228.85782",
    "final_y": "541076.81102",
    "longitude": "-90.04964262260386",
    "latitude": "29.98159839280868",
    "geocoded_column": {
      "latitude": "29.98159839280868",
      "longitude": "-90.04964262260386"
    }
  },
  {
    "service_request": "2025-1174293",
    "request_type": "Trash/Recycling",
    "request_reason": "Request a Large Item Pick Up",
    "date_created": "2025-03-10T14:42:19.000",
    "date_modified": "2025-03-10T14:42:21.000",
    "request_status": "Pending",
    "responsible_agency": "Department of Sanitation",
    "final_address": "6953 Boston Dr",
    "address_councildis": "E",
    "status": "Assigned to Contractor",
    "contractor": "Waste Pro",
    "rowid": "1174293",
    "final_x": "3706561.13195",
    "final_y": "560469.828702",
    "longitude": "-89.98786358193469",
    "latitude": "30.03431210096067",
    "geocoded_column": {
      "latitude": "30.03431210096067",
      "longitude": "-89.98786358193469"
    }
  },
  {
    "service_request": "2025-1174292",
    "request_type": "Trash/Recycling",
    "request_reason": "Request a Large Item Pick Up",
    "date_created": "2025-03-10T14:40:52.000",
    "date_modified": "2025-03-10T14:40:54.000",
    "request_status": "Pending",
    "responsible_agency": "Department of Sanitation",
    "final_address": "4422 Cerise Ave",
    "address_councildis": "E",
    "status": "Assigned to Contractor",
    "contractor": "Waste Pro",
    "rowid": "1174292",
    "final_x": "3708712.60568",
    "final_y": "553922.727063",
    "longitude": "-89.98130882174473",
    "latitude": "30.016240494939822",
    "geocoded_column": {
      "latitude": "30.016240494939822",
      "longitude": "-89.98130882174473"
    }
  },
  {
    "service_request": "2025-1174291",
    "request_type": "Trash/Recycling",
    "request_reason": "Request a Large Item Pick Up",
    "date_created": "2025-03-10T14:40:32.000",
    "date_modified": "2025-03-10T14:40:34.000",
    "request_status": "Pending",
    "responsible_agency": "Department of Sanitation",
    "final_address": "1203 Marigny St",
    "address_councildis": "C",
    "status": "Assigned to Contractor",
    "contractor": "IV Waste",
    "rowid": "1174291",
    "final_x": "3685460.94549",
    "final_y": "536745.89268",
    "longitude": "-90.05537906533702",
    "latitude": "29.969744225793836",
    "geocoded_column": {
      "latitude": "29.969744225793836",
      "longitude": "-90.05537906533702"
    }
  },
  {
    "service_request": "2025-1174290",
    "request_type": "Trash/Recycling",
    "request_reason": "Request a Large Item Pick Up",
    "date_created": "2025-03-10T14:40:13.000",
    "date_modified": "2025-03-10T14:40:14.000",
    "request_status": "Pending",
    "responsible_agency": "Department of Sanitation",
    "final_address": "6114 Shetland Dr",
    "address_councildis": "C",
    "status": "Assigned to Contractor",
    "contractor": "Richards Disposal",
    "rowid": "1174290",
    "final_x": "3705449.72587",
    "final_y": "520246.999672",
    "longitude": "-89.99286274552568",
    "latitude": "29.923750016966594",
    "geocoded_column": {
      "latitude": "29.923750016966594",
      "longitude": "-89.99286274552568"
    }
  },
  {
    "service_request": "2025-1174289",
    "request_type": "Trash/Recycling",
    "request_reason": "Request a Large Item Pick Up",
    "date_created": "2025-03-10T14:37:57.000",
    "date_modified": "2025-03-10T14:37:58.000",
    "request_status": "Pending",
    "responsible_agency": "Department of Sanitation",
    "final_address": "8917 Marks St",
    "address_councildis": "A",
    "status": "Assigned to Contractor",
    "contractor": "IV Waste",
    "rowid": "1174289",
    "final_x": "3666713.64077",
    "final_y": "538020.036873",
    "longitude": "-90.11454217819339",
    "latitude": "29.973809301551167",
    "geocoded_column": {
      "latitude": "29.973809301551167",
      "longitude": "-90.11454217819339"
    }
  },
  {
    "service_request": "2025-1174288",
    "request_type": "Trash/Recycling",
    "request_reason": "Repair Trash Cart",
    "date_created": "2025-03-10T14:33:22.000",
    "date_modified": "2025-03-10T14:33:24.000",
    "request_status": "Pending",
    "responsible_agency": "Department of Sanitation",
    "final_address": "5414 General Diaz St",
    "address_councildis": "A",
    "status": "Assigned to Contractor",
    "contractor": "IV Waste",
    "rowid": "1174288",
    "final_x": "3668926.5538",
    "final_y": "542958.937485",
    "longitude": "-90.10738640556369",
    "latitude": "29.987324698966198",
    "geocoded_column": {
      "latitude": "29.987324698966198",
      "longitude": "-90.10738640556369"
    }
  },
  {
    "service_request": "2025-1174287",
    "request_type": "Trash/Recycling",
    "request_reason": "Request a Large Item Pick Up",
    "date_created": "2025-03-10T14:32:46.000",
    "date_modified": "2025-03-10T14:32:48.000",
    "request_status": "Pending",
    "responsible_agency": "Department of Sanitation",
    "final_address": "9100 Morrison Rd",
    "address_councildis": "E",
    "status": "Assigned to Contractor",
    "contractor": "Waste Pro",
    "rowid": "1174287",
    "final_x": "3706214.87294",
    "final_y": "562019.668447",
    "longitude": "-89.98890033274857",
    "latitude": "30.038584724275047",
    "geocoded_column": {
      "latitude": "30.038584724275047",
      "longitude": "-89.98890033274857"
    }
  },
  {
    "service_request": "2025-1174286",
    "request_type": "Roads and Streets",
    "request_reason": "Street Subsidence (Sinking)",
    "date_created": "2025-03-10T14:30:52.000",
    "date_modified": "2025-03-10T14:30:54.000",
    "request_status": "Pending",
    "responsible_agency": "Department of Public Works",
    "final_address": "5101 Press Dr",
    "address_councildis": "D",
    "status": "Pending",
    "rowid": "1174286",
    "final_x": "3689500.76297",
    "final_y": "552140.78959",
    "longitude": "-90.04207310937704",
    "latitude": "30.011950143830347",
    "geocoded_column": {
      "latitude": "30.011950143830347",
      "longitude": "-90.04207310937704"
    }
  },