[
  {
    "service_request": "2026-1255424",
    "request_type": "Roads and Streets",
    "request_reason": "Debris in Driving Lanes",
    "date_created": "2026-01-29T22:25:58.000",
    "date_modified": "2026-01-29T22:25:59.000",
    "request_status": "Pending",
    "responsible_agency": "Department of Public Works",
    "final_address": "6101 Dover Pl",
    "address_councildis": "C",
    "status": "Pending",
    "rowid": "1255424",
    "final_x": "3706543.82846",
    "final_y": "519022.970359",
    "longitude": "-89.98945440762846",
    "latitude": "29.920349123165035",
    "geocoded_column": {
      "latitude": "29.920349123165035",
      "longitude": "-89.98945440762846"
    }
  },
  {
    "service_request": "2026-1255423",
    "request_type": "Trash/Recycling",
    "request_reason": "Illegal Dumping",
    "date_created": "2026-01-29T21:55:29.000",
    "date_modified": "2026-01-29T21:55:30.000",
    "request_status": "Pending",
    "responsible_agency": "Department of Sanitation",
    "final_address": "1416 S Prieur St",
    "address_councildis": "B",
    "status": "Pending",
    "rowid": "1255423",
    "final_x": "3674306.21819",
    "final_y": "528796.804992",
    "longitude": "-90.09087896689006",
    "latitude": "29.948224259849237",
    "geocoded_column": {
      "latitude": "29.948224259849237",
      "longitude": "-90.09087896689006"
    }
  },
  {
    "service_request": "2026-1255422",
    "request_type": "Trash/Recycling",
    "request_reason": "Request a Large Item Pick Up",
    "date_created": "2026-01-29T21:51:28.000",
    "date_modified": "2026-01-29T21:51:31.000",
    "request_status": "Pending",
    "responsible_agency": "Department of Sanitation",
    "final_address": "1715 France St",
    "address_councildis": "D",
    "status": "Assigned to Contractor",
    "contractor": "IV Waste",
    "rowid": "1255422",
    "final_x": "3693020.20886",
    "final_y": "537521.33044",
    "longitude": "-90.03147850327866",
    "latitude": "29.97164242045645",
    "geocoded_column": {
      "latitude": "29.97164242045645",
      "longitude": "-90.03147850327866"
    }
  },
  {
    "service_request": "2026-1255421",
    "request_type": "Trash/Recycling",
    "request_reason": "Repair Recycling Cart",
    "date_created": "2026-01-29T21:38:49.000",
    "date_modified": "2026-01-29T21:38:50.000",
    "request_status": "Pending",
    "responsible_agency": "Department of Sanitation",
    "final_address": "4808 Feliciana Dr",
    "address_councildis": "D",
    "status": "Pending",
    "rowid": "1255421",
    "final_x": "3690096.70953",
    "final_y": "550729.169237",
    "longitude": "-90.04024059640024",
    "latitude": "30.008050228594357",
    "geocoded_column": {
      "latitude": "30.008050228594357",
      "longitude": "-90.04024059640024"
    }
  },
  {
    "service_request": "2026-1255420",
    "request_type": "Property Maintenance",
    "request_reason": "Property Maintenance",
    "date_created": "2026-01-29T21:38:27.000",
    "date_modified": "2026-01-29T21:38:30.000",
    "request_status": "Pending",
    "responsible_agency": "Department of Code Enforcement",
    "final_address": "100 BLK Audubon St",
    "address_councildis": "A",
    "status": "Pending",
    "rowid": "1255420",
    "final_x": "3660904.82809",
    "final_y": "521093.623611",
    "longitude": "-90.13344757207545",
    "latitude": "29.927435703524935",
    "geocoded_column": {
      "latitude": "29.927435703524935",
      "longitude": "-90.13344757207545"
    }
  },
  {
    "service_request": "2026-1255419",
    "request_type": "Trash/Recycling",
    "request_reason": "Request a Large Item Pick Up",
    "date_created": "2026-01-29T21:33:25.000",
    "date_modified": "2026-01-29T21:33:27.000",
    "request_status": "Pending",
    "responsible_agency": "Department of Sanitation",
    "final_address": "11248 Lake Forest Blvd",
    "address_councildis": "E",
    "status": "Assigned to Contractor",
    "contractor": "Waste Pro",
    "rowid": "1255419",
    "final_x": "3716237.49343",
    "final_y": "561575.301983",
    "longitude": "-89.95724337105425",
    "latitude": "30.037035740024056",
    "geocoded_column": {
      "latitude": "30.037035740024056",
      "longitude": "-89.95724337105425"
    }
  },
  {
    "service_request": "2026-1255418",
    "request_type": "Abandoned Vehicles",
    "request_reason": "Abandoned/Junk Vehicles",
    "date_created": "2026-01-29T20:32:17.000",
    "date_modified": "2026-01-29T20:32:19.000",
    "request_status": "Pending",
    "responsible_agency": "Department of Public Works",
    "final_address": "5125 Bayouview Ct",
    "address_councildis": "E",
    "status": "Pending",
    "rowid": "1255418",
    "final_x": "3699201.55319",
    "final_y": "556261.623642",
    "longitude": "-90.01127414217838",
    "latitude": "30.022976717950453",
    "geocoded_column": {
      "latitude": "30.022976717950453",
      "longitude": "-90.01127414217838"
    }
  },
  {
    "service_request": "2026-1255417",
    "request_type": "General Services",
    "request_reason": "General Service Request",
    "date_created": "2026-01-29T20:29:51.000",
    "date_modified": "2026-01-29T20:29:53.000",
    "request_status": "Pending",
    "responsible_agency": "Orleans Parish Communication District",
    "final_address": "3009 Dumaine St",
    "address_councildis": "A",
    "status": "Pending",
    "rowid": "1255417",
    "final_x": "3676113.54069",
    "final_y": "538367.312393",
    "longitude": "-90.08484325298588",
    "latitude": "29.97448592185667",
    "geocoded_column": {
      "latitude": "29.97448592185667",
      "longitude": "-90.08484325298588"
    }
  },
  {
    "service_request": "2026-1255416",
    "request_type": "Streetlights",
    "request_reason": "Streetlight Knocked Down/Leaning",
    "date_created": "2026-01-29T20:23:40.000",
    "date_modified": "2026-01-29T20:23:42.000",
    "request_status": "Pending",
    "responsible_agency": "Department of Public Works",
    "final_address": "5125 Bayouview Ct",
    "address_councildis": "E",
    "status": "Pending",
    "rowid": "1255416",
    "final_x": "3699201.55319",
    "final_y": "556261.623642",
    "longitude": "-90.01127414217838",
    "latitude": "30.022976717950453",
    "geocoded_column": {
      "latitude": "30.022976717950453",
      "longitude": "-90.01127414217838"
    }
  },
  {
    "service_request": "2026-1255415",
    "request_type": "Trash/Recycling",
    "request_reason": "Replace Trash Cart",
    "date_created": "2026-01-29T20:13:18.000",
    "date_modified": "2026-01-29T20:13:20.000",
    "request_status": "Pending",
    "responsible_agency": "Department of Sanitation",
    "final_address": "7511 Symmes Ave",
    "address_councildis": "E",
    "status": "Assigned to Contractor",
    "contractor": "Waste Pro",
    "rowid": "1255415",
    "final_x": "3708086.12523",
    "final_y": "564335.733665",
    "longitude": "-89.98290045920558",
    "latitude": "30.044892478575196",
    "geocoded_column": {
      "latitude": "30.044892478575196",
      "longitude": "-89.98290045920558"
    }
  },
  {
    "service_request": "2026-1255414",
    "request_type": "Safety & Permits",
    "request_reason": "Licenses & Permits",
    "date_created": "2026-01-29T20:09:53.000",
    "date_modified": "2026-01-29T20:09:55.000",
    "request_status": "Pending",
    "responsible_agency": "Safety and Permits",
    "final_address": "1205 Leboeuf St",
    "address_councildis": "C",
    "status": "Pending",
    "rowid": "1255414",
    "final_x": "3689677.42268",
    "final_y": "527049.601662",
    "longitude": "-90.04240807995363",
    "latitude": "29.94295280372364",
    "geocoded_column": {
      "latitude": "29.94295280372364",
      "longitude": "-90.04240807995363"
    }
  },
  {
    "service_request": "2026-1255413",
    "request_type": "Trash/Recycling",
    "request_reason": "Replace Trash Cart",
    "date_created": "2026-01-29T19:30:51.000",
    "date_modified": "2026-01-29T19:30:55.000",
    "request_status": "Pending",
    "responsible_agency": "Department of Sanitation",
    "final_address": "618 Cherokee St",
    "address_councildis": "A",
    "status": "Assigned to Contractor",
    "contractor": "IV Waste",
    "rowid": "1255413",
    "final_x": "3662235.856",
    "final_y": "525570.743101",
    "longitude": "-90.12909729109715",
    "latitude": "29.939707978807796",
    "geocoded_column": {
      "latitude": "29.939707978807796",
      "longitude": "-90.12909729109715"
    }
  },
  {
    "service_request": "2026-1255412",
    "request_type": "Trash/Recycling",
    "request_reason": "Order Recycling Cart",
    "date_created": "2026-01-29T19:00:51.000",
    "date_modified": "2026-01-29T19:00:53.000",
    "request_status": "Pending",
    "responsible_agency": "Department of Sanitation",
    "final_address": "5318 Venus St",
    "address_councildis": "D",
    "status": "Pending",
    "rowid": "1255412",
    "final_x": "3686310.15766",
    "final_y": "552380.514774",
    "longitude": "-90.05214510411979",
    "latitude": "30.012707778368338",
    "geocoded_column": {
      "latitude": "30.012707778368338",
      "longitude": "-90.05214510411979"
    }
  },
  {
    "service_request": "2026-1255411",
    "request_type": "Health Related Request",
    "request_reason": "Noise Ordinance Complaint",
    "date_created": "2026-01-29T18:40:44.000",
    "date_modified": "2026-01-29T18:40:46.000",
    "request_status": "Pending",
    "responsible_agency": "Health Department",
    "final_address": "6326 Caldwell Dr, New Orleans, Louisiana, 70122",
    "address_councildis": "D",
    "status": "Pending",
    "rowid": "1255411",
    "final_x": "3679048.70613",
    "final_y": "556884.792346",
    "longitude": "-90.0749310164164",
    "latitude": "30.02531415535802",
    "geocoded_column": {
      "latitude": "30.02531415535802",
      "longitude": "-90.0749310164164"
    }
  },
  {
    "service_request": "2026-1255410",
    "request_type": "Health Related Request",
    "request_reason": "Noise Ordinance Complaint",
    "date_created": "2026-01-29T18:39:03.000",
    "date_modified": "2026-01-29T18:39:05.000",
    "request_status": "Pending",
    "responsible_agency": "Health Department",
    "final_address": "6326 Caldwell Dr, New Orleans, Louisiana, 70122",
    "address_councildis": "D",
    "status": "Pending",
    "rowid": "1255410",
    "final_x": "3679048.70613",
    "final_y": "556884.792346",
    "longitude": "-90.0749310164164",
    "latitude": "30.02531415535802",
    "geocoded_column": {
      "latitude": "30.02531415535802",
      "longitude": "-90.0749310164164"
    }
  },
  {
    "service_request": "2026-1255409",
    "request_type": "Health Related Request",
    "request_reason": "Noise Ordinance Complaint",
    "date_created": "2026-01-29T18:28:07.000",
    "date_modified": "2026-01-29T18:28:11.000",
    "request_status": "Pending",
    "responsible_agency": "Health Department",
    "final_address": "6326 Caldwell Dr, New Orleans, Louisiana, 70122",
    "address_councildis": "D",
    "status": "Pending",
    "rowid": "1255409",
    "final_x": "3679048.70613",
    "final_y": "556884.792346",
    "longitude": "-90.0749310164164",
    "latitude": "30.02531415535802",
    "geocoded_column": {
      "latitude": "30.02531415535802",
      "longitude": "-90.0749310164164"
    }
  },
  {
    "service_request": "2026-1255402",
    "request_type": "General Services",
    "request_reason": "General Service Request",
    "date_created": "2026-01-29T18:20:42.000",
    "date_modified": "2026-01-29T18:20:43.000",
    "request_status": "Pending",
    "responsible_agency": "Orleans Parish Communication District",
    "final_address": "3723 Carondelet St",
    "address_councildis": "B",
    "status": "Pending",
    "rowid": "1255402",
    "final_x": "3672832.96494",
    "final_y": "521590.494777",
    "longitude": "-90.09577638550904",
    "latitude": "29.928453095250283",
    "geocoded_column": {
      "latitude": "29.928453095250283",
      "longitude": "-90.09577638550904"
    }
  },
  {
    "service_request": "2026-1255401",
    "request_type": "Alley Ways",
    "request_reason": "Alley Way Issues",
    "date_created": "2026-01-29T18:17:41.000",
    "date_modified": "2026-01-29T18:17:42.000",
    "request_status": "Pending",
    "responsible_agency": "Department of Public Works",
    "final_address": "6122 Canal Blvd",
    "address_councildis": "A",
    "status": "Pending",
    "rowid": "1255401",
    "final_x": "3668424.81678",
    "final_y": "548138.981778",
    "longitude": "-90.10879636401688",
    "latitude": "30.001582790384592",
    "geocoded_column": {
      "latitude": "30.001582790384592",
      "longitude": "-90.10879636401688"
    }
  },
  {
    "service_request": "2026-1255400",
    "request_type": "Trash/Recycling",
    "request_reason": "Request a Large Item Pick Up",
    "date_created": "2026-01-29T18:10:08.000",
    "date_modified": "2026-01-29T18:10:10.000",
    "request_status": "Pending",
    "responsible_agency": "Department of Sanitation",
    "final_address": "915 Franklin Ave",
    "address_councildis": "C",
    "status": "Assigned to Contractor",
    "contractor": "IV Waste",
    "rowid": "1255400",
    "final_x": "3686985.40169",
    "final_y": "535799.561223",
    "longitude": "-90.0505981621494",
    "latitude": "29.967095305933835",
    "geocoded_column": {
      "latitude": "29.967095305933835",
      "longitude": "-90.0505981621494"
    }
  },
  {
    "service_request": "2026-1255399",
    "request_type": "Abandoned Vehicles",
    "request_reason": "Abandoned/Junk Vehicles",
    "date_created": "2026-01-29T18:02:35.000",
    "date_modified": "2026-01-29T18:02:36.000",
    "request_status": "Pending",
    "responsible_agency": "Department of Public Works",
    "final_address": "316 Vallette St",
    "address_councildis": "C",
    "status": "Pending",
    "rowid": "1255399",
    "final_x": "3687596.45756",
    "final_y": "530627.611778",
    "longitude": "-90.04885154096822",
    "latitude": "29.95285541077239",
    "geocoded_column": {
      "latitude": "29.95285541077239",
      "longitude": "-90.04885154096822"
    }
  },
  {
    "service_request": "2026-1255398",
    "request_type": "Trash/Recycling",
    "request_reason": "Request a Large Item Pick Up",
    "date_created": "2026-01-29T17:52:10.000",
    "date_modified": "2026-01-29T17:52:11.000",
    "request_status": "Pending",
    "responsible_agency": "Department of Sanitation",
    "final_address": "935 Piety St",
    "address_councildis": "C",
    "status": "Assigned to Contractor",
    "contractor": "IV Waste",
    "rowid": "1255398",
    "final_x": "3689734.11209",
    "final_y": "535272.841862",
    "longitude": "-90.04193649036444",
    "latitude": "29.965562116179317",
    "geocoded_column": {
      "latitude": "29.965562116179317",
      "longitude": "-90.04193649036444"
    }
  },
  {
    "service_request": "2026-1255397",
    "request_type": "Trash/Recycling",
    "request_reason": "Request a Large Item Pick Up",
    "date_created": "2026-01-29T17:51:44.000",
    "date_modified": "2026-01-29T17:51:46.000",
    "request_status": "Pending",
    "responsible_agency": "Department of Sanitation",
    "final_address": "1127 Eighth St",
    "address_councildis": "B",
    "status": "Assigned to Contractor",
    "contractor": "IV Waste",
    "rowid": "1255397",
    "final_x": "3676026.18933",
    "final_y": "520415.980216",
    "longitude": "-90.08573642413951",
    "latitude": "29.925128343073006",
    "geocoded_column": {
      "latitude": "29.925128343073006",
      "longitude": "-90.08573642413951"
    }
  },
  {
    "service_request": "2026-1255396",
    "request_type": "Streetlights",
    "request_reason": "Streetlight Outage/Malfunction",
    "date_created": "2026-01-29T17:43:38.000",
    "date_modified": "2026-01-29T17:43:39.000",
    "request_status": "Pending",
    "responsible_agency": "Department of Public Works",
    "final_address": "1 Allen St",
    "address_councildis": "D",
    "status": "Pending",
    "rowid": "1255396",
    "final_x": "3682044.14812",
    "final_y": "544653.067983",
    "longitude": "-90.06589339595547",
    "latitude": "29.99159053453871",
    "geocoded_column": {
      "latitude": "29.99159053453871",
      "longitude": "-90.06589339595547"
    }
  },
  {
    "service_request": "2026-1255395",
    "request_type": "Trash/Recycling",
    "request_reason": "Request a Large Item Pick Up",
    "date_created": "2026-01-29T17:17:29.000",
    "date_modified": "2026-01-29T17:17:31.000",
    "request_status": "Pending",
    "responsible_agency": "Department of Sanitation",
    "final_address": "2614 Magnolia St",
    "address_councildis": "B",
    "status": "Assigned to Contractor",
    "contractor": "IV Waste",
    "rowid": "1255395",
    "final_x": "3674179.60468",
    "final_y": "526062.194686",
    "longitude": "-90.09137232414128",
    "latitude": "29.940708755145405",
    "geocoded_column": {
      "latitude": "29.940708755145405",
      "longitude": "-90.09137232414128"
    }
  },
  {
    "service_request": "2026-1255394",
    "request_type": "Trash/Recycling",
    "request_reason": "Request a Large Item Pick Up",
    "date_created": "2026-01-29T17:16:51.000",
    "date_modified": "2026-01-29T17:16:53.000",
    "request_status": "Pending",
    "responsible_agency": "Department of Sanitation",
    "final_address": "532 Chartres St",
    "address_councildis": "C",
    "status": "Assigned to Contractor",
    "contractor": "IV Waste",
    "rowid": "1255394",
    "final_x": "3682564.34799",
    "final_y": "531852.082691",
    "longitude": "-90.0646978875855",
    "latitude": "29.956376438175962",
    "geocoded_column": {
      "latitude": "29.956376438175962",
      "longitude": "-90.0646978875855"
    }
  },
  {
    "service_request": "2026-1255393",
    "request_type": "Roads and Streets",
    "request_reason": "Debris in Driving Lanes",
    "date_created": "2026-01-29T17:14:47.000",
    "date_modified": "2026-01-29T17:14:49.000",
    "request_status": "Pending",
    "responsible_agency": "Department of Public Works",
    "final_address": "2210 Felicity St",
    "address_councildis": "B",
    "status": "Pending",
    "rowid": "1255393",
    "final_x": "3676584.56405",
    "final_y": "526416.054078",
    "longitude": "-90.08376726425115",
    "latitude": "29.941609857036457",
    "geocoded_column": {
      "latitude": "29.941609857036457",
      "longitude": "-90.08376726425115"
    }
  },
  {
    "service_request": "2026-1255392",
    "request_type": "Trash/Recycling",
    "request_reason": "Request a Large Item Pick Up",
    "date_created": "2026-01-29T17:00:40.000",
    "date_modified": "2026-01-29T17:00:44.000",
    "request_status": "Pending",
    "responsible_agency": "Department of Sanitation",
    "final_address": "7920 Branch Dr",
    "address_councildis": "E",
    "status": "Assigned to Contractor",
    "contractor": "Waste Pro",
    "rowid": "1255392",
    "final_x": "3714046.59237",
    "final_y": "569554.612198",
    "longitude": "-89.96386565212174",
    "latitude": "30.05904776344523",
    "geocoded_column": {
      "latitude": "30.05904776344523",
      "longitude": "-89.96386565212174"
    }
  },
  {
    "service_request": "2026-1255391",
    "request_type": "Abandoned Vehicles",
    "request_reason": "Abandoned/Junk Vehicles",
    "date_created": "2026-01-29T16:47:10.000",
    "date_modified": "2026-01-29T16:47:12.000",
    "request_status": "Pending",
    "responsible_agency": "Department of Public Works",
    "final_address": "2104 Louisiana Ave",
    "address_councildis": "B",
    "status": "Pending",
    "rowid": "1255391",
    "final_x": "3673400.55073",
    "final_y": "523219.748987",
    "longitude": "-90.09392900461482",
    "latitude": "29.932916149701583",
    "geocoded_column": {
      "latitude": "29.932916149701583",
      "longitude": "-90.09392900461482"
    }
  },
  {
    "service_request": "2026-1255390",
    "request_type": "Trash/Recycling",
    "request_reason": "Repair Trash Cart",
    "date_created": "2026-01-29T16:42:46.000",
    "date_modified": "2026-01-29T16:42:48.000",
    "request_status": "Pending",
    "responsible_agency": "Department of Sanitation",
    "final_address": "7524 Oak St",
    "address_councildis": "A",
    "status": "Assigned to Contractor",
    "contractor": "IV Waste",
    "rowid": "1255390",
    "final_x": "3663343.86483",
    "final_y": "527075.703998",
    "longitude": "-90.12554905279262",
    "latitude": "29.94381407531962",
    "geocoded_column": {
      "latitude": "29.94381407531962",
      "longitude": "-90.12554905279262"
    }
  },
  {
    "service_request": "2026-1255389",
    "request_type": "Streetlights",
    "request_reason": "Streetlight Outage/Malfunction",
    "date_created": "2026-01-29T16:42:28.000",
    "date_modified": "2026-01-29T16:42:30.000",
    "request_status": "Pending",
    "responsible_agency": "Department of Public Works",
    "final_address": "2674 New York St",
    "address_councildis": "D",
    "status": "Pending",
    "rowid": "1255389",
    "final_x": "3686971.45686",
    "final_y": "556755.70345",
    "longitude": "-90.04990093590673",
    "latitude": "30.02471758238721",
    "geocoded_column": {
      "latitude": "30.02471758238721",
      "longitude": "-90.04990093590673"
    }
  },
  {
    "service_request": "2026-1255388",
    "request_type": "Property Maintenance",
    "request_reason": "Property Maintenance",
    "date_created": "2026-01-29T16:42:21.000",
    "date_modified": "2026-01-29T16:42:24.000",
    "request_status": "Pending",
    "responsible_agency": "Department of Code Enforcement",
    "final_address": "4629 Gaines St",
    "address_councildis": "D",
    "status": "Pending",
    "rowid": "1255388",
    "final_x": "3691079.16284",
    "final_y": "551388.660629",
    "longitude": "-90.03711316966044",
    "latitude": "30.009833064582338",
    "geocoded_column": {
      "latitude": "30.009833064582338",
      "longitude": "-90.03711316966044"
    }
  },
  {
    "service_request": "2026-1255387",
    "request_type": "Parks & Parkways",
    "request_reason": "Request Grass Cutting Service (City Owned Property)",
    "date_created": "2026-01-29T16:39:10.000",
    "date_modified": "2026-01-29T16:39:14.000",
    "request_status": "Pending",
    "responsible_agency": "Department of Parks & Parkway",
    "final_address": "4700 Mark Twain Dr",
    "address_councildis": "D",
    "status": "Pending",
    "rowid": "1255387",
    "final_x": "3691359.24022",
    "final_y": "551041.033365",
    "longitude": "-90.03624074017903",
    "latitude": "30.008868503207584",
    "geocoded_column": {
      "latitude": "30.008868503207584",
      "longitude": "-90.03624074017903"
    }
  },
  {
    "service_request": "2026-1255386",
    "request_type": "Trash/Recycling",
    "request_reason": "Order Trash Cart",
    "date_created": "2026-01-29T16:37:24.000",
    "date_modified": "2026-01-29T16:37:25.000",
    "request_status": "Pending",
    "responsible_agency": "Department of Sanitation",
    "final_address": "7935 Read Blvd",
    "address_councildis": "E",
    "status": "Assigned to Contractor",
    "contractor": "Waste Pro",
    "rowid": "1255386",
    "final_x": "3708024.04235",
    "final_y": "565669.858082",
    "longitude": "-89.98304698090921",
    "latitude": "30.048562798069476",
    "geocoded_column": {
      "latitude": "30.048562798069476",
      "longitude": "-89.98304698090921"
    }
  },
  {
    "service_request": "2026-1255385",
    "request_type": "Trash/Recycling",
    "request_reason": "Return Recycling Cart",
    "date_created": "2026-01-29T16:36:13.000",
    "date_modified": "2026-01-29T16:36:15.000",
    "request_status": "Pending",
    "responsible_agency": "Department of Sanitation",
    "final_address": "4112 Magazine St",
    "address_councildis": "B",
    "status": "Pending",
    "rowid": "1255385",
    "final_x": "3672035.78587",
    "final_y": "518840.687351",
    "longitude": "-90.09838646944863",
    "latitude": "29.920915654664906",
    "geocoded_column": {
      "latitude": "29.920915654664906",
      "longitude": "-90.09838646944863"
    }
  },
  {
    "service_request": "2026-1255384",
    "request_type": "Trash/Recycling",
    "request_reason": "Order Trash Cart",
    "date_created": "2026-01-29T16:32:20.000",
    "date_modified": "2026-01-29T16:32:22.000",
    "request_status": "Pending",
    "responsible_agency": "Department of Sanitation",
    "final_address": "2758 Gladiolus St",
    "address_councildis": "D",
    "status": "Assigned to Contractor",
    "contractor": "IV Waste",
    "rowid": "1255384",
    "final_x": "3688241.89065",
    "final_y": "547559.25909",
    "longitude": "-90.04621301126267",
    "latitude": "29.999391554871657",
    "geocoded_column": {
      "latitude": "29.999391554871657",
      "longitude": "-90.04621301126267"
    }
  },
  {
    "service_request": "2026-1255383",
    "request_type": "Trash/Recycling",
    "request_reason": "Replace Recycling Cart",
    "date_created": "2026-01-29T16:27:54.000",
    "date_modified": "2026-01-29T16:27:56.000",
    "request_status": "Pending",
    "responsible_agency": "Department of Sanitation",
    "final_address": "4721 Francisco Verrett Dr",
    "address_councildis": "E",
    "status": "Pending",
    "rowid": "1255383",
    "final_x": "3704263.90225",
    "final_y": "555119.974105",
    "longitude": "-89.99532049904191",
    "latitude": "30.01967604777596",
    "geocoded_column": {
      "latitude": "30.01967604777596",
      "longitude": "-89.99532049904191"
    }
  },
  {
    "service_request": "2026-1255382",
    "request_type": "Trash/Recycling",
    "request_reason": "Request a Large Item Pick Up",
    "date_created": "2026-01-29T16:25:07.000",
    "date_modified": "2026-01-29T16:25:08.000",
    "request_status": "Pending",
    "responsible_agency": "Department of Sanitation",
    "final_address": "10931 Roger Dr",
    "address_councildis": "E",
    "status": "Assigned to Contractor",
    "contractor": "Waste Pro",
    "rowid": "1255382",
    "final_x": "3711983.80453",
    "final_y": "563371.03248",
    "longitude": "-89.97061834358104",
    "latitude": "30.042113055697705",
    "geocoded_column": {
      "latitude": "30.042113055697705",
      "longitude": "-89.97061834358104"
    }
  },
  {
    "service_request": "2026-1255381",
    "request_type": "Trash/Recycling",
    "request_reason": "Request a Large Item Pick Up",
    "date_created": "2026-01-29T16:24:28.000",
    "date_modified": "2026-01-29T16:24:29.000",
    "request_status": "Pending",
    "responsible_agency": "Department of Sanitation",
    "final_address": "6000 Painters St",
    "address_councildis": "D",
    "status": "Assigned to Contractor",
    "contractor": "IV Waste",
    "rowid": "1255381",
    "final_x": "3686006.67247",
    "final_y": "555206.898777",
    "longitude": "-90.05300416956645",
    "latitude": "30.020488621573765",
    "geocoded_column": {
      "latitude": "30.020488621573765",
      "longitude": "-90.05300416956645"
    }
  },
  {
    "service_request": "2026-1255380",
    "request_type": "Trash/Recycling",
    "request_reason": "MIssed Recycling Pick-Up",
    "date_created": "2026-01-29T16:22:41.000",
    "date_modified": "2026-01-29T16:57:07.000",
    "case_close_date": "2026-01-29T10:57:05.000",
    "request_status": "Closed",
    "responsible_agency": "Department of Sanitation",
    "final_address": "2105 Milan St",
    "address_councildis": "B",
    "status": "Invalid Request",
    "contractor": "IV Waste",
    "contractor_action": "Invalid Request",
    "rowid": "1255380",
    "final_x": "3671449.51105",
    "final_y": "522794.027899",
    "longitude": "-90.10010277080632",
    "latitude": "29.93180343745689",
    "geocoded_column": {
      "latitude": "29.93180343745689",
      "longitude": "-90.10010277080632"
    }
  },
  {
    "service_request": "2026-1255379",
    "request_type": "Trash/Recycling",
    "request_reason": "Request a Large Item Pick Up",
    "date_created": "2026-01-29T16:19:52.000",
    "date_modified": "2026-01-29T16:19:54.000",
    "request_status": "Pending",
    "responsible_agency": "Department of Sanitation",
    "final_address": "6661 Avenue A",
    "address_councildis": "A",
    "status": "Assigned to Contractor",
    "contractor": "IV Waste",
    "rowid": "1255379",
    "final_x": "3666133.35917",
    "final_y": "552471.767126",
    "longitude": "-90.11588990262638",
    "latitude": "30.01356357943674",
    "geocoded_column": {
      "latitude": "30.01356357943674",
      "longitude": "-90.11588990262638"
    }
  },
  {
    "service_request": "2026-1255378",
    "request_type": "Trash/Recycling",
    "request_reason": "Repair Recycling Cart",
    "date_created": "2026-01-29T16:19:34.000",
    "date_modified": "2026-01-29T16:19:36.000",
    "request_status": "Pending",
    "responsible_agency": "Department of Sanitation",
    "final_address": "4026 Banks St",
    "address_councildis": "A",
    "status": "Pending",
    "rowid": "1255378",
    "final_x": "3670521.22375",
    "final_y": "537171.024584",
    "longitude": "-90.10254576569902",
    "latitude": "29.97136289317508",
    "geocoded_column": {
      "latitude": "29.97136289317508",
      "longitude": "-90.10254576569902"
    }
  },
  {
    "service_request": "2026-1255377",
    "request_type": "Trash/Recycling",
    "request_reason": "Replace Trash Cart",
    "date_created": "2026-01-29T16:11:36.000",
    "date_modified": "2026-01-29T16:11:38.000",
    "request_status": "Pending",
    "responsible_agency": "Department of Sanitation",
    "final_address": "1816 General Taylor St",
    "address_councildis": "B",
    "status": "Assigned to Contractor",
    "contractor": "IV Waste",
    "rowid": "1255377",
    "final_x": "3672387.01153",
    "final_y": "521907.191546",
    "longitude": "-90.09717338171049",
    "latitude": "29.929337145742284",
    "geocoded_column": {
      "latitude": "29.929337145742284",
      "longitude": "-90.09717338171049"
    }
  },
  {
    "service_request": "2026-1255376",
    "request_type": "Trash/Recycling",
    "request_reason": "Order Second Trash Cart",
    "date_created": "2026-01-29T16:08:04.000",
    "date_modified": "2026-01-29T16:08:14.000",
    "request_status": "Pending",
    "responsible_agency": "Department of Sanitation",
    "final_address": "738 Amelia St",
    "address_councildis": "B",
    "status": "Assigned to Contractor",
    "contractor": "IV Waste",
    "rowid": "1255376",
    "final_x": "3673890.2155",
    "final_y": "518038.490678",
    "longitude": "-90.09256028702887",
    "latitude": "29.918654783831077",
    "geocoded_column": {
      "latitude": "29.918654783831077",
      "longitude": "-90.09256028702887"
    }
  },
  {
    "service_request": "2026-1255375",
    "request_type": "Trash/Recycling",
    "request_reason": "Return Trash Cart",
    "date_created": "2026-01-29T16:07:05.000",
    "date_modified": "2026-01-29T16:07:09.000",
    "request_status": "Pending",
    "responsible_agency": "Department of Sanitation",
    "final_address": "1800 Magazine St",
    "address_councildis": "B",
    "status": "Assigned to Contractor",
    "contractor": "IV Waste",
    "rowid": "1255375",
    "final_x": "3679911.73397",
    "final_y": "522898.193083",
    "longitude": "-90.0733848498623",
    "latitude": "29.93183671549341",
    "geocoded_column": {
      "latitude": "29.93183671549341",
      "longitude": "-90.0733848498623"
    }
  },
  {
    "service_request": "2026-1255374",
    "request_type": "Trash/Recycling",
    "request_reason": "Repair Recycling Cart",
    "date_created": "2026-01-29T16:02:49.000",
    "date_modified": "2026-01-29T16:02:51.000",
    "request_status": "Pending",
    "responsible_agency": "Department of Sanitation",
    "final_address": "2021 S Carrollton Ave",
    "address_councildis": "A",
    "status": "Pending",
    "rowid": "1255374",
    "final_x": "3664071.73696",
    "final_y": "530439.631426",
    "longitude": "-90.1231387799711",
    "latitude": "29.953042676011275",
    "geocoded_column": {
      "latitude": "29.953042676011275",
      "longitude": "-90.1231387799711"
    }
  },
  {
    "service_request": "2026-1255373",
    "request_type": "Safety & Permits",
    "request_reason": "Zoning Enforcement",
    "date_created": "2026-01-29T15:58:52.000",
    "date_modified": "2026-01-29T15:58:54.000",
    "request_status": "Pending",
    "responsible_agency": "Safety and Permits",
    "final_address": "516 Thayer St",
    "address_councildis": "C",
    "status": "Pending",
    "rowid": "1255373",
    "final_x": "3689576.19913",
    "final_y": "529682.759553",
    "longitude": "-90.04263402111904",
    "latitude": "29.950196221345085",
    "geocoded_column": {
      "latitude": "29.950196221345085",
      "longitude": "-90.04263402111904"
    }
  },
  {
    "service_request": "2026-1255372",
    "request_type": "Trash/Recycling",
    "request_reason": "Repair Recycling Cart",
    "date_created": "2026-01-29T15:57:19.000",
    "date_modified": "2026-01-29T15:57:21.000",
    "request_status": "Pending",
    "responsible_agency": "Department of Sanitation",
    "final_address": "908 Fern St",
    "address_councildis": "A",
    "status": "Pending",
    "rowid": "1255372",
    "final_x": "3661854.66298",
    "final_y": "527171.849215",
    "longitude": "-90.13024770251916",
    "latitude": "29.944121521820318",
    "geocoded_column": {
      "latitude": "29.944121521820318",
      "longitude": "-90.13024770251916"
    }
  },
  {
    "service_request": "2026-1255371",
    "request_type": "Roads and Streets",
    "request_reason": "Abandoned Service Cut",
    "date_created": "2026-01-29T15:55:52.000",
    "date_modified": "2026-01-29T15:55:53.000",
    "request_status": "Pending",
    "responsible_agency": "Department of Public Works",
    "final_address": "1031 S Carrollton Ave",
    "address_councildis": "A",
    "status": "Pending",
    "rowid": "1255371",
    "final_x": "3661802.12902",
    "final_y": "527925.366399",
    "longitude": "-90.13038859147233",
    "latitude": "29.94619497020936",
    "geocoded_column": {
      "latitude": "29.94619497020936",
      "longitude": "-90.13038859147233"
    }
  },
  {
    "service_request": "2026-1255370",
    "request_type": "Roads and Streets",
    "request_reason": "Pothole",
    "date_created": "2026-01-29T15:52:40.000",
    "date_modified": "2026-01-29T15:52:42.000",
    "request_status": "Pending",
    "responsible_agency": "Department of Public Works",
    "final_address": "5368 St Bernard Ave",
    "address_councildis": "D",
    "status": "Pending",
    "rowid": "1255370",
    "final_x": "3676753.1572",
    "final_y": "551954.776214",
    "longitude": "-90.08235468867035",
    "latitude": "30.011827510663093",
    "geocoded_column": {
      "latitude": "30.011827510663093",
      "longitude": "-90.08235468867035"
    }
  },
  {
    "service_request": "2026-1255369",
    "request_type": "Trash/Recycling",
    "request_reason": "Request a Large Item Pick Up",
    "date_created": "2026-01-29T15:49:12.000",
    "date_modified": "2026-01-29T15:49:14.000",
    "request_status": "Pending",
    "responsible_agency": "Department of Sanitation",
    "final_address": "4512 Virgilian St",
    "address_councildis": "D",
    "status": "Assigned to Contractor",
    "contractor": "Waste Pro",
    "rowid": "1255369",
    "final_x": "3697515.51191",
    "final_y": "552527.696214",
    "longitude": "-90.01673719139977",
    "latitude": "30.01276321196407",
    "geocoded_column": {
      "latitude": "30.01276321196407",
      "longitude": "-90.01673719139977"
    }
  },
  {
    "service_request": "2026-1255368",
    "request_type": "Streetlights",
    "request_reason": "Streetlight Outage/Malfunction",
    "date_created": "2026-01-29T15:48:39.000",
    "date_modified": "2026-01-29T15:48:41.000",
    "request_status": "Pending",
    "responsible_agency": "Department of Public Works",
    "final_address": "1643 Louisa St",
    "address_councildis": "D",
    "status": "Pending",
    "rowid": "1255368",
    "final_x": "3690144.80272",
    "final_y": "538041.635145",
    "longitude": "-90.04054089987378",
    "latitude": "29.973162590205153",
    "geocoded_column": {
      "latitude": "29.973162590205153",
      "longitude": "-90.04054089987378"
    }
  },
  {
    "service_request": "2026-1255367",
    "request_type": "Streetlights",
    "request_reason": "Streetlight Outage/Malfunction",
    "date_created": "2026-01-29T15:42:56.000",
    "date_modified": "2026-01-29T15:42:57.000",
    "request_status": "Pending",
    "responsible_agency": "Department of Public Works",
    "final_address": "3822 Constance St",
    "address_councildis": "B",
    "status": "Pending",
    "rowid": "1255367",
    "final_x": "3673285.2123",
    "final_y": "518601.182071",
    "longitude": "-90.09445076425051",
    "latitude": "29.920220005689924",
    "geocoded_column": {
      "latitude": "29.920220005689924",
      "longitude": "-90.09445076425051"
    }
  },
  {
    "service_request": "2026-1255366",
    "request_type": "Trash/Recycling",
    "request_reason": "Repair Recycling Cart",
    "date_created": "2026-01-29T15:36:57.000",
    "date_modified": "2026-01-29T15:36:58.000",
    "request_status": "Pending",
    "responsible_agency": "Department of Sanitation",
    "final_address": "3041 Pocahontas St",
    "address_councildis": "D",
    "status": "Pending",
    "rowid": "1255366",
    "final_x": "3689484.36207",
    "final_y": "548436.723026",
    "longitude": "-90.04225678710826",
    "latitude": "30.001765827003563",
    "geocoded_column": {
      "latitude": "30.001765827003563",
      "longitude": "-90.04225678710826"
    }
  },
  {
    "service_request": "2026-1255365",
    "request_type": "Trash/Recycling",
    "request_reason": "Request a Large Item Pick Up",
    "date_created": "2026-01-29T15:36:15.000",
    "date_modified": "2026-01-29T15:36:17.000",
    "request_status": "Pending",
    "responsible_agency": "Department of Sanitation",
    "final_address": "12531 Carmel Pl",
    "address_councildis": "E",
    "status": "Assigned to Contractor",
    "contractor": "Waste Pro",
    "rowid": "1255365",
    "final_x": "3716359.7381",
    "final_y": "566925.797348",
    "longitude": "-89.9566539044965",
    "latitude": "30.051743387510015",
    "geocoded_column": {
      "latitude": "30.051743387510015",
      "longitude": "-89.9566539044965"
    }
  },
  {
    "service_request": "2026-1255364",
    "request_type": "Trash/Recycling",
    "request_reason": "Request a Large Item Pick Up",
    "date_created": "2026-01-29T15:36:11.000",
    "date_modified": "2026-01-29T15:36:12.000",
    "request_status": "Pending",
    "responsible_agency": "Department of Sanitation",
    "final_address": "4843 Bundy Rd",
    "address_councildis": "E",
    "status": "Assigned to Contractor",
    "contractor": "Waste Pro",
    "rowid": "1255364",
    "final_x": "3709397.99883",
    "final_y": "556442.25289",
    "longitude": "-89.97904921229964",
    "latitude": "30.02314595463323",
    "geocoded_column": {
      "latitude": "30.02314595463323",
      "longitude": "-89.97904921229964"
    }
  },
  {
    "service_request": "2026-1255363",
    "request_type": "Trash/Recycling",
    "request_reason": "Return Trash Cart",
    "date_created": "2026-01-29T15:32:25.000",
    "date_modified": "2026-01-29T15:32:27.000",
    "request_status": "Pending",
    "responsible_agency": "Department of Sanitation",
    "final_address": "3041 Pocahontas St",
    "address_councildis": "D",
    "status": "Assigned to Contractor",
    "contractor": "IV Waste",
    "rowid": "1255363",
    "final_x": "3689484.36207",
    "final_y": "548436.723026",
    "longitude": "-90.04225678710826",
    "latitude": "30.001765827003563",
    "geocoded_column": {
      "latitude": "30.001765827003563",
      "longitude": "-90.04225678710826"
    }
  },
  {
    "service_request": "2026-1255362",
    "request_type": "Roads and Streets",
    "request_reason": "Street Subsidence (Sinking)",
    "date_created": "2026-01-29T15:30:27.000",
    "date_modified": "2026-01-29T15:30:28.000",
    "request_status": "Pending",
    "responsible_agency": "Sewerage & Water Board",
    "final_address": "4840 St Bernard Ave",
    "address_councildis": "D",
    "status": "Pending",
    "rowid": "1255362",
    "final_x": "3676602.07483",
    "final_y": "550027.122196",
    "longitude": "-90.08289848429477",
    "latitude": "30.00653168441902",
    "geocoded_column": {
      "latitude": "30.00653168441902",
      "longitude": "-90.08289848429477"
    }
  },
  {
    "service_request": "2026-1255361",
    "request_type": "Tax and Revenue",
    "request_reason": "Occupational License Tax",
    "date_created": "2026-01-29T15:30:23.000",
    "date_modified": "2026-01-29T15:30:25.000",
    "request_status": "Pending",
    "responsible_agency": "Bureau of Revenue",
    "final_address": "2021 Lakeshore Dr",
    "address_councildis": "D",
    "status": "Pending",
    "rowid": "1255361",
    "final_x": "3682370.4758",
    "final_y": "559316.859165",
    "longitude": "-90.06434962205579",
    "latitude": "30.031900711804596",
    "geocoded_column": {
      "latitude": "30.031900711804596",
      "longitude": "-90.06434962205579"
    }
  },
  {
    "service_request": "2026-1255360",
    "request_type": "Trash/Recycling",
    "request_reason": "Request a Large Item Pick Up",
    "date_created": "2026-01-29T15:28:29.000",
    "date_modified": "2026-01-29T15:29:31.000",
    "request_status": "Pending",
    "responsible_agency": "Department of Sanitation",
    "final_address": "3041 Pocahontas St",
    "address_councildis": "D",
    "status": "Assigned to Contractor",
    "contractor": "IV Waste",
    "rowid": "1255360",
    "final_x": "3689484.36207",
    "final_y": "548436.723026",
    "longitude": "-90.04225678710826",
    "latitude": "30.001765827003563",
    "geocoded_column": {
      "latitude": "30.001765827003563",
      "longitude": "-90.04225678710826"
    }
  },
  {
    "service_request": "2026-1255359",
    "request_type": "Trash/Recycling",
    "request_reason": "Repair Trash Cart",
    "date_created": "2026-01-29T15:27:51.000",
    "date_modified": "2026-01-29T15:27:53.000",
    "request_status": "Pending",
    "responsible_agency": "Department of Sanitation",
    "final_address": "22 Rail St",
    "address_councildis": "D",
    "status": "Assigned to Contractor",
    "contractor": "IV Waste",
    "rowid": "1255359",
    "final_x": "3674344.00846",
    "final_y": "557112.606298",
    "longitude": "-90.08978936753957",
    "latitude": "30.026081791957534",
    "geocoded_column": {
      "latitude": "30.026081791957534",
      "longitude": "-90.08978936753957"
    }
  },
  {
    "service_request": "2026-1255358",
    "request_type": "Roads and Streets",
    "request_reason": "Sidewalk Damaged or Missing",
    "date_created": "2026-01-29T15:21:02.000",
    "date_modified": "2026-01-29T15:21:06.000",
    "request_status": "Pending",
    "responsible_agency": "Department of Public Works",
    "final_address": "1700 BLK N VillerÃ© St",
    "address_councildis": "C",
    "status": "Pending",
    "rowid": "1255358",
    "final_x": "3683242.71123",
    "final_y": "537271.393093",
    "longitude": "-90.06236603389894",
    "latitude": "29.971257009753938",
    "geocoded_column": {
      "latitude": "29.971257009753938",
      "longitude": "-90.06236603389894"
    }
  },
  {
    "service_request": "2026-1255357",
    "request_type": "Abandoned Vehicles",
    "request_reason": "Abandoned/Junk Vehicles",
    "date_created": "2026-01-29T15:20:31.000",
    "date_modified": "2026-01-29T15:20:33.000",
    "request_status": "Pending",
    "responsible_agency": "Department of Public Works",
    "final_address": "2777 Sage St",
    "address_councildis": "D",
    "status": "Pending",
    "rowid": "1255357",
    "final_x": "3688493.38486",
    "final_y": "545614.830864",
    "longitude": "-90.04548757338023",
    "latitude": "29.994037309942318",
    "geocoded_column": {
      "latitude": "29.994037309942318",
      "longitude": "-90.04548757338023"
    }
  },
  {
    "service_request": "2026-1255356",
    "request_type": "Safety & Permits",
    "request_reason": "Zoning Enforcement",
    "date_created": "2026-01-29T15:19:02.000",
    "date_modified": "2026-01-29T15:19:33.000",
    "request_status": "Pending",
    "responsible_agency": "Safety and Permits",
    "final_address": "2777 Sage St",
    "address_councildis": "D",
    "status": "Pending",
    "rowid": "1255356",
    "final_x": "3688493.38486",
    "final_y": "545614.830864",
    "longitude": "-90.04548757338023",
    "latitude": "29.994037309942318",
    "geocoded_column": {
      "latitude": "29.994037309942318",
      "longitude": "-90.04548757338023"
    }
  },
  {
    "service_request": "2026-1255355",
    "request_type": "Trash/Recycling",
    "request_reason": "Missed Trash Pick-Up",
    "date_created": "2026-01-29T15:18:56.000",
    "date_modified": "2026-01-29T16:07:18.000",
    "case_close_date": "2026-01-29T10:07:17.000",
    "request_status": "Closed",
    "responsible_agency": "Department of Sanitation",
    "final_address": "3830 Annunciation St",
    "address_councildis": "B",
    "status": "Invalid Request",
    "contractor": "IV Waste",
    "contractor_action": "Invalid Request",
    "rowid": "1255355",
    "final_x": "3673435.50638",
    "final_y": "517951.87999",
    "longitude": "-90.09399852423694",
    "latitude": "29.918430163130722",
    "geocoded_column": {
      "latitude": "29.918430163130722",
      "longitude": "-90.09399852423694"
    }
  },
  {
    "service_request": "2026-1255354",
    "request_type": "Trash/Recycling",
    "request_reason": "Repair Trash Cart",
    "date_created": "2026-01-29T15:14:40.000",
    "date_modified": "2026-01-29T15:14:41.000",
    "request_status": "Pending",
    "responsible_agency": "Department of Sanitation",
    "final_address": "4710 Viola St",
    "address_councildis": "E",
    "status": "Assigned to Contractor",
    "contractor": "Waste Pro",
    "rowid": "1255354",
    "final_x": "3703971.56823",
    "final_y": "555000.132569",
    "longitude": "-89.99624859008414",
    "latitude": "30.019355912612035",
    "geocoded_column": {
      "latitude": "30.019355912612035",
      "longitude": "-89.99624859008414"
    }
  },
  {
    "service_request": "2026-1255353",
    "request_type": "Streetlights",
    "request_reason": "Streetlight Outage/Malfunction",
    "date_created": "2026-01-29T15:12:37.000",
    "date_modified": "2026-01-29T15:12:39.000",
    "request_status": "Pending",
    "responsible_agency": "Department of Public Works",
    "final_address": "22 Rail St",
    "address_councildis": "D",
    "status": "Pending",
    "rowid": "1255353",
    "final_x": "3674344.00846",
    "final_y": "557112.606298",
    "longitude": "-90.08978936753957",
    "latitude": "30.026081791957534",
    "geocoded_column": {
      "latitude": "30.026081791957534",
      "longitude": "-90.08978936753957"
    }
  },
  {
    "service_request": "2026-1255352",
    "request_type": "Trash/Recycling",
    "request_reason": "Repair Recycling Cart",
    "date_created": "2026-01-29T15:10:11.000",
    "date_modified": "2026-01-29T15:10:13.000",
    "request_status": "Pending",
    "responsible_agency": "Department of Sanitation",
    "final_address": "6405 Milne Blvd",
    "address_councildis": "A",
    "status": "Pending",
    "rowid": "1255352",
    "final_x": "3667425.18049",
    "final_y": "550274.659796",
    "longitude": "-90.1118824046456",
    "latitude": "30.007484499559524",
    "geocoded_column": {
      "latitude": "30.007484499559524",
      "longitude": "-90.1118824046456"
    }
  },
  {
    "service_request": "2026-1255351",
    "request_type": "Trash/Recycling",
    "request_reason": "Request a Large Item Pick Up",
    "date_created": "2026-01-29T15:07:44.000",
    "date_modified": "2026-01-29T15:07:45.000",
    "request_status": "Pending",
    "responsible_agency": "Department of Sanitation",
    "final_address": "4837 Bonita Dr",
    "address_councildis": "E",
    "status": "Assigned to Contractor",
    "contractor": "Waste Pro",
    "rowid": "1255351",
    "final_x": "3704508.43921",
    "final_y": "555905.868441",
    "longitude": "-89.99451883500343",
    "latitude": "30.021829100264526",
    "geocoded_column": {
      "latitude": "30.021829100264526",
      "longitude": "-89.99451883500343"
    }
  },
  {
    "service_request": "2026-1255350",
    "request_type": "Property Maintenance",
    "request_reason": "Property Maintenance",
    "date_created": "2026-01-29T15:06:37.000",
    "date_modified": "2026-01-29T15:06:39.000",
    "request_status": "Pending",
    "responsible_agency": "Department of Code Enforcement",
    "final_address": "4350 General De Gaulle Dr",
    "address_councildis": "C",
    "status": "Pending",
    "rowid": "1255350",
    "final_x": "3699735.21348",
    "final_y": "518581.886519",
    "longitude": "-90.01096192415491",
    "latitude": "29.919354108661576",
    "geocoded_column": {
      "latitude": "29.919354108661576",
      "longitude": "-90.01096192415491"
    }
  },
  {
    "service_request": "2026-1255349",
    "request_type": "Trash/Recycling",
    "request_reason": "Request a Large Item Pick Up",
    "date_created": "2026-01-29T15:04:30.000",
    "date_modified": "2026-01-29T15:04:32.000",
    "request_status": "Pending",
    "responsible_agency": "Department of Sanitation",
    "final_address": "3432 Annunciation St",
    "address_councildis": "B",
    "status": "Assigned to Contractor",
    "contractor": "IV Waste",
    "rowid": "1255349",
    "final_x": "3675210.52923",
    "final_y": "518470.878582",
    "longitude": "-90.08837791642266",
    "latitude": "29.919804333782366",
    "geocoded_column": {
      "latitude": "29.919804333782366",
      "longitude": "-90.08837791642266"
    }
  },
  {
    "service_request": "2026-1255348",
    "request_type": "Trash/Recycling",
    "request_reason": "Request a Large Item Pick Up",
    "date_created": "2026-01-29T14:59:04.000",
    "date_modified": "2026-01-29T15:06:42.000",
    "request_status": "Pending",
    "responsible_agency": "Department of Sanitation",
    "final_address": "2423 Prytania St",
    "address_councildis": "B",
    "status": "Assigned to Contractor",
    "contractor": "IV Waste",
    "rowid": "1255348",
    "final_x": "3677047.11374",
    "final_y": "522711.647738",
    "longitude": "-90.08243457995229",
    "latitude": "29.931410077566742",
    "geocoded_column": {
      "latitude": "29.931410077566742",
      "longitude": "-90.08243457995229"
    }
  },
  {
    "service_request": "2026-1255347",
    "request_type": "Trash/Recycling",
    "request_reason": "Request a Large Item Pick Up",
    "date_created": "2026-01-29T14:58:02.000",
    "date_modified": "2026-01-29T14:58:03.000",
    "request_status": "Pending",
    "responsible_agency": "Department of Sanitation",
    "final_address": "5043 Michoud Blvd",
    "address_councildis": "E",
    "status": "Assigned to Contractor",
    "contractor": "Waste Pro",
    "rowid": "1255347",
    "final_x": "3724945.05843",
    "final_y": "562052.333087",
    "longitude": "-89.9297074686239",
    "latitude": "30.038056968694846",
    "geocoded_column": {
      "latitude": "30.038056968694846",
      "longitude": "-89.9297074686239"
    }
  },
  {
    "service_request": "2026-1255346",
    "request_type": "Trash/Recycling",
    "request_reason": "Request a Large Item Pick Up",
    "date_created": "2026-01-29T14:51:24.000",
    "date_modified": "2026-01-29T14:51:26.000",
    "request_status": "Pending",
    "responsible_agency": "Department of Sanitation",
    "final_address": "3240 Nashville Ave",
    "address_councildis": "A",
    "status": "Assigned to Contractor",
    "contractor": "IV Waste",
    "rowid": "1255346",
    "final_x": "3667882.07303",
    "final_y": "527779.398399",
    "longitude": "-90.11119695740331",
    "latitude": "29.94561669520137",
    "geocoded_column": {
      "latitude": "29.94561669520137",
      "longitude": "-90.11119695740331"
    }
  },
  {
    "service_request": "2026-1255345",
    "request_type": "Trash/Recycling",
    "request_reason": "Request a Large Item Pick Up",
    "date_created": "2026-01-29T14:50:40.000",
    "date_modified": "2026-01-29T15:05:13.000",
    "request_status": "Pending",
    "responsible_agency": "Department of Sanitation",
    "final_address": "2024 Delachaise St",
    "address_councildis": "B",
    "status": "Assigned to Contractor",
    "contractor": "IV Waste",
    "rowid": "1255345",
    "final_x": "3673150.26824",
    "final_y": "522890.301051",
    "longitude": "-90.09473037166536",
    "latitude": "29.932017716000892",
    "geocoded_column": {
      "latitude": "29.932017716000892",
      "longitude": "-90.09473037166536"
    }
  },
  {
    "service_request": "2026-1255344",
    "request_type": "Trash/Recycling",
    "request_reason": "Request a Large Item Pick Up",
    "date_created": "2026-01-29T14:45:36.000",
    "date_modified": "2026-01-29T14:45:37.000",
    "request_status": "Pending",
    "responsible_agency": "Department of Sanitation",
    "final_address": "14180 Kingswood Dr",
    "address_councildis": "E",
    "status": "Assigned to Contractor",
    "contractor": "Waste Pro",
    "rowid": "1255344",
    "final_x": "3720219.52735",
    "final_y": "569102.81239",
    "longitude": "-89.94437106559181",
    "latitude": "30.05760120016164",
    "geocoded_column": {
      "latitude": "30.05760120016164",
      "longitude": "-89.94437106559181"
    }
  },
  {
    "service_request": "2026-1255343",
    "request_type": "Health Related Request",
    "request_reason": "Homeless Encampment Complaint",
    "date_created": "2026-01-29T14:45:10.000",
    "date_modified": "2026-01-29T14:45:11.000",
    "request_status": "Pending",
    "responsible_agency": "Office Of Homeless Services And Strategy",
    "final_address": "4350 General De Gaulle Dr",
    "address_councildis": "C",
    "status": "Pending",
    "rowid": "1255343",
    "final_x": "3699735.21348",
    "final_y": "518581.886519",
    "longitude": "-90.01096192415491",
    "latitude": "29.919354108661576",
    "geocoded_column": {
      "latitude": "29.919354108661576",
      "longitude": "-90.01096192415491"
    }
  },
  {
    "service_request": "2026-1255342",
    "request_type": "Trash/Recycling",
    "request_reason": "Illegal Dumping",
    "date_created": "2026-01-29T14:40:40.000",
    "date_modified": "2026-01-29T14:40:42.000",
    "request_status": "Pending",
    "responsible_agency": "Department of Sanitation",
    "final_address": "GENERAL DE GAULLE DR & HOLIDAY DR",
    "address_councildis": "C",
    "status": "Pending",
    "rowid": "1255342",
    "final_x": "3698595.0",
    "final_y": "519112.58",
    "longitude": "-90.01454170298932",
    "latitude": "29.920849468009546",
    "geocoded_column": {
      "latitude": "29.920849468009546",
      "longitude": "-90.01454170298932"
    }
  },
  {
    "service_request": "2026-1255341",
    "request_type": "Trash/Recycling",
    "request_reason": "Order Recycling Cart",
    "date_created": "2026-01-29T14:39:03.000",
    "date_modified": "2026-01-29T14:39:05.000",
    "request_status": "Pending",
    "responsible_agency": "Department of Sanitation",
    "final_address": "622 Atlantic Ave",
    "address_councildis": "C",
    "status": "Pending",
    "rowid": "1255341",
    "final_x": "3688857.2415",
    "final_y": "529265.352897",
    "longitude": "-90.04491892253918",
    "latitude": "29.94907074477537",
    "geocoded_column": {
      "latitude": "29.94907074477537",
      "longitude": "-90.04491892253918"
    }
  },
  {
    "service_request": "2026-1255340",
    "request_type": "Trash/Recycling",
    "request_reason": "Order Trash Cart",
    "date_created": "2026-01-29T14:38:35.000",
    "date_modified": "2026-01-29T14:38:37.000",
    "request_status": "Pending",
    "responsible_agency": "Department of Sanitation",
    "final_address": "622 Atlantic Ave",
    "address_councildis": "C",
    "status": "Assigned to Contractor",
    "contractor": "Richards Disposal",
    "rowid": "1255340",
    "final_x": "3688857.2415",
    "final_y": "529265.352897",
    "longitude": "-90.04491892253918",
    "latitude": "29.94907074477537",
    "geocoded_column": {
      "latitude": "29.94907074477537",
      "longitude": "-90.04491892253918"
    }
  },
  {
    "service_request": "2026-1255339",
    "request_type": "Trash/Recycling",
    "request_reason": "Request a Large Item Pick Up",
    "date_created": "2026-01-29T14:26:03.000",
    "date_modified": "2026-01-29T14:26:05.000",
    "request_status": "Pending",
    "responsible_agency": "Department of Sanitation",
    "final_address": "5139 Pratt Dr",
    "address_councildis": "D",
    "status": "Assigned to Contractor",
    "contractor": "IV Waste",
    "rowid": "1255339",
    "final_x": "3680553.99195",
    "final_y": "551437.130453",
    "longitude": "-90.07036427400666",
    "latitude": "30.010289525312842",
    "geocoded_column": {
      "latitude": "30.010289525312842",
      "longitude": "-90.07036427400666"
    }
  },
  {
    "service_request": "2026-1255338",
    "request_type": "Abandoned Vehicles",
    "request_reason": "Abandoned/Junk Vehicles",
    "date_created": "2026-01-29T14:20:50.000",
    "date_modified": "2026-01-29T14:20:51.000",
    "request_status": "Pending",
    "responsible_agency": "Department of Public Works",
    "final_address": "6053 Fleur-De-Lis Dr",
    "address_councildis": "A",
    "status": "Pending",
    "rowid": "1255338",
    "final_x": "3665261.30272",
    "final_y": "548034.210322",
    "longitude": "-90.11879376733499",
    "latitude": "30.00138728528333",
    "geocoded_column": {
      "latitude": "30.00138728528333",
      "longitude": "-90.11879376733499"
    }
  },
  {
    "service_request": "2026-1255337",
    "request_type": "Roads and Streets",
    "request_reason": "Abandoned Service Cut",
    "date_created": "2026-01-29T14:18:12.000",
    "date_modified": "2026-01-29T14:18:14.000",
    "request_status": "Pending",
    "responsible_agency": "Department of Public Works",
    "final_address": "5908 Laurel St",
    "address_councildis": "A",
    "status": "Pending",
    "rowid": "1255337",
    "final_x": "3664907.14586",
    "final_y": "518052.942454",
    "longitude": "-90.12091475658815",
    "latitude": "29.918958935428456",
    "geocoded_column": {
      "latitude": "29.918958935428456",
      "longitude": "-90.12091475658815"
    }
  },
  {
    "service_request": "2026-1255336",
    "request_type": "Trash/Recycling",
    "request_reason": "Request a Large Item Pick Up",
    "date_created": "2026-01-29T14:18:00.000",
    "date_modified": "2026-01-29T14:18:02.000",
    "request_status": "Pending",
    "responsible_agency": "Department of Sanitation",
    "final_address": "7855 Star St",
    "address_councildis": "E",
    "status": "Assigned to Contractor",
    "contractor": "Waste Pro",
    "rowid": "1255336",
    "final_x": "3720497.58783",
    "final_y": "574761.093803",
    "longitude": "-89.94327519356926",
    "latitude": "30.073149823589453",
    "geocoded_column": {
      "latitude": "30.073149823589453",
      "longitude": "-89.94327519356926"
    }
  },
  {
    "service_request": "2026-1255335",
    "request_type": "Trash/Recycling",
    "request_reason": "Repair Trash Cart",
    "date_created": "2026-01-29T14:14:53.000",
    "date_modified": "2026-01-29T14:44:24.000",
    "case_close_date": "2026-01-29T08:44:23.000",
    "request_status": "Closed",
    "responsible_agency": "Department of Sanitation",
    "final_address": "6801 Vicksburg St",
    "address_councildis": "A",
    "status": "Assigned to Contractor",
    "contractor": "IV Waste",
    "contractor_action": "Duplicate",
    "rowid": "1255335",
    "final_x": "3669422.02433",
    "final_y": "552684.024662",
    "longitude": "-90.105492219794",
    "latitude": "30.014050725527447",
    "geocoded_column": {
      "latitude": "30.014050725527447",
      "longitude": "-90.105492219794"
    }
  },
  {
    "service_request": "2026-1255334",
    "request_type": "Trash/Recycling",
    "request_reason": "Replace Trash Cart",
    "date_created": "2026-01-29T14:13:41.000",
    "date_modified": "2026-01-29T14:13:43.000",
    "request_status": "Pending",
    "responsible_agency": "Department of Sanitation",
    "final_address": "6801 Vicksburg St",
    "address_councildis": "A",
    "status": "Assigned to Contractor",
    "contractor": "IV Waste",
    "rowid": "1255334",
    "final_x": "3669422.02433",
    "final_y": "552684.024662",
    "longitude": "-90.105492219794",
    "latitude": "30.014050725527447",
    "geocoded_column": {
      "latitude": "30.014050725527447",
      "longitude": "-90.105492219794"
    }
  },
  {
    "service_request": "2026-1255333",
    "request_type": "Roads and Streets",
    "request_reason": "Pothole",
    "date_created": "2026-01-29T14:10:55.000",
    "date_modified": "2026-01-29T14:10:57.000",
    "request_status": "Pending",
    "responsible_agency": "Department of Public Works",
    "final_address": "2540 N Claiborne Ave",
    "address_councildis": "C",
    "status": "Pending",
    "rowid": "1255333",
    "final_x": "3687471.64975",
    "final_y": "538321.469641",
    "longitude": "-90.04897332146382",
    "latitude": "29.974014695006133",
    "geocoded_column": {
      "latitude": "29.974014695006133",
      "longitude": "-90.04897332146382"
    }
  },
  {
    "service_request": "2026-1255332",
    "request_type": "Roads and Streets",
    "request_reason": "Sidewalk Damaged or Missing",
    "date_created": "2026-01-29T14:07:01.000",
    "date_modified": "2026-01-29T14:07:03.000",
    "request_status": "Pending",
    "responsible_agency": "Department of Public Works",
    "final_address": "421 Calhoun St",
    "address_councildis": "A",
    "status": "Pending",
    "rowid": "1255332",
    "final_x": "3663009.60685",
    "final_y": "518579.261495",
    "longitude": "-90.1268868454267",
    "latitude": "29.920461220751474",
    "geocoded_column": {
      "latitude": "29.920461220751474",
      "longitude": "-90.1268868454267"
    }
  },
  {
    "service_request": "2026-1255331",
    "request_type": "Roads and Streets",
    "request_reason": "ADA Ramps Damaged or Missing",
    "date_created": "2026-01-29T13:59:16.000",
    "date_modified": "2026-01-29T13:59:17.000",
    "request_status": "Pending",
    "responsible_agency": "Department of Public Works",
    "final_address": "11235 Lake Forest Blvd",
    "address_councildis": "E",
    "status": "Pending",
    "rowid": "1255331",
    "final_x": "3716022.91871",
    "final_y": "561662.083743",
    "longitude": "-89.95791817494204",
    "latitude": "30.037281438664227",
    "geocoded_column": {
      "latitude": "30.037281438664227",
      "longitude": "-89.95791817494204"
    }
  },
  {
    "service_request": "2026-1255330",
    "request_type": "Street and Traffic Signs",
    "request_reason": "Stop Sign Missing or Damaged",
    "date_created": "2026-01-29T13:46:07.000",
    "date_modified": "2026-01-29T13:46:09.000",
    "request_status": "Pending",
    "responsible_agency": "Department of Public Works",
    "final_address": "N GALVEZ ST & ST ROCH AVE",
    "address_councildis": "D",
    "status": "Pending",
    "rowid": "1255330",
    "final_x": "3686156.8",
    "final_y": "540102.58",
    "longitude": "-90.05306305439461",
    "latitude": "29.97895258179575",
    "geocoded_column": {
      "latitude": "29.97895258179575",
      "longitude": "-90.05306305439461"
    }
  },
  {
    "service_request": "2026-1255329",
    "request_type": "Trash/Recycling",
    "request_reason": "Illegal Dumping",
    "date_created": "2026-01-29T13:44:47.000",
    "date_modified": "2026-01-29T13:44:49.000",
    "request_status": "Pending",
    "responsible_agency": "Department of Sanitation",
    "final_address": "1938 Jackson Ave",
    "address_councildis": "B",
    "status": "Pending",
    "rowid": "1255329",
    "final_x": "3676600.91176",
    "final_y": "524965.150461",
    "longitude": "-90.08376560592633",
    "latitude": "29.93761985926945",
    "geocoded_column": {
      "latitude": "29.93761985926945",
      "longitude": "-90.08376560592633"
    }
  },
  {
    "service_request": "2026-1255328",
    "request_type": "Trash/Recycling",
    "request_reason": "Request a Large Item Pick Up",
    "date_created": "2026-01-29T13:43:42.000",
    "date_modified": "2026-01-29T14:02:00.000",
    "request_status": "Pending",
    "responsible_agency": "Department of Sanitation",
    "final_address": "1333 Japonica St",
    "address_councildis": "D",
    "status": "Assigned to Contractor",
    "contractor": "IV Waste",
    "rowid": "1255328",
    "final_x": "3694012.14544",
    "final_y": "535886.910151",
    "longitude": "-90.0284046160994",
    "latitude": "29.96711731931444",
    "geocoded_column": {
      "latitude": "29.96711731931444",
      "longitude": "-90.0284046160994"
    }
  },
  {
    "service_request": "2026-1255327",
    "request_type": "Healthy Homes",
    "request_reason": "Healthy Homes",
    "date_created": "2026-01-29T13:42:04.000",
    "date_modified": "2026-01-29T13:42:06.000",
    "request_status": "Pending",
    "responsible_agency": "Department of Code Enforcement",
    "final_address": "520 St Andrew St",
    "address_councildis": "B",
    "status": "Pending",
    "rowid": "1255327",
    "final_x": "3680901.31541",
    "final_y": "520880.085561",
    "longitude": "-90.07033107394797",
    "latitude": "29.926257626181375",
    "geocoded_column": {
      "latitude": "29.926257626181375",
      "longitude": "-90.07033107394797"
    }
  },
  {
    "service_request": "2026-1255326",
    "request_type": "Trash/Recycling",
    "request_reason": "Request a Large Item Pick Up",
    "date_created": "2026-01-29T13:41:52.000",
    "date_modified": "2026-01-29T13:41:54.000",
    "request_status": "Pending",
    "responsible_agency": "Department of Sanitation",
    "final_address": "1128 Dublin St",
    "address_councildis": "A",
    "status": "Assigned to Contractor",
    "contractor": "IV Waste",
    "rowid": "1255326",
    "final_x": "3661606.65946",
    "final_y": "528552.254528",
    "longitude": "-90.13098499048121",
    "latitude": "29.947924353360175",
    "geocoded_column": {
      "latitude": "29.947924353360175",
      "longitude": "-90.13098499048121"
    }
  },
  {
    "service_request": "2026-1255325",
    "request_type": "Trash/Recycling",
    "request_reason": "Request a Large Item Pick Up",
    "date_created": "2026-01-29T13:37:15.000",
    "date_modified": "2026-01-29T13:37:17.000",
    "request_status": "Pending",
    "responsible_agency": "Department of Sanitation",
    "final_address": "4933 Lafaye St",
    "address_councildis": "D",
    "status": "Assigned to Contractor",
    "contractor": "IV Waste",
    "rowid": "1255325",
    "final_x": "3687438.29858",
    "final_y": "551247.769749",
    "longitude": "-90.04862093284193",
    "latitude": "30.00955841282139",
    "geocoded_column": {
      "latitude": "30.00955841282139",
      "longitude": "-90.04862093284193"
    }
  },
  {
    "service_request": "2026-1255324",
    "request_type": "Trash/Recycling",
    "request_reason": "Request a Large Item Pick Up",
    "date_created": "2026-01-29T13:35:56.000",
    "date_modified": "2026-01-29T13:35:58.000",
    "request_status": "Pending",
    "responsible_agency": "Department of Sanitation",
    "final_address": "7411 Crestmont Rd",
    "address_councildis": "E",
    "status": "Assigned to Contractor",
    "contractor": "Waste Pro",
    "rowid": "1255324",
    "final_x": "3699981.34359",
    "final_y": "559690.854493",
    "longitude": "-90.00868493003622",
    "latitude": "30.032381021430464",
    "geocoded_column": {
      "latitude": "30.032381021430464",
      "longitude": "-90.00868493003622"
    }
  },
  {
    "service_request": "2026-1255323",
    "request_type": "Street and Traffic Signs",
    "request_reason": "Traffic or Parking Sign Damaged or Missing",
    "date_created": "2026-01-29T13:32:08.000",
    "date_modified": "2026-01-29T13:32:10.000",
    "request_status": "Pending",
    "responsible_agency": "Department of Public Works",
    "final_address": "7104 Plum St",
    "address_councildis": "A",
    "status": "Pending",
    "rowid": "1255323",
    "final_x": "3664593.1737",
    "final_y": "526615.356798",
    "longitude": "-90.12161999983927",
    "latitude": "29.942512000023783",
    "geocoded_column": {
      "latitude": "29.942512000023783",
      "longitude": "-90.12161999983927"
    }
  },
  {
    "service_request": "2026-1255322",
    "request_type": "Property Maintenance",
    "request_reason": "Property Maintenance",
    "date_created": "2026-01-29T13:30:58.000",
    "date_modified": "2026-01-29T13:31:45.000",
    "request_status": "Pending",
    "responsible_agency": "Department of Code Enforcement",
    "final_address": "1124 Melpomene St",
    "address_councildis": "B",
    "status": "Pending",
    "rowid": "1255322",
    "final_x": "3680235.06792",
    "final_y": "524897.61478",
    "longitude": "-90.07229465464077",
    "latitude": "29.93732468501597",
    "geocoded_column": {
      "latitude": "29.93732468501597",
      "longitude": "-90.07229465464077"
    }
  },
  {
    "service_request": "2026-1255321",
    "request_type": "Trash/Recycling",
    "request_reason": "Illegal Dumping",
    "date_created": "2026-01-29T13:24:49.000",
    "date_modified": "2026-01-29T13:24:50.000",
    "request_status": "Pending",
    "responsible_agency": "Department of Sanitation",
    "final_address": "5650 Rickert Dr",
    "address_councildis": "E",
    "status": "Pending",
    "rowid": "1255321",
    "final_x": "3703032.9363",
    "final_y": "556667.565978",
    "longitude": "-89.99915298258672",
    "latitude": "30.02397079591947",
    "geocoded_column": {
      "latitude": "30.02397079591947",
      "longitude": "-89.99915298258672"
    }
  },
  {
    "service_request": "2026-1255320",
    "request_type": "Trash/Recycling",
    "request_reason": "Repair Recycling Cart",
    "date_created": "2026-01-29T13:24:14.000",
    "date_modified": "2026-01-29T13:24:15.000",
    "request_status": "Pending",
    "responsible_agency": "Department of Sanitation",
    "final_address": "218 Abalon Ct",
    "address_councildis": "C",
    "status": "Pending",
    "rowid": "1255320",
    "final_x": "3689008.89635",
    "final_y": "530925.367298",
    "longitude": "-90.04438112323358",
    "latitude": "29.953630523866664",
    "geocoded_column": {
      "latitude": "29.953630523866664",
      "longitude": "-90.04438112323358"
    }
  },
  {
    "service_request": "2026-1255319",
    "request_type": "Abandoned Vehicles",
    "request_reason": "Abandoned/Junk Vehicles",
    "date_created": "2026-01-29T13:23:16.000",
    "date_modified": "2026-01-29T13:23:18.000",
    "request_status": "Pending",
    "responsible_agency": "Department of Public Works",
    "final_address": "3229 Loyola Ave",
    "address_councildis": "B",
    "status": "Pending",
    "rowid": "1255319",
    "final_x": "3673763.682",
    "final_y": "523725.129979",
    "longitude": "-90.09276535085031",
    "latitude": "29.93429497820429",
    "geocoded_column": {
      "latitude": "29.93429497820429",
      "longitude": "-90.09276535085031"
    }
  },
  {
    "service_request": "2026-1255318",
    "request_type": "Abandoned Vehicles",
    "request_reason": "Abandoned/Junk Vehicles",
    "date_created": "2026-01-29T13:20:16.000",
    "date_modified": "2026-01-29T13:20:18.000",
    "request_status": "Pending",
    "responsible_agency": "Department of Public Works",
    "final_address": "13692 N Lemans St",
    "address_councildis": "E",
    "status": "Pending",
    "rowid": "1255318",
    "final_x": "3726483.23488",
    "final_y": "563515.128352",
    "longitude": "-89.92478968720184",
    "latitude": "30.042027150922536",
    "geocoded_column": {
      "latitude": "30.042027150922536",
      "longitude": "-89.92478968720184"
    }
  },
  {
    "service_request": "2026-1255317",
    "request_type": "Trash/Recycling",
    "request_reason": "Illegal Dumping",
    "date_created": "2026-01-29T13:19:01.000",
    "date_modified": "2026-01-29T13:19:04.000",
    "request_status": "Pending",
    "responsible_agency": "Department of Sanitation",
    "final_address": "1900 BLK Tricou St",
    "address_councildis": "E",
    "status": "Pending",
    "rowid": "1255317",
    "final_x": "3701357.65171",
    "final_y": "536071.754744",
    "longitude": "-90.0052008446201",
    "latitude": "29.967393512587115",
    "geocoded_column": {
      "latitude": "29.967393512587115",
      "longitude": "-90.0052008446201"
    }
  },
  {
    "service_request": "2026-1255316",
    "request_type": "Trash/Recycling",
    "request_reason": "Request a Large Item Pick Up",
    "date_created": "2026-01-29T13:17:42.000",
    "date_modified": "2026-01-29T13:17:43.000",
    "request_status": "Pending",
    "responsible_agency": "Department of Sanitation",
    "final_address": "4701 Rhodes Dr",
    "address_councildis": "E",
    "status": "Assigned to Contractor",
    "contractor": "Waste Pro",
    "rowid": "1255316",
    "final_x": "3702608.77764",
    "final_y": "554093.44732",
    "longitude": "-90.00058783714707",
    "latitude": "30.016906530776254",
    "geocoded_column": {
      "latitude": "30.016906530776254",
      "longitude": "-90.00058783714707"
    }
  },
  {
    "service_request": "2026-1255315",
    "request_type": "Trash/Recycling",
    "request_reason": "Order Second Trash Cart",
    "date_created": "2026-01-29T13:16:54.000",
    "date_modified": "2026-01-29T13:16:55.000",
    "request_status": "Pending",
    "responsible_agency": "Department of Sanitation",
    "final_address": "4213 St Anthony Ave",
    "address_councildis": "D",
    "status": "Assigned to Contractor",
    "contractor": "IV Waste",
    "rowid": "1255315",
    "final_x": "3682676.03087",
    "final_y": "548107.333906",
    "longitude": "-90.06377652437463",
    "latitude": "30.00106930115234",
    "geocoded_column": {
      "latitude": "30.00106930115234",
      "longitude": "-90.06377652437463"
    }
  },
  {
    "service_request": "2026-1255314",
    "request_type": "Trash/Recycling",
    "request_reason": "Request a Large Item Pick Up",
    "date_created": "2026-01-29T13:12:51.000",
    "date_modified": "2026-01-29T13:12:53.000",
    "request_status": "Pending",
    "responsible_agency": "Department of Sanitation",
    "final_address": "6900 Virgilian St",
    "address_councildis": "D",
    "status": "Assigned to Contractor",
    "contractor": "Waste Pro",
    "rowid": "1255314",
    "final_x": "3696877.76016",
    "final_y": "556410.319322",
    "longitude": "-90.01861137774054",
    "latitude": "30.023459092047506",
    "geocoded_column": {
      "latitude": "30.023459092047506",
      "longitude": "-90.01861137774054"
    }
  },
  {
    "service_request": "2026-1255313",
    "request_type": "Trash/Recycling",
    "request_reason": "Repair Trash Cart",
    "date_created": "2026-01-29T13:11:34.000",
    "date_modified": "2026-01-29T14:50:48.000",
    "request_status": "Pending",
    "responsible_agency": "Department of Sanitation",
    "final_address": "6235 St Anthony Ave",
    "address_councildis": "D",
    "status": "Assigned to Contractor",
    "contractor": "IV Waste",
    "rowid": "1255313",
    "final_x": "3682011.0781",
    "final_y": "556112.417562",
    "longitude": "-90.06559737374177",
    "latitude": "30.02310062001128",
    "geocoded_column": {
      "latitude": "30.02310062001128",
      "longitude": "-90.06559737374177"
    }
  },
  {
    "service_request": "2026-1255312",
    "request_type": "Trash/Recycling",
    "request_reason": "Illegal Dumping",
    "date_created": "2026-01-29T13:10:59.000",
    "date_modified": "2026-01-29T13:11:01.000",
    "request_status": "Pending",
    "responsible_agency": "Department of Sanitation",
    "final_address": "6801 Mayo Rd",
    "address_councildis": "E",
    "status": "Pending",
    "rowid": "1255312",
    "final_x": "3702182.34026",
    "final_y": "557172.671771",
    "longitude": "-90.00182213699544",
    "latitude": "30.025386847267303",
    "geocoded_column": {
      "latitude": "30.025386847267303",
      "longitude": "-90.00182213699544"
    }
  },
  {
    "service_request": "2026-1255311",
    "request_type": "Trash/Recycling",
    "request_reason": "Repair Trash Cart",
    "date_created": "2026-01-29T13:10:36.000",
    "date_modified": "2026-01-29T14:50:33.000",
    "request_status": "Pending",
    "responsible_agency": "Department of Sanitation",
    "final_address": "6237 St Anthony Ave",
    "address_councildis": "D",
    "status": "Assigned to Contractor",
    "contractor": "IV Waste",
    "rowid": "1255311",
    "final_x": "3682027.8452",
    "final_y": "556126.635098",
    "longitude": "-90.06554389637772",
    "latitude": "30.02313920292249",
    "geocoded_column": {
      "latitude": "30.02313920292249",
      "longitude": "-90.06554389637772"
    }
  },
  {
    "service_request": "2026-1255310",
    "request_type": "Trash/Recycling",
    "request_reason": "Request a Large Item Pick Up",
    "date_created": "2026-01-29T13:10:17.000",
    "date_modified": "2026-01-29T13:10:52.000",
    "request_status": "Pending",
    "responsible_agency": "Department of Sanitation",
    "final_address": "5757 Campus Blvd",
    "address_councildis": "D",
    "status": "Assigned to Contractor",
    "contractor": "IV Waste",
    "rowid": "1255310",
    "final_x": "3688775.11235",
    "final_y": "554791.718552",
    "longitude": "-90.04427152022092",
    "latitude": "30.019261683196625",
    "geocoded_column": {
      "latitude": "30.019261683196625",
      "longitude": "-90.04427152022092"
    }
  },
  {
    "service_request": "2026-1255309",
    "request_type": "Trash/Recycling",
    "request_reason": "Request a Large Item Pick Up",
    "date_created": "2026-01-29T13:09:17.000",
    "date_modified": "2026-01-29T13:09:19.000",
    "request_status": "Pending",
    "responsible_agency": "Department of Sanitation",
    "final_address": "3708 Preston Pl",
    "address_councildis": "C",
    "status": "Assigned to Contractor",
    "contractor": "Richards Disposal",
    "rowid": "1255309",
    "final_x": "3708492.66558",
    "final_y": "517395.232437",
    "longitude": "-89.98336343777682",
    "latitude": "29.915810419512944",
    "geocoded_column": {
      "latitude": "29.915810419512944",
      "longitude": "-89.98336343777682"
    }
  },
  {
    "service_request": "2026-1255308",
    "request_type": "Trash/Recycling",
    "request_reason": "Illegal Dumping",
    "date_created": "2026-01-29T13:04:32.000",
    "date_modified": "2026-01-29T13:04:34.000",
    "request_status": "Pending",
    "responsible_agency": "Department of Sanitation",
    "final_address": "6880 Parc Brittany Blvd",
    "address_councildis": "E",
    "status": "Pending",
    "rowid": "1255308",
    "final_x": "3702661.06884",
    "final_y": "557779.036635",
    "longitude": "-90.00028714562029",
    "latitude": "30.02703881139196",
    "geocoded_column": {
      "latitude": "30.02703881139196",
      "longitude": "-90.00028714562029"
    }
  },
  {
    "service_request": "2026-1255307",
    "request_type": "Trash/Recycling",
    "request_reason": "Illegal Dumping",
    "date_created": "2026-01-29T12:59:22.000",
    "date_modified": "2026-01-29T12:59:23.000",
    "request_status": "Pending",
    "responsible_agency": "Department of Sanitation",
    "final_address": "200 BLK Pacific Ave",
    "address_councildis": "C",
    "status": "Pending",
    "rowid": "1255307",
    "final_x": "3688552.43913",
    "final_y": "530947.737761",
    "longitude": "-90.04582162600346",
    "latitude": "29.953706145650898",
    "geocoded_column": {
      "latitude": "29.953706145650898",
      "longitude": "-90.04582162600346"
    }
  },
  {
    "service_request": "2026-1255306",
    "request_type": "Trash/Recycling",
    "request_reason": "Request a Large Item Pick Up",
    "date_created": "2026-01-29T12:58:54.000",
    "date_modified": "2026-01-29T14:28:05.000",
    "request_status": "Pending",
    "responsible_agency": "Department of Sanitation",
    "final_address": "5001 Debore Cir",
    "address_councildis": "D",
    "status": "Assigned to Contractor",
    "contractor": "IV Waste",
    "rowid": "1255306",
    "final_x": "3692355.38243",
    "final_y": "552786.254998",
    "longitude": "-90.03303104153207",
    "latitude": "30.013636171810628",
    "geocoded_column": {
      "latitude": "30.013636171810628",
      "longitude": "-90.03303104153207"
    }
  },
  {
    "service_request": "2026-1255305",
    "request_type": "Trash/Recycling",
    "request_reason": "Request a Large Item Pick Up",
    "date_created": "2026-01-29T12:58:01.000",
    "date_modified": "2026-01-29T12:58:03.000",
    "request_status": "Pending",
    "responsible_agency": "Department of Sanitation",
    "final_address": "5954 Babylon St",
    "address_councildis": "D",
    "status": "Assigned to Contractor",
    "contractor": "Waste Pro",
    "rowid": "1255305",
    "final_x": "3696174.78467",
    "final_y": "555105.946329",
    "longitude": "-90.02087983068895",
    "latitude": "30.019894719790216",
    "geocoded_column": {
      "latitude": "30.019894719790216",
      "longitude": "-90.02087983068895"
    }
  },
  {
    "service_request": "2026-1255304",
    "request_type": "Trash/Recycling",
    "request_reason": "Request a Large Item Pick Up",
    "date_created": "2026-01-29T12:57:10.000",
    "date_modified": "2026-01-29T12:57:11.000",
    "request_status": "Pending",
    "responsible_agency": "Department of Sanitation",
    "final_address": "7400 Newcastle St",
    "address_councildis": "E",
    "status": "Assigned to Contractor",
    "contractor": "Waste Pro",
    "rowid": "1255304",
    "final_x": "3697312.36848",
    "final_y": "558768.433436",
    "longitude": "-90.0171525254449",
    "latitude": "30.029929286466874",
    "geocoded_column": {
      "latitude": "30.029929286466874",
      "longitude": "-90.0171525254449"
    }
  },
  {
    "service_request": "2026-1255303",
    "request_type": "Roads and Streets",
    "request_reason": "Road Shoulder Damage",
    "date_created": "2026-01-29T12:56:33.000",
    "date_modified": "2026-01-29T12:56:36.000",
    "request_status": "Pending",
    "responsible_agency": "Department of Public Works",
    "final_address": "1233 Eighth St",
    "address_councildis": "B",
    "status": "Pending",
    "rowid": "1255303",
    "final_x": "3675773.50901",
    "final_y": "520776.967033",
    "longitude": "-90.08652165636587",
    "latitude": "29.926128502605007",
    "geocoded_column": {
      "latitude": "29.926128502605007",
      "longitude": "-90.08652165636587"
    }
  },
  {
    "service_request": "2026-1255302",
    "request_type": "Roads and Streets",
    "request_reason": "Road Shoulder Damage",
    "date_created": "2026-01-29T12:54:22.000",
    "date_modified": "2026-01-29T12:54:24.000",
    "request_status": "Pending",
    "responsible_agency": "Department of Public Works",
    "final_address": "1233 Eighth St",
    "address_councildis": "B",
    "status": "Pending",
    "rowid": "1255302",
    "final_x": "3675773.50901",
    "final_y": "520776.967033",
    "longitude": "-90.08652165636587",
    "latitude": "29.926128502605007",
    "geocoded_column": {
      "latitude": "29.926128502605007",
      "longitude": "-90.08652165636587"
    }
  },
  {
    "service_request": "2026-1255301",
    "request_type": "Trash/Recycling",
    "request_reason": "Repair Trash Cart",
    "date_created": "2026-01-29T12:53:23.000",
    "date_modified": "2026-01-29T12:53:25.000",
    "request_status": "Pending",
    "responsible_agency": "Department of Sanitation",
    "final_address": "4511 Lonely Oak Dr",
    "address_councildis": "E",
    "status": "Assigned to Contractor",
    "contractor": "Waste Pro",
    "rowid": "1255301",
    "final_x": "3702486.25495",
    "final_y": "553338.273687",
    "longitude": "-90.00100269874417",
    "latitude": "30.014834009486815",
    "geocoded_column": {
      "latitude": "30.014834009486815",
      "longitude": "-90.00100269874417"
    }
  },
  {
    "service_request": "2026-1255300",
    "request_type": "Abandoned Vehicles",
    "request_reason": "Abandoned/Junk Vehicles",
    "date_created": "2026-01-29T12:52:22.000",
    "date_modified": "2026-01-29T12:52:24.000",
    "request_status": "Pending",
    "responsible_agency": "Department of Public Works",
    "final_address": "1006 Hagan St",
    "address_councildis": "A",
    "status": "Pending",
    "rowid": "1255300",
    "final_x": "3675466.82651",
    "final_y": "539465.370186",
    "longitude": "-90.08684800906488",
    "latitude": "29.97752456472967",
    "geocoded_column": {
      "latitude": "29.97752456472967",
      "longitude": "-90.08684800906488"
    }
  },
  {
    "service_request": "2026-1255299",
    "request_type": "Trash/Recycling",
    "request_reason": "Order Second Trash Cart",
    "date_created": "2026-01-29T12:51:35.000",
    "date_modified": "2026-01-29T12:51:37.000",
    "request_status": "Pending",
    "responsible_agency": "Department of Sanitation",
    "final_address": "919 Touro St",
    "address_councildis": "C",
    "status": "Assigned to Contractor",
    "contractor": "IV Waste",
    "rowid": "1255299",
    "final_x": "3684307.38325",
    "final_y": "535689.772039",
    "longitude": "-90.059059205684",
    "latitude": "29.966875585621363",
    "geocoded_column": {
      "latitude": "29.966875585621363",
      "longitude": "-90.059059205684"
    }
  },
  {
    "service_request": "2026-1255298",
    "request_type": "Roads and Streets",
    "request_reason": "Road Shoulder Damage",
    "date_created": "2026-01-29T12:49:03.000",
    "date_modified": "2026-01-29T12:49:04.000",
    "request_status": "Pending",
    "responsible_agency": "Department of Public Works",
    "final_address": "1233 Eighth St",
    "address_councildis": "B",
    "status": "Pending",
    "rowid": "1255298",
    "final_x": "3675773.50901",
    "final_y": "520776.967033",
    "longitude": "-90.08652165636587",
    "latitude": "29.926128502605007",
    "geocoded_column": {
      "latitude": "29.926128502605007",
      "longitude": "-90.08652165636587"
    }
  },
  {
    "service_request": "2026-1255297",
    "request_type": "Trash/Recycling",
    "request_reason": "Return Trash Cart",
    "date_created": "2026-01-29T12:48:36.000",
    "date_modified": "2026-01-29T12:48:37.000",
    "request_status": "Pending",
    "responsible_agency": "Department of Sanitation",
    "final_address": "943 N Rendon St",
    "address_councildis": "A",
    "status": "Assigned to Contractor",
    "contractor": "IV Waste",
    "rowid": "1255297",
    "final_x": "3675597.21409",
    "final_y": "539141.537418",
    "longitude": "-90.08644733035209",
    "latitude": "29.97663023481669",
    "geocoded_column": {
      "latitude": "29.97663023481669",
      "longitude": "-90.08644733035209"
    }
  },
  {
    "service_request": "2026-1255296",
    "request_type": "Traffic Signals",
    "request_reason": "Traffic Signal Malfunctioning or Damaged",
    "date_created": "2026-01-29T12:46:44.000",
    "date_modified": "2026-01-29T12:46:49.000",
    "request_status": "Pending",
    "responsible_agency": "Department of Public Works",
    "final_address": "DAUPHINE ST & ELYSIAN FIELDS AVE",
    "address_councildis": "C",
    "status": "Pending",
    "rowid": "1255296",
    "final_x": "3685137.2",
    "final_y": "535233.78",
    "longitude": "-90.05645469613737",
    "latitude": "29.965596364720028",
    "geocoded_column": {
      "latitude": "29.965596364720028",
      "longitude": "-90.05645469613737"
    }
  },
  {
    "service_request": "2026-1255295",
    "request_type": "Trash/Recycling",
    "request_reason": "Request a Large Item Pick Up",
    "date_created": "2026-01-29T12:45:33.000",
    "date_modified": "2026-01-29T12:45:35.000",
    "request_status": "Pending",
    "responsible_agency": "Department of Sanitation",
    "final_address": "4516 Citrus Dr",
    "address_councildis": "E",
    "status": "Assigned to Contractor",
    "contractor": "Waste Pro",
    "rowid": "1255295",
    "final_x": "3710675.84651",
    "final_y": "554865.600856",
    "longitude": "-89.97507058658634",
    "latitude": "30.018769188829157",
    "geocoded_column": {
      "latitude": "30.018769188829157",
      "longitude": "-89.97507058658634"
    }
  },
  {
    "service_request": "2026-1255294",
    "request_type": "Trash/Recycling",
    "request_reason": "Request a Large Item Pick Up",
    "date_created": "2026-01-29T12:43:03.000",
    "date_modified": "2026-01-29T12:43:05.000",
    "request_status": "Pending",
    "responsible_agency": "Department of Sanitation",
    "final_address": "4724 Crowder Blvd",
    "address_councildis": "E",
    "status": "Assigned to Contractor",
    "contractor": "Waste Pro",
    "rowid": "1255294",
    "final_x": "3706335.09406",
    "final_y": "555549.775961",
    "longitude": "-89.98876033236083",
    "latitude": "30.02079117251032",
    "geocoded_column": {
      "latitude": "30.02079117251032",
      "longitude": "-89.98876033236083"
    }
  },
  {
    "service_request": "2026-1255293",
    "request_type": "Trash/Recycling",
    "request_reason": "Request a Large Item Pick Up",
    "date_created": "2026-01-29T12:39:05.000",
    "date_modified": "2026-01-29T12:39:07.000",
    "request_status": "Pending",
    "responsible_agency": "Department of Sanitation",
    "final_address": "7329 Downman Rd",
    "address_councildis": "D",
    "status": "Assigned to Contractor",
    "contractor": "Waste Pro",
    "rowid": "1255293",
    "final_x": "3694990.68234",
    "final_y": "557673.758107",
    "longitude": "-90.0245285219056",
    "latitude": "30.02699246960847",
    "geocoded_column": {
      "latitude": "30.02699246960847",
      "longitude": "-90.0245285219056"
    }
  },
  {
    "service_request": "2026-1255292",
    "request_type": "Trash/Recycling",
    "request_reason": "Missed Trash Pick-Up",
    "date_created": "2026-01-29T12:39:03.000",
    "date_modified": "2026-01-29T12:48:13.000",
    "case_close_date": "2026-01-29T06:48:12.000",
    "request_status": "Closed",
    "responsible_agency": "Department of Sanitation",
    "final_address": "2036 Delachaise St",
    "address_councildis": "B",
    "status": "Invalid Request",
    "contractor": "IV Waste",
    "contractor_action": "Invalid Request",
    "rowid": "1255292",
    "final_x": "3673111.95835",
    "final_y": "522966.763771",
    "longitude": "-90.0948487032543",
    "latitude": "29.93222910237178",
    "geocoded_column": {
      "latitude": "29.93222910237178",
      "longitude": "-90.0948487032543"
    }
  },
  {
    "service_request": "2026-1255291",
    "request_type": "Roads and Streets",
    "request_reason": "Pothole",
    "date_created": "2026-01-29T12:38:00.000",
    "date_modified": "2026-01-29T12:38:01.000",
    "request_status": "Pending",
    "responsible_agency": "Department of Public Works",
    "final_address": "8202 Pritchard Pl",
    "address_councildis": "A",
    "status": "Pending",
    "rowid": "1255291",
    "final_x": "3665740.80199",
    "final_y": "533129.23162",
    "longitude": "-90.11777848919843",
    "latitude": "29.960389621258923",
    "geocoded_column": {
      "latitude": "29.960389621258923",
      "longitude": "-90.11777848919843"
    }
  },
  {
    "service_request": "2026-1255290",
    "request_type": "Trash/Recycling",
    "request_reason": "Repair Recycling Cart",
    "date_created": "2026-01-29T12:37:34.000",
    "date_modified": "2026-01-29T12:37:36.000",
    "request_status": "Pending",
    "responsible_agency": "Department of Sanitation",
    "final_address": "5643 Bancroft Dr",
    "address_councildis": "D",
    "status": "Pending",
    "rowid": "1255290",
    "final_x": "3676597.64142",
    "final_y": "553098.973143",
    "longitude": "-90.08280657646137",
    "latitude": "30.014978309473893",
    "geocoded_column": {
      "latitude": "30.014978309473893",
      "longitude": "-90.08280657646137"
    }
  },
  {
    "service_request": "2026-1255289",
    "request_type": "Trash/Recycling",
    "request_reason": "Repair Trash Cart",
    "date_created": "2026-01-29T12:37:01.000",
    "date_modified": "2026-01-29T14:50:15.000",
    "request_status": "Pending",
    "responsible_agency": "Department of Sanitation",
    "final_address": "5643 Bancroft Dr",
    "address_councildis": "D",
    "status": "Assigned to Contractor",
    "contractor": "IV Waste",
    "rowid": "1255289",
    "final_x": "3676597.64142",
    "final_y": "553098.973143",
    "longitude": "-90.08280657646137",
    "latitude": "30.014978309473893",
    "geocoded_column": {
      "latitude": "30.014978309473893",
      "longitude": "-90.08280657646137"
    }
  },
  {
    "service_request": "2026-1255288",
    "request_type": "Streetlights",
    "request_reason": "Streetlight Outage/Malfunction",
    "date_created": "2026-01-29T12:35:30.000",
    "date_modified": "2026-01-29T12:35:32.000",
    "request_status": "Pending",
    "responsible_agency": "Department of Public Works",
    "final_address": "8229 Pritchard Pl",
    "address_councildis": "A",
    "status": "Pending",
    "rowid": "1255288",
    "final_x": "3665638.05844",
    "final_y": "533320.035332",
    "longitude": "-90.11809654344532",
    "latitude": "29.960917265458132",
    "geocoded_column": {
      "latitude": "29.960917265458132",
      "longitude": "-90.11809654344532"
    }
  },
  {
    "service_request": "2026-1255287",
    "request_type": "Trash/Recycling",
    "request_reason": "Repair Trash Cart",
    "date_created": "2026-01-29T12:31:24.000",
    "date_modified": "2026-01-29T14:49:38.000",
    "request_status": "Pending",
    "responsible_agency": "Department of Sanitation",
    "final_address": "12 Audubon Pl",
    "address_councildis": "A",
    "status": "Assigned to Contractor",
    "contractor": "IV Waste",
    "rowid": "1255287",
    "final_x": "3663869.95501",
    "final_y": "524783.288124",
    "longitude": "-90.12396442700657",
    "latitude": "29.937495404836586",
    "geocoded_column": {
      "latitude": "29.937495404836586",
      "longitude": "-90.12396442700657"
    }
  },
  {
    "service_request": "2026-1255286",
    "request_type": "Health Related Request",
    "request_reason": "Homeless Encampment Complaint",
    "date_created": "2026-01-29T12:27:42.000",
    "date_modified": "2026-01-29T12:28:53.000",
    "request_status": "Pending",
    "responsible_agency": "Office Of Homeless Services And Strategy",
    "final_address": "4357 America St",
    "address_councildis": "E",
    "status": "Pending",
    "rowid": "1255286",
    "final_x": "3699949.0408",
    "final_y": "553031.989783",
    "longitude": "-90.00903020652657",
    "latitude": "30.01407271923393",
    "geocoded_column": {
      "latitude": "30.01407271923393",
      "longitude": "-90.00903020652657"
    }
  },
  {
    "service_request": "2026-1255285",
    "request_type": "Trash/Recycling",
    "request_reason": "Request a Large Item Pick Up",
    "date_created": "2026-01-29T12:22:16.000",
    "date_modified": "2026-01-29T12:22:18.000",
    "request_status": "Pending",
    "responsible_agency": "Department of Sanitation",
    "final_address": "10330 Flossmoor Dr",
    "address_councildis": "E",
    "status": "Assigned to Contractor",
    "contractor": "Waste Pro",
    "rowid": "1255285",
    "final_x": "3710150.18072",
    "final_y": "563864.551841",
    "longitude": "-89.97639477007321",
    "latitude": "30.043529868968744",
    "geocoded_column": {
      "latitude": "30.043529868968744",
      "longitude": "-89.97639477007321"
    }
  },
  {
    "service_request": "2026-1255284",
    "request_type": "Trash/Recycling",
    "request_reason": "Repair Trash Cart",
    "date_created": "2026-01-29T12:20:54.000",
    "date_modified": "2026-01-29T14:49:14.000",
    "request_status": "Pending",
    "responsible_agency": "Department of Sanitation",
    "final_address": "55 Fontainebleau Dr",
    "address_councildis": "A",
    "status": "Assigned to Contractor",
    "contractor": "IV Waste",
    "rowid": "1255284",
    "final_x": "3666463.79175",
    "final_y": "531248.374082",
    "longitude": "-90.11555854960038",
    "latitude": "29.955196770116018",
    "geocoded_column": {
      "latitude": "29.955196770116018",
      "longitude": "-90.11555854960038"
    }
  },
  {
    "service_request": "2026-1255283",
    "request_type": "Trash/Recycling",
    "request_reason": "Request a Large Item Pick Up",
    "date_created": "2026-01-29T12:19:34.000",
    "date_modified": "2026-01-29T12:19:36.000",
    "request_status": "Pending",
    "responsible_agency": "Department of Sanitation",
    "final_address": "7842 Shubert St",
    "address_councildis": "E",
    "status": "Assigned to Contractor",
    "contractor": "Waste Pro",
    "rowid": "1255283",
    "final_x": "3695457.19645",
    "final_y": "559508.013597",
    "longitude": "-90.02298810778659",
    "latitude": "30.032021312160797",
    "geocoded_column": {
      "latitude": "30.032021312160797",
      "longitude": "-90.02298810778659"
    }
  },
  {
    "service_request": "2026-1255282",
    "request_type": "Trash/Recycling",
    "request_reason": "Missed Trash Pick-Up",
    "date_created": "2026-01-29T12:18:42.000",
    "date_modified": "2026-01-29T14:01:22.000",
    "case_close_date": "2026-01-29T08:01:20.000",
    "request_status": "Closed",
    "responsible_agency": "Department of Sanitation",
    "final_address": "2405 Clover St",
    "address_councildis": "D",
    "status": "Invalid Request",
    "contractor": "IV Waste",
    "contractor_action": "Invalid Request",
    "rowid": "1255282",
    "final_x": "3686106.25897",
    "final_y": "546634.578513",
    "longitude": "-90.0529921601356",
    "latitude": "29.996914805963588",
    "geocoded_column": {
      "latitude": "29.996914805963588",
      "longitude": "-90.0529921601356"
    }
  },
  {
    "service_request": "2026-1255281",
    "request_type": "Parks & Parkways",
    "request_reason": "Request Tree Service (Right of Way/Public Property)",
    "date_created": "2026-01-29T12:14:31.000",
    "date_modified": "2026-01-29T12:14:33.000",
    "request_status": "Pending",
    "responsible_agency": "Department of Parks & Parkway",
    "final_address": "CARTIER AVE & MADRID ST",
    "address_councildis": "D",
    "status": "Pending",
    "rowid": "1255281",
    "final_x": "3677490.1",
    "final_y": "554640.38",
    "longitude": "-90.07993355882948",
    "latitude": "30.01918981043237",
    "geocoded_column": {
      "latitude": "30.01918981043237",
      "longitude": "-90.07993355882948"
    }
  },
  {
    "service_request": "2026-1255280",
    "request_type": "Roads and Streets",
    "request_reason": "Street Subsidence (Sinking)",
    "date_created": "2026-01-29T12:06:53.000",
    "date_modified": "2026-01-29T12:11:52.000",
    "request_status": "Pending",
    "responsible_agency": "Sewerage & Water Board",
    "final_address": "SOLDIERS ST & CARTIER AVE",
    "address_councildis": "D",
    "status": "Pending",
    "rowid": "1255280",
    "final_x": "3677457.6",
    "final_y": "554414.58",
    "longitude": "-90.08004405125133",
    "latitude": "30.018569919579647",
    "geocoded_column": {
      "latitude": "30.018569919579647",
      "longitude": "-90.08004405125133"
    }
  },