[
  {
    "service_request": "2024-1118204",
    "request_type": "Roads/Drainage",
    "request_reason": "Pothole",
    "date_created": "2024-08-01T23:52:11.000",
    "date_modified": "2024-08-01T23:52:11.000",
    "request_status": "Pending",
    "responsible_agency": "Department of Public Works",
    "final_address": "1500 BLK General Taylor St",
    "address_councildis": "B",
    "status": "Pending",
    "rowid": "1118204",
    "final_x": "3672671.04734",
    "final_y": "520876.798257",
    "longitude": "-90.0963118481831",
    "latitude": "29.926495466763885",
    "geocoded_column": {
      "latitude": "29.926495466763885",
      "longitude": "-90.0963118481831"
    }
  },
  {
    "service_request": "2024-1118203",
    "request_type": "Roads/Drainage",
    "request_reason": "Pothole",
    "date_created": "2024-08-01T23:20:26.000",
    "date_modified": "2024-08-01T23:20:26.000",
    "request_status": "Pending",
    "responsible_agency": "Department of Public Works",
    "final_address": "3400 BLK Camp St",
    "address_councildis": "B",
    "status": "Pending",
    "rowid": "1118203",
    "final_x": "3674690.01672",
    "final_y": "519889.441964",
    "longitude": "-90.08997233407257",
    "latitude": "29.92372046791189",
    "geocoded_column": {
      "latitude": "29.92372046791189",
      "longitude": "-90.08997233407257"
    }
  },
  {
    "service_request": "2024-1118202",
    "request_type": "Trash/Recycling",
    "request_reason": "Illegal Dumping",
    "date_created": "2024-08-01T22:29:18.000",
    "date_modified": "2024-08-01T22:29:18.000",
    "request_status": "Pending",
    "responsible_agency": "Department of Sanitation",
    "final_address": "LAKE FOREST BLVD & HOLLEY LN",
    "address_councildis": "E",
    "status": "Pending",
    "rowid": "1118202",
    "final_x": "3703297.5",
    "final_y": "556764.48",
    "longitude": "-89.99831345049398",
    "latitude": "30.02422879918892",
    "geocoded_column": {
      "latitude": "30.02422879918892",
      "longitude": "-89.99831345049398"
    }
  },
  {
    "service_request": "2024-1118201",
    "request_type": "Roads/Drainage",
    "request_reason": "Pothole",
    "date_created": "2024-08-01T22:25:22.000",
    "date_modified": "2024-08-01T22:25:22.000",
    "request_status": "Pending",
    "responsible_agency": "Department of Public Works",
    "final_address": "6215 Hurst St",
    "address_councildis": "A",
    "status": "Pending",
    "rowid": "1118201",
    "final_x": "3664668.32039",
    "final_y": "522243.373626",
    "longitude": "-90.12152872358996",
    "latitude": "29.93048825206563",
    "geocoded_column": {
      "latitude": "29.93048825206563",
      "longitude": "-90.12152872358996"
    }
  },
  {
    "service_request": "2024-1118200",
    "request_type": "Roads/Drainage",
    "request_reason": "Pothole",
    "date_created": "2024-08-01T22:22:25.000",
    "date_modified": "2024-08-01T22:22:25.000",
    "request_status": "Pending",
    "responsible_agency": "Department of Public Works",
    "final_address": "5923 Pitt St",
    "address_councildis": "A",
    "status": "Pending",
    "rowid": "1118200",
    "final_x": "3665490.05639",
    "final_y": "521140.942649",
    "longitude": "-90.11897149996602",
    "latitude": "29.92743299392239",
    "geocoded_column": {
      "latitude": "29.92743299392239",
      "longitude": "-90.11897149996602"
    }
  },
  {
    "service_request": "2024-1118199",
    "request_type": "Roads/Drainage",
    "request_reason": "Pothole",
    "date_created": "2024-08-01T22:20:44.000",
    "date_modified": "2024-08-01T22:20:44.000",
    "request_status": "Pending",
    "responsible_agency": "Department of Public Works",
    "final_address": "1521 Webster St",
    "address_councildis": "A",
    "status": "Pending",
    "rowid": "1118199",
    "final_x": "3665172.71917",
    "final_y": "522143.293626",
    "longitude": "-90.11993975188861",
    "latitude": "29.93019838632039",
    "geocoded_column": {
      "latitude": "29.93019838632039",
      "longitude": "-90.11993975188861"
    }
  },
  {
    "service_request": "2024-1118198",
    "request_type": "Property Maintenance",
    "request_reason": "Property Maintenance",
    "date_created": "2024-08-01T22:10:41.000",
    "date_modified": "2024-08-01T22:10:41.000",
    "request_status": "Pending",
    "responsible_agency": "Department of Code Enforcement",
    "final_address": "2532 N Galvez St",
    "address_councildis": "D",
    "status": "Pending",
    "rowid": "1118198",
    "final_x": "3687209.55401",
    "final_y": "540149.431563",
    "longitude": "-90.04973640527196",
    "latitude": "29.979049021917913",
    "geocoded_column": {
      "latitude": "29.979049021917913",
      "longitude": "-90.04973640527196"
    }
  },
  {
    "service_request": "2024-1118197",
    "request_type": "Trash/Recycling",
    "request_reason": "Request a Large Item Pick Up",
    "date_created": "2024-08-01T21:58:18.000",
    "date_modified": "2024-08-01T21:58:19.000",
    "request_status": "Pending",
    "responsible_agency": "Department of Sanitation",
    "final_address": "2627 Urquhart St",
    "address_councildis": "C",
    "status": "Assigned to Contractor",
    "contractor": "IV Waste",
    "rowid": "1118197",
    "final_x": "3687530.92751",
    "final_y": "537178.705096",
    "longitude": "-90.04882656807028",
    "latitude": "29.970870666262897",
    "geocoded_column": {
      "latitude": "29.970870666262897",
      "longitude": "-90.04882656807028"
    }
  },
  {
    "service_request": "2024-1118196",
    "request_type": "Roads/Drainage",
    "request_reason": "Catch Basin - Broken/Damage",
    "date_created": "2024-08-01T21:49:26.000",
    "date_modified": "2024-08-01T21:49:26.000",
    "request_status": "Pending",
    "responsible_agency": "Department of Public Works",
    "final_address": "3309 Chestnut St",
    "address_councildis": "B",
    "status": "Pending",
    "rowid": "1118196",
    "final_x": "3675001.09422",
    "final_y": "520465.57452",
    "longitude": "-90.08897062464334",
    "latitude": "29.92529536152919",
    "geocoded_column": {
      "latitude": "29.92529536152919",
      "longitude": "-90.08897062464334"
    }
  },
  {
    "service_request": "2024-1118195",
    "request_type": "Trash/Recycling",
    "request_reason": "Replace Trash Cart",
    "date_created": "2024-08-01T21:36:46.000",
    "date_modified": "2024-08-01T21:37:50.000",
    "request_status": "Pending",
    "responsible_agency": "Department of Sanitation",
    "final_address": "4922 S Rocheblave St",
    "address_councildis": "B",
    "status": "Assigned to Contractor",
    "contractor": "IV Waste",
    "rowid": "1118195",
    "final_x": "3669137.3842",
    "final_y": "528327.96448",
    "longitude": "-90.10721498370938",
    "latitude": "29.94708819849172",
    "geocoded_column": {
      "latitude": "29.94708819849172",
      "longitude": "-90.10721498370938"
    }
  },
  {
    "service_request": "2024-1118194",
    "request_type": "Traffic Signals/Signs/Striping/Streetlights",
    "request_reason": "Street Light Outage/Malfunction",
    "date_created": "2024-08-01T21:07:47.000",
    "date_modified": "2024-08-01T21:07:48.000",
    "request_status": "Pending",
    "responsible_agency": "Department of Public Works",
    "final_address": "11121 Ivy Ln",
    "address_councildis": "E",
    "status": "Assigned to Contractor",
    "contractor": "Legacy Professional Services",
    "rowid": "1118194",
    "final_x": "3716033.1381",
    "final_y": "559947.334429",
    "longitude": "-89.95795092515239",
    "latitude": "30.03256623071256",
    "geocoded_column": {
      "latitude": "30.03256623071256",
      "longitude": "-89.95795092515239"
    }
  },
  {
    "service_request": "2024-1118193",
    "request_type": "Property Maintenance",
    "request_reason": "Property Maintenance",
    "date_created": "2024-08-01T20:33:44.000",
    "date_modified": "2024-08-01T20:33:44.000",
    "request_status": "Pending",
    "responsible_agency": "Department of Code Enforcement",
    "final_address": "4762 Rosemont Pl",
    "address_councildis": "E",
    "status": "Pending",
    "rowid": "1118193",
    "final_x": "3702652.32663",
    "final_y": "554995.049433",
    "longitude": "-90.00041710374049",
    "latitude": "30.01938419850442",
    "geocoded_column": {
      "latitude": "30.01938419850442",
      "longitude": "-90.00041710374049"
    }
  },
  {
    "service_request": "2024-1118192",
    "request_type": "Property Maintenance",
    "request_reason": "Property Maintenance",
    "date_created": "2024-08-01T20:19:16.000",
    "date_modified": "2024-08-01T20:19:16.000",
    "request_status": "Pending",
    "responsible_agency": "Department of Code Enforcement",
    "final_address": "2837 Milan St",
    "address_councildis": "B",
    "status": "Pending",
    "rowid": "1118192",
    "final_x": "3671183.03867",
    "final_y": "525465.503805",
    "longitude": "-90.10085328448618",
    "latitude": "29.93915701639153",
    "geocoded_column": {
      "latitude": "29.93915701639153",
      "longitude": "-90.10085328448618"
    }
  },
  {
    "service_request": "2024-1118191",
    "request_type": "Property Maintenance",
    "request_reason": "Property Maintenance",
    "date_created": "2024-08-01T20:16:26.000",
    "date_modified": "2024-08-01T20:16:26.000",
    "request_status": "Pending",
    "responsible_agency": "Department of Code Enforcement",
    "final_address": "2837 Milan St",
    "address_councildis": "B",
    "status": "Pending",
    "rowid": "1118191",
    "final_x": "3671183.03867",
    "final_y": "525465.503805",
    "longitude": "-90.10085328448618",
    "latitude": "29.93915701639153",
    "geocoded_column": {
      "latitude": "29.93915701639153",
      "longitude": "-90.10085328448618"
    }
  },
  {
    "service_request": "2024-1118190",
    "request_type": "Parks & Parkways",
    "request_reason": "Request Grass Cutting Service (City Owned Property)",
    "date_created": "2024-08-01T20:13:41.000",
    "date_modified": "2024-08-01T20:13:41.000",
    "request_status": "Pending",
    "responsible_agency": "Department of Parks & Parkway",
    "final_address": "1120 Thalia St",
    "address_councildis": "B",
    "status": "Pending",
    "rowid": "1118190",
    "final_x": "3680322.42216",
    "final_y": "525258.696061",
    "longitude": "-90.0720063232108",
    "latitude": "29.938314895132187",
    "geocoded_column": {
      "latitude": "29.938314895132187",
      "longitude": "-90.0720063232108"
    }
  },
  {
    "service_request": "2024-1118189",
    "request_type": "Mosquito, Termite & Rodent Control",
    "request_reason": "Mosquito Complaint",
    "date_created": "2024-08-01T20:06:28.000",
    "date_modified": "2024-08-01T20:06:28.000",
    "request_status": "Pending",
    "responsible_agency": "Mosquito, Termite & Rodent Control Board",
    "final_address": "1120 Thalia St",
    "address_councildis": "B",
    "status": "Pending",
    "rowid": "1118189",
    "final_x": "3680322.42216",
    "final_y": "525258.696061",
    "longitude": "-90.0720063232108",
    "latitude": "29.938314895132187",
    "geocoded_column": {
      "latitude": "29.938314895132187",
      "longitude": "-90.0720063232108"
    }
  },
  {
    "service_request": "2024-1118188",
    "request_type": "Traffic Signals/Signs/Striping/Streetlights",
    "request_reason": "Street Light Outage/Malfunction",
    "date_created": "2024-08-01T20:00:26.000",
    "date_modified": "2024-08-01T20:00:27.000",
    "request_status": "Pending",
    "responsible_agency": "Department of Public Works",
    "final_address": "1130 Thalia St",
    "address_councildis": "B",
    "status": "Assigned to Contractor",
    "contractor": "Legacy Professional Services",
    "rowid": "1118188",
    "final_x": "3680271.20872",
    "final_y": "525270.823677",
    "longitude": "-90.07216758750822",
    "latitude": "29.93834979208449",
    "geocoded_column": {
      "latitude": "29.93834979208449",
      "longitude": "-90.07216758750822"
    }
  },
  {
    "service_request": "2024-1118187",
    "request_type": "Traffic Signals/Signs/Striping/Streetlights",
    "request_reason": "Street Light Outage/Malfunction",
    "date_created": "2024-08-01T19:59:05.000",
    "date_modified": "2024-08-01T19:59:06.000",
    "request_status": "Pending",
    "responsible_agency": "Department of Public Works",
    "final_address": "1120 Thalia St",
    "address_councildis": "B",
    "status": "Assigned to Contractor",
    "contractor": "Legacy Professional Services",
    "rowid": "1118187",
    "final_x": "3680322.42216",
    "final_y": "525258.696061",
    "longitude": "-90.0720063232108",
    "latitude": "29.938314895132187",
    "geocoded_column": {
      "latitude": "29.938314895132187",
      "longitude": "-90.0720063232108"
    }
  },
  {
    "service_request": "2024-1118186",
    "request_type": "Property Maintenance",
    "request_reason": "Property Maintenance",
    "date_created": "2024-08-01T19:55:28.000",
    "date_modified": "2024-08-01T19:55:28.000",
    "request_status": "Pending",
    "responsible_agency": "Department of Code Enforcement",
    "final_address": "1120 Thalia St",
    "address_councildis": "B",
    "status": "Pending",
    "rowid": "1118186",
    "final_x": "3680322.42216",
    "final_y": "525258.696061",
    "longitude": "-90.0720063232108",
    "latitude": "29.938314895132187",
    "geocoded_column": {
      "latitude": "29.938314895132187",
      "longitude": "-90.0720063232108"
    }
  },
  {
    "service_request": "2024-1118185",
    "request_type": "Roads/Drainage",
    "request_reason": "Catch Basin - Clogged",
    "date_created": "2024-08-01T19:53:32.000",
    "date_modified": "2024-08-01T19:53:32.000",
    "request_status": "Pending",
    "responsible_agency": "Department of Public Works",
    "final_address": "2261 Beck St",
    "address_councildis": "C",
    "status": "Pending",
    "rowid": "1118185",
    "final_x": "3700400.53623",
    "final_y": "522398.76249",
    "longitude": "-90.00872257281247",
    "latitude": "29.929828075880238",
    "geocoded_column": {
      "latitude": "29.929828075880238",
      "longitude": "-90.00872257281247"
    }
  },
  {
    "service_request": "2024-1118184",
    "request_type": "Trash/Recycling",
    "request_reason": "MIssed Recycling Pick-Up",
    "date_created": "2024-08-01T19:15:30.000",
    "date_modified": "2024-08-01T19:15:31.000",
    "request_status": "Pending",
    "responsible_agency": "Department of Sanitation",
    "final_address": "4430 Lancelot Dr, New Orleans, Louisiana, 70127",
    "address_councildis": "E",
    "status": "Assigned to Contractor",
    "contractor": "Waste Pro",
    "rowid": "1118184",
    "final_x": "3707544.13688",
    "final_y": "553760.070743",
    "longitude": "-89.98500668723098",
    "latitude": "30.01583111096896",
    "geocoded_column": {
      "latitude": "30.01583111096896",
      "longitude": "-89.98500668723098"
    }
  },
  {
    "service_request": "2024-1118183",
    "request_type": "Healthy Homes",
    "request_reason": "Healthy Homes",
    "date_created": "2024-08-01T19:14:35.000",
    "date_modified": "2024-08-01T19:14:35.000",
    "request_status": "Pending",
    "responsible_agency": "Department of Code Enforcement",
    "final_address": "10101 Lake Forest Blvd Apt 305",
    "address_councildis": "E",
    "status": "Pending",
    "rowid": "1118183",
    "final_x": "3711846.58725",
    "final_y": "560290.357149",
    "longitude": "-89.97116773999535",
    "latitude": "30.033646916885335",
    "geocoded_column": {
      "latitude": "30.033646916885335",
      "longitude": "-89.97116773999535"
    }
  },
  {
    "service_request": "2024-1118182",
    "request_type": "Trash/Recycling",
    "request_reason": "Illegal Dumping",
    "date_created": "2024-08-01T19:02:04.000",
    "date_modified": "2024-08-01T19:02:04.000",
    "request_status": "Pending",
    "responsible_agency": "Department of Sanitation",
    "final_address": "1727 Burdette St",
    "address_councildis": "A",
    "status": "Pending",
    "rowid": "1118182",
    "final_x": "3664168.63597",
    "final_y": "529053.303424",
    "longitude": "-90.12287905660355",
    "latitude": "29.949227907711467",
    "geocoded_column": {
      "latitude": "29.949227907711467",
      "longitude": "-90.12287905660355"
    }
  },
  {
    "service_request": "2024-1118181",
    "request_type": "Trash/Recycling",
    "request_reason": "Request a Large Item Pick Up",
    "date_created": "2024-08-01T19:01:25.000",
    "date_modified": "2024-08-01T19:01:26.000",
    "request_status": "Pending",
    "responsible_agency": "Department of Sanitation",
    "final_address": "4321 Trieste St",
    "address_councildis": "E",
    "status": "Assigned to Contractor",
    "contractor": "Waste Pro",
    "rowid": "1118181",
    "final_x": "3760220.06697",
    "final_y": "573504.147946",
    "longitude": "-89.81775378901686",
    "latitude": "30.06830896010249",
    "geocoded_column": {
      "latitude": "30.06830896010249",
      "longitude": "-89.81775378901686"
    }
  },
  {
    "service_request": "2024-1118180",
    "request_type": "Parks & Parkways",
    "request_reason": "Request Tree Service (Right of Way/Public Property)",
    "date_created": "2024-08-01T18:58:28.000",
    "date_modified": "2024-08-01T18:58:28.000",
    "request_status": "Pending",
    "responsible_agency": "Department of Parks & Parkway",
    "final_address": "4400 BLK Fiesta St",
    "address_councildis": "C",
    "status": "Pending",
    "rowid": "1118180",
    "final_x": "3700150.2952",
    "final_y": "521710.711288",
    "longitude": "-90.00953762942284",
    "latitude": "29.927944124491805",
    "geocoded_column": {
      "latitude": "29.927944124491805",
      "longitude": "-90.00953762942284"
    }
  },
  {
    "service_request": "2024-1118179",
    "request_type": "Trash/Recycling",
    "request_reason": "Request a Large Item Pick Up",
    "date_created": "2024-08-01T18:54:25.000",
    "date_modified": "2024-08-01T18:54:26.000",
    "request_status": "Pending",
    "responsible_agency": "Department of Sanitation",
    "final_address": "6635 Coventry St",
    "address_councildis": "E",
    "status": "Assigned to Contractor",
    "contractor": "Waste Pro",
    "rowid": "1118179",
    "final_x": "3697730.2929",
    "final_y": "559373.122973",
    "longitude": "-90.01580992205524",
    "latitude": "30.03157874409579",
    "geocoded_column": {
      "latitude": "30.03157874409579",
      "longitude": "-90.01580992205524"
    }
  },
  {
    "service_request": "2024-1118178",
    "request_type": "Parks & Parkways",
    "request_reason": "Request Grass Cutting Service (City Owned Property)",
    "date_created": "2024-08-01T18:49:14.000",
    "date_modified": "2024-08-01T18:49:14.000",
    "request_status": "Pending",
    "responsible_agency": "Department of Parks & Parkway",
    "final_address": "901 Pleasant St",
    "address_councildis": "B",
    "status": "Pending",
    "rowid": "1118178",
    "final_x": "3675894.07061",
    "final_y": "519254.167799",
    "longitude": "-90.08619339796773",
    "latitude": "29.921937688524196",
    "geocoded_column": {
      "latitude": "29.921937688524196",
      "longitude": "-90.08619339796773"
    }
  },
  {
    "service_request": "2024-1118177",
    "request_type": "Trash/Recycling",
    "request_reason": "Request a Large Item Pick Up",
    "date_created": "2024-08-01T18:30:41.000",
    "date_modified": "2024-08-01T18:30:42.000",
    "request_status": "Pending",
    "responsible_agency": "Department of Sanitation",
    "final_address": "4516 Mark Twain Dr",
    "address_councildis": "D",
    "status": "Assigned to Contractor",
    "contractor": "IV Waste",
    "rowid": "1118177",
    "final_x": "3691458.21065",
    "final_y": "550759.554261",
    "longitude": "-90.03593813020397",
    "latitude": "30.0080914586232",
    "geocoded_column": {
      "latitude": "30.0080914586232",
      "longitude": "-90.03593813020397"
    }
  },
  {
    "service_request": "2024-1118176",
    "request_type": "Trash/Recycling",
    "request_reason": "Replace Recycling Cart",
    "date_created": "2024-08-01T18:12:46.000",
    "date_modified": "2024-08-01T18:12:46.000",
    "request_status": "Pending",
    "responsible_agency": "Department of Sanitation",
    "final_address": "3429 Clara St",
    "address_councildis": "B",
    "status": "Pending",
    "rowid": "1118176",
    "final_x": "3672185.92756",
    "final_y": "525469.763965",
    "longitude": "-90.0976868891885",
    "latitude": "29.9391390311065",
    "geocoded_column": {
      "latitude": "29.9391390311065",
      "longitude": "-90.0976868891885"
    }
  },
  {
    "service_request": "2024-1118175",
    "request_type": "Abandoned Vehicles",
    "request_reason": "Abandoned/Junk Vehicles",
    "date_created": "2024-08-01T18:10:54.000",
    "date_modified": "2024-08-01T18:10:54.000",
    "request_status": "Pending",
    "responsible_agency": "Department of Public Works",
    "final_address": "GENERAL PERSHING ST & FRERET ST",
    "address_councildis": "B",
    "status": "Pending",
    "rowid": "1118175",
    "final_x": "3670932.4",
    "final_y": "524087.28",
    "longitude": "-90.1016913540532",
    "latitude": "29.935374757261556",
    "geocoded_column": {
      "latitude": "29.935374757261556",
      "longitude": "-90.1016913540532"
    }
  },
  {
    "service_request": "2024-1118174",
    "request_type": "Abandoned Vehicles",
    "request_reason": "Abandoned/Junk Vehicles",
    "date_created": "2024-08-01T17:56:49.000",
    "date_modified": "2024-08-01T17:56:49.000",
    "request_status": "Pending",
    "responsible_agency": "Department of Public Works",
    "final_address": "4500 BLK Toulouse St",
    "address_councildis": "A",
    "status": "Pending",
    "rowid": "1118174",
    "final_x": "3670720.89048",
    "final_y": "540865.993187",
    "longitude": "-90.1017897677463",
    "latitude": "29.981516907803467",
    "geocoded_column": {
      "latitude": "29.981516907803467",
      "longitude": "-90.1017897677463"
    }
  },
  {
    "service_request": "2024-1118173",
    "request_type": "Trash/Recycling",
    "request_reason": "Request a Large Item Pick Up",
    "date_created": "2024-08-01T17:15:18.000",
    "date_modified": "2024-08-01T17:15:19.000",
    "request_status": "Pending",
    "responsible_agency": "Department of Sanitation",
    "final_address": "3915 Prytania St",
    "address_councildis": "B",
    "status": "Assigned to Contractor",
    "contractor": "IV Waste",
    "rowid": "1118173",
    "final_x": "3672632.27707",
    "final_y": "520543.0494",
    "longitude": "-90.09644560808513",
    "latitude": "29.92557891531325",
    "geocoded_column": {
      "latitude": "29.92557891531325",
      "longitude": "-90.09644560808513"
    }
  },
  {
    "service_request": "2024-1118172",
    "request_type": "Trash/Recycling",
    "request_reason": "Replace Trash Cart",
    "date_created": "2024-08-01T17:11:36.000",
    "date_modified": "2024-08-01T17:11:37.000",
    "request_status": "Pending",
    "responsible_agency": "Department of Sanitation",
    "final_address": "2323 Jena St",
    "address_councildis": "B",
    "status": "Assigned to Contractor",
    "contractor": "IV Waste",
    "rowid": "1118172",
    "final_x": "3670219.58554",
    "final_y": "523526.509179",
    "longitude": "-90.10396071193058",
    "latitude": "29.933853866538982",
    "geocoded_column": {
      "latitude": "29.933853866538982",
      "longitude": "-90.10396071193058"
    }
  },
  {
    "service_request": "2024-1118171",
    "request_type": "Trash/Recycling",
    "request_reason": "Request a Large Item Pick Up",
    "date_created": "2024-08-01T16:59:12.000",
    "date_modified": "2024-08-01T16:59:13.000",
    "request_status": "Pending",
    "responsible_agency": "Department of Sanitation",
    "final_address": "4553 Francis Dr",
    "address_councildis": "D",
    "status": "Assigned to Contractor",
    "contractor": "Waste Pro",
    "rowid": "1118171",
    "final_x": "3698363.33335",
    "final_y": "553413.504983",
    "longitude": "-90.01402633186913",
    "latitude": "30.015172038579145",
    "geocoded_column": {
      "latitude": "30.015172038579145",
      "longitude": "-90.01402633186913"
    }
  },
  {
    "service_request": "2024-1118170",
    "request_type": "Parks & Parkways",
    "request_reason": "Request Tree Service (Right of Way/Public Property)",
    "date_created": "2024-08-01T16:54:19.000",
    "date_modified": "2024-08-01T16:54:19.000",
    "request_status": "Pending",
    "responsible_agency": "Department of Parks & Parkway",
    "final_address": "6001 Magazine St",
    "address_councildis": "A",
    "status": "Pending",
    "rowid": "1118170",
    "final_x": "3664597.3417",
    "final_y": "519276.845175",
    "longitude": "-90.12185180732118",
    "latitude": "29.92233329551658",
    "geocoded_column": {
      "latitude": "29.92233329551658",
      "longitude": "-90.12185180732118"
    }
  },
  {
    "service_request": "2024-1118169",
    "request_type": "Roads/Drainage",
    "request_reason": "Street Flooding / Drainage",
    "date_created": "2024-08-01T16:50:52.000",
    "date_modified": "2024-08-01T16:50:53.000",
    "request_status": "Pending",
    "responsible_agency": "Department of Public Works",
    "final_address": "4200 BLK S Galvez St",
    "address_councildis": "B",
    "status": "Pending",
    "rowid": "1118169",
    "final_x": "3670755.52558",
    "final_y": "527599.612896",
    "longitude": "-90.10213060341813",
    "latitude": "29.94503775958792",
    "geocoded_column": {
      "latitude": "29.94503775958792",
      "longitude": "-90.10213060341813"
    }
  },
  {
    "service_request": "2024-1118168",
    "request_type": "Roads/Drainage",
    "request_reason": "Catch Basin - Clogged",
    "date_created": "2024-08-01T16:50:22.000",
    "date_modified": "2024-08-01T16:50:22.000",
    "request_status": "Pending",
    "responsible_agency": "Department of Public Works",
    "final_address": "3400 BLK General Pershing St",
    "address_councildis": "B",
    "status": "Pending",
    "rowid": "1118168",
    "final_x": "3670584.48163",
    "final_y": "527547.221268",
    "longitude": "-90.10267242003637",
    "latitude": "29.944898752101896",
    "geocoded_column": {
      "latitude": "29.944898752101896",
      "longitude": "-90.10267242003637"
    }
  },
  {
    "service_request": "2024-1118167",
    "request_type": "Roads/Drainage",
    "request_reason": "Street Subsidence (Sinking)",
    "date_created": "2024-08-01T16:48:28.000",
    "date_modified": "2024-08-01T16:48:28.000",
    "request_status": "Pending",
    "responsible_agency": "Department of Public Works",
    "final_address": "2648 Piety St",
    "address_councildis": "D",
    "status": "Pending",
    "rowid": "1118167",
    "final_x": "3691316.28713",
    "final_y": "541837.640076",
    "longitude": "-90.03670547120271",
    "latitude": "29.98356385608901",
    "geocoded_column": {
      "latitude": "29.98356385608901",
      "longitude": "-90.03670547120271"
    }
  },
  {
    "service_request": "2024-1118166",
    "request_type": "Trash/Recycling",
    "request_reason": "Illegal Dumping",
    "date_created": "2024-08-01T16:48:03.000",
    "date_modified": "2024-08-01T16:48:03.000",
    "request_status": "Pending",
    "responsible_agency": "Department of Sanitation",
    "final_address": "2253 Carondelet St",
    "address_councildis": "B",
    "status": "Pending",
    "rowid": "1118166",
    "final_x": "3676973.57262",
    "final_y": "523798.761339",
    "longitude": "-90.08262928084405",
    "latitude": "29.934401491957658",
    "geocoded_column": {
      "latitude": "29.934401491957658",
      "longitude": "-90.08262928084405"
    }
  },
  {
    "service_request": "2024-1118165",
    "request_type": "Trash/Recycling",
    "request_reason": "Request a Large Item Pick Up",
    "date_created": "2024-08-01T16:44:42.000",
    "date_modified": "2024-08-01T16:44:43.000",
    "request_status": "Pending",
    "responsible_agency": "Department of Sanitation",
    "final_address": "4218 S Galvez St",
    "address_councildis": "B",
    "status": "Assigned to Contractor",
    "contractor": "IV Waste",
    "rowid": "1118165",
    "final_x": "3670759.57095",
    "final_y": "527550.377407",
    "longitude": "-90.10211950124321",
    "latitude": "29.94490225853364",
    "geocoded_column": {
      "latitude": "29.94490225853364",
      "longitude": "-90.10211950124321"
    }
  },
  {
    "service_request": "2024-1118164",
    "request_type": "Trash/Recycling",
    "request_reason": "Request a Large Item Pick Up",
    "date_created": "2024-08-01T16:40:34.000",
    "date_modified": "2024-08-01T16:40:35.000",
    "request_status": "Pending",
    "responsible_agency": "Department of Sanitation",
    "final_address": "4218 S Galvez St",
    "address_councildis": "B",
    "status": "Assigned to Contractor",
    "contractor": "IV Waste",
    "rowid": "1118164",
    "final_x": "3670759.57095",
    "final_y": "527550.377407",
    "longitude": "-90.10211950124321",
    "latitude": "29.94490225853364",
    "geocoded_column": {
      "latitude": "29.94490225853364",
      "longitude": "-90.10211950124321"
    }
  },
  {
    "service_request": "2024-1118163",
    "request_type": "Trash/Recycling",
    "request_reason": "Request a Large Item Pick Up",
    "date_created": "2024-08-01T16:40:00.000",
    "date_modified": "2024-08-01T16:40:01.000",
    "request_status": "Pending",
    "responsible_agency": "Department of Sanitation",
    "final_address": "1831 S Salcedo St",
    "address_councildis": "B",
    "status": "Assigned to Contractor",
    "contractor": "IV Waste",
    "rowid": "1118163",
    "final_x": "3669849.12858",
    "final_y": "530011.334593",
    "longitude": "-90.1049107533582",
    "latitude": "29.95169595466511",
    "geocoded_column": {
      "latitude": "29.95169595466511",
      "longitude": "-90.1049107533582"
    }
  },
  {
    "service_request": "2024-1118162",
    "request_type": "Trash/Recycling",
    "request_reason": "Request a Large Item Pick Up",
    "date_created": "2024-08-01T16:39:09.000",
    "date_modified": "2024-08-01T16:39:10.000",
    "request_status": "Pending",
    "responsible_agency": "Department of Sanitation",
    "final_address": "4218 S Galvez St",
    "address_councildis": "B",
    "status": "Assigned to Contractor",
    "contractor": "IV Waste",
    "rowid": "1118162",
    "final_x": "3670759.57095",
    "final_y": "527550.377407",
    "longitude": "-90.10211950124321",
    "latitude": "29.94490225853364",
    "geocoded_column": {
      "latitude": "29.94490225853364",
      "longitude": "-90.10211950124321"
    }
  },
  {
    "service_request": "2024-1118161",
    "request_type": "Trash/Recycling",
    "request_reason": "Order Recycling Cart",
    "date_created": "2024-08-01T16:28:08.000",
    "date_modified": "2024-08-01T16:28:08.000",
    "request_status": "Pending",
    "responsible_agency": "Department of Sanitation",
    "final_address": "2340 Annette St",
    "address_councildis": "D",
    "status": "Pending",
    "rowid": "1118161",
    "final_x": "3682729.17756",
    "final_y": "540906.465803",
    "longitude": "-90.06386065550835",
    "latitude": "29.98126784613711",
    "geocoded_column": {
      "latitude": "29.98126784613711",
      "longitude": "-90.06386065550835"
    }
  },
  {
    "service_request": "2024-1118160",
    "request_type": "Trash/Recycling",
    "request_reason": "Return Trash Cart",
    "date_created": "2024-08-01T16:26:28.000",
    "date_modified": "2024-08-01T16:26:29.000",
    "request_status": "Pending",
    "responsible_agency": "Department of Sanitation",
    "final_address": "2412 Jay St",
    "address_councildis": "D",
    "status": "Assigned to Contractor",
    "contractor": "IV Waste",
    "rowid": "1118160",
    "final_x": "3684851.00604",
    "final_y": "557305.624667",
    "longitude": "-90.05658183022311",
    "latitude": "30.0262947971439",
    "geocoded_column": {
      "latitude": "30.0262947971439",
      "longitude": "-90.05658183022311"
    }
  },
  {
    "service_request": "2024-1118159",
    "request_type": "Trash/Recycling",
    "request_reason": "Repair Trash Cart",
    "date_created": "2024-08-01T16:25:39.000",
    "date_modified": "2024-08-01T16:25:40.000",
    "request_status": "Pending",
    "responsible_agency": "Department of Sanitation",
    "final_address": "1704 Robert St",
    "address_councildis": "B",
    "status": "Assigned to Contractor",
    "contractor": "IV Waste",
    "rowid": "1118159",
    "final_x": "3668664.63252",
    "final_y": "521874.684218",
    "longitude": "-90.10892536759722",
    "latitude": "29.92935765732026",
    "geocoded_column": {
      "latitude": "29.92935765732026",
      "longitude": "-90.10892536759722"
    }
  },
  {
    "service_request": "2024-1118158",
    "request_type": "Trash/Recycling",
    "request_reason": "Repair Trash Cart",
    "date_created": "2024-08-01T16:21:00.000",
    "date_modified": "2024-08-01T16:21:01.000",
    "request_status": "Pending",
    "responsible_agency": "Department of Sanitation",
    "final_address": "323 32Nd St",
    "address_councildis": "A",
    "status": "Assigned to Contractor",
    "contractor": "IV Waste",
    "rowid": "1118158",
    "final_x": "3665088.41223",
    "final_y": "550796.076949",
    "longitude": "-90.11924750010266",
    "latitude": "30.008986501490984",
    "geocoded_column": {
      "latitude": "30.008986501490984",
      "longitude": "-90.11924750010266"
    }
  },
  {
    "service_request": "2024-1118157",
    "request_type": "Trash/Recycling",
    "request_reason": "Illegal Dumping",
    "date_created": "2024-08-01T16:16:30.000",
    "date_modified": "2024-08-01T16:17:42.000",
    "request_status": "Pending",
    "responsible_agency": "Department of Sanitation",
    "final_address": "4835 Read Blvd",
    "address_councildis": "E",
    "status": "Pending",
    "rowid": "1118157",
    "final_x": "3712816.29458",
    "final_y": "556708.48105",
    "longitude": "-89.9682382360503",
    "latitude": "30.02376644566568",
    "geocoded_column": {
      "latitude": "30.02376644566568",
      "longitude": "-89.9682382360503"
    }
  },
  {
    "service_request": "2024-1118156",
    "request_type": "Trash/Recycling",
    "request_reason": "Request a Large Item Pick Up",
    "date_created": "2024-08-01T16:15:41.000",
    "date_modified": "2024-08-01T16:53:54.000",
    "request_status": "Pending",
    "responsible_agency": "Department of Sanitation",
    "final_address": "1618 Lizardi St",
    "address_councildis": "E",
    "status": "Assigned to Contractor",
    "contractor": "Waste Pro",
    "rowid": "1118156",
    "final_x": "3697036.90685",
    "final_y": "536231.212295",
    "longitude": "-90.0188399756398",
    "latitude": "29.96796896278988",
    "geocoded_column": {
      "latitude": "29.96796896278988",
      "longitude": "-90.0188399756398"
    }
  },
  {
    "service_request": "2024-1118155",
    "request_type": "Traffic Signals/Signs/Striping/Streetlights",
    "request_reason": "Street Light Outage/Malfunction",
    "date_created": "2024-08-01T16:14:08.000",
    "date_modified": "2024-08-01T16:14:09.000",
    "request_status": "Pending",
    "responsible_agency": "Department of Public Works",
    "final_address": "3219 Fern St",
    "address_councildis": "B",
    "status": "Assigned to Contractor",
    "contractor": "Legacy Professional Services",
    "rowid": "1118155",
    "final_x": "3667484.97613",
    "final_y": "533238.028868",
    "longitude": "-90.11226706484503",
    "latitude": "29.960637785763673",
    "geocoded_column": {
      "latitude": "29.960637785763673",
      "longitude": "-90.11226706484503"
    }
  },
  {
    "service_request": "2024-1118154",
    "request_type": "Trash/Recycling",
    "request_reason": "Request a Large Item Pick Up",
    "date_created": "2024-08-01T16:11:31.000",
    "date_modified": "2024-08-01T16:11:32.000",
    "request_status": "Pending",
    "responsible_agency": "Department of Sanitation",
    "final_address": "5129 Chartres St",
    "address_councildis": "E",
    "status": "Assigned to Contractor",
    "contractor": "Waste Pro",
    "rowid": "1118154",
    "final_x": "3695974.55088",
    "final_y": "532336.277443",
    "longitude": "-90.0223356476377",
    "latitude": "29.957292739292367",
    "geocoded_column": {
      "latitude": "29.957292739292367",
      "longitude": "-90.0223356476377"
    }
  },
  {
    "service_request": "2024-1118153",
    "request_type": "Trash/Recycling",
    "request_reason": "Request a Large Item Pick Up",
    "date_created": "2024-08-01T16:11:29.000",
    "date_modified": "2024-08-01T16:11:30.000",
    "request_status": "Pending",
    "responsible_agency": "Department of Sanitation",
    "final_address": "7046 Lake Willow Dr",
    "address_councildis": "E",
    "status": "Assigned to Contractor",
    "contractor": "Waste Pro",
    "rowid": "1118153",
    "final_x": "3702245.72721",
    "final_y": "559069.97398",
    "longitude": "-90.00155216452771",
    "latitude": "30.030601668775283",
    "geocoded_column": {
      "latitude": "30.030601668775283",
      "longitude": "-90.00155216452771"
    }
  },
  {
    "service_request": "2024-1118152",
    "request_type": "Trash/Recycling",
    "request_reason": "MIssed Recycling Pick-Up",
    "date_created": "2024-08-01T16:11:17.000",
    "date_modified": "2024-08-01T16:26:09.000",
    "case_close_date": "2024-08-01T11:26:09.000",
    "request_status": "Closed",
    "responsible_agency": "Department of Sanitation",
    "final_address": "931 Nashville Ave",
    "address_councildis": "A",
    "status": "Invalid Request",
    "contractor": "IV Waste",
    "contractor_action": "Invalid Request",
    "rowid": "1118152",
    "final_x": "3665719.66874",
    "final_y": "519554.494583",
    "longitude": "-90.11829977222692",
    "latitude": "29.923064068223713",
    "geocoded_column": {
      "latitude": "29.923064068223713",
      "longitude": "-90.11829977222692"
    }
  },
  {
    "service_request": "2024-1118151",
    "request_type": "Trash/Recycling",
    "request_reason": "Repair Recycling Cart",
    "date_created": "2024-08-01T16:06:46.000",
    "date_modified": "2024-08-01T16:06:47.000",
    "request_status": "Pending",
    "responsible_agency": "Department of Sanitation",
    "final_address": "2714 Republic St",
    "address_councildis": "D",
    "status": "Pending",
    "rowid": "1118151",
    "final_x": "3680671.78011",
    "final_y": "542461.878797",
    "longitude": "-90.07030469965608",
    "latitude": "29.985607203051902",
    "geocoded_column": {
      "latitude": "29.985607203051902",
      "longitude": "-90.07030469965608"
    }
  },
  {
    "service_request": "2024-1118150",
    "request_type": "Trash/Recycling",
    "request_reason": "Return Trash Cart",
    "date_created": "2024-08-01T16:05:40.000",
    "date_modified": "2024-08-01T16:05:41.000",
    "request_status": "Pending",
    "responsible_agency": "Department of Sanitation",
    "final_address": "2908 Octavia St",
    "address_councildis": "A",
    "status": "Assigned to Contractor",
    "contractor": "IV Waste",
    "rowid": "1118150",
    "final_x": "3668000.56372",
    "final_y": "526122.20595",
    "longitude": "-90.11087866377314",
    "latitude": "29.941056476295223",
    "geocoded_column": {
      "latitude": "29.941056476295223",
      "longitude": "-90.11087866377314"
    }
  },
  {
    "service_request": "2024-1118149",
    "request_type": "Property Maintenance",
    "request_reason": "Property Maintenance",
    "date_created": "2024-08-01T16:05:08.000",
    "date_modified": "2024-08-01T16:05:09.000",
    "request_status": "Pending",
    "responsible_agency": "Department of Code Enforcement",
    "final_address": "2041 Jackson Ave",
    "address_councildis": "B",
    "status": "Pending",
    "rowid": "1118149",
    "final_x": "3676436.19918",
    "final_y": "525304.682301",
    "longitude": "-90.08427393134505",
    "latitude": "29.938558398368855",
    "geocoded_column": {
      "latitude": "29.938558398368855",
      "longitude": "-90.08427393134505"
    }
  },
  {
    "service_request": "2024-1118148",
    "request_type": "Trash/Recycling",
    "request_reason": "Illegal Dumping",
    "date_created": "2024-08-01T16:00:46.000",
    "date_modified": "2024-08-01T16:00:46.000",
    "request_status": "Pending",
    "responsible_agency": "Department of Sanitation",
    "final_address": "2045 Jackson Ave",
    "address_councildis": "B",
    "status": "Pending",
    "rowid": "1118148",
    "final_x": "3676422.87451",
    "final_y": "525321.920189",
    "longitude": "-90.08431540552787",
    "latitude": "29.938606196280343",
    "geocoded_column": {
      "latitude": "29.938606196280343",
      "longitude": "-90.08431540552787"
    }
  },
  {
    "service_request": "2024-1118147",
    "request_type": "Trash/Recycling",
    "request_reason": "Repair Trash Cart",
    "date_created": "2024-08-01T16:00:05.000",
    "date_modified": "2024-08-01T16:00:06.000",
    "request_status": "Pending",
    "responsible_agency": "Department of Sanitation",
    "final_address": "1537 Washington Ave",
    "address_councildis": "B",
    "status": "Assigned to Contractor",
    "contractor": "IV Waste",
    "rowid": "1118147",
    "final_x": "3676088.24136",
    "final_y": "522411.951418",
    "longitude": "-90.08547192933342",
    "latitude": "29.930614758646392",
    "geocoded_column": {
      "latitude": "29.930614758646392",
      "longitude": "-90.08547192933342"
    }
  },
  {
    "service_request": "2024-1118146",
    "request_type": "Traffic Signals/Signs/Striping/Streetlights",
    "request_reason": "Street Light Outage/Malfunction",
    "date_created": "2024-08-01T15:59:35.000",
    "date_modified": "2024-08-01T15:59:36.000",
    "request_status": "Pending",
    "responsible_agency": "Department of Public Works",
    "final_address": "1 Esplanade Ave",
    "address_councildis": "D",
    "status": "Assigned to Contractor",
    "contractor": "Legacy Professional Services",
    "rowid": "1118146",
    "final_x": "3679802.52936",
    "final_y": "537835.516361",
    "longitude": "-90.07321101070511",
    "latitude": "29.9729126289693",
    "geocoded_column": {
      "latitude": "29.9729126289693",
      "longitude": "-90.07321101070511"
    }
  },
  {
    "service_request": "2024-1118145",
    "request_type": "Trash/Recycling",
    "request_reason": "Illegal Dumping",
    "date_created": "2024-08-01T15:58:55.000",
    "date_modified": "2024-08-01T15:58:55.000",
    "request_status": "Pending",
    "responsible_agency": "Department of Sanitation",
    "final_address": "2045 Jackson Ave",
    "address_councildis": "B",
    "status": "Pending",
    "rowid": "1118145",
    "final_x": "3676422.87451",
    "final_y": "525321.920189",
    "longitude": "-90.08431540552787",
    "latitude": "29.938606196280343",
    "geocoded_column": {
      "latitude": "29.938606196280343",
      "longitude": "-90.08431540552787"
    }
  },
  {
    "service_request": "2024-1118144",
    "request_type": "Trash/Recycling",
    "request_reason": "Return Trash Cart",
    "date_created": "2024-08-01T15:56:38.000",
    "date_modified": "2024-08-01T15:56:39.000",
    "request_status": "Pending",
    "responsible_agency": "Department of Sanitation",
    "final_address": "7730 Burthe St",
    "address_councildis": "A",
    "status": "Assigned to Contractor",
    "contractor": "IV Waste",
    "rowid": "1118144",
    "final_x": "3662142.10496",
    "final_y": "526739.823358",
    "longitude": "-90.12935449548296",
    "latitude": "29.94292528671794",
    "geocoded_column": {
      "latitude": "29.94292528671794",
      "longitude": "-90.12935449548296"
    }
  },
  {
    "service_request": "2024-1118143",
    "request_type": "Roads/Drainage",
    "request_reason": "Pothole",
    "date_created": "2024-08-01T15:52:55.000",
    "date_modified": "2024-08-01T15:52:55.000",
    "request_status": "Pending",
    "responsible_agency": "Department of Public Works",
    "final_address": "5222 Conti St",
    "address_councildis": "A",
    "status": "Pending",
    "rowid": "1118143",
    "final_x": "3668442.91834",
    "final_y": "541767.11534",
    "longitude": "-90.10895427014516",
    "latitude": "29.984061812754728",
    "geocoded_column": {
      "latitude": "29.984061812754728",
      "longitude": "-90.10895427014516"
    }
  },
  {
    "service_request": "2024-1118142",
    "request_type": "Trash/Recycling",
    "request_reason": "Repair Trash Cart",
    "date_created": "2024-08-01T15:51:00.000",
    "date_modified": "2024-08-01T15:51:01.000",
    "request_status": "Pending",
    "responsible_agency": "Department of Sanitation",
    "final_address": "8540 Chase St",
    "address_councildis": "E",
    "status": "Assigned to Contractor",
    "contractor": "Waste Pro",
    "rowid": "1118142",
    "final_x": "3703574.90961",
    "final_y": "563340.147296",
    "longitude": "-89.99719460800276",
    "latitude": "30.04230042678488",
    "geocoded_column": {
      "latitude": "30.04230042678488",
      "longitude": "-89.99719460800276"
    }
  },
  {
    "service_request": "2024-1118141",
    "request_type": "Safety & Permits",
    "request_reason": "Licenses & Permits",
    "date_created": "2024-08-01T15:48:43.000",
    "date_modified": "2024-08-01T15:48:44.000",
    "request_status": "Pending",
    "responsible_agency": "Safety and Permits",
    "final_address": "7900 Downman Rd",
    "address_councildis": "D",
    "status": "Pending",
    "rowid": "1118141",
    "final_x": "3694291.39107",
    "final_y": "559320.411933",
    "longitude": "-90.02667886956327",
    "latitude": "30.031542085031383",
    "geocoded_column": {
      "latitude": "30.031542085031383",
      "longitude": "-90.02667886956327"
    }
  },
  {
    "service_request": "2024-1118140",
    "request_type": "Roads/Drainage",
    "request_reason": "Pothole",
    "date_created": "2024-08-01T15:48:10.000",
    "date_modified": "2024-08-01T15:48:10.000",
    "request_status": "Pending",
    "responsible_agency": "Department of Public Works",
    "final_address": "5222 Conti St",
    "address_councildis": "A",
    "status": "Pending",
    "rowid": "1118140",
    "final_x": "3668442.91834",
    "final_y": "541767.11534",
    "longitude": "-90.10895427014516",
    "latitude": "29.984061812754728",
    "geocoded_column": {
      "latitude": "29.984061812754728",
      "longitude": "-90.10895427014516"
    }
  },
  {
    "service_request": "2024-1118139",
    "request_type": "Trash/Recycling",
    "request_reason": "Request a Large Item Pick Up",
    "date_created": "2024-08-01T15:46:01.000",
    "date_modified": "2024-08-01T15:46:02.000",
    "request_status": "Pending",
    "responsible_agency": "Department of Sanitation",
    "final_address": "14561 Beekman Rd",
    "address_councildis": "E",
    "status": "Assigned to Contractor",
    "contractor": "Waste Pro",
    "rowid": "1118139",
    "final_x": "3721048.17414",
    "final_y": "573069.970601",
    "longitude": "-89.94159954661173",
    "latitude": "30.068481574233804",
    "geocoded_column": {
      "latitude": "30.068481574233804",
      "longitude": "-89.94159954661173"
    }
  },
  {
    "service_request": "2024-1118138",
    "request_type": "Property Maintenance",
    "request_reason": "Property Maintenance",
    "date_created": "2024-08-01T15:44:04.000",
    "date_modified": "2024-08-01T15:44:05.000",
    "request_status": "Pending",
    "responsible_agency": "Department of Code Enforcement",
    "final_address": "W LAVERNE ST & PINES BLVD",
    "address_councildis": "D",
    "status": "Pending",
    "rowid": "1118138",
    "final_x": "3696079.5",
    "final_y": "556084.48",
    "longitude": "-90.02114549101803",
    "latitude": "30.02258831757132",
    "geocoded_column": {
      "latitude": "30.02258831757132",
      "longitude": "-90.02114549101803"
    }
  },
  {
    "service_request": "2024-1118137",
    "request_type": "Trash/Recycling",
    "request_reason": "Damaged Caused By Contractor",
    "date_created": "2024-08-01T15:39:32.000",
    "date_modified": "2024-08-01T15:39:32.000",
    "request_status": "Pending",
    "responsible_agency": "Department of Sanitation",
    "final_address": "1823 Broadway St",
    "address_councildis": "A",
    "status": "Assigned to Contractor",
    "contractor": "IV Waste",
    "rowid": "1118137",
    "final_x": "3665541.54452",
    "final_y": "528434.266368",
    "longitude": "-90.11856488195491",
    "latitude": "29.947485805332526",
    "geocoded_column": {
      "latitude": "29.947485805332526",
      "longitude": "-90.11856488195491"
    }
  },
  {
    "service_request": "2024-1118136",
    "request_type": "Abandoned Vehicles",
    "request_reason": "Abandoned/Junk Vehicles",
    "date_created": "2024-08-01T15:38:47.000",
    "date_modified": "2024-08-01T15:38:48.000",
    "request_status": "Pending",
    "responsible_agency": "Department of Public Works",
    "final_address": "ST LOUIS ST & BURGUNDY ST",
    "address_councildis": "C",
    "status": "Pending",
    "rowid": "1118136",
    "final_x": "3681239.8",
    "final_y": "532517.78",
    "longitude": "-90.06885717060959",
    "latitude": "29.9582471368884",
    "geocoded_column": {
      "latitude": "29.9582471368884",
      "longitude": "-90.06885717060959"
    }
  },
  {
    "service_request": "2024-1118135",
    "request_type": "Trash/Recycling",
    "request_reason": "Request a Large Item Pick Up",
    "date_created": "2024-08-01T15:33:55.000",
    "date_modified": "2024-08-01T15:33:56.000",
    "request_status": "Pending",
    "responsible_agency": "Department of Sanitation",
    "final_address": "1534 Camp St",
    "address_councildis": "B",
    "status": "Assigned to Contractor",
    "contractor": "IV Waste",
    "rowid": "1118135",
    "final_x": "3679777.77467",
    "final_y": "523636.190267",
    "longitude": "-90.07378213497277",
    "latitude": "29.933870014387907",
    "geocoded_column": {
      "latitude": "29.933870014387907",
      "longitude": "-90.07378213497277"
    }
  },
  {
    "service_request": "2024-1118134",
    "request_type": "Parks & Parkways",
    "request_reason": "Request Tree Service (Right of Way/Public Property)",
    "date_created": "2024-08-01T15:31:39.000",
    "date_modified": "2024-08-01T15:39:35.000",
    "request_status": "Pending",
    "responsible_agency": "Department of Parks & Parkway",
    "final_address": "500 BLK Tupelo St",
    "address_councildis": "E",
    "rowid": "1118134",
    "final_x": "3698722.24392",
    "final_y": "531401.70306",
    "longitude": "-90.01369330582439",
    "latitude": "29.95463626256496",
    "geocoded_column": {
      "latitude": "29.95463626256496",
      "longitude": "-90.01369330582439"
    }
  },
  {
    "service_request": "2024-1118133",
    "request_type": "Trash/Recycling",
    "request_reason": "Repair Trash Cart",
    "date_created": "2024-08-01T15:28:18.000",
    "date_modified": "2024-08-01T15:28:18.000",
    "request_status": "Pending",
    "responsible_agency": "Department of Sanitation",
    "final_address": "2527 Gravier St",
    "address_councildis": "B",
    "status": "Assigned to Contractor",
    "contractor": "IV Waste",
    "rowid": "1118133",
    "final_x": "3674722.59444",
    "final_y": "533019.294404",
    "longitude": "-90.08941956224103",
    "latitude": "29.959822279206737",
    "geocoded_column": {
      "latitude": "29.959822279206737",
      "longitude": "-90.08941956224103"
    }
  },
  {
    "service_request": "2024-1118132",
    "request_type": "Trash/Recycling",
    "request_reason": "Request a Large Item Pick Up",
    "date_created": "2024-08-01T15:27:41.000",
    "date_modified": "2024-08-01T15:27:42.000",
    "request_status": "Pending",
    "responsible_agency": "Department of Sanitation",
    "final_address": "1721 Egania St",
    "address_councildis": "E",
    "status": "Assigned to Contractor",
    "contractor": "Waste Pro",
    "rowid": "1118132",
    "final_x": "3697524.28029",
    "final_y": "536499.576583",
    "longitude": "-90.01729110828425",
    "latitude": "29.96869148603192",
    "geocoded_column": {
      "latitude": "29.96869148603192",
      "longitude": "-90.01729110828425"
    }
  },
  {
    "service_request": "2024-1118131",
    "request_type": "Traffic Signals/Signs/Striping/Streetlights",
    "request_reason": "Street Light Outage/Malfunction",
    "date_created": "2024-08-01T15:27:06.000",
    "date_modified": "2024-08-01T15:27:07.000",
    "request_status": "Pending",
    "responsible_agency": "Department of Public Works",
    "final_address": "3925 Socrates St",
    "address_councildis": "C",
    "status": "Assigned to Contractor",
    "contractor": "Legacy Professional Services",
    "rowid": "1118131",
    "final_x": "3698762.0826",
    "final_y": "526028.945086",
    "longitude": "-90.01376288407644",
    "latitude": "29.93986180077696",
    "geocoded_column": {
      "latitude": "29.93986180077696",
      "longitude": "-90.01376288407644"
    }
  },
  {
    "service_request": "2024-1118130",
    "request_type": "Abandoned Vehicles",
    "request_reason": "Abandoned/Junk Vehicles",
    "date_created": "2024-08-01T15:23:04.000",
    "date_modified": "2024-08-01T15:23:04.000",
    "request_status": "Pending",
    "responsible_agency": "Department of Public Works",
    "final_address": "3226 Loyola Ave",
    "address_councildis": "B",
    "status": "Pending",
    "rowid": "1118130",
    "final_x": "3673795.44814",
    "final_y": "523673.400635",
    "longitude": "-90.09266683418952",
    "latitude": "29.93415179359377",
    "geocoded_column": {
      "latitude": "29.93415179359377",
      "longitude": "-90.09266683418952"
    }
  },
  {
    "service_request": "2024-1118129",
    "request_type": "Roads/Drainage",
    "request_reason": "Man hole cover issue",
    "date_created": "2024-08-01T15:13:35.000",
    "date_modified": "2024-08-01T15:13:35.000",
    "request_status": "Pending",
    "responsible_agency": "Department of Public Works",
    "final_address": "CHELSEA DR & PEMBROOK DR",
    "address_councildis": "C",
    "status": "Pending",
    "rowid": "1118129",
    "final_x": "3704218.4",
    "final_y": "520987.48",
    "longitude": "-89.99672229669218",
    "latitude": "29.925825631615403",
    "geocoded_column": {
      "latitude": "29.925825631615403",
      "longitude": "-89.99672229669218"
    }
  },
  {
    "service_request": "2024-1118128",
    "request_type": "Trash/Recycling",
    "request_reason": "Request a Large Item Pick Up",
    "date_created": "2024-08-01T15:07:47.000",
    "date_modified": "2024-08-01T15:07:48.000",
    "request_status": "Pending",
    "responsible_agency": "Department of Sanitation",
    "final_address": "7731 Shelly St",
    "address_councildis": "E",
    "status": "Assigned to Contractor",
    "contractor": "Waste Pro",
    "rowid": "1118128",
    "final_x": "3695932.63082",
    "final_y": "559352.779357",
    "longitude": "-90.02149132910432",
    "latitude": "30.03157951942622",
    "geocoded_column": {
      "latitude": "30.03157951942622",
      "longitude": "-90.02149132910432"
    }
  },
  {
    "service_request": "2024-1118127",
    "request_type": "Property Maintenance",
    "request_reason": "Property Maintenance",
    "date_created": "2024-08-01T15:03:24.000",
    "date_modified": "2024-08-01T15:03:24.000",
    "request_status": "Pending",
    "responsible_agency": "Department of Code Enforcement",
    "final_address": "9014 Hickory St",
    "address_councildis": "A",
    "status": "Pending",
    "rowid": "1118127",
    "final_x": "3660837.07763",
    "final_y": "532030.797251",
    "longitude": "-90.13329985533453",
    "latitude": "29.957511410690902",
    "geocoded_column": {
      "latitude": "29.957511410690902",
      "longitude": "-90.13329985533453"
    }
  },
  {
    "service_request": "2024-1118126",
    "request_type": "Trash/Recycling",
    "request_reason": "Request a Large Item Pick Up",
    "date_created": "2024-08-01T14:59:23.000",
    "date_modified": "2024-08-01T14:59:24.000",
    "request_status": "Pending",
    "responsible_agency": "Department of Sanitation",
    "final_address": "2513 Cleveland Ave",
    "address_councildis": "B",
    "status": "Assigned to Contractor",
    "contractor": "IV Waste",
    "rowid": "1118126",
    "final_x": "3675805.01198",
    "final_y": "534278.816645",
    "longitude": "-90.08595822849858",
    "latitude": "29.963253186681403",
    "geocoded_column": {
      "latitude": "29.963253186681403",
      "longitude": "-90.08595822849858"
    }
  },
  {
    "service_request": "2024-1118125",
    "request_type": "Trash/Recycling",
    "request_reason": "Request a Large Item Pick Up",
    "date_created": "2024-08-01T14:58:06.000",
    "date_modified": "2024-08-01T14:58:07.000",
    "request_status": "Pending",
    "responsible_agency": "Department of Sanitation",
    "final_address": "13170 Maple Wood Dr",
    "address_councildis": "E",
    "status": "Assigned to Contractor",
    "contractor": "Waste Pro",
    "rowid": "1118125",
    "final_x": "3724269.363",
    "final_y": "563689.346337",
    "longitude": "-89.93177952852204",
    "latitude": "30.042580821579055",
    "geocoded_column": {
      "latitude": "30.042580821579055",
      "longitude": "-89.93177952852204"
    }
  },
  {
    "service_request": "2024-1118124",
    "request_type": "Trash/Recycling",
    "request_reason": "Request a Large Item Pick Up",
    "date_created": "2024-08-01T14:53:12.000",
    "date_modified": "2024-08-01T14:53:13.000",
    "request_status": "Pending",
    "responsible_agency": "Department of Sanitation",
    "final_address": "1767 Pleasure St",
    "address_councildis": "D",
    "status": "Assigned to Contractor",
    "contractor": "IV Waste",
    "rowid": "1118124",
    "final_x": "3681051.62504",
    "final_y": "544926.571343",
    "longitude": "-90.06901902599132",
    "latitude": "29.992372721894014",
    "geocoded_column": {
      "latitude": "29.992372721894014",
      "longitude": "-90.06901902599132"
    }
  },
  {
    "service_request": "2024-1118123",
    "request_type": "Trash/Recycling",
    "request_reason": "Illegal Dumping",
    "date_created": "2024-08-01T14:52:27.000",
    "date_modified": "2024-08-01T14:52:28.000",
    "request_status": "Pending",
    "responsible_agency": "Department of Sanitation",
    "final_address": "5100 BLK Urquhart St",
    "address_councildis": "E",
    "status": "Pending",
    "rowid": "1118123",
    "final_x": "3696592.07036",
    "final_y": "534890.954612",
    "longitude": "-90.02029327897075",
    "latitude": "29.964297755672924",
    "geocoded_column": {
      "latitude": "29.964297755672924",
      "longitude": "-90.02029327897075"
    }
  },
  {
    "service_request": "2024-1118121",
    "request_type": "Parks & Parkways",
    "request_reason": "Request Tree Service (Right of Way/Public Property)",
    "date_created": "2024-08-01T14:49:37.000",
    "date_modified": "2024-08-01T14:49:38.000",
    "request_status": "Pending",
    "responsible_agency": "Department of Parks & Parkway",
    "final_address": "2637 Somerset Dr",
    "address_councildis": "C",
    "status": "Pending",
    "rowid": "1118121",
    "final_x": "3702815.14046",
    "final_y": "521228.405561",
    "longitude": "-90.00114309332419",
    "latitude": "29.926533027800264",
    "geocoded_column": {
      "latitude": "29.926533027800264",
      "longitude": "-90.00114309332419"
    }
  },
  {
    "service_request": "2024-1118120",
    "request_type": "Abandoned Vehicles",
    "request_reason": "Abandoned/Junk Vehicles",
    "date_created": "2024-08-01T14:48:57.000",
    "date_modified": "2024-08-01T14:48:57.000",
    "request_status": "Pending",
    "responsible_agency": "Department of Public Works",
    "final_address": "PHILIP ST & CHIPPEWA ST",
    "address_councildis": "B",
    "status": "Pending",
    "rowid": "1118120",
    "final_x": "3679435.6",
    "final_y": "520690.18",
    "longitude": "-90.0749645030222",
    "latitude": "29.925779789801886",
    "geocoded_column": {
      "latitude": "29.925779789801886",
      "longitude": "-90.0749645030222"
    }
  },
  {
    "service_request": "2024-1118119",
    "request_type": "Trash/Recycling",
    "request_reason": "Request a Large Item Pick Up",
    "date_created": "2024-08-01T14:48:01.000",
    "date_modified": "2024-08-01T14:48:02.000",
    "request_status": "Pending",
    "responsible_agency": "Department of Sanitation",
    "final_address": "2400 Somerset Dr",
    "address_councildis": "C",
    "status": "Assigned to Contractor",
    "contractor": "Richards Disposal",
    "rowid": "1118119",
    "final_x": "3702957.99735",
    "final_y": "522243.239482",
    "longitude": "-90.0006548778803",
    "latitude": "29.929318900978416",
    "geocoded_column": {
      "latitude": "29.929318900978416",
      "longitude": "-90.0006548778803"
    }
  },
  {
    "service_request": "2024-1118118",
    "request_type": "Property Maintenance",
    "request_reason": "Property Maintenance",
    "date_created": "2024-08-01T14:42:31.000",
    "date_modified": "2024-08-01T14:42:32.000",
    "request_status": "Pending",
    "responsible_agency": "Department of Code Enforcement",
    "final_address": "HAYNE BLVD & BURKE RD",
    "address_councildis": "E",
    "status": "Pending",
    "rowid": "1118118",
    "final_x": "3704699.0",
    "final_y": "564276.08",
    "longitude": "-89.99360748949708",
    "latitude": "30.04483778171941",
    "geocoded_column": {
      "latitude": "30.04483778171941",
      "longitude": "-89.99360748949708"
    }
  },
  {
    "service_request": "2024-1118117",
    "request_type": "Trash/Recycling",
    "request_reason": "Request a Large Item Pick Up",
    "date_created": "2024-08-01T14:42:07.000",
    "date_modified": "2024-08-01T14:42:08.000",
    "request_status": "Pending",
    "responsible_agency": "Department of Sanitation",
    "final_address": "5441 Urquhart St",
    "address_councildis": "E",
    "status": "Assigned to Contractor",
    "contractor": "Waste Pro",
    "rowid": "1118117",
    "final_x": "3697705.59242",
    "final_y": "534643.904646",
    "longitude": "-90.01678585117743",
    "latitude": "29.963583323530717",
    "geocoded_column": {
      "latitude": "29.963583323530717",
      "longitude": "-90.01678585117743"
    }
  },
  {
    "service_request": "2024-1118115",
    "request_type": "Property Maintenance",
    "request_reason": "Property Maintenance",
    "date_created": "2024-08-01T14:35:41.000",
    "date_modified": "2024-08-01T14:35:41.000",
    "request_status": "Pending",
    "responsible_agency": "Department of Code Enforcement",
    "final_address": "2529 Dauphine St",
    "address_councildis": "C",
    "status": "Pending",
    "rowid": "1118115",
    "final_x": "3686806.40975",
    "final_y": "535398.587142",
    "longitude": "-90.05117758784273",
    "latitude": "29.965998275130787",
    "geocoded_column": {
      "latitude": "29.965998275130787",
      "longitude": "-90.05117758784273"
    }
  },
  {
    "service_request": "2024-1118114",
    "request_type": "Trash/Recycling",
    "request_reason": "Request a Large Item Pick Up",
    "date_created": "2024-08-01T14:33:56.000",
    "date_modified": "2024-08-01T14:33:57.000",
    "request_status": "Pending",
    "responsible_agency": "Department of Sanitation",
    "final_address": "6739 W Laverne St",
    "address_councildis": "D",
    "status": "Assigned to Contractor",
    "contractor": "Waste Pro",
    "rowid": "1118114",
    "final_x": "3696241.75671",
    "final_y": "555881.948441",
    "longitude": "-90.0206401321529",
    "latitude": "30.022026322421883",
    "geocoded_column": {
      "latitude": "30.022026322421883",
      "longitude": "-90.0206401321529"
    }
  },
  {
    "service_request": "2024-1118113",
    "request_type": "Parks & Parkways",
    "request_reason": "Request Tree Service (Right of Way/Public Property)",
    "date_created": "2024-08-01T14:28:27.000",
    "date_modified": "2024-08-01T14:28:28.000",
    "request_status": "Pending",
    "responsible_agency": "Department of Parks & Parkway",
    "final_address": "3228 Byrne Pl",
    "address_councildis": "D",
    "status": "Pending",
    "rowid": "1118113",
    "final_x": "3690873.91158",
    "final_y": "540108.019787",
    "longitude": "-90.03816447192305",
    "latitude": "29.97882177508256",
    "geocoded_column": {
      "latitude": "29.97882177508256",
      "longitude": "-90.03816447192305"
    }
  },
  {
    "service_request": "2024-1118112",
    "request_type": "Trash/Recycling",
    "request_reason": "Request a Large Item Pick Up",
    "date_created": "2024-08-01T14:26:42.000",
    "date_modified": "2024-08-01T14:26:43.000",
    "request_status": "Pending",
    "responsible_agency": "Department of Sanitation",
    "final_address": "7660 Wave Dr",
    "address_councildis": "E",
    "status": "Assigned to Contractor",
    "contractor": "Waste Pro",
    "rowid": "1118112",
    "final_x": "3714787.48363",
    "final_y": "568889.402789",
    "longitude": "-89.96154895345757",
    "latitude": "30.05719434333654",
    "geocoded_column": {
      "latitude": "30.05719434333654",
      "longitude": "-89.96154895345757"
    }
  },
  {
    "service_request": "2024-1118111",
    "request_type": "Trash/Recycling",
    "request_reason": "Order Recycling Cart",
    "date_created": "2024-08-01T14:25:30.000",
    "date_modified": "2024-08-01T14:25:30.000",
    "request_status": "Pending",
    "responsible_agency": "Department of Sanitation",
    "final_address": "613 S Hennessey St",
    "address_councildis": "A",
    "status": "Pending",
    "rowid": "1118111",
    "final_x": "3668988.6354",
    "final_y": "537300.057608",
    "longitude": "-90.10738155221127",
    "latitude": "29.971762866840347",
    "geocoded_column": {
      "latitude": "29.971762866840347",
      "longitude": "-90.10738155221127"
    }
  },
  {
    "service_request": "2024-1118109",
    "request_type": "Property Maintenance",
    "request_reason": "Property Maintenance",
    "date_created": "2024-08-01T14:24:59.000",
    "date_modified": "2024-08-01T14:25:00.000",
    "request_status": "Pending",
    "responsible_agency": "Department of Code Enforcement",
    "final_address": "3228 Byrne Pl",
    "address_councildis": "D",
    "status": "Pending",
    "rowid": "1118109",
    "final_x": "3690873.91158",
    "final_y": "540108.019787",
    "longitude": "-90.03816447192305",
    "latitude": "29.97882177508256",
    "geocoded_column": {
      "latitude": "29.97882177508256",
      "longitude": "-90.03816447192305"
    }
  },
  {
    "service_request": "2024-1118107",
    "request_type": "Abandoned Vehicles",
    "request_reason": "Abandoned/Junk Vehicles",
    "date_created": "2024-08-01T14:16:01.000",
    "date_modified": "2024-08-01T14:16:01.000",
    "request_status": "Pending",
    "responsible_agency": "Department of Public Works",
    "final_address": "5000 BLK Frenchmen St",
    "address_councildis": "D",
    "status": "Inspected",
    "rowid": "1118107",
    "final_x": "3683383.76345",
    "final_y": "551264.467797",
    "longitude": "-90.06143003238036",
    "latitude": "30.00972869993441",
    "geocoded_column": {
      "latitude": "30.00972869993441",
      "longitude": "-90.06143003238036"
    }
  },
  {
    "service_request": "2024-1118106",
    "request_type": "Trash/Recycling",
    "request_reason": "Request a Large Item Pick Up",
    "date_created": "2024-08-01T14:15:24.000",
    "date_modified": "2024-08-01T14:15:25.000",
    "request_status": "Pending",
    "responsible_agency": "Department of Sanitation",
    "final_address": "3007 Calhoun St",
    "address_councildis": "A",
    "status": "Assigned to Contractor",
    "contractor": "IV Waste",
    "rowid": "1118106",
    "final_x": "3666925.99994",
    "final_y": "527605.532479",
    "longitude": "-90.11422144471503",
    "latitude": "29.94516662480038",
    "geocoded_column": {
      "latitude": "29.94516662480038",
      "longitude": "-90.11422144471503"
    }
  },
  {
    "service_request": "2024-1118105",
    "request_type": "Abandoned Vehicles",
    "request_reason": "Abandoned/Junk Vehicles",
    "date_created": "2024-08-01T14:15:18.000",
    "date_modified": "2024-08-01T14:15:18.000",
    "request_status": "Pending",
    "responsible_agency": "Department of Public Works",
    "final_address": "4526 Hickerson Dr",
    "address_councildis": "E",
    "status": "Inspected",
    "rowid": "1118105",
    "final_x": "3710423.06033",
    "final_y": "554395.760088",
    "longitude": "-89.975886879641",
    "latitude": "30.017485546694548",
    "geocoded_column": {
      "latitude": "30.017485546694548",
      "longitude": "-89.975886879641"
    }
  },
  {
    "service_request": "2024-1118104",
    "request_type": "Abandoned Vehicles",
    "request_reason": "Abandoned/Junk Vehicles",
    "date_created": "2024-08-01T14:13:52.000",
    "date_modified": "2024-08-01T14:13:53.000",
    "request_status": "Pending",
    "responsible_agency": "Department of Public Works",
    "final_address": "4501 Crowder Blvd",
    "address_councildis": "E",
    "status": "Pending",
    "rowid": "1118104",
    "final_x": "3706666.22935",
    "final_y": "554240.852248",
    "longitude": "-89.98776261789045",
    "latitude": "30.017181450364088",
    "geocoded_column": {
      "latitude": "30.017181450364088",
      "longitude": "-89.98776261789045"
    }
  },
  {
    "service_request": "2024-1118103",
    "request_type": "Trash/Recycling",
    "request_reason": "Order Recycling Cart",
    "date_created": "2024-08-01T14:13:42.000",
    "date_modified": "2024-08-01T14:13:43.000",
    "request_status": "Pending",
    "responsible_agency": "Department of Sanitation",
    "final_address": "4133 Clara St",
    "address_councildis": "B",
    "status": "Pending",
    "rowid": "1118103",
    "final_x": "3671337.99252",
    "final_y": "525228.858941",
    "longitude": "-90.10037211419235",
    "latitude": "29.938501735993707",
    "geocoded_column": {
      "latitude": "29.938501735993707",
      "longitude": "-90.10037211419235"
    }
  },
  {
    "service_request": "2024-1118102",
    "request_type": "Trash/Recycling",
    "request_reason": "Order Trash Cart",
    "date_created": "2024-08-01T14:13:23.000",
    "date_modified": "2024-08-01T14:13:24.000",
    "request_status": "Pending",
    "responsible_agency": "Department of Sanitation",
    "final_address": "4133 Clara St",
    "address_councildis": "B",
    "status": "Assigned to Contractor",
    "contractor": "IV Waste",
    "rowid": "1118102",
    "final_x": "3671337.99252",
    "final_y": "525228.858941",
    "longitude": "-90.10037211419235",
    "latitude": "29.938501735993707",
    "geocoded_column": {
      "latitude": "29.938501735993707",
      "longitude": "-90.10037211419235"
    }
  },
  {
    "service_request": "2024-1118101",
    "request_type": "Trash/Recycling",
    "request_reason": "Request a Large Item Pick Up",
    "date_created": "2024-08-01T14:11:21.000",
    "date_modified": "2024-08-01T14:11:21.000",
    "request_status": "Pending",
    "responsible_agency": "Department of Sanitation",
    "final_address": "2001 Pauline St",
    "address_councildis": "D",
    "status": "Assigned to Contractor",
    "contractor": "IV Waste",
    "rowid": "1118101",
    "final_x": "3692116.8367",
    "final_y": "538865.047113",
    "longitude": "-90.03428336681817",
    "latitude": "29.97536535487577",
    "geocoded_column": {
      "latitude": "29.97536535487577",
      "longitude": "-90.03428336681817"
    }
  },
  {
    "service_request": "2024-1118100",
    "request_type": "Abandoned Vehicles",
    "request_reason": "Abandoned/Junk Vehicles",
    "date_created": "2024-08-01T14:10:10.000",
    "date_modified": "2024-08-01T14:10:10.000",
    "request_status": "Pending",
    "responsible_agency": "Department of Public Works",
    "final_address": "4900 BLK Frenchmen St",
    "address_councildis": "D",
    "status": "Inspected",
    "rowid": "1118100",
    "final_x": "3683413.02717",
    "final_y": "550890.692954",
    "longitude": "-90.06135068684561",
    "latitude": "30.00870006140065",
    "geocoded_column": {
      "latitude": "30.00870006140065",
      "longitude": "-90.06135068684561"
    }
  },
  {
    "service_request": "2024-1118099",
    "request_type": "Property Maintenance",
    "request_reason": "Property Maintenance",
    "date_created": "2024-08-01T14:07:20.000",
    "date_modified": "2024-08-01T14:07:21.000",
    "request_status": "Pending",
    "responsible_agency": "Department of Code Enforcement",
    "final_address": "4926 Knight Dr",
    "address_councildis": "E",
    "status": "Pending",
    "rowid": "1118099",
    "final_x": "3707942.44766",
    "final_y": "556716.076954",
    "longitude": "-89.98363820351831",
    "latitude": "30.023946086493257",
    "geocoded_column": {
      "latitude": "30.023946086493257",
      "longitude": "-89.98363820351831"
    }
  },
  {
    "service_request": "2024-1118098",
    "request_type": "Trash/Recycling",
    "request_reason": "Request a Large Item Pick Up",
    "date_created": "2024-08-01T13:58:11.000",
    "date_modified": "2024-08-01T13:58:12.000",
    "request_status": "Pending",
    "responsible_agency": "Department of Sanitation",
    "final_address": "6319 Wales St",
    "address_councildis": "E",
    "status": "Assigned to Contractor",
    "contractor": "Waste Pro",
    "rowid": "1118098",
    "final_x": "3696210.69136",
    "final_y": "559866.575837",
    "longitude": "-90.02059404766692",
    "latitude": "30.03298350647886",
    "geocoded_column": {
      "latitude": "30.03298350647886",
      "longitude": "-90.02059404766692"
    }
  },
  {
    "service_request": "2024-1118097",
    "request_type": "Utility Poles",
    "request_reason": "Utility Pole Leaning",
    "date_created": "2024-08-01T13:54:44.000",
    "date_modified": "2024-08-01T13:54:48.000",
    "request_status": "Pending",
    "responsible_agency": "Utility Company Collective",
    "final_address": "4101 Dauphine St",
    "address_councildis": "C",
    "status": "Pending",
    "rowid": "1118097",
    "final_x": "3691862.08694",
    "final_y": "534112.240517",
    "longitude": "-90.03525798103014",
    "latitude": "29.962304753636957",
    "geocoded_column": {
      "latitude": "29.962304753636957",
      "longitude": "-90.03525798103014"
    }
  },
  {
    "service_request": "2024-1118096",
    "request_type": "Abandoned Vehicles",
    "request_reason": "Abandoned/Junk Vehicles",
    "date_created": "2024-08-01T13:53:07.000",
    "date_modified": "2024-08-01T13:53:07.000",
    "request_status": "Pending",
    "responsible_agency": "Department of Public Works",
    "final_address": "2100 BLK Timoleon St",
    "address_councildis": "D",
    "status": "Inspected",
    "rowid": "1118096",
    "final_x": "3683219.94127",
    "final_y": "551066.272655",
    "longitude": "-90.06195455219245",
    "latitude": "30.009188734206084",
    "geocoded_column": {
      "latitude": "30.009188734206084",
      "longitude": "-90.06195455219245"
    }
  },
  {
    "service_request": "2024-1118095",
    "request_type": "Trash/Recycling",
    "request_reason": "Order Recycling Cart",
    "date_created": "2024-08-01T13:53:06.000",
    "date_modified": "2024-08-01T13:53:06.000",
    "request_status": "Pending",
    "responsible_agency": "Department of Sanitation",
    "final_address": "2832 Conti St",
    "address_councildis": "B",
    "status": "Pending",
    "rowid": "1118095",
    "final_x": "3675354.41992",
    "final_y": "536523.729095",
    "longitude": "-90.08730405786339",
    "latitude": "29.969439416649116",
    "geocoded_column": {
      "latitude": "29.969439416649116",
      "longitude": "-90.08730405786339"
    }
  },
  {
    "service_request": "2024-1118094",
    "request_type": "Trash/Recycling",
    "request_reason": "Repair Trash Cart",
    "date_created": "2024-08-01T13:52:47.000",
    "date_modified": "2024-08-01T13:52:48.000",
    "request_status": "Pending",
    "responsible_agency": "Department of Sanitation",
    "final_address": "3017 Amazon St",
    "address_councildis": "C",
    "status": "Assigned to Contractor",
    "contractor": "Richards Disposal",
    "rowid": "1118094",
    "final_x": "3694819.96246",
    "final_y": "520868.871353",
    "longitude": "-90.0263944855396",
    "latitude": "29.925797603586652",
    "geocoded_column": {
      "latitude": "29.925797603586652",
      "longitude": "-90.0263944855396"
    }
  },
  {
    "service_request": "2024-1118093",
    "request_type": "Parks & Parkways",
    "request_reason": "Request Tree Service (Right of Way/Public Property)",
    "date_created": "2024-08-01T13:50:14.000",
    "date_modified": "2024-08-01T13:50:14.000",
    "request_status": "Pending",
    "responsible_agency": "Department of Parks & Parkway",
    "final_address": "330 Walnut St",
    "address_councildis": "A",
    "status": "Pending",
    "rowid": "1118093",
    "final_x": "3661937.41171",
    "final_y": "522213.700922",
    "longitude": "-90.13015081713708",
    "latitude": "29.930485792979663",
    "geocoded_column": {
      "latitude": "29.930485792979663",
      "longitude": "-90.13015081713708"
    }
  },
  {
    "service_request": "2024-1118092",
    "request_type": "Trash/Recycling",
    "request_reason": "Request a Large Item Pick Up",
    "date_created": "2024-08-01T13:48:29.000",
    "date_modified": "2024-08-01T13:48:30.000",
    "request_status": "Pending",
    "responsible_agency": "Department of Sanitation",
    "final_address": "940 Orleans Ave",
    "address_councildis": "C",
    "status": "Assigned to Contractor",
    "contractor": "Empire Services",
    "rowid": "1118092",
    "final_x": "3681798.4822",
    "final_y": "533209.757508",
    "longitude": "-90.06706885895996",
    "latitude": "29.96013287504556",
    "geocoded_column": {
      "latitude": "29.96013287504556",
      "longitude": "-90.06706885895996"
    }
  },
  {
    "service_request": "2024-1118091",
    "request_type": "Parks & Parkways",
    "request_reason": "Request Grass Cutting Service (City Owned Property)",
    "date_created": "2024-08-01T13:40:43.000",
    "date_modified": "2024-08-01T13:40:44.000",
    "request_status": "Pending",
    "responsible_agency": "Department of Parks & Parkway",
    "final_address": "FLEUR DE LIS DR & VETERANS BLVD & VETERANS HWY",
    "address_councildis": "A",
    "status": "Pending",
    "rowid": "1118091",
    "final_x": "3665115.5",
    "final_y": "547476.48",
    "longitude": "-90.11927304180386",
    "latitude": "29.99985796726132",
    "geocoded_column": {
      "latitude": "29.99985796726132",
      "longitude": "-90.11927304180386"
    }
  },
  {
    "service_request": "2024-1118090",
    "request_type": "Trash/Recycling",
    "request_reason": "Request a Large Item Pick Up",
    "date_created": "2024-08-01T13:37:00.000",
    "date_modified": "2024-08-01T13:37:01.000",
    "request_status": "Pending",
    "responsible_agency": "Department of Sanitation",
    "final_address": "232 Sharon Dr",
    "address_councildis": "A",
    "status": "Assigned to Contractor",
    "contractor": "IV Waste",
    "rowid": "1118090",
    "final_x": "3665328.48519",
    "final_y": "546856.531857",
    "longitude": "-90.118620971002",
    "latitude": "29.998147115950687",
    "geocoded_column": {
      "latitude": "29.998147115950687",
      "longitude": "-90.118620971002"
    }
  },
  {
    "service_request": "2024-1118089",
    "request_type": "Trash/Recycling",
    "request_reason": "Request a Large Item Pick Up",
    "date_created": "2024-08-01T13:35:35.000",
    "date_modified": "2024-08-01T13:35:36.000",
    "request_status": "Pending",
    "responsible_agency": "Department of Sanitation",
    "final_address": "7609 Ligustrum Dr",
    "address_councildis": "E",
    "status": "Assigned to Contractor",
    "contractor": "Waste Pro",
    "rowid": "1118089",
    "final_x": "3701602.88727",
    "final_y": "561120.785182",
    "longitude": "-90.00350832464713",
    "latitude": "30.036261130598234",
    "geocoded_column": {
      "latitude": "30.036261130598234",
      "longitude": "-90.00350832464713"
    }
  },
  {
    "service_request": "2024-1118088",
    "request_type": "Trash/Recycling",
    "request_reason": "Request a Large Item Pick Up",
    "date_created": "2024-08-01T13:34:19.000",
    "date_modified": "2024-08-01T13:34:19.000",
    "request_status": "Pending",
    "responsible_agency": "Department of Sanitation",
    "final_address": "164 Mary Jane Ln",
    "address_councildis": "E",
    "status": "Assigned to Contractor",
    "contractor": "Waste Pro",
    "rowid": "1118088",
    "final_x": "3718181.63692",
    "final_y": "571359.666856",
    "longitude": "-89.95072642420705",
    "latitude": "30.063874376163632",
    "geocoded_column": {
      "latitude": "30.063874376163632",
      "longitude": "-89.95072642420705"
    }
  },
  {
    "service_request": "2024-1118087",
    "request_type": "Trash/Recycling",
    "request_reason": "Replace Recycling Cart",
    "date_created": "2024-08-01T13:27:06.000",
    "date_modified": "2024-08-01T13:27:06.000",
    "request_status": "Pending",
    "responsible_agency": "Department of Sanitation",
    "final_address": "4621 Laurel St",
    "address_councildis": "B",
    "status": "Pending",
    "rowid": "1118087",
    "final_x": "3670193.37274",
    "final_y": "518000.096502",
    "longitude": "-90.10423060889717",
    "latitude": "29.918658767452587",
    "geocoded_column": {
      "latitude": "29.918658767452587",
      "longitude": "-90.10423060889717"
    }
  },
  {
    "service_request": "2024-1118086",
    "request_type": "Trash/Recycling",
    "request_reason": "Request a Large Item Pick Up",
    "date_created": "2024-08-01T13:26:24.000",
    "date_modified": "2024-08-01T13:26:25.000",
    "request_status": "Pending",
    "responsible_agency": "Department of Sanitation",
    "final_address": "104 Cambridge Ct",
    "address_councildis": "C",
    "status": "Assigned to Contractor",
    "contractor": "Richards Disposal",
    "rowid": "1118086",
    "final_x": "3705749.59895",
    "final_y": "518484.330102",
    "longitude": "-89.99198129803912",
    "latitude": "29.91889363845878",
    "geocoded_column": {
      "latitude": "29.91889363845878",
      "longitude": "-89.99198129803912"
    }
  },
  {
    "service_request": "2024-1118085",
    "request_type": "Trash/Recycling",
    "request_reason": "Request a Large Item Pick Up",
    "date_created": "2024-08-01T13:24:19.000",
    "date_modified": "2024-08-01T13:24:20.000",
    "request_status": "Pending",
    "responsible_agency": "Department of Sanitation",
    "final_address": "3133 Dumaine St",
    "address_councildis": "A",
    "status": "Assigned to Contractor",
    "contractor": "IV Waste",
    "rowid": "1118085",
    "final_x": "3675496.7259",
    "final_y": "538826.906505",
    "longitude": "-90.08677551390424",
    "latitude": "29.975768113833084",
    "geocoded_column": {
      "latitude": "29.975768113833084",
      "longitude": "-90.08677551390424"
    }
  },
  {
    "service_request": "2024-1118084",
    "request_type": "Property Maintenance",
    "request_reason": "Property Maintenance",
    "date_created": "2024-08-01T13:20:50.000",
    "date_modified": "2024-08-01T13:20:50.000",
    "request_status": "Pending",
    "responsible_agency": "Department of Code Enforcement",
    "final_address": "5828 Franklin Ave",
    "address_councildis": "D",
    "status": "Pending",
    "rowid": "1118084",
    "final_x": "3686371.6294",
    "final_y": "554678.929304",
    "longitude": "-90.05186967527665",
    "latitude": "30.0190256827861",
    "geocoded_column": {
      "latitude": "30.0190256827861",
      "longitude": "-90.05186967527665"
    }
  },
  {
    "service_request": "2024-1118083",
    "request_type": "Trash/Recycling",
    "request_reason": "Request a Large Item Pick Up",
    "date_created": "2024-08-01T13:20:10.000",
    "date_modified": "2024-08-01T13:20:11.000",
    "request_status": "Pending",
    "responsible_agency": "Department of Sanitation",
    "final_address": "713 LeeS Ln",
    "address_councildis": "C",
    "status": "Assigned to Contractor",
    "contractor": "Richards Disposal",
    "rowid": "1118083",
    "final_x": "3697373.09667",
    "final_y": "524797.751676",
    "longitude": "-90.01819270353968",
    "latitude": "29.93652035505893",
    "geocoded_column": {
      "latitude": "29.93652035505893",
      "longitude": "-90.01819270353968"
    }
  },
  {
    "service_request": "2024-1118082",
    "request_type": "Trash/Recycling",
    "request_reason": "Request a Large Item Pick Up",
    "date_created": "2024-08-01T13:19:32.000",
    "date_modified": "2024-08-01T13:19:33.000",
    "request_status": "Pending",
    "responsible_agency": "Department of Sanitation",
    "final_address": "4857 Lafon Dr",
    "address_councildis": "E",
    "status": "Assigned to Contractor",
    "contractor": "Waste Pro",
    "rowid": "1118082",
    "final_x": "3701165.61533",
    "final_y": "554922.594648",
    "longitude": "-90.00511723157962",
    "latitude": "30.019232444928576",
    "geocoded_column": {
      "latitude": "30.019232444928576",
      "longitude": "-90.00511723157962"
    }
  },
  {
    "service_request": "2024-1118081",
    "request_type": "Trash/Recycling",
    "request_reason": "Return Trash Cart",
    "date_created": "2024-08-01T13:19:29.000",
    "date_modified": "2024-08-01T13:19:30.000",
    "request_status": "Pending",
    "responsible_agency": "Department of Sanitation",
    "final_address": "2016 Brainard St",
    "address_councildis": "B",
    "status": "Assigned to Contractor",
    "contractor": "IV Waste",
    "rowid": "1118081",
    "final_x": "3677648.9748",
    "final_y": "524544.7687",
    "longitude": "-90.08047130273219",
    "latitude": "29.936432479044505",
    "geocoded_column": {
      "latitude": "29.936432479044505",
      "longitude": "-90.08047130273219"
    }
  },
  {
    "service_request": "2024-1118080",
    "request_type": "Abandoned Vehicles",
    "request_reason": "Abandoned/Junk Vehicles",
    "date_created": "2024-08-01T13:14:29.000",
    "date_modified": "2024-08-01T13:14:29.000",
    "request_status": "Pending",
    "responsible_agency": "Department of Public Works",
    "final_address": "10131 Hammond St",
    "address_councildis": "E",
    "status": "Pending",
    "rowid": "1118080",
    "final_x": "3713037.89355",
    "final_y": "556495.45609",
    "longitude": "-89.9675460579638",
    "latitude": "30.02317345015798",
    "geocoded_column": {
      "latitude": "30.02317345015798",
      "longitude": "-89.9675460579638"
    }
  },
  {
    "service_request": "2024-1118079",
    "request_type": "Roads/Drainage",
    "request_reason": "Damaged Sidewalk",
    "date_created": "2024-08-01T13:14:09.000",
    "date_modified": "2024-08-01T13:14:10.000",
    "request_status": "Pending",
    "responsible_agency": "Department of Public Works",
    "final_address": "1231 Pace Blvd",
    "address_councildis": "C",
    "status": "Pending",
    "rowid": "1118079",
    "final_x": "3694346.35363",
    "final_y": "526648.883582",
    "longitude": "-90.02768161490799",
    "latitude": "29.941705506263347",
    "geocoded_column": {
      "latitude": "29.941705506263347",
      "longitude": "-90.02768161490799"
    }
  },
  {
    "service_request": "2024-1118078",
    "request_type": "Abandoned Vehicles",
    "request_reason": "Vehicle Blocking Your Driveway",
    "date_created": "2024-08-01T13:13:13.000",
    "date_modified": "2024-08-01T13:13:13.000",
    "request_status": "Pending",
    "responsible_agency": "Department of Public Works",
    "final_address": "859 Taft Pl",
    "address_councildis": "A",
    "status": "Pending",
    "rowid": "1118078",
    "final_x": "3673779.51867",
    "final_y": "539852.676234",
    "longitude": "-90.0921638545366",
    "latitude": "29.978639886454335",
    "geocoded_column": {
      "latitude": "29.978639886454335",
      "longitude": "-90.0921638545366"
    }
  },
  {
    "service_request": "2024-1118077",
    "request_type": "Roads/Drainage",
    "request_reason": "Damaged Sidewalk",
    "date_created": "2024-08-01T13:13:02.000",
    "date_modified": "2024-08-01T13:13:02.000",
    "request_status": "Pending",
    "responsible_agency": "Department of Public Works",
    "final_address": "1204 N Derbigny St",
    "address_councildis": "D",
    "status": "Pending",
    "rowid": "1118077",
    "final_x": "3680655.25077",
    "final_y": "536313.853575",
    "longitude": "-90.07057091548201",
    "latitude": "29.96870276730934",
    "geocoded_column": {
      "latitude": "29.96870276730934",
      "longitude": "-90.07057091548201"
    }
  },
  {
    "service_request": "2024-1118076",
    "request_type": "Trash/Recycling",
    "request_reason": "Request a Large Item Pick Up",
    "date_created": "2024-08-01T13:11:05.000",
    "date_modified": "2024-08-01T13:11:06.000",
    "request_status": "Pending",
    "responsible_agency": "Department of Sanitation",
    "final_address": "5601 Chamberlain Dr",
    "address_councildis": "D",
    "status": "Assigned to Contractor",
    "contractor": "IV Waste",
    "rowid": "1118076",
    "final_x": "3679505.45237",
    "final_y": "553025.204247",
    "longitude": "-90.07362184370386",
    "latitude": "30.014687892060692",
    "geocoded_column": {
      "latitude": "30.014687892060692",
      "longitude": "-90.07362184370386"
    }
  },
  {
    "service_request": "2024-1118075",
    "request_type": "Trash/Recycling",
    "request_reason": "Illegal Dumping",
    "date_created": "2024-08-01T13:01:20.000",
    "date_modified": "2024-08-01T13:01:21.000",
    "request_status": "Pending",
    "responsible_agency": "Department of Sanitation",
    "final_address": "4628 Press Dr",
    "address_councildis": "D",
    "status": "Pending",
    "rowid": "1118075",
    "final_x": "3689599.15311",
    "final_y": "550257.707732",
    "longitude": "-90.04182931159156",
    "latitude": "30.00676931223541",
    "geocoded_column": {
      "latitude": "30.00676931223541",
      "longitude": "-90.04182931159156"
    }
  },
  {
    "service_request": "2024-1118074",
    "request_type": "Trash/Recycling",
    "request_reason": "Request a Large Item Pick Up",
    "date_created": "2024-08-01T13:00:19.000",
    "date_modified": "2024-08-01T13:00:20.000",
    "request_status": "Pending",
    "responsible_agency": "Department of Sanitation",
    "final_address": "5841 Durbridge Dr",
    "address_councildis": "C",
    "status": "Assigned to Contractor",
    "contractor": "Richards Disposal",
    "rowid": "1118074",
    "final_x": "3705204.99415",
    "final_y": "521342.383353",
    "longitude": "-89.99359483985303",
    "latitude": "29.926769810643027",
    "geocoded_column": {
      "latitude": "29.926769810643027",
      "longitude": "-89.99359483985303"
    }
  },
  {
    "service_request": "2024-1118072",
    "request_type": "Abandoned Vehicles",
    "request_reason": "Abandoned/Junk Vehicles",
    "date_created": "2024-08-01T12:58:23.000",
    "date_modified": "2024-08-01T12:58:23.000",
    "request_status": "Pending",
    "responsible_agency": "Department of Public Works",
    "final_address": "2301 Chippewa St",
    "address_councildis": "B",
    "status": "Pending",
    "rowid": "1118072",
    "final_x": "3679385.04418",
    "final_y": "520685.144249",
    "longitude": "-90.07512426711997",
    "latitude": "29.92576746967116",
    "geocoded_column": {
      "latitude": "29.92576746967116",
      "longitude": "-90.07512426711997"
    }
  },
  {
    "service_request": "2024-1118071",
    "request_type": "Abandoned Vehicles",
    "request_reason": "Abandoned/Junk Vehicles",
    "date_created": "2024-08-01T12:55:06.000",
    "date_modified": "2024-08-01T12:55:06.000",
    "request_status": "Pending",
    "responsible_agency": "Department of Public Works",
    "final_address": "2301 Chippewa St",
    "address_councildis": "B",
    "status": "Pending",
    "rowid": "1118071",
    "final_x": "3679385.04418",
    "final_y": "520685.144249",
    "longitude": "-90.07512426711997",
    "latitude": "29.92576746967116",
    "geocoded_column": {
      "latitude": "29.92576746967116",
      "longitude": "-90.07512426711997"
    }
  },
  {
    "service_request": "2024-1118070",
    "request_type": "Parks & Parkways",
    "request_reason": "Request Tree Service (Right of Way/Public Property)",
    "date_created": "2024-08-01T12:54:31.000",
    "date_modified": "2024-08-01T12:54:31.000",
    "request_status": "Pending",
    "responsible_agency": "Department of Parks & Parkway",
    "final_address": "2608 Andry St",
    "address_councildis": "E",
    "status": "Pending",
    "rowid": "1118070",
    "final_x": "3698704.89316",
    "final_y": "539695.57377",
    "longitude": "-90.01344642547048",
    "latitude": "29.977441988113256",
    "geocoded_column": {
      "latitude": "29.977441988113256",
      "longitude": "-90.01344642547048"
    }
  },
  {
    "service_request": "2024-1118069",
    "request_type": "Abandoned Vehicles",
    "request_reason": "Abandoned/Junk Vehicles",
    "date_created": "2024-08-01T12:53:09.000",
    "date_modified": "2024-08-01T12:53:10.000",
    "request_status": "Pending",
    "responsible_agency": "Department of Public Works",
    "final_address": "825 Lesseps St",
    "address_councildis": "C",
    "status": "Pending",
    "rowid": "1118069",
    "final_x": "3692499.20393",
    "final_y": "534142.303877",
    "longitude": "-90.03324498880153",
    "latitude": "29.962367555925084",
    "geocoded_column": {
      "latitude": "29.962367555925084",
      "longitude": "-90.03324498880153"
    }
  },
  {
    "service_request": "2024-1118068",
    "request_type": "Trash/Recycling",
    "request_reason": "Request a Large Item Pick Up",
    "date_created": "2024-08-01T12:51:48.000",
    "date_modified": "2024-08-01T12:51:49.000",
    "request_status": "Pending",
    "responsible_agency": "Department of Sanitation",
    "final_address": "902 Pauline St",
    "address_councildis": "C",
    "status": "Assigned to Contractor",
    "contractor": "IV Waste",
    "rowid": "1118068",
    "final_x": "3690997.05724",
    "final_y": "534711.035206",
    "longitude": "-90.03796823325614",
    "latitude": "29.96397814649009",
    "geocoded_column": {
      "latitude": "29.96397814649009",
      "longitude": "-90.03796823325614"
    }
  },
  {
    "service_request": "2024-1118067",
    "request_type": "Trash/Recycling",
    "request_reason": "Request a Large Item Pick Up",
    "date_created": "2024-08-01T12:49:39.000",
    "date_modified": "2024-08-01T12:49:39.000",
    "request_status": "Pending",
    "responsible_agency": "Department of Sanitation",
    "final_address": "817 Robert St",
    "address_councildis": "B",
    "status": "Assigned to Contractor",
    "contractor": "IV Waste",
    "rowid": "1118067",
    "final_x": "3668669.17434",
    "final_y": "518364.523382",
    "longitude": "-90.10902942706912",
    "latitude": "29.919705694514775",
    "geocoded_column": {
      "latitude": "29.919705694514775",
      "longitude": "-90.10902942706912"
    }
  },
  {
    "service_request": "2024-1118066",
    "request_type": "Roads/Drainage",
    "request_reason": "Catch Basin - Clogged",
    "date_created": "2024-08-01T12:47:27.000",
    "date_modified": "2024-08-01T12:50:48.000",
    "request_status": "Pending",
    "responsible_agency": "Department of Public Works",
    "final_address": "6623 Foch Rd",
    "address_councildis": "D",
    "status": "Pending",
    "rowid": "1118066",
    "final_x": "3696980.26282",
    "final_y": "555705.460121",
    "longitude": "-90.01831305289907",
    "latitude": "30.021517762753394",
    "geocoded_column": {
      "latitude": "30.021517762753394",
      "longitude": "-90.01831305289907"
    }
  },
  {
    "service_request": "2024-1118065",
    "request_type": "Trash/Recycling",
    "request_reason": "Request a Large Item Pick Up",
    "date_created": "2024-08-01T12:47:04.000",
    "date_modified": "2024-08-01T12:47:05.000",
    "request_status": "Pending",
    "responsible_agency": "Department of Sanitation",
    "final_address": "931 Broadway St",
    "address_councildis": "A",
    "status": "Assigned to Contractor",
    "contractor": "IV Waste",
    "rowid": "1118065",
    "final_x": "3663740.5968",
    "final_y": "525771.557501",
    "longitude": "-90.12433990184432",
    "latitude": "29.940216584562297",
    "geocoded_column": {
      "latitude": "29.940216584562297",
      "longitude": "-90.12433990184432"
    }
  },
  {
    "service_request": "2024-1118064",
    "request_type": "Trash/Recycling",
    "request_reason": "Repair Recycling Cart",
    "date_created": "2024-08-01T12:47:01.000",
    "date_modified": "2024-08-01T12:47:02.000",
    "request_status": "Pending",
    "responsible_agency": "Department of Sanitation",
    "final_address": "337 16Th St",
    "address_councildis": "A",
    "status": "Pending",
    "rowid": "1118064",
    "final_x": "3664928.19744",
    "final_y": "548493.716306",
    "longitude": "-90.11983070881067",
    "latitude": "30.00266047272307",
    "geocoded_column": {
      "latitude": "30.00266047272307",
      "longitude": "-90.11983070881067"
    }
  },
  {
    "service_request": "2024-1118063",
    "request_type": "Trash/Recycling",
    "request_reason": "Request a Large Item Pick Up",
    "date_created": "2024-08-01T12:44:07.000",
    "date_modified": "2024-08-01T12:44:08.000",
    "request_status": "Pending",
    "responsible_agency": "Department of Sanitation",
    "final_address": "5610 Lacour Monique St",
    "address_councildis": "C",
    "status": "Assigned to Contractor",
    "contractor": "Richards Disposal",
    "rowid": "1118063",
    "final_x": "3704358.02615",
    "final_y": "517921.54047",
    "longitude": "-89.9963944653247",
    "latitude": "29.917390880266453",
    "geocoded_column": {
      "latitude": "29.917390880266453",
      "longitude": "-89.9963944653247"
    }
  },
  {
    "service_request": "2024-1118062",
    "request_type": "Trash/Recycling",
    "request_reason": "Replace Trash Cart",
    "date_created": "2024-08-01T12:30:19.000",
    "date_modified": "2024-08-01T12:30:44.000",
    "request_status": "Pending",
    "responsible_agency": "Department of Sanitation",
    "final_address": "8311 Edinburgh St",
    "address_councildis": "A",
    "status": "Assigned to Contractor",
    "contractor": "IV Waste",
    "rowid": "1118062",
    "final_x": "3666866.38279",
    "final_y": "535058.640774",
    "longitude": "-90.11415929683996",
    "latitude": "29.965661979083595",
    "geocoded_column": {
      "latitude": "29.965661979083595",
      "longitude": "-90.11415929683996"
    }
  },
  {
    "service_request": "2024-1118061",
    "request_type": "Trash/Recycling",
    "request_reason": "MIssed Recycling Pick-Up",
    "date_created": "2024-08-01T12:29:53.000",
    "date_modified": "2024-08-01T14:44:08.000",
    "case_close_date": "2024-08-01T09:44:08.000",
    "request_status": "Closed",
    "responsible_agency": "Department of Sanitation",
    "final_address": "5017 Mexico St",
    "address_councildis": "D",
    "status": "Invalid Request",
    "contractor": "IV Waste",
    "contractor_action": "Invalid Request",
    "rowid": "1118061",
    "final_x": "3690978.83043",
    "final_y": "556690.324506",
    "longitude": "-90.03724069246815",
    "latitude": "30.02441378667193",
    "geocoded_column": {
      "latitude": "30.02441378667193",
      "longitude": "-90.03724069246815"
    }
  },