[
  {
    "service_request": "2024-1064784",
    "request_type": "Roads/Drainage",
    "request_reason": "Accessibility Ramps, Curbs and Sidewalk Repair",
    "date_created": "2024-01-30T23:14:43.000",
    "date_modified": "2024-01-30T23:14:43.000",
    "request_status": "Pending",
    "responsible_agency": "Department of Public Works",
    "final_address": "HARRISON AVE & MARCONI DR",
    "address_councildis": "A",
    "status": "Pending",
    "rowid": "1064784",
    "final_x": "3671555.5",
    "final_y": "549053.28",
    "longitude": "-90.09887508622282",
    "latitude": "30.00400442416237",
    "geocoded_column": {
      "latitude": "30.00400442416237",
      "longitude": "-90.09887508622282"
    }
  },
  {
    "service_request": "2024-1064783",
    "request_type": "Trash/Recycling",
    "request_reason": "Missed Trash Pick-Up",
    "date_created": "2024-01-30T23:11:15.000",
    "date_modified": "2024-01-30T23:11:47.000",
    "request_status": "Pending",
    "responsible_agency": "Department of Sanitation",
    "final_address": "4222 Prytania St",
    "address_councildis": "B",
    "status": "Assigned to Contractor",
    "contractor": "Richards Disposal",
    "rowid": "1064783",
    "final_x": "3671457.3234",
    "final_y": "520320.240568",
    "longitude": "-90.10016215485933",
    "latitude": "29.925001084476996",
    "geocoded_column": {
      "latitude": "29.925001084476996",
      "longitude": "-90.10016215485933"
    }
  },
  {
    "service_request": "2024-1064782",
    "request_type": "Roads/Drainage",
    "request_reason": "Pothole",
    "date_created": "2024-01-30T23:09:57.000",
    "date_modified": "2024-01-30T23:09:57.000",
    "request_status": "Pending",
    "responsible_agency": "Department of Public Works",
    "final_address": "4200 Perrier St",
    "address_councildis": "B",
    "status": "Pending",
    "rowid": "1064782",
    "final_x": "3671579.76411",
    "final_y": "520095.16844",
    "longitude": "-90.09978329705561",
    "latitude": "29.924378584144126",
    "geocoded_column": {
      "latitude": "29.924378584144126",
      "longitude": "-90.09978329705561"
    }
  },
  {
    "service_request": "2024-1064781",
    "request_type": "Traffic Signals/Signs/Striping/Streetlights",
    "request_reason": "Street Light Outage/Malfunction",
    "date_created": "2024-01-30T23:03:49.000",
    "date_modified": "2024-01-30T23:03:49.000",
    "request_status": "Pending",
    "responsible_agency": "Department of Public Works",
    "final_address": "1300 Canal St",
    "address_councildis": "B",
    "status": "Assigned to Contractor",
    "contractor": "Legacy Professional Services",
    "rowid": "1064781",
    "final_x": "3679515.34165",
    "final_y": "531836.453187",
    "longitude": "-90.07432617801176",
    "latitude": "29.956425931975325",
    "geocoded_column": {
      "latitude": "29.956425931975325",
      "longitude": "-90.07432617801176"
    }
  },
  {
    "service_request": "2024-1064780",
    "request_type": "Traffic Signals/Signs/Striping/Streetlights",
    "request_reason": "Street Light Outage/Malfunction",
    "date_created": "2024-01-30T22:58:39.000",
    "date_modified": "2024-01-30T22:58:39.000",
    "request_status": "Pending",
    "responsible_agency": "Department of Public Works",
    "final_address": "1714 Farragut St",
    "address_councildis": "C",
    "status": "Assigned to Contractor",
    "contractor": "Legacy Professional Services",
    "rowid": "1064780",
    "final_x": "3692325.26147",
    "final_y": "524982.784957",
    "longitude": "-90.03412223153659",
    "latitude": "29.93718747458015",
    "geocoded_column": {
      "latitude": "29.93718747458015",
      "longitude": "-90.03412223153659"
    }
  },
  {
    "service_request": "2024-1064779",
    "request_type": "Property Maintenance",
    "request_reason": "Property Maintenance",
    "date_created": "2024-01-30T22:54:05.000",
    "date_modified": "2024-01-30T22:54:05.000",
    "request_status": "Pending",
    "responsible_agency": "Department of Code Enforcement",
    "final_address": "1756 N Rocheblave St",
    "address_councildis": "D",
    "status": "Pending",
    "rowid": "1064779",
    "final_x": "3680725.61704",
    "final_y": "540481.833803",
    "longitude": "-90.07020359414943",
    "latitude": "29.980161139007574",
    "geocoded_column": {
      "latitude": "29.980161139007574",
      "longitude": "-90.07020359414943"
    }
  },
  {
    "service_request": "2024-1064778",
    "request_type": "Roads/Drainage",
    "request_reason": "Pothole",
    "date_created": "2024-01-30T22:02:29.000",
    "date_modified": "2024-01-30T22:02:29.000",
    "request_status": "Pending",
    "responsible_agency": "Department of Public Works",
    "final_address": "601 N Cortez St",
    "address_councildis": "A",
    "status": "Pending",
    "rowid": "1064778",
    "final_x": "3673225.55681",
    "final_y": "539204.346058",
    "longitude": "-90.09393562412677",
    "latitude": "29.976873687184316",
    "geocoded_column": {
      "latitude": "29.976873687184316",
      "longitude": "-90.09393562412677"
    }
  },
  {
    "service_request": "2024-1064777",
    "request_type": "Trash/Recycling",
    "request_reason": "Request a Large Item Pick Up",
    "date_created": "2024-01-30T21:49:13.000",
    "date_modified": "2024-01-30T21:49:14.000",
    "request_status": "Pending",
    "responsible_agency": "Department of Sanitation",
    "final_address": "138 Alvin Callender St",
    "address_councildis": "A",
    "status": "Assigned to Contractor",
    "contractor": "Richards Disposal",
    "rowid": "1064777",
    "final_x": "3661064.18925",
    "final_y": "523402.506299",
    "longitude": "-90.13286814521028",
    "latitude": "29.933779818332855",
    "geocoded_column": {
      "latitude": "29.933779818332855",
      "longitude": "-90.13286814521028"
    }
  },
  {
    "service_request": "2024-1064776",
    "request_type": "Property Maintenance",
    "request_reason": "Property Maintenance",
    "date_created": "2024-01-30T21:44:02.000",
    "date_modified": "2024-01-30T21:44:02.000",
    "request_status": "Pending",
    "responsible_agency": "Department of Code Enforcement",
    "final_address": "202 N Norman C Francis Prkwy",
    "address_councildis": "B",
    "status": "Pending",
    "rowid": "1064776",
    "final_x": "3673634.46593",
    "final_y": "537015.820296",
    "longitude": "-90.09271899520587",
    "latitude": "29.970843816904637",
    "geocoded_column": {
      "latitude": "29.970843816904637",
      "longitude": "-90.09271899520587"
    }
  },
  {
    "service_request": "2024-1064775",
    "request_type": "Roads/Drainage",
    "request_reason": "WaterMain Break",
    "date_created": "2024-01-30T21:36:14.000",
    "date_modified": "2024-01-30T21:36:14.000",
    "request_status": "Pending",
    "responsible_agency": "Department of Public Works",
    "final_address": "2828 Calhoun St",
    "address_councildis": "A",
    "status": "Pending",
    "rowid": "1064775",
    "final_x": "3666635.91124",
    "final_y": "527173.838783",
    "longitude": "-90.11515183944573",
    "latitude": "29.943988089818063",
    "geocoded_column": {
      "latitude": "29.943988089818063",
      "longitude": "-90.11515183944573"
    }
  },
  {
    "service_request": "2024-1064774",
    "request_type": "Trash/Recycling",
    "request_reason": "Request a Large Item Pick Up",
    "date_created": "2024-01-30T21:23:17.000",
    "date_modified": "2024-01-30T21:23:18.000",
    "request_status": "Pending",
    "responsible_agency": "Department of Sanitation",
    "final_address": "4734 Knight Dr",
    "address_councildis": "E",
    "status": "Assigned to Contractor",
    "contractor": "Waste Pro",
    "rowid": "1064774",
    "final_x": "3708066.25566",
    "final_y": "555496.059737",
    "longitude": "-89.98329241774074",
    "latitude": "30.0205875039124",
    "geocoded_column": {
      "latitude": "30.0205875039124",
      "longitude": "-89.98329241774074"
    }
  },
  {
    "service_request": "2024-1064773",
    "request_type": "Trash/Recycling",
    "request_reason": "Order Recycling Cart",
    "date_created": "2024-01-30T20:21:51.000",
    "date_modified": "2024-01-30T20:21:51.000",
    "request_status": "Pending",
    "responsible_agency": "Department of Sanitation",
    "final_address": "7151 Ridgefield Dr",
    "address_councildis": "E",
    "status": "Pending",
    "rowid": "1064773",
    "final_x": "3719090.61029",
    "final_y": "570115.396903",
    "longitude": "-89.94790068597304",
    "latitude": "30.060422964684285",
    "geocoded_column": {
      "latitude": "30.060422964684285",
      "longitude": "-89.94790068597304"
    }
  },
  {
    "service_request": "2024-1064772",
    "request_type": "Trash/Recycling",
    "request_reason": "Repair Trash Cart",
    "date_created": "2024-01-30T20:20:16.000",
    "date_modified": "2024-01-30T20:20:17.000",
    "request_status": "Pending",
    "responsible_agency": "Department of Sanitation",
    "final_address": "7151 Ridgefield Dr",
    "address_councildis": "E",
    "status": "Assigned to Contractor",
    "contractor": "Waste Pro",
    "rowid": "1064772",
    "final_x": "3719090.61029",
    "final_y": "570115.396903",
    "longitude": "-89.94790068597304",
    "latitude": "30.060422964684285",
    "geocoded_column": {
      "latitude": "30.060422964684285",
      "longitude": "-89.94790068597304"
    }
  },
  {
    "service_request": "2024-1064771",
    "request_type": "Trash/Recycling",
    "request_reason": "Missed Trash Pick-Up",
    "date_created": "2024-01-30T19:58:01.000",
    "date_modified": "2024-01-30T19:58:02.000",
    "request_status": "Pending",
    "responsible_agency": "Department of Sanitation",
    "final_address": "2914 Danneel St, New Orleans, Louisiana, 70115",
    "address_councildis": "B",
    "status": "Assigned to Contractor",
    "contractor": "Richards Disposal",
    "rowid": "1064771",
    "final_x": "3674602.07636",
    "final_y": "523342.174203",
    "longitude": "-90.09013167904787",
    "latitude": "29.93321698882846",
    "geocoded_column": {
      "latitude": "29.93321698882846",
      "longitude": "-90.09013167904787"
    }
  },
  {
    "service_request": "2024-1064770",
    "request_type": "Trash/Recycling",
    "request_reason": "Request a Large Item Pick Up",
    "date_created": "2024-01-30T19:56:09.000",
    "date_modified": "2024-01-30T19:56:09.000",
    "request_status": "Pending",
    "responsible_agency": "Department of Sanitation",
    "final_address": "1800 7th St, New Orleans, Louisiana, 70115",
    "status": "Assigned to Contractor",
    "rowid": "1064770",
    "longitude": "0.0",
    "latitude": "0.0",
    "geocoded_column": {
      "latitude": "0.0",
      "longitude": "0.0"
    }
  },
  {
    "service_request": "2024-1064769",
    "request_type": "Trash/Recycling",
    "request_reason": "Request a Large Item Pick Up",
    "date_created": "2024-01-30T19:50:19.000",
    "date_modified": "2024-01-30T19:50:19.000",
    "request_status": "Pending",
    "responsible_agency": "Department of Sanitation",
    "final_address": "3930 Perrier St",
    "address_councildis": "B",
    "status": "Assigned to Contractor",
    "contractor": "Richards Disposal",
    "rowid": "1064769",
    "final_x": "3672516.81671",
    "final_y": "520195.171",
    "longitude": "-90.0968219322253",
    "latitude": "29.924625787717115",
    "geocoded_column": {
      "latitude": "29.924625787717115",
      "longitude": "-90.0968219322253"
    }
  },
  {
    "service_request": "2024-1064768",
    "request_type": "Trash/Recycling",
    "request_reason": "Request a Large Item Pick Up",
    "date_created": "2024-01-30T19:49:16.000",
    "date_modified": "2024-01-30T19:49:16.000",
    "request_status": "Pending",
    "responsible_agency": "Department of Sanitation",
    "final_address": "1212 Deslonde St",
    "address_councildis": "E",
    "status": "Assigned to Contractor",
    "contractor": "Waste Pro",
    "rowid": "1064768",
    "final_x": "3695428.91549",
    "final_y": "534951.821766",
    "longitude": "-90.02396421232473",
    "latitude": "29.96450171713659",
    "geocoded_column": {
      "latitude": "29.96450171713659",
      "longitude": "-90.02396421232473"
    }
  },
  {
    "service_request": "2024-1064767",
    "request_type": "Trash/Recycling",
    "request_reason": "Request a Large Item Pick Up",
    "date_created": "2024-01-30T19:41:16.000",
    "date_modified": "2024-01-30T19:41:17.000",
    "request_status": "Pending",
    "responsible_agency": "Department of Sanitation",
    "final_address": "4127 Orleans Ave",
    "address_councildis": "A",
    "status": "Assigned to Contractor",
    "contractor": "Richards Disposal",
    "rowid": "1064767",
    "final_x": "3672476.12916",
    "final_y": "540436.942859",
    "longitude": "-90.09626052968329",
    "latitude": "29.980285176381592",
    "geocoded_column": {
      "latitude": "29.980285176381592",
      "longitude": "-90.09626052968329"
    }
  },
  {
    "service_request": "2024-1064766",
    "request_type": "Trash/Recycling",
    "request_reason": "Illegal Dumping",
    "date_created": "2024-01-30T19:39:49.000",
    "date_modified": "2024-01-30T19:39:49.000",
    "request_status": "Pending",
    "responsible_agency": "Department of Sanitation",
    "final_address": "2017 Dumaine St",
    "address_councildis": "D",
    "status": "Pending",
    "rowid": "1064766",
    "final_x": "3679256.59829",
    "final_y": "535963.853447",
    "longitude": "-90.07500007920878",
    "latitude": "29.96778269502809",
    "geocoded_column": {
      "latitude": "29.96778269502809",
      "longitude": "-90.07500007920878"
    }
  },
  {
    "service_request": "2024-1064765",
    "request_type": "Abandoned Vehicles",
    "request_reason": "Vehicle Blocking Your Driveway",
    "date_created": "2024-01-30T19:26:22.000",
    "date_modified": "2024-01-30T19:26:22.000",
    "request_status": "Pending",
    "responsible_agency": "Department of Public Works",
    "final_address": "922 Broadway St",
    "address_councildis": "A",
    "status": "Pending",
    "rowid": "1064765",
    "final_x": "3663638.4832",
    "final_y": "525802.754621",
    "longitude": "-90.12466125299918",
    "latitude": "29.940305328844858",
    "geocoded_column": {
      "latitude": "29.940305328844858",
      "longitude": "-90.12466125299918"
    }
  },
  {
    "service_request": "2024-1064764",
    "request_type": "Trash/Recycling",
    "request_reason": "Repair Trash Cart",
    "date_created": "2024-01-30T19:11:35.000",
    "date_modified": "2024-01-30T19:11:36.000",
    "request_status": "Pending",
    "responsible_agency": "Department of Sanitation",
    "final_address": "5419 Press Dr",
    "address_councildis": "D",
    "status": "Assigned to Contractor",
    "contractor": "IV Waste",
    "rowid": "1064764",
    "final_x": "3689407.23171",
    "final_y": "553273.450967",
    "longitude": "-90.04232829446875",
    "latitude": "30.015067442012434",
    "geocoded_column": {
      "latitude": "30.015067442012434",
      "longitude": "-90.04232829446875"
    }
  },
  {
    "service_request": "2024-1064763",
    "request_type": "Trash/Recycling",
    "request_reason": "Replace Trash Cart",
    "date_created": "2024-01-30T19:04:54.000",
    "date_modified": "2024-01-30T19:04:55.000",
    "request_status": "Pending",
    "responsible_agency": "Department of Sanitation",
    "final_address": "8629 Willow St",
    "address_councildis": "A",
    "status": "Assigned to Contractor",
    "contractor": "Richards Disposal",
    "rowid": "1064763",
    "final_x": "3660982.05523",
    "final_y": "530274.354945",
    "longitude": "-90.13290016241618",
    "latitude": "29.952677584536342",
    "geocoded_column": {
      "latitude": "29.952677584536342",
      "longitude": "-90.13290016241618"
    }
  },
  {
    "service_request": "2024-1064762",
    "request_type": "Trash/Recycling",
    "request_reason": "Request a Large Item Pick Up",
    "date_created": "2024-01-30T18:55:52.000",
    "date_modified": "2024-01-30T18:55:52.000",
    "request_status": "Pending",
    "responsible_agency": "Department of Sanitation",
    "final_address": "8141 Apple St",
    "address_councildis": "A",
    "status": "Assigned to Contractor",
    "contractor": "Richards Disposal",
    "rowid": "1064762",
    "final_x": "3665187.43764",
    "final_y": "532369.695235",
    "longitude": "-90.11955131430865",
    "latitude": "29.958317274519903",
    "geocoded_column": {
      "latitude": "29.958317274519903",
      "longitude": "-90.11955131430865"
    }
  },
  {
    "service_request": "2024-1064761",
    "request_type": "Trash/Recycling",
    "request_reason": "Replace Trash Cart",
    "date_created": "2024-01-30T18:42:41.000",
    "date_modified": "2024-01-30T18:42:42.000",
    "request_status": "Pending",
    "responsible_agency": "Department of Sanitation",
    "final_address": "930 St Ann St",
    "address_councildis": "C",
    "status": "Assigned to Contractor",
    "contractor": "Empire Services",
    "rowid": "1064761",
    "final_x": "3681979.71829",
    "final_y": "533332.012868",
    "longitude": "-90.06649228630259",
    "latitude": "29.960463527198293",
    "geocoded_column": {
      "latitude": "29.960463527198293",
      "longitude": "-90.06649228630259"
    }
  },
  {
    "service_request": "2024-1064760",
    "request_type": "Trash/Recycling",
    "request_reason": "Replace Trash Cart",
    "date_created": "2024-01-30T18:39:53.000",
    "date_modified": "2024-01-30T18:39:53.000",
    "request_status": "Pending",
    "responsible_agency": "Department of Sanitation",
    "final_address": "726 Barracks St",
    "address_councildis": "C",
    "status": "Assigned to Contractor",
    "contractor": "Empire Services",
    "rowid": "1064760",
    "final_x": "3683680.37641",
    "final_y": "534306.798853",
    "longitude": "-90.06108778287287",
    "latitude": "29.963092043997356",
    "geocoded_column": {
      "latitude": "29.963092043997356",
      "longitude": "-90.06108778287287"
    }
  },
  {
    "service_request": "2024-1064759",
    "request_type": "Traffic Signals/Signs/Striping/Streetlights",
    "request_reason": "Street Light Outage/Malfunction",
    "date_created": "2024-01-30T18:31:10.000",
    "date_modified": "2024-01-30T18:31:11.000",
    "request_status": "Pending",
    "responsible_agency": "Department of Public Works",
    "final_address": "1110 Cambronne St",
    "address_councildis": "A",
    "status": "Assigned to Contractor",
    "contractor": "Legacy Professional Services",
    "rowid": "1064759",
    "final_x": "3660972.56992",
    "final_y": "528946.874368",
    "longitude": "-90.13297402322496",
    "latitude": "29.94902771174584",
    "geocoded_column": {
      "latitude": "29.94902771174584",
      "longitude": "-90.13297402322496"
    }
  },
  {
    "service_request": "2024-1064758",
    "request_type": "Traffic Signals/Signs/Striping/Streetlights",
    "request_reason": "Striping/Road Surface Markings",
    "date_created": "2024-01-30T18:30:59.000",
    "date_modified": "2024-01-30T18:30:59.000",
    "request_status": "Pending",
    "responsible_agency": "Department of Public Works",
    "final_address": "923 Gordon St",
    "address_councildis": "E",
    "status": "Pending",
    "rowid": "1064758",
    "final_x": "3698958.50839",
    "final_y": "532866.506052",
    "longitude": "-90.01289397817882",
    "latitude": "29.958656467640477",
    "geocoded_column": {
      "latitude": "29.958656467640477",
      "longitude": "-90.01289397817882"
    }
  },
  {
    "service_request": "2024-1064757",
    "request_type": "Traffic Signals/Signs/Striping/Streetlights",
    "request_reason": "Street Light Outage/Malfunction",
    "date_created": "2024-01-30T18:26:20.000",
    "date_modified": "2024-01-30T18:26:21.000",
    "request_status": "Pending",
    "responsible_agency": "Department of Public Works",
    "final_address": "900 BLK Gordon St",
    "address_councildis": "E",
    "status": "Assigned to Contractor",
    "contractor": "Legacy Professional Services",
    "rowid": "1064757",
    "final_x": "3698919.32653",
    "final_y": "532857.707366",
    "longitude": "-90.0130180236908",
    "latitude": "29.958633515852416",
    "geocoded_column": {
      "latitude": "29.958633515852416",
      "longitude": "-90.0130180236908"
    }
  },
  {
    "service_request": "2024-1064756",
    "request_type": "Traffic Signals/Signs/Striping/Streetlights",
    "request_reason": "Additional signage",
    "date_created": "2024-01-30T18:20:09.000",
    "date_modified": "2024-01-30T18:20:09.000",
    "request_status": "Pending",
    "responsible_agency": "Department of Public Works",
    "final_address": "923 Gordon St",
    "address_councildis": "E",
    "status": "Pending",
    "rowid": "1064756",
    "final_x": "3698958.50839",
    "final_y": "532866.506052",
    "longitude": "-90.01289397817882",
    "latitude": "29.958656467640477",
    "geocoded_column": {
      "latitude": "29.958656467640477",
      "longitude": "-90.01289397817882"
    }
  },
  {
    "service_request": "2024-1064755",
    "request_type": "Trash/Recycling",
    "request_reason": "Replace Trash Cart",
    "date_created": "2024-01-30T18:10:49.000",
    "date_modified": "2024-01-30T18:10:50.000",
    "request_status": "Pending",
    "responsible_agency": "Department of Sanitation",
    "final_address": "2126 Seventh St",
    "address_councildis": "B",
    "status": "Assigned to Contractor",
    "contractor": "Richards Disposal",
    "rowid": "1064755",
    "final_x": "3674107.4235",
    "final_y": "523751.260987",
    "longitude": "-90.09167927391977",
    "latitude": "29.934356592358267",
    "geocoded_column": {
      "latitude": "29.934356592358267",
      "longitude": "-90.09167927391977"
    }
  },
  {
    "service_request": "2024-1064754",
    "request_type": "Roads/Drainage",
    "request_reason": "Pothole",
    "date_created": "2024-01-30T18:05:34.000",
    "date_modified": "2024-01-30T18:05:34.000",
    "request_status": "Pending",
    "responsible_agency": "Department of Public Works",
    "final_address": "4216 Chestnut St",
    "address_councildis": "B",
    "status": "Pending",
    "rowid": "1064754",
    "final_x": "3671574.31393",
    "final_y": "519539.203703",
    "longitude": "-90.09981939416457",
    "latitude": "29.922850019854593",
    "geocoded_column": {
      "latitude": "29.922850019854593",
      "longitude": "-90.09981939416457"
    }
  },
  {
    "service_request": "2024-1064753",
    "request_type": "Roads/Drainage",
    "request_reason": "Pothole",
    "date_created": "2024-01-30T17:29:11.000",
    "date_modified": "2024-01-30T17:29:11.000",
    "request_status": "Pending",
    "responsible_agency": "Department of Public Works",
    "final_address": "1330 Poland Ave",
    "address_councildis": "D",
    "status": "Pending",
    "rowid": "1064753",
    "final_x": "3693228.95331",
    "final_y": "536030.455943",
    "longitude": "-90.03087277936461",
    "latitude": "29.96753652123824",
    "geocoded_column": {
      "latitude": "29.96753652123824",
      "longitude": "-90.03087277936461"
    }
  },
  {
    "service_request": "2024-1064752",
    "request_type": "Trash/Recycling",
    "request_reason": "Request a Large Item Pick Up",
    "date_created": "2024-01-30T17:27:59.000",
    "date_modified": "2024-01-30T17:27:59.000",
    "request_status": "Pending",
    "responsible_agency": "Department of Sanitation",
    "final_address": "3403 General Taylor St",
    "address_councildis": "B",
    "status": "Assigned to Contractor",
    "contractor": "Richards Disposal",
    "rowid": "1064752",
    "final_x": "3671196.91297",
    "final_y": "527369.137663",
    "longitude": "-90.10074483140679",
    "latitude": "29.944390979718218",
    "geocoded_column": {
      "latitude": "29.944390979718218",
      "longitude": "-90.10074483140679"
    }
  },
  {
    "service_request": "2024-1064751",
    "request_type": "Traffic Signals/Signs/Striping/Streetlights",
    "request_reason": "Traffic Sign Missing/Damaged",
    "date_created": "2024-01-30T17:27:42.000",
    "date_modified": "2024-01-30T17:27:42.000",
    "request_status": "Pending",
    "responsible_agency": "Department of Public Works",
    "final_address": "1441 France St",
    "address_councildis": "D",
    "status": "Pending",
    "rowid": "1064751",
    "final_x": "3692782.12387",
    "final_y": "536606.685895",
    "longitude": "-90.03226320750355",
    "latitude": "29.969134907879464",
    "geocoded_column": {
      "latitude": "29.969134907879464",
      "longitude": "-90.03226320750355"
    }
  },
  {
    "service_request": "2024-1064750",
    "request_type": "Abandoned Vehicles",
    "request_reason": "Abandoned/Junk Vehicles",
    "date_created": "2024-01-30T17:22:59.000",
    "date_modified": "2024-01-30T17:22:59.000",
    "request_status": "Pending",
    "responsible_agency": "Department of Public Works",
    "final_address": "745 S Genois St",
    "address_councildis": "B",
    "status": "Pending",
    "rowid": "1064750",
    "final_x": "3670907.48359",
    "final_y": "535033.38247",
    "longitude": "-90.1013984815006",
    "latitude": "29.965473680370117",
    "geocoded_column": {
      "latitude": "29.965473680370117",
      "longitude": "-90.1013984815006"
    }
  },
  {
    "service_request": "2024-1064749",
    "request_type": "Trash/Recycling",
    "request_reason": "Illegal Dumping",
    "date_created": "2024-01-30T17:11:07.000",
    "date_modified": "2024-01-30T17:11:07.000",
    "request_status": "Pending",
    "responsible_agency": "Department of Sanitation",
    "final_address": "11230 Lake Forest Blvd",
    "address_councildis": "E",
    "status": "Pending",
    "rowid": "1064749",
    "final_x": "3716133.68543",
    "final_y": "561500.474783",
    "longitude": "-89.95757426272733",
    "latitude": "30.03683342288048",
    "geocoded_column": {
      "latitude": "30.03683342288048",
      "longitude": "-89.95757426272733"
    }
  },
  {
    "service_request": "2024-1064748",
    "request_type": "Roads/Drainage",
    "request_reason": "Pothole",
    "date_created": "2024-01-30T17:06:53.000",
    "date_modified": "2024-01-30T17:06:53.000",
    "request_status": "Pending",
    "responsible_agency": "Department of Public Works",
    "final_address": "2000 BLK Perdido St",
    "address_councildis": "B",
    "status": "Pending",
    "rowid": "1064748",
    "final_x": "3676032.17972",
    "final_y": "531751.396587",
    "longitude": "-90.08532778744393",
    "latitude": "29.956296829407155",
    "geocoded_column": {
      "latitude": "29.956296829407155",
      "longitude": "-90.08532778744393"
    }
  },
  {
    "service_request": "2024-1064747",
    "request_type": "Trash/Recycling",
    "request_reason": "Request a Large Item Pick Up",
    "date_created": "2024-01-30T17:03:32.000",
    "date_modified": "2024-01-30T17:03:33.000",
    "request_status": "Pending",
    "responsible_agency": "Department of Sanitation",
    "final_address": "1429 Richland Rd",
    "address_councildis": "C",
    "status": "Assigned to Contractor",
    "contractor": "Richards Disposal",
    "rowid": "1064747",
    "final_x": "3697879.62576",
    "final_y": "525863.361853",
    "longitude": "-90.016554920009",
    "latitude": "29.939434418400438",
    "geocoded_column": {
      "latitude": "29.939434418400438",
      "longitude": "-90.016554920009"
    }
  },
  {
    "service_request": "2024-1064746",
    "request_type": "Trash/Recycling",
    "request_reason": "Request a Large Item Pick Up",
    "date_created": "2024-01-30T16:58:11.000",
    "date_modified": "2024-01-30T16:58:12.000",
    "request_status": "Pending",
    "responsible_agency": "Department of Sanitation",
    "final_address": "2233 Jefferson Ave, New Orleans, Louisiana, 70115",
    "address_councildis": "B",
    "status": "Assigned to Contractor",
    "contractor": "Richards Disposal",
    "rowid": "1064746",
    "final_x": "3667962.32218",
    "final_y": "523905.758332",
    "longitude": "-90.11107404406737",
    "latitude": "29.934963079430577",
    "geocoded_column": {
      "latitude": "29.934963079430577",
      "longitude": "-90.11107404406737"
    }
  },
  {
    "service_request": "2024-1064745",
    "request_type": "Trash/Recycling",
    "request_reason": "Start Trash Service",
    "date_created": "2024-01-30T16:53:21.000",
    "date_modified": "2024-01-30T16:53:22.000",
    "request_status": "Pending",
    "responsible_agency": "Department of Sanitation",
    "final_address": "1826 Clouet St",
    "address_councildis": "D",
    "status": "Assigned to Contractor",
    "contractor": "IV Waste",
    "rowid": "1064745",
    "final_x": "3689682.73647",
    "final_y": "538872.217481",
    "longitude": "-90.04197062953381",
    "latitude": "29.97546072468033",
    "geocoded_column": {
      "latitude": "29.97546072468033",
      "longitude": "-90.04197062953381"
    }
  },
  {
    "service_request": "2024-1064744",
    "request_type": "Trash/Recycling",
    "request_reason": "Damaged Caused By Contractor",
    "date_created": "2024-01-30T16:50:27.000",
    "date_modified": "2024-01-30T16:50:28.000",
    "request_status": "Pending",
    "responsible_agency": "Department of Sanitation",
    "final_address": "3521 Hyman Ct",
    "address_councildis": "C",
    "status": "Assigned to Contractor",
    "contractor": "Richards Disposal",
    "rowid": "1064744",
    "final_x": "3700864.94135",
    "final_y": "518044.295734",
    "longitude": "-90.00741560157614",
    "latitude": "29.917840020019778",
    "geocoded_column": {
      "latitude": "29.917840020019778",
      "longitude": "-90.00741560157614"
    }
  },
  {
    "service_request": "2024-1064743",
    "request_type": "Roads/Drainage",
    "request_reason": "Pothole",
    "date_created": "2024-01-30T16:46:33.000",
    "date_modified": "2024-01-30T16:46:33.000",
    "request_status": "Pending",
    "responsible_agency": "Department of Public Works",
    "final_address": "ST CLAUDE AVE & JOURDAN AVE",
    "address_councildis": "E",
    "status": "Pending",
    "rowid": "1064743",
    "final_x": "3695072.7",
    "final_y": "534573.98",
    "longitude": "-90.02510273152947",
    "latitude": "29.96347397374478",
    "geocoded_column": {
      "latitude": "29.96347397374478",
      "longitude": "-90.02510273152947"
    }
  },
  {
    "service_request": "2024-1064742",
    "request_type": "Roads/Drainage",
    "request_reason": "Pothole",
    "date_created": "2024-01-30T16:44:56.000",
    "date_modified": "2024-01-30T16:44:56.000",
    "request_status": "Pending",
    "responsible_agency": "Department of Public Works",
    "final_address": "10000 BLK Michoud Blvd",
    "address_councildis": "E",
    "status": "Pending",
    "rowid": "1064742",
    "final_x": "3724536.88849",
    "final_y": "568998.643614",
    "longitude": "-89.93072865980727",
    "latitude": "30.057170174761637",
    "geocoded_column": {
      "latitude": "30.057170174761637",
      "longitude": "-89.93072865980727"
    }
  },
  {
    "service_request": "2024-1064741",
    "request_type": "Trash/Recycling",
    "request_reason": "Replace Trash Cart",
    "date_created": "2024-01-30T16:42:46.000",
    "date_modified": "2024-01-30T16:42:47.000",
    "request_status": "Pending",
    "responsible_agency": "Department of Sanitation",
    "final_address": "2715 Milan St",
    "address_councildis": "B",
    "status": "Assigned to Contractor",
    "contractor": "Richards Disposal",
    "rowid": "1064741",
    "final_x": "3671245.46843",
    "final_y": "524948.512189",
    "longitude": "-90.10067374436436",
    "latitude": "29.937733610498984",
    "geocoded_column": {
      "latitude": "29.937733610498984",
      "longitude": "-90.10067374436436"
    }
  },
  {
    "service_request": "2024-1064740",
    "request_type": "Traffic Signals/Signs/Striping/Streetlights",
    "request_reason": "Street Light Outage/Malfunction",
    "date_created": "2024-01-30T16:41:48.000",
    "date_modified": "2024-01-30T16:41:49.000",
    "request_status": "Pending",
    "responsible_agency": "Department of Public Works",
    "final_address": "6110 Erin Dr",
    "address_councildis": "E",
    "status": "Assigned to Contractor",
    "contractor": "Legacy Professional Services",
    "rowid": "1064740",
    "final_x": "3695958.62403",
    "final_y": "558528.860444",
    "longitude": "-90.0214389990439",
    "latitude": "30.02931323928358",
    "geocoded_column": {
      "latitude": "30.02931323928358",
      "longitude": "-90.0214389990439"
    }
  },
  {
    "service_request": "2024-1064739",
    "request_type": "Trash/Recycling",
    "request_reason": "Missed Trash Pick-Up",
    "date_created": "2024-01-30T16:41:29.000",
    "date_modified": "2024-01-30T16:41:29.000",
    "request_status": "Pending",
    "responsible_agency": "Department of Sanitation",
    "final_address": "2814 Milan St",
    "address_councildis": "B",
    "status": "Assigned to Contractor",
    "contractor": "Richards Disposal",
    "rowid": "1064739",
    "final_x": "3671113.47892",
    "final_y": "525286.454781",
    "longitude": "-90.10107897281598",
    "latitude": "29.938666746737002",
    "geocoded_column": {
      "latitude": "29.938666746737002",
      "longitude": "-90.10107897281598"
    }
  },
  {
    "service_request": "2024-1064738",
    "request_type": "Trash/Recycling",
    "request_reason": "Request a Large Item Pick Up",
    "date_created": "2024-01-30T16:36:22.000",
    "date_modified": "2024-01-30T16:36:22.000",
    "request_status": "Pending",
    "responsible_agency": "Department of Sanitation",
    "final_address": "1401 Audubon St",
    "address_councildis": "A",
    "status": "Assigned to Contractor",
    "contractor": "Richards Disposal",
    "rowid": "1064738",
    "final_x": "3664876.96679",
    "final_y": "526924.573886",
    "longitude": "-90.12071366454092",
    "latitude": "29.943353992810497",
    "geocoded_column": {
      "latitude": "29.943353992810497",
      "longitude": "-90.12071366454092"
    }
  },
  {
    "service_request": "2024-1064737",
    "request_type": "Roads/Drainage",
    "request_reason": "Man hole cover issue",
    "date_created": "2024-01-30T16:35:42.000",
    "date_modified": "2024-01-30T16:35:42.000",
    "request_status": "Pending",
    "responsible_agency": "Department of Public Works",
    "final_address": "3100 Napoleon Ave",
    "address_councildis": "B",
    "status": "Pending",
    "rowid": "1064737",
    "final_x": "3670175.66708",
    "final_y": "526283.43155",
    "longitude": "-90.10400598460193",
    "latitude": "29.941435808045775",
    "geocoded_column": {
      "latitude": "29.941435808045775",
      "longitude": "-90.10400598460193"
    }
  },
  {
    "service_request": "2024-1064736",
    "request_type": "Trash/Recycling",
    "request_reason": "Illegal Dumping",
    "date_created": "2024-01-30T16:31:18.000",
    "date_modified": "2024-01-30T16:31:19.000",
    "request_status": "Pending",
    "responsible_agency": "Department of Sanitation",
    "final_address": "7116 Colapissa St",
    "address_councildis": "B",
    "status": "Pending",
    "rowid": "1064736",
    "final_x": "3667999.00525",
    "final_y": "532026.631427",
    "longitude": "-90.11068467471823",
    "latitude": "29.957291769717166",
    "geocoded_column": {
      "latitude": "29.957291769717166",
      "longitude": "-90.11068467471823"
    }
  },
  {
    "service_request": "2024-1064735",
    "request_type": "Roads/Drainage",
    "request_reason": "Pothole",
    "date_created": "2024-01-30T16:27:39.000",
    "date_modified": "2024-01-30T16:27:39.000",
    "request_status": "Pending",
    "responsible_agency": "Department of Public Works",
    "final_address": "6733 Colbert St",
    "address_councildis": "A",
    "status": "Pending",
    "rowid": "1064735",
    "final_x": "3667961.01351",
    "final_y": "552364.620374",
    "longitude": "-90.11011906285809",
    "latitude": "30.01321544259928",
    "geocoded_column": {
      "latitude": "30.01321544259928",
      "longitude": "-90.11011906285809"
    }
  },
  {
    "service_request": "2024-1064734",
    "request_type": "Trash/Recycling",
    "request_reason": "Request a Large Item Pick Up",
    "date_created": "2024-01-30T16:24:44.000",
    "date_modified": "2024-01-30T16:24:44.000",
    "request_status": "Pending",
    "responsible_agency": "Department of Sanitation",
    "final_address": "4518 S Miro St",
    "address_councildis": "B",
    "status": "Assigned to Contractor",
    "contractor": "Richards Disposal",
    "rowid": "1064734",
    "final_x": "3669579.65658",
    "final_y": "527721.339775",
    "longitude": "-90.105839078741",
    "latitude": "29.945407157718655",
    "geocoded_column": {
      "latitude": "29.945407157718655",
      "longitude": "-90.105839078741"
    }
  },
  {
    "service_request": "2024-1064733",
    "request_type": "Abandoned Vehicles",
    "request_reason": "Abandoned/Junk Vehicles",
    "date_created": "2024-01-30T16:19:03.000",
    "date_modified": "2024-01-30T16:19:03.000",
    "request_status": "Pending",
    "responsible_agency": "Department of Public Works",
    "final_address": "2100 BLK Marais St",
    "address_councildis": "C",
    "status": "Pending",
    "rowid": "1064733",
    "final_x": "3684746.52614",
    "final_y": "536646.995391",
    "longitude": "-90.05763873992156",
    "latitude": "29.969494182263304",
    "geocoded_column": {
      "latitude": "29.969494182263304",
      "longitude": "-90.05763873992156"
    }
  },
  {
    "service_request": "2024-1064732",
    "request_type": "Abandoned Vehicles",
    "request_reason": "Abandoned/Junk Vehicles",
    "date_created": "2024-01-30T16:17:59.000",
    "date_modified": "2024-01-30T16:17:59.000",
    "request_status": "Pending",
    "responsible_agency": "Department of Public Works",
    "final_address": "2100 BLK Marais St",
    "address_councildis": "C",
    "status": "Pending",
    "rowid": "1064732",
    "final_x": "3684746.52614",
    "final_y": "536646.995391",
    "longitude": "-90.05763873992156",
    "latitude": "29.969494182263304",
    "geocoded_column": {
      "latitude": "29.969494182263304",
      "longitude": "-90.05763873992156"
    }
  },
  {
    "service_request": "2024-1064731",
    "request_type": "Abandoned Vehicles",
    "request_reason": "Abandoned/Junk Vehicles",
    "date_created": "2024-01-30T16:17:16.000",
    "date_modified": "2024-01-30T16:17:16.000",
    "request_status": "Pending",
    "responsible_agency": "Department of Public Works",
    "final_address": "4048 Banks St",
    "address_councildis": "A",
    "status": "Pending",
    "rowid": "1064731",
    "final_x": "3670406.44295",
    "final_y": "537280.886984",
    "longitude": "-90.10290453497541",
    "latitude": "29.9716683674005",
    "geocoded_column": {
      "latitude": "29.9716683674005",
      "longitude": "-90.10290453497541"
    }
  },
  {
    "service_request": "2024-1064730",
    "request_type": "Traffic Signals/Signs/Striping/Streetlights",
    "request_reason": "Street Light Outage/Malfunction",
    "date_created": "2024-01-30T16:17:15.000",
    "date_modified": "2024-01-30T16:17:15.000",
    "request_status": "Pending",
    "responsible_agency": "Department of Public Works",
    "final_address": "4661 Alcee Fortier Blvd",
    "address_councildis": "E",
    "status": "Assigned to Contractor",
    "contractor": "Legacy Professional Services",
    "rowid": "1064730",
    "final_x": "3730631.43335",
    "final_y": "561951.861279",
    "longitude": "-89.91174131454315",
    "latitude": "30.037587958131414",
    "geocoded_column": {
      "latitude": "30.037587958131414",
      "longitude": "-89.91174131454315"
    }
  },
  {
    "service_request": "2024-1064728",
    "request_type": "Trash/Recycling",
    "request_reason": "Replace Trash Cart",
    "date_created": "2024-01-30T16:13:54.000",
    "date_modified": "2024-01-30T16:13:55.000",
    "request_status": "Pending",
    "responsible_agency": "Department of Sanitation",
    "final_address": "37 Marywood Ct",
    "address_councildis": "E",
    "status": "Assigned to Contractor",
    "contractor": "Waste Pro",
    "rowid": "1064728",
    "final_x": "3712383.85144",
    "final_y": "567050.783652",
    "longitude": "-89.96921560813955",
    "latitude": "30.052217794688726",
    "geocoded_column": {
      "latitude": "30.052217794688726",
      "longitude": "-89.96921560813955"
    }
  },
  {
    "service_request": "2024-1064727",
    "request_type": "Traffic Signals/Signs/Striping/Streetlights",
    "request_reason": "Street Light Outage/Malfunction",
    "date_created": "2024-01-30T16:13:16.000",
    "date_modified": "2024-01-30T16:13:16.000",
    "request_status": "Pending",
    "responsible_agency": "Department of Public Works",
    "final_address": "3600 BLK Rhine St",
    "address_councildis": "C",
    "status": "Assigned to Contractor",
    "contractor": "Legacy Professional Services",
    "rowid": "1064727",
    "final_x": "3697182.65514",
    "final_y": "518209.204839",
    "longitude": "-90.01903251465862",
    "latitude": "29.918410113731618",
    "geocoded_column": {
      "latitude": "29.918410113731618",
      "longitude": "-90.01903251465862"
    }
  },
  {
    "service_request": "2024-1064726",
    "request_type": "Trash/Recycling",
    "request_reason": "Illegal Dumping",
    "date_created": "2024-01-30T16:09:48.000",
    "date_modified": "2024-01-30T16:09:49.000",
    "request_status": "Pending",
    "responsible_agency": "Department of Code Enforcement",
    "final_address": "1629 St Mary St",
    "address_councildis": "B",
    "status": "Pending",
    "rowid": "1064726",
    "final_x": "3678229.83118",
    "final_y": "524585.44486",
    "longitude": "-90.07863611104483",
    "latitude": "29.936526848925883",
    "geocoded_column": {
      "latitude": "29.936526848925883",
      "longitude": "-90.07863611104483"
    }
  },
  {
    "service_request": "2024-1064725",
    "request_type": "Trash/Recycling",
    "request_reason": "Illegal Dumping",
    "date_created": "2024-01-30T16:07:56.000",
    "date_modified": "2024-01-30T16:07:56.000",
    "request_status": "Pending",
    "responsible_agency": "Department of Sanitation",
    "final_address": "817 N Derbigny St",
    "address_councildis": "D",
    "status": "Pending",
    "rowid": "1064725",
    "final_x": "3679706.91093",
    "final_y": "535308.32199",
    "longitude": "-90.07360073872665",
    "latitude": "29.96596660236232",
    "geocoded_column": {
      "latitude": "29.96596660236232",
      "longitude": "-90.07360073872665"
    }
  },
  {
    "service_request": "2024-1064724",
    "request_type": "Trash/Recycling",
    "request_reason": "Request a Large Item Pick Up",
    "date_created": "2024-01-30T16:06:05.000",
    "date_modified": "2024-01-30T16:06:05.000",
    "request_status": "Pending",
    "responsible_agency": "Department of Sanitation",
    "final_address": "7525 Briarwood Dr",
    "address_councildis": "E",
    "status": "Assigned to Contractor",
    "contractor": "Waste Pro",
    "rowid": "1064724",
    "final_x": "3717897.19237",
    "final_y": "570485.802087",
    "longitude": "-89.95165887186917",
    "latitude": "30.06148104648399",
    "geocoded_column": {
      "latitude": "30.06148104648399",
      "longitude": "-89.95165887186917"
    }
  },
  {
    "service_request": "2024-1064723",
    "request_type": "Trash/Recycling",
    "request_reason": "Repair Trash Cart",
    "date_created": "2024-01-30T15:57:58.000",
    "date_modified": "2024-01-30T15:57:59.000",
    "request_status": "Pending",
    "responsible_agency": "Department of Sanitation",
    "final_address": "2241 Valence St",
    "address_councildis": "B",
    "status": "Assigned to Contractor",
    "contractor": "Richards Disposal",
    "rowid": "1064723",
    "final_x": "3669589.66676",
    "final_y": "523206.221499",
    "longitude": "-90.10596017388927",
    "latitude": "29.932991746601182",
    "geocoded_column": {
      "latitude": "29.932991746601182",
      "longitude": "-90.10596017388927"
    }
  },
  {
    "service_request": "2024-1064722",
    "request_type": "Roads/Drainage",
    "request_reason": "Pothole",
    "date_created": "2024-01-30T15:43:22.000",
    "date_modified": "2024-01-30T15:43:22.000",
    "request_status": "Pending",
    "responsible_agency": "Department of Public Works",
    "final_address": "LAW ST & CLOUET ST",
    "address_councildis": "D",
    "status": "Pending",
    "rowid": "1064722",
    "final_x": "3690422.3",
    "final_y": "541653.88",
    "longitude": "-90.03953569866133",
    "latitude": "29.983086367628452",
    "geocoded_column": {
      "latitude": "29.983086367628452",
      "longitude": "-90.03953569866133"
    }
  },
  {
    "service_request": "2024-1064721",
    "request_type": "Trash/Recycling",
    "request_reason": "Replace Recycling Cart",
    "date_created": "2024-01-30T15:43:05.000",
    "date_modified": "2024-01-30T15:43:05.000",
    "request_status": "Pending",
    "responsible_agency": "Department of Sanitation",
    "final_address": "2920 Philip St",
    "address_councildis": "B",
    "status": "Pending",
    "rowid": "1064721",
    "final_x": "3674474.49172",
    "final_y": "527311.163647",
    "longitude": "-90.09039854023563",
    "latitude": "29.944134217831373",
    "geocoded_column": {
      "latitude": "29.944134217831373",
      "longitude": "-90.09039854023563"
    }
  },
  {
    "service_request": "2024-1064720",
    "request_type": "Traffic Signals/Signs/Striping/Streetlights",
    "request_reason": "Street Name Sign Damaged or Missing",
    "date_created": "2024-01-30T15:42:32.000",
    "date_modified": "2024-01-30T15:42:32.000",
    "request_status": "Pending",
    "responsible_agency": "Department of Public Works",
    "final_address": "BEHRMAN HWY & INDIANA ST",
    "address_councildis": "C",
    "status": "Pending",
    "rowid": "1064720",
    "final_x": "3693467.5",
    "final_y": "520103.38",
    "longitude": "-90.03069125670454",
    "latitude": "29.923735108415894",
    "geocoded_column": {
      "latitude": "29.923735108415894",
      "longitude": "-90.03069125670454"
    }
  },
  {
    "service_request": "2024-1064719",
    "request_type": "Trash/Recycling",
    "request_reason": "Replace Trash Cart",
    "date_created": "2024-01-30T15:42:20.000",
    "date_modified": "2024-01-30T15:42:20.000",
    "request_status": "Pending",
    "responsible_agency": "Department of Sanitation",
    "final_address": "1416 Magazine St",
    "address_councildis": "B",
    "status": "Assigned to Contractor",
    "contractor": "Richards Disposal",
    "rowid": "1064719",
    "final_x": "3680371.73346",
    "final_y": "524379.888764",
    "longitude": "-90.07188118688995",
    "latitude": "29.935896973508452",
    "geocoded_column": {
      "latitude": "29.935896973508452",
      "longitude": "-90.07188118688995"
    }
  },
  {
    "service_request": "2024-1064718",
    "request_type": "Trash/Recycling",
    "request_reason": "Replace Trash Cart",
    "date_created": "2024-01-30T15:41:33.000",
    "date_modified": "2024-01-30T15:41:34.000",
    "request_status": "Pending",
    "responsible_agency": "Department of Sanitation",
    "final_address": "1414 Magazine St",
    "address_councildis": "B",
    "status": "Assigned to Contractor",
    "contractor": "Richards Disposal",
    "rowid": "1064718",
    "final_x": "3680374.28968",
    "final_y": "524387.446204",
    "longitude": "-90.07187285419086",
    "latitude": "29.935917676588822",
    "geocoded_column": {
      "latitude": "29.935917676588822",
      "longitude": "-90.07187285419086"
    }
  },
  {
    "service_request": "2024-1064717",
    "request_type": "Property Maintenance",
    "request_reason": "Property Maintenance",
    "date_created": "2024-01-30T15:40:18.000",
    "date_modified": "2024-01-30T15:40:18.000",
    "request_status": "Pending",
    "responsible_agency": "Department of Code Enforcement",
    "final_address": "3132 College Ct",
    "address_councildis": "B",
    "status": "Pending",
    "rowid": "1064717",
    "final_x": "3668528.5529",
    "final_y": "532007.309827",
    "longitude": "-90.10901317040997",
    "latitude": "29.95722309422249",
    "geocoded_column": {
      "latitude": "29.95722309422249",
      "longitude": "-90.10901317040997"
    }
  },
  {
    "service_request": "2024-1064716",
    "request_type": "Trash/Recycling",
    "request_reason": "Order Recycling Cart",
    "date_created": "2024-01-30T15:38:30.000",
    "date_modified": "2024-01-30T15:38:30.000",
    "request_status": "Pending",
    "responsible_agency": "Department of Sanitation",
    "final_address": "7248 Sardonyx St",
    "address_councildis": "D",
    "status": "Pending",
    "rowid": "1064716",
    "final_x": "3669496.01294",
    "final_y": "555481.131097",
    "longitude": "-90.10516372832863",
    "latitude": "30.021739595788446",
    "geocoded_column": {
      "latitude": "30.021739595788446",
      "longitude": "-90.10516372832863"
    }
  },
  {
    "service_request": "2024-1064715",
    "request_type": "Property Maintenance",
    "request_reason": "Property Maintenance",
    "date_created": "2024-01-30T15:38:09.000",
    "date_modified": "2024-01-30T15:38:10.000",
    "request_status": "Pending",
    "responsible_agency": "Department of Code Enforcement",
    "final_address": "HAYNE BLVD & BASS ST",
    "address_councildis": "E",
    "status": "Pending",
    "rowid": "1064715",
    "final_x": "3719207.2",
    "final_y": "574611.98",
    "longitude": "-89.94736023307134",
    "latitude": "30.072782803167314",
    "geocoded_column": {
      "latitude": "30.072782803167314",
      "longitude": "-89.94736023307134"
    }
  },
  {
    "service_request": "2024-1064714",
    "request_type": "Abandoned Vehicles",
    "request_reason": "Abandoned/Junk Vehicles",
    "date_created": "2024-01-30T15:37:49.000",
    "date_modified": "2024-01-30T15:39:19.000",
    "request_status": "Pending",
    "responsible_agency": "Department of Public Works",
    "final_address": "STORY ST & OCTAVIA ST",
    "address_councildis": "A",
    "status": "Pending",
    "rowid": "1064714",
    "final_x": "3668028.0",
    "final_y": "526037.78",
    "longitude": "-90.11079488602658",
    "latitude": "29.940823527283186",
    "geocoded_column": {
      "latitude": "29.940823527283186",
      "longitude": "-90.11079488602658"
    }
  },
  {
    "service_request": "2024-1064713",
    "request_type": "Trash/Recycling",
    "request_reason": "Request a Large Item Pick Up",
    "date_created": "2024-01-30T15:37:05.000",
    "date_modified": "2024-01-30T15:37:06.000",
    "request_status": "Pending",
    "responsible_agency": "Department of Sanitation",
    "final_address": "7009 Lake Willow Dr",
    "address_councildis": "E",
    "status": "Assigned to Contractor",
    "contractor": "Waste Pro",
    "rowid": "1064713",
    "final_x": "3702577.99357",
    "final_y": "558890.665372",
    "longitude": "-90.00050879526212",
    "latitude": "30.030098016902123",
    "geocoded_column": {
      "latitude": "30.030098016902123",
      "longitude": "-90.00050879526212"
    }
  },
  {
    "service_request": "2024-1064712",
    "request_type": "Trash/Recycling",
    "request_reason": "Request a Large Item Pick Up",
    "date_created": "2024-01-30T15:35:40.000",
    "date_modified": "2024-01-30T15:35:40.000",
    "request_status": "Pending",
    "responsible_agency": "Department of Sanitation",
    "final_address": "2653 Abundance St",
    "address_councildis": "D",
    "status": "Assigned to Contractor",
    "contractor": "IV Waste",
    "rowid": "1064712",
    "final_x": "3687856.895",
    "final_y": "543986.29179",
    "longitude": "-90.04755587612932",
    "latitude": "29.98957906681047",
    "geocoded_column": {
      "latitude": "29.98957906681047",
      "longitude": "-90.04755587612932"
    }
  },
  {
    "service_request": "2024-1064711",
    "request_type": "Roads/Drainage",
    "request_reason": "Pothole",
    "date_created": "2024-01-30T15:29:43.000",
    "date_modified": "2024-01-30T15:29:43.000",
    "request_status": "Pending",
    "responsible_agency": "Department of Public Works",
    "final_address": "3100 BLK Law St",
    "address_councildis": "D",
    "status": "Pending",
    "rowid": "1064711",
    "final_x": "3690697.47126",
    "final_y": "541582.462883",
    "longitude": "-90.03866911837967",
    "latitude": "29.982881449996768",
    "geocoded_column": {
      "latitude": "29.982881449996768",
      "longitude": "-90.03866911837967"
    }
  },
  {
    "service_request": "2024-1064710",
    "request_type": "Roads/Drainage",
    "request_reason": "Pothole",
    "date_created": "2024-01-30T15:28:53.000",
    "date_modified": "2024-01-30T15:28:53.000",
    "request_status": "Pending",
    "responsible_agency": "Department of Public Works",
    "final_address": "1312 Milan St",
    "address_councildis": "B",
    "status": "Pending",
    "rowid": "1064710",
    "final_x": "3671625.82823",
    "final_y": "520286.919608",
    "longitude": "-90.09963137110304",
    "latitude": "29.92490447494246",
    "geocoded_column": {
      "latitude": "29.92490447494246",
      "longitude": "-90.09963137110304"
    }
  },
  {
    "service_request": "2024-1064709",
    "request_type": "Trash/Recycling",
    "request_reason": "Missed Trash Pick-Up",
    "date_created": "2024-01-30T15:25:49.000",
    "date_modified": "2024-01-30T15:25:55.000",
    "request_status": "Pending",
    "responsible_agency": "Department of Sanitation",
    "final_address": "7700 Dogwood Dr",
    "address_councildis": "E",
    "status": "Assigned to Contractor",
    "contractor": "Waste Pro",
    "rowid": "1064709",
    "final_x": "3701136.25393",
    "final_y": "561206.170078",
    "longitude": "-90.00497983996466",
    "latitude": "30.036510788373434",
    "geocoded_column": {
      "latitude": "30.036510788373434",
      "longitude": "-90.00497983996466"
    }
  },
  {
    "service_request": "2024-1064708",
    "request_type": "Abandoned Vehicles",
    "request_reason": "Abandoned/Junk Vehicles",
    "date_created": "2024-01-30T15:24:25.000",
    "date_modified": "2024-01-30T15:24:25.000",
    "request_status": "Pending",
    "responsible_agency": "Department of Public Works",
    "final_address": "2135 Decatur St",
    "address_councildis": "C",
    "status": "Pending",
    "rowid": "1064708",
    "final_x": "3685007.11753",
    "final_y": "534172.906565",
    "longitude": "-90.05690281069744",
    "latitude": "29.962683314398472",
    "geocoded_column": {
      "latitude": "29.962683314398472",
      "longitude": "-90.05690281069744"
    }
  },
  {
    "service_request": "2024-1064707",
    "request_type": "Trash/Recycling",
    "request_reason": "Request a Large Item Pick Up",
    "date_created": "2024-01-30T15:24:09.000",
    "date_modified": "2024-01-30T15:24:10.000",
    "request_status": "Pending",
    "responsible_agency": "Department of Sanitation",
    "final_address": "30 Olympic Ct",
    "address_councildis": "C",
    "status": "Assigned to Contractor",
    "contractor": "Richards Disposal",
    "rowid": "1064707",
    "final_x": "3699740.51325",
    "final_y": "515920.450292",
    "longitude": "-90.01104214011063",
    "latitude": "29.912035895999495",
    "geocoded_column": {
      "latitude": "29.912035895999495",
      "longitude": "-90.01104214011063"
    }
  },
  {
    "service_request": "2024-1064706",
    "request_type": "Roads/Drainage",
    "request_reason": "Pothole",
    "date_created": "2024-01-30T15:22:50.000",
    "date_modified": "2024-01-30T15:22:50.000",
    "request_status": "Pending",
    "responsible_agency": "Department of Public Works",
    "final_address": "1301 Constantinople St",
    "address_councildis": "B",
    "status": "Pending",
    "rowid": "1064706",
    "final_x": "3672430.66305",
    "final_y": "520250.7726",
    "longitude": "-90.09709199725775",
    "latitude": "29.924781230435865",
    "geocoded_column": {
      "latitude": "29.924781230435865",
      "longitude": "-90.09709199725775"
    }
  },
  {
    "service_request": "2024-1064705",
    "request_type": "Trash/Recycling",
    "request_reason": "Request a Large Item Pick Up",
    "date_created": "2024-01-30T15:22:33.000",
    "date_modified": "2024-01-30T15:22:34.000",
    "request_status": "Pending",
    "responsible_agency": "Department of Sanitation",
    "final_address": "923 Delachaise St",
    "address_councildis": "B",
    "status": "Assigned to Contractor",
    "contractor": "Richards Disposal",
    "rowid": "1064705",
    "final_x": "3674922.96885",
    "final_y": "518988.207287",
    "longitude": "-90.08926787572791",
    "latitude": "29.92123540959581",
    "geocoded_column": {
      "latitude": "29.92123540959581",
      "longitude": "-90.08926787572791"
    }
  },
  {
    "service_request": "2024-1064704",
    "request_type": "Trash/Recycling",
    "request_reason": "Request a Large Item Pick Up",
    "date_created": "2024-01-30T15:19:23.000",
    "date_modified": "2024-01-30T15:19:24.000",
    "request_status": "Pending",
    "responsible_agency": "Department of Sanitation",
    "final_address": "2829 Burgundy St",
    "address_councildis": "C",
    "status": "Assigned to Contractor",
    "contractor": "IV Waste",
    "rowid": "1064704",
    "final_x": "3687759.79939",
    "final_y": "535498.875334",
    "longitude": "-90.04816326552141",
    "latitude": "29.96624466466092",
    "geocoded_column": {
      "latitude": "29.96624466466092",
      "longitude": "-90.04816326552141"
    }
  },
  {
    "service_request": "2024-1064703",
    "request_type": "Roads/Drainage",
    "request_reason": "Catch Basin - Clogged",
    "date_created": "2024-01-30T15:16:06.000",
    "date_modified": "2024-01-30T15:16:06.000",
    "request_status": "Pending",
    "responsible_agency": "Department of Public Works",
    "final_address": "0 BLK Blanc Pl",
    "address_councildis": "B",
    "status": "Pending",
    "rowid": "1064703",
    "final_x": "3667951.08401",
    "final_y": "520874.262829",
    "longitude": "-90.11121159835395",
    "latitude": "29.926627762655404",
    "geocoded_column": {
      "latitude": "29.926627762655404",
      "longitude": "-90.11121159835395"
    }
  },
  {
    "service_request": "2024-1064702",
    "request_type": "Traffic Signals/Signs/Striping/Streetlights",
    "request_reason": "Traffic Signal Malfunctioning/Damaged",
    "date_created": "2024-01-30T15:14:58.000",
    "date_modified": "2024-01-30T15:16:32.000",
    "request_status": "Pending",
    "responsible_agency": "Department of Public Works",
    "final_address": "CROWDER BLVD & I 10 W SERVICE RD",
    "address_councildis": "E",
    "status": "Pending",
    "rowid": "1064702",
    "final_x": "3704485.5",
    "final_y": "559297.68",
    "longitude": "-89.99446609013799",
    "latitude": "30.031156002202795",
    "geocoded_column": {
      "latitude": "30.031156002202795",
      "longitude": "-89.99446609013799"
    }
  },
  {
    "service_request": "2024-1064701",
    "request_type": "Roads/Drainage",
    "request_reason": "Catch Basin - Clogged",
    "date_created": "2024-01-30T15:14:12.000",
    "date_modified": "2024-01-30T15:14:12.000",
    "request_status": "Pending",
    "responsible_agency": "Department of Public Works",
    "final_address": "0 BLK Blanc Pl",
    "address_councildis": "B",
    "status": "Pending",
    "rowid": "1064701",
    "final_x": "3667951.08401",
    "final_y": "520874.262829",
    "longitude": "-90.11121159835395",
    "latitude": "29.926627762655404",
    "geocoded_column": {
      "latitude": "29.926627762655404",
      "longitude": "-90.11121159835395"
    }
  },
  {
    "service_request": "2024-1064700",
    "request_type": "Abandoned Vehicles",
    "request_reason": "Abandoned/Junk Vehicles",
    "date_created": "2024-01-30T15:13:54.000",
    "date_modified": "2024-01-30T15:13:54.000",
    "request_status": "Pending",
    "responsible_agency": "Department of Public Works",
    "final_address": "3214 Dryades St",
    "address_councildis": "B",
    "status": "Pending",
    "rowid": "1064700",
    "final_x": "3674306.26676",
    "final_y": "522653.871162",
    "longitude": "-90.09108908960116",
    "latitude": "29.931333200387133",
    "geocoded_column": {
      "latitude": "29.931333200387133",
      "longitude": "-90.09108908960116"
    }
  },
  {
    "service_request": "2024-1064699",
    "request_type": "Traffic Signals/Signs/Striping/Streetlights",
    "request_reason": "Traffic Signal Malfunctioning/Damaged",
    "date_created": "2024-01-30T15:13:51.000",
    "date_modified": "2024-01-30T15:13:52.000",
    "request_status": "Pending",
    "responsible_agency": "Department of Public Works",
    "final_address": "CROWDER BLVD & I 10 E SERVICE RD",
    "address_councildis": "E",
    "status": "Pending",
    "rowid": "1064699",
    "final_x": "3704930.5",
    "final_y": "558375.78",
    "longitude": "-89.9930939603255",
    "latitude": "30.02860683229059",
    "geocoded_column": {
      "latitude": "30.02860683229059",
      "longitude": "-89.9930939603255"
    }
  },
  {
    "service_request": "2024-1064698",
    "request_type": "Trash/Recycling",
    "request_reason": "Order Recycling Cart",
    "date_created": "2024-01-30T15:10:39.000",
    "date_modified": "2024-01-30T15:10:39.000",
    "request_status": "Pending",
    "responsible_agency": "Department of Sanitation",
    "final_address": "3300 Nashville Ave",
    "address_councildis": "A",
    "status": "Pending",
    "rowid": "1064698",
    "final_x": "3667890.3801",
    "final_y": "527864.099327",
    "longitude": "-90.1111678767513",
    "latitude": "29.94584935166562",
    "geocoded_column": {
      "latitude": "29.94584935166562",
      "longitude": "-90.1111678767513"
    }
  },
  {
    "service_request": "2024-1064697",
    "request_type": "Trash/Recycling",
    "request_reason": "Missed Trash Pick-Up",
    "date_created": "2024-01-30T15:08:30.000",
    "date_modified": "2024-01-30T15:08:31.000",
    "request_status": "Pending",
    "responsible_agency": "Department of Sanitation",
    "final_address": "7710 Crowder Blvd",
    "address_councildis": "E",
    "status": "Assigned to Contractor",
    "contractor": "Waste Pro",
    "rowid": "1064697",
    "final_x": "3703160.60151",
    "final_y": "562243.183263",
    "longitude": "-89.99854435796058",
    "latitude": "30.039297484659038",
    "geocoded_column": {
      "latitude": "30.039297484659038",
      "longitude": "-89.99854435796058"
    }
  },
  {
    "service_request": "2024-1064696",
    "request_type": "Trash/Recycling",
    "request_reason": "Order Recycling Cart",
    "date_created": "2024-01-30T15:07:13.000",
    "date_modified": "2024-01-30T15:07:14.000",
    "request_status": "Pending",
    "responsible_agency": "Department of Sanitation",
    "final_address": "858 Wilson Dr",
    "address_councildis": "A",
    "status": "Pending",
    "rowid": "1064696",
    "final_x": "3674103.8356",
    "final_y": "539662.749322",
    "longitude": "-90.09114604231854",
    "latitude": "29.9781079888994",
    "geocoded_column": {
      "latitude": "29.9781079888994",
      "longitude": "-90.09114604231854"
    }
  },
  {
    "service_request": "2024-1064695",
    "request_type": "Trash/Recycling",
    "request_reason": "Return Recycling Cart",
    "date_created": "2024-01-30T15:06:09.000",
    "date_modified": "2024-01-30T15:06:09.000",
    "request_status": "Pending",
    "responsible_agency": "Department of Sanitation",
    "final_address": "858 Wilson Dr",
    "address_councildis": "A",
    "status": "Pending",
    "rowid": "1064695",
    "final_x": "3674103.8356",
    "final_y": "539662.749322",
    "longitude": "-90.09114604231854",
    "latitude": "29.9781079888994",
    "geocoded_column": {
      "latitude": "29.9781079888994",
      "longitude": "-90.09114604231854"
    }
  },
  {
    "service_request": "2024-1064694",
    "request_type": "Trash/Recycling",
    "request_reason": "Replace Trash Cart",
    "date_created": "2024-01-30T15:05:07.000",
    "date_modified": "2024-01-30T15:05:08.000",
    "request_status": "Pending",
    "responsible_agency": "Department of Sanitation",
    "final_address": "2517 Jena St",
    "address_councildis": "B",
    "status": "Assigned to Contractor",
    "contractor": "Richards Disposal",
    "rowid": "1064694",
    "final_x": "3670169.05786",
    "final_y": "524136.50918",
    "longitude": "-90.10409956700275",
    "latitude": "29.93553266068675",
    "geocoded_column": {
      "latitude": "29.93553266068675",
      "longitude": "-90.10409956700275"
    }
  },
  {
    "service_request": "2024-1064693",
    "request_type": "Trash/Recycling",
    "request_reason": "Request a Large Item Pick Up",
    "date_created": "2024-01-30T15:05:06.000",
    "date_modified": "2024-01-30T15:05:07.000",
    "request_status": "Pending",
    "responsible_agency": "Department of Sanitation",
    "final_address": "3120 Frenchmen St",
    "address_councildis": "D",
    "status": "Assigned to Contractor",
    "contractor": "IV Waste",
    "rowid": "1064693",
    "final_x": "3683914.76028",
    "final_y": "544195.771022",
    "longitude": "-90.0600005998907",
    "latitude": "29.99027610403387",
    "geocoded_column": {
      "latitude": "29.99027610403387",
      "longitude": "-90.0600005998907"
    }
  },
  {
    "service_request": "2024-1064692",
    "request_type": "Trash/Recycling",
    "request_reason": "Missed Trash Pick-Up",
    "date_created": "2024-01-30T15:05:00.000",
    "date_modified": "2024-01-30T15:05:34.000",
    "request_status": "Pending",
    "responsible_agency": "Department of Sanitation",
    "final_address": "725 St James St",
    "address_councildis": "B",
    "status": "Assigned to Contractor",
    "contractor": "Richards Disposal",
    "rowid": "1064692",
    "final_x": "3681137.01122",
    "final_y": "522120.590458",
    "longitude": "-90.06954385976285",
    "latitude": "29.92966146145437",
    "geocoded_column": {
      "latitude": "29.92966146145437",
      "longitude": "-90.06954385976285"
    }
  },
  {
    "service_request": "2024-1064691",
    "request_type": "Trash/Recycling",
    "request_reason": "Request a Large Item Pick Up",
    "date_created": "2024-01-30T15:04:55.000",
    "date_modified": "2024-01-30T15:04:55.000",
    "request_status": "Pending",
    "responsible_agency": "Department of Sanitation",
    "final_address": "3011 Sullen Pl",
    "address_councildis": "C",
    "status": "Assigned to Contractor",
    "contractor": "Richards Disposal",
    "rowid": "1064691",
    "final_x": "3707785.08331",
    "final_y": "519617.937592",
    "longitude": "-89.98551429608008",
    "latitude": "29.921944987773887",
    "geocoded_column": {
      "latitude": "29.921944987773887",
      "longitude": "-89.98551429608008"
    }
  },
  {
    "service_request": "2024-1064690",
    "request_type": "Property Maintenance",
    "request_reason": "Property Maintenance",
    "date_created": "2024-01-30T15:02:13.000",
    "date_modified": "2024-01-30T15:22:47.000",
    "case_close_date": "2024-01-30T09:22:47.000",
    "request_status": "Closed",
    "responsible_agency": "Department of Code Enforcement",
    "final_address": "6900 BLK Martin Dr",
    "address_councildis": "E",
    "status": "Resolved",
    "rowid": "1064690",
    "final_x": "3699142.18403",
    "final_y": "557729.693711",
    "longitude": "-90.01140821813023",
    "latitude": "30.027015231926207",
    "geocoded_column": {
      "latitude": "30.027015231926207",
      "longitude": "-90.01140821813023"
    }
  },
  {
    "service_request": "2024-1064689",
    "request_type": "Trash/Recycling",
    "request_reason": "Repair Trash Cart",
    "date_created": "2024-01-30T15:00:37.000",
    "date_modified": "2024-01-30T15:00:38.000",
    "request_status": "Pending",
    "responsible_agency": "Department of Sanitation",
    "final_address": "2720 Republic St",
    "address_councildis": "D",
    "status": "Assigned to Contractor",
    "contractor": "IV Waste",
    "rowid": "1064689",
    "final_x": "3680670.33179",
    "final_y": "542501.596621",
    "longitude": "-90.07030789148311",
    "latitude": "29.985716457050046",
    "geocoded_column": {
      "latitude": "29.985716457050046",
      "longitude": "-90.07030789148311"
    }
  },
  {
    "service_request": "2024-1064688",
    "request_type": "Property Maintenance",
    "request_reason": "Property Maintenance",
    "date_created": "2024-01-30T14:59:33.000",
    "date_modified": "2024-01-30T14:59:33.000",
    "request_status": "Pending",
    "responsible_agency": "Department of Code Enforcement",
    "final_address": "KENSINGTON BLVD & LAKE FOREST BLVD",
    "address_councildis": "E",
    "status": "Pending",
    "rowid": "1064688",
    "final_x": "3713721.0",
    "final_y": "560175.88",
    "longitude": "-89.96524876470474",
    "latitude": "30.033270747835203",
    "geocoded_column": {
      "latitude": "30.033270747835203",
      "longitude": "-89.96524876470474"
    }
  },
  {
    "service_request": "2024-1064687",
    "request_type": "Traffic Signals/Signs/Striping/Streetlights",
    "request_reason": "Street Light Outage/Malfunction",
    "date_created": "2024-01-30T14:52:21.000",
    "date_modified": "2024-01-30T14:52:21.000",
    "request_status": "Pending",
    "responsible_agency": "Department of Public Works",
    "final_address": "2400 BLK Rev. John Raphael, Jr. Way",
    "address_councildis": "B",
    "status": "Assigned to Contractor",
    "contractor": "Legacy Professional Services",
    "rowid": "1064687",
    "final_x": "3675230.62129",
    "final_y": "525539.776792",
    "longitude": "-90.08807200458968",
    "latitude": "29.939240911697276",
    "geocoded_column": {
      "latitude": "29.939240911697276",
      "longitude": "-90.08807200458968"
    }
  },
  {
    "service_request": "2024-1064686",
    "request_type": "Trash/Recycling",
    "request_reason": "Repair Trash Cart",
    "date_created": "2024-01-30T14:50:12.000",
    "date_modified": "2024-01-30T14:50:12.000",
    "request_status": "Pending",
    "responsible_agency": "Department of Sanitation",
    "final_address": "3514 Clematis St",
    "address_councildis": "D",
    "status": "Assigned to Contractor",
    "contractor": "IV Waste",
    "rowid": "1064686",
    "final_x": "3686476.5823",
    "final_y": "545799.48424",
    "longitude": "-90.05185183248554",
    "latitude": "29.99460721381391",
    "geocoded_column": {
      "latitude": "29.99460721381391",
      "longitude": "-90.05185183248554"
    }
  },
  {
    "service_request": "2024-1064684",
    "request_type": "Trash/Recycling",
    "request_reason": "Request a Large Item Pick Up",
    "date_created": "2024-01-30T14:48:31.000",
    "date_modified": "2024-01-30T14:48:32.000",
    "request_status": "Pending",
    "responsible_agency": "Department of Sanitation",
    "final_address": "4922 Nottingham Dr",
    "address_councildis": "E",
    "status": "Assigned to Contractor",
    "contractor": "Waste Pro",
    "rowid": "1064684",
    "final_x": "3716235.92927",
    "final_y": "557703.600027",
    "longitude": "-89.95739523803537",
    "latitude": "30.02639016428215",
    "geocoded_column": {
      "latitude": "30.02639016428215",
      "longitude": "-89.95739523803537"
    }
  },
  {
    "service_request": "2024-1064683",
    "request_type": "Roads/Drainage",
    "request_reason": "Damaged Sidewalk",
    "date_created": "2024-01-30T14:45:23.000",
    "date_modified": "2024-01-30T14:45:24.000",
    "request_status": "Pending",
    "responsible_agency": "Department of Public Works",
    "final_address": "21 Wren St",
    "address_councildis": "D",
    "status": "Pending",
    "rowid": "1064683",
    "final_x": "3672308.60123",
    "final_y": "555858.147289",
    "longitude": "-90.09626380849986",
    "latitude": "30.02269306247868",
    "geocoded_column": {
      "latitude": "30.02269306247868",
      "longitude": "-90.09626380849986"
    }
  },
  {
    "service_request": "2024-1064682",
    "request_type": "Parks & Parkways",
    "request_reason": "Request Tree Service (Right of Way/Public Property)",
    "date_created": "2024-01-30T14:44:32.000",
    "date_modified": "2024-01-30T14:44:33.000",
    "request_status": "Pending",
    "responsible_agency": "Department of Parks & Parkway",
    "final_address": "21 Wren St",
    "address_councildis": "D",
    "status": "Pending",
    "rowid": "1064682",
    "final_x": "3672308.60123",
    "final_y": "555858.147289",
    "longitude": "-90.09626380849986",
    "latitude": "30.02269306247868",
    "geocoded_column": {
      "latitude": "30.02269306247868",
      "longitude": "-90.09626380849986"
    }
  },
  {
    "service_request": "2024-1064681",
    "request_type": "Trash/Recycling",
    "request_reason": "Request a Large Item Pick Up",
    "date_created": "2024-01-30T14:33:53.000",
    "date_modified": "2024-01-30T14:33:54.000",
    "request_status": "Pending",
    "responsible_agency": "Department of Sanitation",
    "final_address": "726 S Lopez St",
    "address_councildis": "B",
    "status": "Assigned to Contractor",
    "contractor": "Richards Disposal",
    "rowid": "1064681",
    "final_x": "3672238.19495",
    "final_y": "533998.336005",
    "longitude": "-90.0972314063837",
    "latitude": "29.962588242640226",
    "geocoded_column": {
      "latitude": "29.962588242640226",
      "longitude": "-90.0972314063837"
    }
  },
  {
    "service_request": "2024-1064680",
    "request_type": "Traffic Signals/Signs/Striping/Streetlights",
    "request_reason": "Street Light Outage/Malfunction",
    "date_created": "2024-01-30T14:29:20.000",
    "date_modified": "2024-01-30T14:29:21.000",
    "request_status": "Pending",
    "responsible_agency": "Department of Public Works",
    "final_address": "147 22Nd St",
    "address_councildis": "A",
    "status": "Assigned to Contractor",
    "contractor": "Legacy Professional Services",
    "rowid": "1064680",
    "final_x": "3665836.55776",
    "final_y": "549336.617171",
    "longitude": "-90.1169327982153",
    "latitude": "30.00495167583772",
    "geocoded_column": {
      "latitude": "30.00495167583772",
      "longitude": "-90.1169327982153"
    }
  },
  {
    "service_request": "2024-1064679",
    "request_type": "Roads/Drainage",
    "request_reason": "Street Subsidence (Sinking)",
    "date_created": "2024-01-30T14:27:32.000",
    "date_modified": "2024-01-30T14:27:32.000",
    "request_status": "Pending",
    "responsible_agency": "Department of Public Works",
    "final_address": "8724 Birch St",
    "address_councildis": "A",
    "status": "Pending",
    "rowid": "1064679",
    "final_x": "3661181.19648",
    "final_y": "530936.727298",
    "longitude": "-90.13224943733887",
    "latitude": "29.954493157255364",
    "geocoded_column": {
      "latitude": "29.954493157255364",
      "longitude": "-90.13224943733887"
    }
  },
  {
    "service_request": "2024-1064678",
    "request_type": "Traffic Signals/Signs/Striping/Streetlights",
    "request_reason": "Request for Traffic Calming due to Speeding",
    "date_created": "2024-01-30T14:26:31.000",
    "date_modified": "2024-01-30T14:26:31.000",
    "request_status": "Pending",
    "responsible_agency": "Department of Public Works",
    "final_address": "7620 Dune Dr",
    "address_councildis": "E",
    "status": "Pending",
    "rowid": "1064678",
    "final_x": "3715325.05675",
    "final_y": "568984.27671",
    "longitude": "-89.95984618436027",
    "latitude": "30.05743750076838",
    "geocoded_column": {
      "latitude": "30.05743750076838",
      "longitude": "-89.95984618436027"
    }
  },
  {
    "service_request": "2024-1064677",
    "request_type": "Roads/Drainage",
    "request_reason": "Pothole",
    "date_created": "2024-01-30T14:26:11.000",
    "date_modified": "2024-01-30T14:26:11.000",
    "request_status": "Pending",
    "responsible_agency": "Department of Public Works",
    "final_address": "KABEL DR & MACARTHUR BLVD",
    "address_councildis": "C",
    "status": "Pending",
    "rowid": "1064677",
    "final_x": "3700629.8",
    "final_y": "520202.08",
    "longitude": "-90.00807903465346",
    "latitude": "29.92378066696838",
    "geocoded_column": {
      "latitude": "29.92378066696838",
      "longitude": "-90.00807903465346"
    }
  },
  {
    "service_request": "2024-1064676",
    "request_type": "Trash/Recycling",
    "request_reason": "Order Trash Cart",
    "date_created": "2024-01-30T14:25:17.000",
    "date_modified": "2024-01-30T14:25:17.000",
    "request_status": "Pending",
    "responsible_agency": "Department of Sanitation",
    "final_address": "733 Henry Clay Ave",
    "address_councildis": "A",
    "status": "Assigned to Contractor",
    "contractor": "Richards Disposal",
    "rowid": "1064676",
    "final_x": "3663803.85927",
    "final_y": "519475.788407",
    "longitude": "-90.12434989233037",
    "latitude": "29.92290337150189",
    "geocoded_column": {
      "latitude": "29.92290337150189",
      "longitude": "-90.12434989233037"
    }
  },
  {
    "service_request": "2024-1064675",
    "request_type": "Trash/Recycling",
    "request_reason": "Repair Trash Cart",
    "date_created": "2024-01-30T14:23:17.000",
    "date_modified": "2024-01-30T14:23:18.000",
    "request_status": "Pending",
    "responsible_agency": "Department of Sanitation",
    "final_address": "4425 Banks St",
    "address_councildis": "A",
    "status": "Assigned to Contractor",
    "contractor": "Richards Disposal",
    "rowid": "1064675",
    "final_x": "3669149.92314",
    "final_y": "538388.804745",
    "longitude": "-90.10683537432686",
    "latitude": "29.974751809908163",
    "geocoded_column": {
      "latitude": "29.974751809908163",
      "longitude": "-90.10683537432686"
    }
  },
  {
    "service_request": "2024-1064674",
    "request_type": "Roads/Drainage",
    "request_reason": "Catch Basin - Clogged",
    "date_created": "2024-01-30T14:22:53.000",
    "date_modified": "2024-01-30T14:22:53.000",
    "request_status": "Pending",
    "responsible_agency": "Department of Public Works",
    "final_address": "2747 Orleans Ave",
    "address_councildis": "A",
    "status": "Pending",
    "rowid": "1064674",
    "final_x": "3676476.43041",
    "final_y": "537320.756424",
    "longitude": "-90.08373320469268",
    "latitude": "29.971597373502764",
    "geocoded_column": {
      "latitude": "29.971597373502764",
      "longitude": "-90.08373320469268"
    }
  },
  {
    "service_request": "2024-1064673",
    "request_type": "Parks & Parkways",
    "request_reason": "Tree Stump (removal, grind)",
    "date_created": "2024-01-30T14:22:42.000",
    "date_modified": "2024-01-30T14:22:42.000",
    "request_status": "Pending",
    "responsible_agency": "Department of Parks & Parkway",
    "final_address": "4300 BLK Mandeville St",
    "address_councildis": "D",
    "status": "Pending",
    "rowid": "1064673",
    "final_x": "3684844.66505",
    "final_y": "548621.674198",
    "longitude": "-90.05690754156578",
    "latitude": "30.002417305351297",
    "geocoded_column": {
      "latitude": "30.002417305351297",
      "longitude": "-90.05690754156578"
    }
  },
  {
    "service_request": "2024-1064672",
    "request_type": "Trash/Recycling",
    "request_reason": "Order Recycling Cart",
    "date_created": "2024-01-30T14:21:49.000",
    "date_modified": "2024-01-30T14:21:49.000",
    "request_status": "Pending",
    "responsible_agency": "Department of Sanitation",
    "final_address": "7811 Trapier Ave",
    "address_councildis": "E",
    "status": "Pending",
    "rowid": "1064672",
    "final_x": "3706370.94903",
    "final_y": "564095.981409",
    "longitude": "-89.98833007212848",
    "latitude": "30.044288725203383",
    "geocoded_column": {
      "latitude": "30.044288725203383",
      "longitude": "-89.98833007212848"
    }
  },
  {
    "service_request": "2024-1064671",
    "request_type": "Trash/Recycling",
    "request_reason": "Repair Trash Cart",
    "date_created": "2024-01-30T14:20:04.000",
    "date_modified": "2024-01-30T14:20:05.000",
    "request_status": "Pending",
    "responsible_agency": "Department of Sanitation",
    "final_address": "2411 Clover St",
    "address_councildis": "D",
    "status": "Assigned to Contractor",
    "contractor": "IV Waste",
    "rowid": "1064671",
    "final_x": "3686167.29231",
    "final_y": "546634.932049",
    "longitude": "-90.0527993467346",
    "latitude": "29.996913902729517",
    "geocoded_column": {
      "latitude": "29.996913902729517",
      "longitude": "-90.0527993467346"
    }
  },
  {
    "service_request": "2024-1064670",
    "request_type": "Roads/Drainage",
    "request_reason": "Damaged Sidewalk",
    "date_created": "2024-01-30T14:19:24.000",
    "date_modified": "2024-01-30T14:19:24.000",
    "request_status": "Pending",
    "responsible_agency": "Department of Public Works",
    "final_address": "1732 Washington Ave",
    "address_councildis": "B",
    "status": "Pending",
    "rowid": "1064670",
    "final_x": "3675528.35489",
    "final_y": "523040.955259",
    "longitude": "-90.08721781603897",
    "latitude": "29.932361068561914",
    "geocoded_column": {
      "latitude": "29.932361068561914",
      "longitude": "-90.08721781603897"
    }
  },
  {
    "service_request": "2024-1064669",
    "request_type": "Trash/Recycling",
    "request_reason": "Dead Animal Pick Up",
    "date_created": "2024-01-30T14:19:11.000",
    "date_modified": "2024-01-30T14:19:12.000",
    "request_status": "Pending",
    "responsible_agency": "Department of Sanitation",
    "final_address": "9300 BLK Interstate 10 Service Rd S",
    "address_councildis": "E",
    "status": "Assigned to Contractor",
    "contractor": "Waste Pro",
    "rowid": "1064669",
    "final_x": "3707935.59656",
    "final_y": "560254.739514",
    "longitude": "-89.98352813339633",
    "latitude": "30.03367624210803",
    "geocoded_column": {
      "latitude": "30.03367624210803",
      "longitude": "-89.98352813339633"
    }
  },
  {
    "service_request": "2024-1064668",
    "request_type": "Trash/Recycling",
    "request_reason": "Order Trash Cart",
    "date_created": "2024-01-30T14:18:22.000",
    "date_modified": "2024-01-30T14:18:23.000",
    "request_status": "Pending",
    "responsible_agency": "Department of Sanitation",
    "final_address": "1433 Pauline St",
    "address_councildis": "D",
    "status": "Assigned to Contractor",
    "contractor": "IV Waste",
    "rowid": "1064668",
    "final_x": "3691591.00476",
    "final_y": "536826.825416",
    "longitude": "-90.03601696131605",
    "latitude": "29.96977734867243",
    "geocoded_column": {
      "latitude": "29.96977734867243",
      "longitude": "-90.03601696131605"
    }
  },
  {
    "service_request": "2024-1064667",
    "request_type": "Trash/Recycling",
    "request_reason": "Repair Trash Cart",
    "date_created": "2024-01-30T14:17:40.000",
    "date_modified": "2024-01-30T14:17:40.000",
    "request_status": "Pending",
    "responsible_agency": "Department of Sanitation",
    "final_address": "7710 Plum St",
    "address_councildis": "A",
    "status": "Assigned to Contractor",
    "contractor": "Richards Disposal",
    "rowid": "1064667",
    "final_x": "3663192.16071",
    "final_y": "527678.733503",
    "longitude": "-90.12600796504614",
    "latitude": "29.945476609480604",
    "geocoded_column": {
      "latitude": "29.945476609480604",
      "longitude": "-90.12600796504614"
    }
  },
  {
    "service_request": "2024-1064666",
    "request_type": "Roads/Drainage",
    "request_reason": "Damaged Sidewalk",
    "date_created": "2024-01-30T14:16:29.000",
    "date_modified": "2024-01-30T14:16:29.000",
    "request_status": "Pending",
    "responsible_agency": "Department of Public Works",
    "final_address": "1718 Washington Ave",
    "address_councildis": "B",
    "status": "Pending",
    "rowid": "1064666",
    "final_x": "3675530.35355",
    "final_y": "522933.117435",
    "longitude": "-90.08721520871757",
    "latitude": "29.932064489873536",
    "geocoded_column": {
      "latitude": "29.932064489873536",
      "longitude": "-90.08721520871757"
    }
  },
  {
    "service_request": "2024-1064665",
    "request_type": "Property Maintenance",
    "request_reason": "Property Maintenance",
    "date_created": "2024-01-30T14:16:10.000",
    "date_modified": "2024-01-30T16:03:46.000",
    "case_close_date": "2024-01-30T10:03:46.000",
    "request_status": "Closed",
    "responsible_agency": "Department of Code Enforcement",
    "final_address": "505 Third St",
    "address_councildis": "B",
    "status": "Resolved",
    "rowid": "1064665",
    "final_x": "3678792.10574",
    "final_y": "519375.752631",
    "longitude": "-90.07704131371396",
    "latitude": "29.922184957913103",
    "geocoded_column": {
      "latitude": "29.922184957913103",
      "longitude": "-90.07704131371396"
    }
  },
  {
    "service_request": "2024-1064664",
    "request_type": "Trash/Recycling",
    "request_reason": "Request a Large Item Pick Up",
    "date_created": "2024-01-30T14:12:40.000",
    "date_modified": "2024-01-30T14:12:40.000",
    "request_status": "Pending",
    "responsible_agency": "Department of Sanitation",
    "final_address": "1718 Short St",
    "address_councildis": "A",
    "status": "Assigned to Contractor",
    "contractor": "Richards Disposal",
    "rowid": "1064664",
    "final_x": "3663557.86823",
    "final_y": "529508.914753",
    "longitude": "-90.12479235614776",
    "latitude": "29.950498419017233",
    "geocoded_column": {
      "latitude": "29.950498419017233",
      "longitude": "-90.12479235614776"
    }
  },
  {
    "service_request": "2024-1064663",
    "request_type": "Abandoned Vehicles",
    "request_reason": "Abandoned/Junk Vehicles",
    "date_created": "2024-01-30T14:11:21.000",
    "date_modified": "2024-01-30T14:11:21.000",
    "request_status": "Pending",
    "responsible_agency": "Department of Public Works",
    "final_address": "LAKE FOREST EXIT & I 510 S ONRAMP & LAKE FOREST BLVD",
    "address_councildis": "E",
    "status": "Pending",
    "rowid": "1064663",
    "final_x": "3721595.35",
    "final_y": "563574.41",
    "longitude": "-89.94023477522641",
    "latitude": "30.042354456105457",
    "geocoded_column": {
      "latitude": "30.042354456105457",
      "longitude": "-89.94023477522641"
    }
  },
  {
    "service_request": "2024-1064662",
    "request_type": "Trash/Recycling",
    "request_reason": "Replace Recycling Cart",
    "date_created": "2024-01-30T14:10:38.000",
    "date_modified": "2024-01-30T14:10:39.000",
    "request_status": "Pending",
    "responsible_agency": "Department of Sanitation",
    "final_address": "4112 S Derbigny St",
    "address_councildis": "B",
    "status": "Pending",
    "rowid": "1064662",
    "final_x": "3671253.8619",
    "final_y": "526307.35923",
    "longitude": "-90.10060109236817",
    "latitude": "29.9414697504494",
    "geocoded_column": {
      "latitude": "29.9414697504494",
      "longitude": "-90.10060109236817"
    }
  },
  {
    "service_request": "2024-1064661",
    "request_type": "Trash/Recycling",
    "request_reason": "Replace Trash Cart",
    "date_created": "2024-01-30T14:10:33.000",
    "date_modified": "2024-01-30T14:10:33.000",
    "request_status": "Pending",
    "responsible_agency": "Department of Sanitation",
    "final_address": "3560 Rue Nichole",
    "address_councildis": "C",
    "status": "Assigned to Contractor",
    "contractor": "Richards Disposal",
    "rowid": "1064661",
    "final_x": "3704058.7059",
    "final_y": "517432.460918",
    "longitude": "-89.99735724187994",
    "latitude": "29.916055679406043",
    "geocoded_column": {
      "latitude": "29.916055679406043",
      "longitude": "-89.99735724187994"
    }
  },
  {
    "service_request": "2024-1064660",
    "request_type": "Trash/Recycling",
    "request_reason": "Request a Large Item Pick Up",
    "date_created": "2024-01-30T14:08:55.000",
    "date_modified": "2024-01-30T14:08:55.000",
    "request_status": "Pending",
    "responsible_agency": "Department of Sanitation",
    "final_address": "5649 General Haig St",
    "address_councildis": "A",
    "status": "Assigned to Contractor",
    "contractor": "IV Waste",
    "rowid": "1064660",
    "final_x": "3670443.96955",
    "final_y": "544772.274959",
    "longitude": "-90.10253188788646",
    "latitude": "29.992266026128608",
    "geocoded_column": {
      "latitude": "29.992266026128608",
      "longitude": "-90.10253188788646"
    }
  },
  {
    "service_request": "2024-1064659",
    "request_type": "Traffic Signals/Signs/Striping/Streetlights",
    "request_reason": "Street Light Outage/Malfunction",
    "date_created": "2024-01-30T14:07:26.000",
    "date_modified": "2024-01-30T14:07:27.000",
    "request_status": "Pending",
    "responsible_agency": "Department of Public Works",
    "final_address": "8720 Scottsdale Dr",
    "address_councildis": "E",
    "status": "Assigned to Contractor",
    "contractor": "Legacy Professional Services",
    "rowid": "1064659",
    "final_x": "3704978.56011",
    "final_y": "561763.864991",
    "longitude": "-89.99281684252745",
    "latitude": "30.037921193191345",
    "geocoded_column": {
      "latitude": "30.037921193191345",
      "longitude": "-89.99281684252745"
    }
  },
  {
    "service_request": "2024-1064658",
    "request_type": "Roads/Drainage",
    "request_reason": "Catch Basin - Clogged",
    "date_created": "2024-01-30T14:07:22.000",
    "date_modified": "2024-01-30T14:07:23.000",
    "request_status": "Pending",
    "responsible_agency": "Department of Public Works",
    "final_address": "4100 BLK dHemecourt St",
    "address_councildis": "A",
    "status": "Pending",
    "rowid": "1064658",
    "final_x": "3669573.30583",
    "final_y": "537010.882459",
    "longitude": "-90.10554485297794",
    "latitude": "29.970950518797256",
    "geocoded_column": {
      "latitude": "29.970950518797256",
      "longitude": "-90.10554485297794"
    }
  },
  {
    "service_request": "2024-1064657",
    "request_type": "Parks & Parkways",
    "request_reason": "Request Tree Service (Right of Way/Public Property)",
    "date_created": "2024-01-30T14:06:13.000",
    "date_modified": "2024-01-30T14:06:13.000",
    "request_status": "Pending",
    "responsible_agency": "Department of Parks & Parkway",
    "final_address": "2533 Dryades St",
    "address_councildis": "B",
    "status": "Pending",
    "rowid": "1064657",
    "final_x": "3675860.05531",
    "final_y": "523838.605435",
    "longitude": "-90.08614325889647",
    "latitude": "29.934544423377552",
    "geocoded_column": {
      "latitude": "29.934544423377552",
      "longitude": "-90.08614325889647"
    }
  },
  {
    "service_request": "2024-1064655",
    "request_type": "Abandoned Vehicles",
    "request_reason": "Abandoned/Junk Vehicles",
    "date_created": "2024-01-30T14:03:14.000",
    "date_modified": "2024-01-30T14:03:14.000",
    "request_status": "Pending",
    "responsible_agency": "Department of Public Works",
    "final_address": "1760 Moss St, New Orleans, Louisiana, 70119",
    "address_councildis": "A",
    "status": "Pending",
    "rowid": "1064655",
    "final_x": "3675326.68654",
    "final_y": "542926.638925",
    "longitude": "-90.08717172915334",
    "latitude": "29.987046052348358",
    "geocoded_column": {
      "latitude": "29.987046052348358",
      "longitude": "-90.08717172915334"
    }
  },
  {
    "service_request": "2024-1064654",
    "request_type": "Trash/Recycling",
    "request_reason": "Request a Large Item Pick Up",
    "date_created": "2024-01-30T14:02:09.000",
    "date_modified": "2024-01-30T14:02:09.000",
    "request_status": "Pending",
    "responsible_agency": "Department of Sanitation",
    "final_address": "1524 St Mary St",
    "address_councildis": "B",
    "status": "Assigned to Contractor",
    "contractor": "Richards Disposal",
    "rowid": "1064654",
    "final_x": "3678520.29608",
    "final_y": "524047.648188",
    "longitude": "-90.07773770634712",
    "latitude": "29.935039336339152",
    "geocoded_column": {
      "latitude": "29.935039336339152",
      "longitude": "-90.07773770634712"
    }
  },
  {
    "service_request": "2024-1064653",
    "request_type": "Abandoned Vehicles",
    "request_reason": "Abandoned/Junk Vehicles",
    "date_created": "2024-01-30T14:01:57.000",
    "date_modified": "2024-01-30T14:01:57.000",
    "request_status": "Pending",
    "responsible_agency": "Department of Public Works",
    "final_address": "1760 Moss St, New Orleans, Louisiana, 70119",
    "address_councildis": "A",
    "status": "Pending",
    "rowid": "1064653",
    "final_x": "3675326.68654",
    "final_y": "542926.638925",
    "longitude": "-90.08717172915334",
    "latitude": "29.987046052348358",
    "geocoded_column": {
      "latitude": "29.987046052348358",
      "longitude": "-90.08717172915334"
    }
  },
  {
    "service_request": "2024-1064652",
    "request_type": "Property Maintenance",
    "request_reason": "Property Maintenance",
    "date_created": "2024-01-30T14:01:42.000",
    "date_modified": "2024-01-30T14:01:42.000",
    "request_status": "Pending",
    "responsible_agency": "Department of Code Enforcement",
    "final_address": "6870 Louis Xiv St",
    "address_councildis": "A",
    "status": "Pending",
    "rowid": "1064652",
    "final_x": "3668523.34631",
    "final_y": "553302.382615",
    "longitude": "-90.10831070934772",
    "latitude": "30.015777440016812",
    "geocoded_column": {
      "latitude": "30.015777440016812",
      "longitude": "-90.10831070934772"
    }
  },
  {
    "service_request": "2024-1064651",
    "request_type": "Trash/Recycling",
    "request_reason": "Request a Large Item Pick Up",
    "date_created": "2024-01-30T14:00:17.000",
    "date_modified": "2024-01-30T14:00:18.000",
    "request_status": "Pending",
    "responsible_agency": "Department of Sanitation",
    "final_address": "5300 Stillwater Dr",
    "address_councildis": "E",
    "status": "Assigned to Contractor",
    "contractor": "Waste Pro",
    "rowid": "1064651",
    "final_x": "3717208.99288",
    "final_y": "559741.413789",
    "longitude": "-89.95424300620195",
    "latitude": "30.031961170962315",
    "geocoded_column": {
      "latitude": "30.031961170962315",
      "longitude": "-89.95424300620195"
    }
  },
  {
    "service_request": "2024-1064650",
    "request_type": "Trash/Recycling",
    "request_reason": "Request a Large Item Pick Up",
    "date_created": "2024-01-30T14:00:05.000",
    "date_modified": "2024-01-30T14:00:05.000",
    "request_status": "Pending",
    "responsible_agency": "Department of Sanitation",
    "final_address": "4239 Vincennes Pl",
    "address_councildis": "B",
    "status": "Assigned to Contractor",
    "contractor": "Richards Disposal",
    "rowid": "1064650",
    "final_x": "3668859.62663",
    "final_y": "531565.533059",
    "longitude": "-90.10798265543059",
    "latitude": "29.955998622424612",
    "geocoded_column": {
      "latitude": "29.955998622424612",
      "longitude": "-90.10798265543059"
    }
  },
  {
    "service_request": "2024-1064649",
    "request_type": "Trash/Recycling",
    "request_reason": "Dead Animal Pick Up",
    "date_created": "2024-01-30T13:59:55.000",
    "date_modified": "2024-01-30T13:59:56.000",
    "request_status": "Pending",
    "responsible_agency": "Department of Sanitation",
    "final_address": "HICKORY ST & ADAMS ST",
    "address_councildis": "A",
    "status": "Assigned to Contractor",
    "contractor": "Richards Disposal",
    "rowid": "1064649",
    "final_x": "3664470.4",
    "final_y": "528938.38",
    "longitude": "-90.1219300864036",
    "latitude": "29.9489031365215",
    "geocoded_column": {
      "latitude": "29.9489031365215",
      "longitude": "-90.1219300864036"
    }
  },
  {
    "service_request": "2024-1064648",
    "request_type": "Trash/Recycling",
    "request_reason": "Repair Trash Cart",
    "date_created": "2024-01-30T13:58:11.000",
    "date_modified": "2024-01-30T13:58:12.000",
    "request_status": "Pending",
    "responsible_agency": "Department of Sanitation",
    "final_address": "2529 Dryades St",
    "address_councildis": "B",
    "status": "Assigned to Contractor",
    "contractor": "Richards Disposal",
    "rowid": "1064648",
    "final_x": "3675878.346",
    "final_y": "523849.113915",
    "longitude": "-90.08608515443821",
    "latitude": "29.9345727708347",
    "geocoded_column": {
      "latitude": "29.9345727708347",
      "longitude": "-90.08608515443821"
    }
  },
  {
    "service_request": "2024-1064647",
    "request_type": "Trash/Recycling",
    "request_reason": "Order Trash Cart",
    "date_created": "2024-01-30T13:56:36.000",
    "date_modified": "2024-01-30T13:56:36.000",
    "request_status": "Pending",
    "responsible_agency": "Department of Sanitation",
    "final_address": "2425 Rex Pl",
    "address_councildis": "B",
    "status": "Assigned to Contractor",
    "contractor": "Richards Disposal",
    "rowid": "1064647",
    "final_x": "3673671.22548",
    "final_y": "527756.902271",
    "longitude": "-90.09291944646854",
    "latitude": "29.94538378690762",
    "geocoded_column": {
      "latitude": "29.94538378690762",
      "longitude": "-90.09291944646854"
    }
  },
  {
    "service_request": "2024-1064646",
    "request_type": "Roads/Drainage",
    "request_reason": "Catch Basin - Clogged",
    "date_created": "2024-01-30T13:52:50.000",
    "date_modified": "2024-01-30T13:52:51.000",
    "request_status": "Pending",
    "responsible_agency": "Department of Public Works",
    "final_address": "5534 Willow St Apt A",
    "address_councildis": "A",
    "status": "Pending",
    "rowid": "1064646",
    "final_x": "3667601.70605",
    "final_y": "525390.607485",
    "longitude": "-90.11216255126764",
    "latitude": "29.939056510528175",
    "geocoded_column": {
      "latitude": "29.939056510528175",
      "longitude": "-90.11216255126764"
    }
  },
  {
    "service_request": "2024-1064645",
    "request_type": "Roads/Drainage",
    "request_reason": "Damaged Sidewalk",
    "date_created": "2024-01-30T13:52:38.000",
    "date_modified": "2024-01-30T13:52:38.000",
    "request_status": "Pending",
    "responsible_agency": "Department of Public Works",
    "final_address": "1810 Moss St",
    "address_councildis": "A",
    "status": "Pending",
    "rowid": "1064645",
    "final_x": "3675364.91233",
    "final_y": "543036.295885",
    "longitude": "-90.08704722026397",
    "latitude": "29.987346427830513",
    "geocoded_column": {
      "latitude": "29.987346427830513",
      "longitude": "-90.08704722026397"
    }
  },
  {
    "service_request": "2024-1064644",
    "request_type": "Traffic Signals/Signs/Striping/Streetlights",
    "request_reason": "Street Light Outage/Malfunction",
    "date_created": "2024-01-30T13:51:49.000",
    "date_modified": "2024-01-30T13:51:49.000",
    "request_status": "Pending",
    "responsible_agency": "Department of Public Works",
    "final_address": "2300 BLK Carnot St",
    "address_councildis": "D",
    "status": "Assigned to Contractor",
    "contractor": "Legacy Professional Services",
    "rowid": "1064644",
    "final_x": "3685163.6421",
    "final_y": "550160.607472",
    "longitude": "-90.05584565249377",
    "latitude": "30.006639040676035",
    "geocoded_column": {
      "latitude": "30.006639040676035",
      "longitude": "-90.05584565249377"
    }
  },