[
  {
    "service_request": "2023-1009121",
    "request_type": "Property Maintenance",
    "request_reason": "Property Maintenance",
    "date_created": "2023-06-16T01:12:04.000",
    "date_modified": "2023-06-16T01:12:04.000",
    "request_status": "Pending",
    "responsible_agency": "Department of Code Enforcement",
    "final_address": "5341 Annunciation St",
    "address_councildis": "B",
    "status": "Pending",
    "rowid": "1009121",
    "final_x": "3666971.14221",
    "final_y": "517606.526326",
    "longitude": "-90.11441475060286",
    "latitude": "29.91767121877968",
    "geocoded_column": {
      "latitude": "29.91767121877968",
      "longitude": "-90.11441475060286"
    }
  },
  {
    "service_request": "2023-1009119",
    "request_type": "Trash/Recycling",
    "request_reason": "Illegal Dumping",
    "date_created": "2023-06-16T00:10:19.000",
    "date_modified": "2023-06-16T00:10:19.000",
    "request_status": "Pending",
    "responsible_agency": "Department of Sanitation",
    "final_address": "1949 Duels St",
    "address_councildis": "D",
    "status": "Pending",
    "rowid": "1009119",
    "final_x": "3682842.02479",
    "final_y": "542494.721997",
    "longitude": "-90.06344863799627",
    "latitude": "29.985631554616482",
    "geocoded_column": {
      "latitude": "29.985631554616482",
      "longitude": "-90.06344863799627"
    }
  },
  {
    "service_request": "2023-1009118",
    "request_type": "Trash/Recycling",
    "request_reason": "Illegal Dumping",
    "date_created": "2023-06-16T00:08:56.000",
    "date_modified": "2023-06-16T00:08:56.000",
    "request_status": "Pending",
    "responsible_agency": "Department of Sanitation",
    "final_address": "1949 Duels St",
    "address_councildis": "D",
    "status": "Pending",
    "rowid": "1009118",
    "final_x": "3682842.02479",
    "final_y": "542494.721997",
    "longitude": "-90.06344863799627",
    "latitude": "29.985631554616482",
    "geocoded_column": {
      "latitude": "29.985631554616482",
      "longitude": "-90.06344863799627"
    }
  },
  {
    "service_request": "2023-1009115",
    "request_type": "Traffic Signals/Signs/Striping/Streetlights",
    "request_reason": "Street Light Outage/Malfunction",
    "date_created": "2023-06-15T22:29:26.000",
    "date_modified": "2023-06-15T22:29:27.000",
    "request_status": "Pending",
    "responsible_agency": "Department of Public Works",
    "final_address": "6211 Curie St",
    "address_councildis": "D",
    "status": "Assigned to Contractor",
    "contractor": "Legacy Professional Services",
    "rowid": "1009115",
    "final_x": "3682550.0694",
    "final_y": "555859.641689",
    "longitude": "-90.06390312994812",
    "latitude": "30.02238917139107",
    "geocoded_column": {
      "latitude": "30.02238917139107",
      "longitude": "-90.06390312994812"
    }
  },
  {
    "service_request": "2023-1009114",
    "request_type": "Abandoned Vehicles",
    "request_reason": "Abandoned/Junk Vehicles",
    "date_created": "2023-06-15T22:28:28.000",
    "date_modified": "2023-06-15T22:28:28.000",
    "request_status": "Pending",
    "responsible_agency": "Department of Public Works",
    "final_address": "8123 Burthe St",
    "address_councildis": "A",
    "status": "Pending",
    "rowid": "1009114",
    "final_x": "3661151.85965",
    "final_y": "527752.619071",
    "longitude": "-90.13244744385328",
    "latitude": "29.94573872547685",
    "geocoded_column": {
      "latitude": "29.94573872547685",
      "longitude": "-90.13244744385328"
    }
  },
  {
    "service_request": "2023-1009113",
    "request_type": "Traffic Signals/Signs/Striping/Streetlights",
    "request_reason": "Street Light Outage/Malfunction",
    "date_created": "2023-06-15T21:33:11.000",
    "date_modified": "2023-06-15T21:33:12.000",
    "request_status": "Pending",
    "responsible_agency": "Department of Public Works",
    "final_address": "7980 Edgelake Ct",
    "address_councildis": "E",
    "status": "Assigned to Contractor",
    "contractor": "Legacy Professional Services",
    "rowid": "1009113",
    "final_x": "3702588.0554",
    "final_y": "562130.359519",
    "longitude": "-90.00035790651032",
    "latitude": "30.039005590023145",
    "geocoded_column": {
      "latitude": "30.039005590023145",
      "longitude": "-90.00035790651032"
    }
  },
  {
    "service_request": "2023-1009112",
    "request_type": "Trash/Recycling",
    "request_reason": "Request a Large Item Pick Up",
    "date_created": "2023-06-15T21:32:23.000",
    "date_modified": "2023-06-15T21:32:24.000",
    "request_status": "Pending",
    "responsible_agency": "Department of Sanitation",
    "final_address": "2626 S Galvez St",
    "address_councildis": "B",
    "status": "Assigned to Contractor",
    "contractor": "Richards Disposal",
    "rowid": "1009112",
    "final_x": "3672578.02817",
    "final_y": "528294.699264",
    "longitude": "-90.09635269646552",
    "latitude": "29.94689504716589",
    "geocoded_column": {
      "latitude": "29.94689504716589",
      "longitude": "-90.09635269646552"
    }
  },
  {
    "service_request": "2023-1009111",
    "request_type": "Traffic Signals/Signs/Striping/Streetlights",
    "request_reason": "Street Light Outage/Malfunction",
    "date_created": "2023-06-15T21:15:45.000",
    "date_modified": "2023-06-15T21:15:46.000",
    "request_status": "Pending",
    "responsible_agency": "Department of Public Works",
    "final_address": "4300 Macarthur Blvd",
    "address_councildis": "C",
    "status": "Assigned to Contractor",
    "contractor": "Legacy Professional Services",
    "rowid": "1009111",
    "final_x": "3699553.40445",
    "final_y": "520487.02092",
    "longitude": "-90.01146642664276",
    "latitude": "29.924598344506613",
    "geocoded_column": {
      "latitude": "29.924598344506613",
      "longitude": "-90.01146642664276"
    }
  },
  {
    "service_request": "2023-1009110",
    "request_type": "Traffic Signals/Signs/Striping/Streetlights",
    "request_reason": "Street Light Outage/Malfunction",
    "date_created": "2023-06-15T21:09:40.000",
    "date_modified": "2023-06-15T21:09:41.000",
    "request_status": "Pending",
    "responsible_agency": "Department of Public Works",
    "final_address": "420 S St Patrick St",
    "address_councildis": "A",
    "status": "Assigned to Contractor",
    "contractor": "Legacy Professional Services",
    "rowid": "1009110",
    "final_x": "3668308.85441",
    "final_y": "538711.515273",
    "longitude": "-90.10948080178234",
    "latitude": "29.975663883068",
    "geocoded_column": {
      "latitude": "29.975663883068",
      "longitude": "-90.10948080178234"
    }
  },
  {
    "service_request": "2023-1009109",
    "request_type": "Trash/Recycling",
    "request_reason": "Request a Large Item Pick Up",
    "date_created": "2023-06-15T19:59:33.000",
    "date_modified": "2023-06-15T19:59:33.000",
    "request_status": "Pending",
    "responsible_agency": "Department of Sanitation",
    "final_address": "3322 Cherry St",
    "address_councildis": "A",
    "status": "Assigned to Contractor",
    "contractor": "Richards Disposal",
    "rowid": "1009109",
    "final_x": "3663978.30291",
    "final_y": "536925.697032",
    "longitude": "-90.12321751500458",
    "latitude": "29.970879946977632",
    "geocoded_column": {
      "latitude": "29.970879946977632",
      "longitude": "-90.12321751500458"
    }
  },
  {
    "service_request": "2023-1009108",
    "request_type": "Trash/Recycling",
    "request_reason": "Missed Trash Pick-Up",
    "date_created": "2023-06-15T19:49:28.000",
    "date_modified": "2023-06-15T19:49:29.000",
    "request_status": "Pending",
    "responsible_agency": "Department of Sanitation",
    "final_address": "438 Eighth St",
    "address_councildis": "B",
    "status": "Assigned to Contractor",
    "contractor": "Richards Disposal",
    "rowid": "1009108",
    "final_x": "3677111.56936",
    "final_y": "518640.134839",
    "longitude": "-90.08237142583228",
    "latitude": "29.920212803041746",
    "geocoded_column": {
      "latitude": "29.920212803041746",
      "longitude": "-90.08237142583228"
    }
  },
  {
    "service_request": "2023-1009107",
    "request_type": "Abandoned Vehicles",
    "request_reason": "Abandoned/Junk Vehicles",
    "date_created": "2023-06-15T19:45:40.000",
    "date_modified": "2023-06-15T19:45:40.000",
    "request_status": "Pending",
    "responsible_agency": "Department of Public Works",
    "final_address": "1217 Carondelet St",
    "address_councildis": "B",
    "status": "Pending",
    "rowid": "1009107",
    "final_x": "3679206.48443",
    "final_y": "526503.960126",
    "longitude": "-90.07548628898807",
    "latitude": "29.941772688737505",
    "geocoded_column": {
      "latitude": "29.941772688737505",
      "longitude": "-90.07548628898807"
    }
  },
  {
    "service_request": "2023-1009106",
    "request_type": "Trash/Recycling",
    "request_reason": "Missed Trash Pick-Up",
    "date_created": "2023-06-15T19:45:35.000",
    "date_modified": "2023-06-15T19:45:35.000",
    "request_status": "Pending",
    "responsible_agency": "Department of Sanitation",
    "final_address": "1620 Fourth St",
    "address_councildis": "B",
    "status": "Assigned to Contractor",
    "contractor": "Richards Disposal",
    "rowid": "1009106",
    "final_x": "3676043.77665",
    "final_y": "522866.967739",
    "longitude": "-90.08559665644712",
    "latitude": "29.931867236838222",
    "geocoded_column": {
      "latitude": "29.931867236838222",
      "longitude": "-90.08559665644712"
    }
  },
  {
    "service_request": "2023-1009105",
    "request_type": "Trash/Recycling",
    "request_reason": "Return Trash Cart",
    "date_created": "2023-06-15T19:44:13.000",
    "date_modified": "2023-06-15T19:44:14.000",
    "request_status": "Pending",
    "responsible_agency": "Department of Sanitation",
    "final_address": "2436 Robert St",
    "address_councildis": "B",
    "status": "Assigned to Contractor",
    "contractor": "Richards Disposal",
    "rowid": "1009105",
    "final_x": "3668788.71374",
    "final_y": "524569.91302",
    "longitude": "-90.10844271194001",
    "latitude": "29.936765027068432",
    "geocoded_column": {
      "latitude": "29.936765027068432",
      "longitude": "-90.10844271194001"
    }
  },
  {
    "service_request": "2023-1009104",
    "request_type": "Abandoned Vehicles",
    "request_reason": "Abandoned/Junk Vehicles",
    "date_created": "2023-06-15T19:39:26.000",
    "date_modified": "2023-06-15T19:39:26.000",
    "request_status": "Pending",
    "responsible_agency": "Department of Public Works",
    "final_address": "1740 Robert C. Blakes, Sr. Dr",
    "address_councildis": "B",
    "status": "Pending",
    "rowid": "1009104",
    "final_x": "3678342.88642",
    "final_y": "524871.480956",
    "longitude": "-90.07826930000154",
    "latitude": "29.937309949490956",
    "geocoded_column": {
      "latitude": "29.937309949490956",
      "longitude": "-90.07826930000154"
    }
  },
  {
    "service_request": "2023-1009103",
    "request_type": "Abandoned Vehicles",
    "request_reason": "Abandoned/Junk Vehicles",
    "date_created": "2023-06-15T19:36:32.000",
    "date_modified": "2023-06-15T19:36:32.000",
    "request_status": "Pending",
    "responsible_agency": "Department of Public Works",
    "final_address": "2002 Carondelet St",
    "address_councildis": "B",
    "status": "Pending",
    "rowid": "1009103",
    "final_x": "3677871.02734",
    "final_y": "524466.20134",
    "longitude": "-90.07977298798322",
    "latitude": "29.936209766788064",
    "geocoded_column": {
      "latitude": "29.936209766788064",
      "longitude": "-90.07977298798322"
    }
  },
  {
    "service_request": "2023-1009102",
    "request_type": "Traffic Signals/Signs/Striping/Streetlights",
    "request_reason": "Road Surface Marking Maintenance-Parking Lane",
    "date_created": "2023-06-15T19:26:47.000",
    "date_modified": "2023-06-15T19:26:47.000",
    "request_status": "Pending",
    "responsible_agency": "Department of Public Works",
    "final_address": "3700 BLK Perrier St",
    "address_councildis": "B",
    "status": "Pending",
    "rowid": "1009102",
    "final_x": "3673210.58464",
    "final_y": "520348.946951",
    "longitude": "-90.0946266888141",
    "latitude": "29.92502801811942",
    "geocoded_column": {
      "latitude": "29.92502801811942",
      "longitude": "-90.0946266888141"
    }
  },
  {
    "service_request": "2023-1009101",
    "request_type": "Roads/Drainage",
    "request_reason": "Service Cut",
    "date_created": "2023-06-15T19:11:06.000",
    "date_modified": "2023-06-15T19:11:07.000",
    "request_status": "Pending",
    "responsible_agency": "Department of Public Works",
    "final_address": "6951 Yorktown Dr",
    "address_councildis": "E",
    "status": "Pending",
    "rowid": "1009101",
    "final_x": "3706340.52913",
    "final_y": "560338.547869",
    "longitude": "-89.98856557973869",
    "latitude": "30.033958250979357",
    "geocoded_column": {
      "latitude": "30.033958250979357",
      "longitude": "-89.98856557973869"
    }
  },
  {
    "service_request": "2023-1009100",
    "request_type": "Property Maintenance",
    "request_reason": "Property Maintenance",
    "date_created": "2023-06-15T19:10:24.000",
    "date_modified": "2023-06-15T19:10:24.000",
    "request_status": "Pending",
    "responsible_agency": "Department of Code Enforcement",
    "final_address": "500 BLK S Telemachus St",
    "address_councildis": "B",
    "status": "Pending",
    "rowid": "1009100",
    "final_x": "3671251.37367",
    "final_y": "535968.989858",
    "longitude": "-90.10028069439439",
    "latitude": "29.9680361165082",
    "geocoded_column": {
      "latitude": "29.9680361165082",
      "longitude": "-90.10028069439439"
    }
  },
  {
    "service_request": "2023-1009099",
    "request_type": "Abandoned Vehicles",
    "request_reason": "Abandoned/Junk Vehicles",
    "date_created": "2023-06-15T19:08:06.000",
    "date_modified": "2023-06-15T19:08:06.000",
    "request_status": "Pending",
    "responsible_agency": "Department of Public Works",
    "final_address": "626 Race St",
    "address_councildis": "B",
    "status": "Pending",
    "rowid": "1009099",
    "final_x": "3681824.09813",
    "final_y": "523406.221115",
    "longitude": "-90.06733000877367",
    "latitude": "29.933175665771802",
    "geocoded_column": {
      "latitude": "29.933175665771802",
      "longitude": "-90.06733000877367"
    }
  },
  {
    "service_request": "2023-1009098",
    "request_type": "Abandoned Vehicles",
    "request_reason": "Abandoned/Junk Vehicles",
    "date_created": "2023-06-15T19:03:18.000",
    "date_modified": "2023-06-15T19:03:18.000",
    "request_status": "Pending",
    "responsible_agency": "Department of Public Works",
    "final_address": "810 Euterpe St",
    "address_councildis": "B",
    "status": "Pending",
    "rowid": "1009098",
    "final_x": "3681586.19452",
    "final_y": "523799.476411",
    "longitude": "-90.06806734544229",
    "latitude": "29.93426421309192",
    "geocoded_column": {
      "latitude": "29.93426421309192",
      "longitude": "-90.06806734544229"
    }
  },
  {
    "service_request": "2023-1009097",
    "request_type": "Abandoned Vehicles",
    "request_reason": "Abandoned/Junk Vehicles",
    "date_created": "2023-06-15T19:01:29.000",
    "date_modified": "2023-06-15T19:01:29.000",
    "request_status": "Pending",
    "responsible_agency": "Department of Public Works",
    "final_address": "810 Euterpe St",
    "address_councildis": "B",
    "status": "Pending",
    "rowid": "1009097",
    "final_x": "3681586.19452",
    "final_y": "523799.476411",
    "longitude": "-90.06806734544229",
    "latitude": "29.93426421309192",
    "geocoded_column": {
      "latitude": "29.93426421309192",
      "longitude": "-90.06806734544229"
    }
  },
  {
    "service_request": "2023-1009096",
    "request_type": "Abandoned Vehicles",
    "request_reason": "Abandoned/Junk Vehicles",
    "date_created": "2023-06-15T19:00:09.000",
    "date_modified": "2023-06-15T19:00:09.000",
    "request_status": "Pending",
    "responsible_agency": "Department of Public Works",
    "final_address": "810 Euterpe St",
    "address_councildis": "B",
    "status": "Pending",
    "rowid": "1009096",
    "final_x": "3681586.19452",
    "final_y": "523799.476411",
    "longitude": "-90.06806734544229",
    "latitude": "29.93426421309192",
    "geocoded_column": {
      "latitude": "29.93426421309192",
      "longitude": "-90.06806734544229"
    }
  },
  {
    "service_request": "2023-1009095",
    "request_type": "Trash/Recycling",
    "request_reason": "Return Recycling Cart",
    "date_created": "2023-06-15T18:55:13.000",
    "date_modified": "2023-06-15T18:55:14.000",
    "request_status": "Pending",
    "responsible_agency": "Department of Sanitation",
    "final_address": "6038 Stratford Pl",
    "address_councildis": "C",
    "status": "Pending",
    "rowid": "1009095",
    "final_x": "3706226.3274",
    "final_y": "516245.19378",
    "longitude": "-89.9905593508636",
    "latitude": "29.912721434248297",
    "geocoded_column": {
      "latitude": "29.912721434248297",
      "longitude": "-89.9905593508636"
    }
  },
  {
    "service_request": "2023-1009094",
    "request_type": "Trash/Recycling",
    "request_reason": "Request a Large Item Pick Up",
    "date_created": "2023-06-15T18:50:58.000",
    "date_modified": "2023-06-15T18:50:59.000",
    "request_status": "Pending",
    "responsible_agency": "Department of Sanitation",
    "final_address": "423 26Th St",
    "address_councildis": "A",
    "status": "Assigned to Contractor",
    "contractor": "IV Waste",
    "rowid": "1009094",
    "final_x": "3664658.17197",
    "final_y": "550025.432532",
    "longitude": "-90.1206325463129",
    "latitude": "30.00688002404691",
    "geocoded_column": {
      "latitude": "30.00688002404691",
      "longitude": "-90.1206325463129"
    }
  },
  {
    "service_request": "2023-1009093",
    "request_type": "Trash/Recycling",
    "request_reason": "Request a Large Item Pick Up",
    "date_created": "2023-06-15T18:31:40.000",
    "date_modified": "2023-06-15T18:31:40.000",
    "request_status": "Pending",
    "responsible_agency": "Department of Sanitation",
    "final_address": "536 S Miro St",
    "address_councildis": "B",
    "status": "Assigned to Contractor",
    "contractor": "Richards Disposal",
    "rowid": "1009093",
    "final_x": "3675684.29813",
    "final_y": "532661.725764",
    "longitude": "-90.08639500086139",
    "latitude": "29.958810343515207",
    "geocoded_column": {
      "latitude": "29.958810343515207",
      "longitude": "-90.08639500086139"
    }
  },
  {
    "service_request": "2023-1009092",
    "request_type": "Abandoned Vehicles",
    "request_reason": "Abandoned/Junk Vehicles",
    "date_created": "2023-06-15T18:26:50.000",
    "date_modified": "2023-06-15T18:26:50.000",
    "request_status": "Pending",
    "responsible_agency": "Department of Public Works",
    "final_address": "2016 Brainard St",
    "address_councildis": "B",
    "status": "Pending",
    "rowid": "1009092",
    "final_x": "3677648.9748",
    "final_y": "524544.7687",
    "longitude": "-90.08047130273219",
    "latitude": "29.936432479044505",
    "geocoded_column": {
      "latitude": "29.936432479044505",
      "longitude": "-90.08047130273219"
    }
  },
  {
    "service_request": "2023-1009091",
    "request_type": "Abandoned Vehicles",
    "request_reason": "Abandoned/Junk Vehicles",
    "date_created": "2023-06-15T18:25:17.000",
    "date_modified": "2023-06-15T18:25:17.000",
    "request_status": "Pending",
    "responsible_agency": "Department of Public Works",
    "final_address": "2120 Brainard St",
    "address_councildis": "B",
    "status": "Pending",
    "rowid": "1009091",
    "final_x": "3677389.86338",
    "final_y": "524336.859644",
    "longitude": "-90.08129649957422",
    "latitude": "29.935868585034235",
    "geocoded_column": {
      "latitude": "29.935868585034235",
      "longitude": "-90.08129649957422"
    }
  },
  {
    "service_request": "2023-1009090",
    "request_type": "Trash/Recycling",
    "request_reason": "Repair Trash Cart",
    "date_created": "2023-06-15T18:23:16.000",
    "date_modified": "2023-06-15T18:23:17.000",
    "request_status": "Pending",
    "responsible_agency": "Department of Sanitation",
    "final_address": "1222 Frenchmen St",
    "address_councildis": "C",
    "status": "Assigned to Contractor",
    "contractor": "IV Waste",
    "rowid": "1009090",
    "final_x": "3684510.02377",
    "final_y": "536832.931464",
    "longitude": "-90.05837909912964",
    "latitude": "29.97001267975877",
    "geocoded_column": {
      "latitude": "29.97001267975877",
      "longitude": "-90.05837909912964"
    }
  },
  {
    "service_request": "2023-1009089",
    "request_type": "Trash/Recycling",
    "request_reason": "Request a Large Item Pick Up",
    "date_created": "2023-06-15T18:21:10.000",
    "date_modified": "2023-06-15T18:21:11.000",
    "request_status": "Pending",
    "responsible_agency": "Department of Sanitation",
    "final_address": "3936 Prytania St",
    "address_councildis": "B",
    "status": "Assigned to Contractor",
    "contractor": "Richards Disposal",
    "rowid": "1009089",
    "final_x": "3672464.317",
    "final_y": "520433.555",
    "longitude": "-90.09697953706936",
    "latitude": "29.925282825061256",
    "geocoded_column": {
      "latitude": "29.925282825061256",
      "longitude": "-90.09697953706936"
    }
  },
  {
    "service_request": "2023-1009088",
    "request_type": "Trash/Recycling",
    "request_reason": "Missed Trash Pick-Up",
    "date_created": "2023-06-15T18:18:49.000",
    "date_modified": "2023-06-15T18:18:50.000",
    "request_status": "Pending",
    "responsible_agency": "Department of Sanitation",
    "final_address": "3615 Cadiz St",
    "address_councildis": "B",
    "status": "Assigned to Contractor",
    "contractor": "Richards Disposal",
    "rowid": "1009088",
    "final_x": "3669432.71342",
    "final_y": "527912.500735",
    "longitude": "-90.10629656351773",
    "latitude": "29.945937115711835",
    "geocoded_column": {
      "latitude": "29.945937115711835",
      "longitude": "-90.10629656351773"
    }
  },
  {
    "service_request": "2023-1009087",
    "request_type": "Trash/Recycling",
    "request_reason": "Request a Large Item Pick Up",
    "date_created": "2023-06-15T18:07:17.000",
    "date_modified": "2023-06-15T18:07:18.000",
    "request_status": "Pending",
    "responsible_agency": "Department of Sanitation",
    "final_address": "425 26Th St",
    "address_councildis": "A",
    "status": "Assigned to Contractor",
    "contractor": "IV Waste",
    "rowid": "1009087",
    "final_x": "3664643.34221",
    "final_y": "550026.669012",
    "longitude": "-90.12067935633972",
    "latitude": "30.00688385548993",
    "geocoded_column": {
      "latitude": "30.00688385548993",
      "longitude": "-90.12067935633972"
    }
  },
  {
    "service_request": "2023-1009086",
    "request_type": "Abandoned Vehicles",
    "request_reason": "Abandoned/Junk Vehicles",
    "date_created": "2023-06-15T18:01:33.000",
    "date_modified": "2023-06-15T18:01:34.000",
    "request_status": "Pending",
    "responsible_agency": "Department of Public Works",
    "final_address": "FILMORE ST & PASTEUR BLVD",
    "address_councildis": "D",
    "status": "Pending",
    "rowid": "1009086",
    "final_x": "3682930.5",
    "final_y": "552223.88",
    "longitude": "-90.06282844270241",
    "latitude": "30.012380561832938",
    "geocoded_column": {
      "latitude": "30.012380561832938",
      "longitude": "-90.06282844270241"
    }
  },
  {
    "service_request": "2023-1009085",
    "request_type": "Roads/Drainage",
    "request_reason": "Damaged Sidewalk",
    "date_created": "2023-06-15T17:55:05.000",
    "date_modified": "2023-06-15T17:55:06.000",
    "request_status": "Pending",
    "responsible_agency": "Department of Public Works",
    "final_address": "4017 Hamilton St",
    "address_councildis": "A",
    "status": "Pending",
    "rowid": "1009085",
    "final_x": "3666176.72858",
    "final_y": "538183.876745",
    "longitude": "-90.11623237507303",
    "latitude": "29.97427549876059",
    "geocoded_column": {
      "latitude": "29.97427549876059",
      "longitude": "-90.11623237507303"
    }
  },
  {
    "service_request": "2023-1009084",
    "request_type": "Trash/Recycling",
    "request_reason": "Order Trash Cart",
    "date_created": "2023-06-15T17:45:11.000",
    "date_modified": "2023-06-15T17:45:12.000",
    "request_status": "Pending",
    "responsible_agency": "Department of Sanitation",
    "final_address": "441 S Solomon St",
    "address_councildis": "A",
    "status": "Assigned to Contractor",
    "contractor": "Richards Disposal",
    "rowid": "1009084",
    "final_x": "3669610.0075",
    "final_y": "537511.398728",
    "longitude": "-90.10541200476077",
    "latitude": "29.97232568918185",
    "geocoded_column": {
      "latitude": "29.97232568918185",
      "longitude": "-90.10541200476077"
    }
  },
  {
    "service_request": "2023-1009083",
    "request_type": "Trash/Recycling",
    "request_reason": "MIssed Recycling Pick-Up",
    "date_created": "2023-06-15T17:44:07.000",
    "date_modified": "2023-06-15T17:44:08.000",
    "request_status": "Pending",
    "responsible_agency": "Department of Sanitation",
    "final_address": "332 S Diamond St",
    "address_councildis": "B",
    "status": "Assigned to Contractor",
    "contractor": "Empire Services",
    "rowid": "1009083",
    "final_x": "3681996.4612",
    "final_y": "526765.101374",
    "longitude": "-90.06666865160659",
    "latitude": "29.942406230937358",
    "geocoded_column": {
      "latitude": "29.942406230937358",
      "longitude": "-90.06666865160659"
    }
  },
  {
    "service_request": "2023-1009082",
    "request_type": "Abandoned Vehicles",
    "request_reason": "Abandoned/Junk Vehicles",
    "date_created": "2023-06-15T17:42:23.000",
    "date_modified": "2023-06-15T17:42:23.000",
    "request_status": "Pending",
    "responsible_agency": "Department of Public Works",
    "final_address": "3534 Upperline St A",
    "address_councildis": "B",
    "status": "Pending",
    "rowid": "1009082",
    "final_x": "3669251.04711",
    "final_y": "527989.154047",
    "longitude": "-90.10686755657366",
    "latitude": "29.946153235318885",
    "geocoded_column": {
      "latitude": "29.946153235318885",
      "longitude": "-90.10686755657366"
    }
  },
  {
    "service_request": "2023-1009081",
    "request_type": "Trash/Recycling",
    "request_reason": "Illegal Dumping",
    "date_created": "2023-06-15T17:39:20.000",
    "date_modified": "2023-06-15T17:39:20.000",
    "request_status": "Pending",
    "responsible_agency": "Department of Sanitation",
    "final_address": "2112 Burdette St",
    "address_councildis": "A",
    "status": "Pending",
    "rowid": "1009081",
    "final_x": "3665003.09869",
    "final_y": "530091.062529",
    "longitude": "-90.12020958746206",
    "latitude": "29.952057144110793",
    "geocoded_column": {
      "latitude": "29.952057144110793",
      "longitude": "-90.12020958746206"
    }
  },
  {
    "service_request": "2023-1009080",
    "request_type": "Trash/Recycling",
    "request_reason": "MIssed Recycling Pick-Up",
    "date_created": "2023-06-15T17:38:30.000",
    "date_modified": "2023-06-15T17:38:31.000",
    "request_status": "Pending",
    "responsible_agency": "Department of Sanitation",
    "final_address": "332 S Diamond St, New Orleans, Louisiana, 70130",
    "address_councildis": "B",
    "status": "Assigned to Contractor",
    "contractor": "Empire Services",
    "rowid": "1009080",
    "final_x": "3681996.4612",
    "final_y": "526765.101374",
    "longitude": "-90.06666865160659",
    "latitude": "29.942406230937358",
    "geocoded_column": {
      "latitude": "29.942406230937358",
      "longitude": "-90.06666865160659"
    }
  },
  {
    "service_request": "2023-1009079",
    "request_type": "Traffic Signals/Signs/Striping/Streetlights",
    "request_reason": "Street Light Outage/Malfunction",
    "date_created": "2023-06-15T17:28:57.000",
    "date_modified": "2023-06-15T17:28:58.000",
    "request_status": "Pending",
    "responsible_agency": "Department of Public Works",
    "final_address": "0 BLK Interstate 10",
    "status": "Assigned to Contractor",
    "contractor": "Legacy Professional Services",
    "rowid": "1009079",
    "final_x": "3749078.15502",
    "final_y": "605653.561774",
    "longitude": "-89.85166076471643",
    "latitude": "30.157105189447982",
    "geocoded_column": {
      "latitude": "30.157105189447982",
      "longitude": "-89.85166076471643"
    }
  },
  {
    "service_request": "2023-1009078",
    "request_type": "Abandoned Vehicles",
    "request_reason": "Vehicle Blocking Your Driveway",
    "date_created": "2023-06-15T17:25:00.000",
    "date_modified": "2023-06-15T17:25:00.000",
    "request_status": "Pending",
    "responsible_agency": "Department of Public Works",
    "final_address": "810 Adele St",
    "address_councildis": "B",
    "status": "Pending",
    "rowid": "1009078",
    "final_x": "3679930.83131",
    "final_y": "521649.756025",
    "longitude": "-90.07336789883439",
    "latitude": "29.92840334604677",
    "geocoded_column": {
      "latitude": "29.92840334604677",
      "longitude": "-90.07336789883439"
    }
  },
  {
    "service_request": "2023-1009076",
    "request_type": "Trash/Recycling",
    "request_reason": "Illegal Dumping",
    "date_created": "2023-06-15T16:39:35.000",
    "date_modified": "2023-06-15T16:39:35.000",
    "request_status": "Pending",
    "responsible_agency": "Department of Sanitation",
    "final_address": "3836 Mistletoe St",
    "address_councildis": "A",
    "status": "Pending",
    "rowid": "1009076",
    "final_x": "3665471.04109",
    "final_y": "538098.174985",
    "longitude": "-90.11846398028838",
    "latitude": "29.974060439355657",
    "geocoded_column": {
      "latitude": "29.974060439355657",
      "longitude": "-90.11846398028838"
    }
  },
  {
    "service_request": "2023-1009075",
    "request_type": "Property Maintenance",
    "request_reason": "Property Maintenance",
    "date_created": "2023-06-15T16:37:33.000",
    "date_modified": "2023-06-15T16:37:33.000",
    "request_status": "Pending",
    "responsible_agency": "Department of Code Enforcement",
    "final_address": "2653 Law St",
    "address_councildis": "D",
    "status": "Pending",
    "rowid": "1009075",
    "final_x": "3686967.06684",
    "final_y": "542056.928012",
    "longitude": "-90.05043481908672",
    "latitude": "29.984301428790182",
    "geocoded_column": {
      "latitude": "29.984301428790182",
      "longitude": "-90.05043481908672"
    }
  },
  {
    "service_request": "2023-1009074",
    "request_type": "Abandoned Vehicles",
    "request_reason": "Abandoned/Junk Vehicles",
    "date_created": "2023-06-15T16:36:03.000",
    "date_modified": "2023-06-15T16:36:03.000",
    "request_status": "Pending",
    "responsible_agency": "Department of Public Works",
    "final_address": "5080 Pontchartrain Blvd",
    "address_councildis": "A",
    "status": "Pending",
    "rowid": "1009074",
    "final_x": "3666841.38119",
    "final_y": "540528.132811",
    "longitude": "-90.1140544564024",
    "latitude": "29.980701987063558",
    "geocoded_column": {
      "latitude": "29.980701987063558",
      "longitude": "-90.1140544564024"
    }
  },
  {
    "service_request": "2023-1009073",
    "request_type": "Trash/Recycling",
    "request_reason": "Request a Large Item Pick Up",
    "date_created": "2023-06-15T16:31:35.000",
    "date_modified": "2023-06-15T17:10:55.000",
    "request_status": "Pending",
    "responsible_agency": "Department of Sanitation",
    "final_address": "624 Webster St A",
    "address_councildis": "A",
    "status": "Assigned to Contractor",
    "contractor": "Richards Disposal",
    "rowid": "1009073",
    "final_x": "3663917.37895",
    "final_y": "518988.279095",
    "longitude": "-90.12400779486175",
    "latitude": "29.92155957927547",
    "geocoded_column": {
      "latitude": "29.92155957927547",
      "longitude": "-90.12400779486175"
    }
  },
  {
    "service_request": "2023-1009072",
    "request_type": "Trash/Recycling",
    "request_reason": "Repair Trash Cart",
    "date_created": "2023-06-15T16:31:28.000",
    "date_modified": "2023-06-15T16:31:29.000",
    "request_status": "Pending",
    "responsible_agency": "Department of Sanitation",
    "final_address": "1334 Farragut St",
    "address_councildis": "C",
    "status": "Assigned to Contractor",
    "contractor": "Richards Disposal",
    "rowid": "1009072",
    "final_x": "3692408.98467",
    "final_y": "526280.353342",
    "longitude": "-90.0338114541524",
    "latitude": "29.940752733213696",
    "geocoded_column": {
      "latitude": "29.940752733213696",
      "longitude": "-90.0338114541524"
    }
  },
  {
    "service_request": "2023-1009071",
    "request_type": "Trash/Recycling",
    "request_reason": "Replace Trash Cart",
    "date_created": "2023-06-15T16:30:08.000",
    "date_modified": "2023-06-15T16:30:09.000",
    "request_status": "Pending",
    "responsible_agency": "Department of Sanitation",
    "final_address": "447 Seventh St",
    "address_councildis": "B",
    "status": "Assigned to Contractor",
    "contractor": "Richards Disposal",
    "rowid": "1009071",
    "final_x": "3677426.65198",
    "final_y": "518840.546615",
    "longitude": "-90.08136994753764",
    "latitude": "29.920754408395055",
    "geocoded_column": {
      "latitude": "29.920754408395055",
      "longitude": "-90.08136994753764"
    }
  },
  {
    "service_request": "2023-1009070",
    "request_type": "Trash/Recycling",
    "request_reason": "Order Trash Cart",
    "date_created": "2023-06-15T16:28:37.000",
    "date_modified": "2023-06-15T16:28:37.000",
    "request_status": "Pending",
    "responsible_agency": "Department of Sanitation",
    "final_address": "3611 Kent Dr",
    "address_councildis": "C",
    "status": "Assigned to Contractor",
    "contractor": "Richards Disposal",
    "rowid": "1009070",
    "final_x": "3708702.37278",
    "final_y": "517575.702518",
    "longitude": "-89.9826948128735",
    "latitude": "29.916299854240812",
    "geocoded_column": {
      "latitude": "29.916299854240812",
      "longitude": "-89.9826948128735"
    }
  },
  {
    "service_request": "2023-1009069",
    "request_type": "Trash/Recycling",
    "request_reason": "Request a Large Item Pick Up",
    "date_created": "2023-06-15T16:15:32.000",
    "date_modified": "2023-06-15T16:15:32.000",
    "request_status": "Pending",
    "responsible_agency": "Department of Sanitation",
    "final_address": "13239 Curran Rd",
    "address_councildis": "E",
    "status": "Assigned to Contractor",
    "contractor": "Waste Pro",
    "rowid": "1009069",
    "final_x": "3715932.00108",
    "final_y": "570128.076455",
    "longitude": "-89.95788433679225",
    "latitude": "30.060562459132733",
    "geocoded_column": {
      "latitude": "30.060562459132733",
      "longitude": "-89.95788433679225"
    }
  },
  {
    "service_request": "2023-1009068",
    "request_type": "Trash/Recycling",
    "request_reason": "Request a Large Item Pick Up",
    "date_created": "2023-06-15T16:14:38.000",
    "date_modified": "2023-06-15T16:14:38.000",
    "request_status": "Pending",
    "responsible_agency": "Department of Sanitation",
    "final_address": "6565 Center St",
    "address_councildis": "A",
    "status": "Assigned to Contractor",
    "contractor": "IV Waste",
    "rowid": "1009068",
    "final_x": "3664984.16519",
    "final_y": "551780.21807",
    "longitude": "-90.11954391650654",
    "latitude": "30.011695584006237",
    "geocoded_column": {
      "latitude": "30.011695584006237",
      "longitude": "-90.11954391650654"
    }
  },
  {
    "service_request": "2023-1009067",
    "request_type": "Trash/Recycling",
    "request_reason": "Order Trash Cart",
    "date_created": "2023-06-15T16:14:14.000",
    "date_modified": "2023-06-15T16:14:15.000",
    "request_status": "Pending",
    "responsible_agency": "Department of Sanitation",
    "final_address": "13239 Curran Rd",
    "address_councildis": "E",
    "status": "Assigned to Contractor",
    "contractor": "Waste Pro",
    "rowid": "1009067",
    "final_x": "3715932.00108",
    "final_y": "570128.076455",
    "longitude": "-89.95788433679225",
    "latitude": "30.060562459132733",
    "geocoded_column": {
      "latitude": "30.060562459132733",
      "longitude": "-89.95788433679225"
    }
  },
  {
    "service_request": "2023-1009066",
    "request_type": "Trash/Recycling",
    "request_reason": "Repair Trash Cart",
    "date_created": "2023-06-15T16:02:45.000",
    "date_modified": "2023-06-15T16:02:46.000",
    "request_status": "Pending",
    "responsible_agency": "Department of Sanitation",
    "final_address": "3215 Columbus St",
    "address_councildis": "C",
    "status": "Assigned to Contractor",
    "contractor": "Richards Disposal",
    "rowid": "1009066",
    "final_x": "3695992.45968",
    "final_y": "524285.15718",
    "longitude": "-90.02256991862413",
    "latitude": "29.93515439633629",
    "geocoded_column": {
      "latitude": "29.93515439633629",
      "longitude": "-90.02256991862413"
    }
  },
  {
    "service_request": "2023-1009065",
    "request_type": "Roads/Drainage",
    "request_reason": "Debris in Roadway",
    "date_created": "2023-06-15T16:01:10.000",
    "date_modified": "2023-06-15T16:01:11.000",
    "request_status": "Pending",
    "responsible_agency": "Department of Public Works",
    "final_address": "3051 N Johnson St",
    "address_councildis": "D",
    "status": "Pending",
    "rowid": "1009065",
    "final_x": "3689740.27689",
    "final_y": "539521.503818",
    "longitude": "-90.04176578767081",
    "latitude": "29.97724424889073",
    "geocoded_column": {
      "latitude": "29.97724424889073",
      "longitude": "-90.04176578767081"
    }
  },
  {
    "service_request": "2023-1009064",
    "request_type": "Trash/Recycling",
    "request_reason": "Missed Trash Pick-Up",
    "date_created": "2023-06-15T16:01:04.000",
    "date_modified": "2023-06-15T16:01:05.000",
    "request_status": "Pending",
    "responsible_agency": "Department of Sanitation",
    "final_address": "1524 Lesseps St, New Orleans, Louisiana, 70117",
    "address_councildis": "D",
    "status": "Assigned to Contractor",
    "contractor": "IV Waste",
    "rowid": "1009064",
    "final_x": "3693081.98",
    "final_y": "536791.099592",
    "longitude": "-90.03130962671284",
    "latitude": "29.969632614823244",
    "geocoded_column": {
      "latitude": "29.969632614823244",
      "longitude": "-90.03130962671284"
    }
  },
  {
    "service_request": "2023-1009063",
    "request_type": "Trash/Recycling",
    "request_reason": "Missed Trash Pick-Up",
    "date_created": "2023-06-15T15:59:10.000",
    "date_modified": "2023-06-15T15:59:10.000",
    "request_status": "Pending",
    "responsible_agency": "Department of Sanitation",
    "final_address": "2836 Chippewa St",
    "address_councildis": "B",
    "status": "Assigned to Contractor",
    "contractor": "Richards Disposal",
    "rowid": "1009063",
    "final_x": "3677643.69474",
    "final_y": "519367.486583",
    "longitude": "-90.08066665906492",
    "latitude": "29.922196800451434",
    "geocoded_column": {
      "latitude": "29.922196800451434",
      "longitude": "-90.08066665906492"
    }
  },
  {
    "service_request": "2023-1009062",
    "request_type": "Trash/Recycling",
    "request_reason": "Replace Trash Cart",
    "date_created": "2023-06-15T15:59:09.000",
    "date_modified": "2023-06-15T15:59:09.000",
    "request_status": "Pending",
    "responsible_agency": "Department of Sanitation",
    "final_address": "2334 Constance St",
    "address_councildis": "B",
    "status": "Assigned to Contractor",
    "contractor": "Richards Disposal",
    "rowid": "1009062",
    "final_x": "3678556.13467",
    "final_y": "521348.579193",
    "longitude": "-90.0777179368875",
    "latitude": "29.927616700971438",
    "geocoded_column": {
      "latitude": "29.927616700971438",
      "longitude": "-90.0777179368875"
    }
  },
  {
    "service_request": "2023-1009061",
    "request_type": "Trash/Recycling",
    "request_reason": "Missed Trash Pick-Up",
    "date_created": "2023-06-15T15:58:16.000",
    "date_modified": "2023-06-15T15:58:17.000",
    "request_status": "Pending",
    "responsible_agency": "Department of Sanitation",
    "final_address": "5015 St Claude Ave",
    "address_councildis": "E",
    "status": "Assigned to Contractor",
    "contractor": "Waste Pro",
    "rowid": "1009061",
    "final_x": "3696113.05085",
    "final_y": "534351.361221",
    "longitude": "-90.02182547915295",
    "latitude": "29.962829149857008",
    "geocoded_column": {
      "latitude": "29.962829149857008",
      "longitude": "-90.02182547915295"
    }
  },
  {
    "service_request": "2023-1009060",
    "request_type": "Trash/Recycling",
    "request_reason": "Request a Large Item Pick Up",
    "date_created": "2023-06-15T15:52:50.000",
    "date_modified": "2023-06-15T15:52:51.000",
    "request_status": "Pending",
    "responsible_agency": "Department of Sanitation",
    "final_address": "3207 Annunciation St",
    "address_councildis": "B",
    "status": "Assigned to Contractor",
    "contractor": "Richards Disposal",
    "rowid": "1009060",
    "final_x": "3676223.08693",
    "final_y": "519014.426231",
    "longitude": "-90.0851630746726",
    "latitude": "29.921268625670763",
    "geocoded_column": {
      "latitude": "29.921268625670763",
      "longitude": "-90.0851630746726"
    }
  },
  {
    "service_request": "2023-1009059",
    "request_type": "Roads/Drainage",
    "request_reason": "Street Flooding / Drainage",
    "date_created": "2023-06-15T15:47:39.000",
    "date_modified": "2023-06-15T15:47:39.000",
    "request_status": "Pending",
    "responsible_agency": "Department of Public Works",
    "final_address": "2217 Valmont St",
    "address_councildis": "B",
    "status": "Pending",
    "rowid": "1009059",
    "final_x": "3668247.39572",
    "final_y": "523735.993659",
    "longitude": "-90.11017978778507",
    "latitude": "29.93448791652818",
    "geocoded_column": {
      "latitude": "29.93448791652818",
      "longitude": "-90.11017978778507"
    }
  },
  {
    "service_request": "2023-1009058",
    "request_type": "Trash/Recycling",
    "request_reason": "Repair Trash Cart",
    "date_created": "2023-06-15T15:37:55.000",
    "date_modified": "2023-06-15T15:37:55.000",
    "request_status": "Pending",
    "responsible_agency": "Department of Sanitation",
    "final_address": "7503 St Charles Ave",
    "address_councildis": "A",
    "status": "Assigned to Contractor",
    "contractor": "Richards Disposal",
    "rowid": "1009058",
    "final_x": "3662155.47808",
    "final_y": "525476.858749",
    "longitude": "-90.12935417121892",
    "latitude": "29.93945214914966",
    "geocoded_column": {
      "latitude": "29.93945214914966",
      "longitude": "-90.12935417121892"
    }
  },
  {
    "service_request": "2023-1009057",
    "request_type": "Trash/Recycling",
    "request_reason": "MIssed Recycling Pick-Up",
    "date_created": "2023-06-15T15:35:41.000",
    "date_modified": "2023-06-15T15:35:42.000",
    "request_status": "Pending",
    "responsible_agency": "Department of Sanitation",
    "final_address": "1101 Ninth St",
    "address_councildis": "B",
    "status": "Assigned to Contractor",
    "contractor": "Richards Disposal",
    "rowid": "1009057",
    "final_x": "3675846.90817",
    "final_y": "520122.703608",
    "longitude": "-90.0863124331371",
    "latitude": "29.924327293337363",
    "geocoded_column": {
      "latitude": "29.924327293337363",
      "longitude": "-90.0863124331371"
    }
  },
  {
    "service_request": "2023-1009056",
    "request_type": "Parks & Parkways",
    "request_reason": "Request Tree Service (Right of Way/Public Property)",
    "date_created": "2023-06-15T15:35:33.000",
    "date_modified": "2023-06-15T15:51:42.000",
    "request_status": "Pending",
    "responsible_agency": "Department of Parks & Parkway",
    "final_address": "ST CLAUDE AVE & MAZANT ST",
    "address_councildis": "C",
    "rowid": "1009056",
    "final_x": "3692123.5",
    "final_y": "535297.28",
    "longitude": "-90.03439005774116",
    "latitude": "29.96555505031612",
    "geocoded_column": {
      "latitude": "29.96555505031612",
      "longitude": "-90.03439005774116"
    }
  },
  {
    "service_request": "2023-1009055",
    "request_type": "Trash/Recycling",
    "request_reason": "Return Trash Cart",
    "date_created": "2023-06-15T15:35:23.000",
    "date_modified": "2023-06-15T15:35:23.000",
    "request_status": "Pending",
    "responsible_agency": "Department of Sanitation",
    "final_address": "6323 Perrier St",
    "address_councildis": "A",
    "status": "Assigned to Contractor",
    "contractor": "Richards Disposal",
    "rowid": "1009055",
    "final_x": "3663872.37184",
    "final_y": "521062.245881",
    "longitude": "-90.12408077422971",
    "latitude": "29.927263644495273",
    "geocoded_column": {
      "latitude": "29.927263644495273",
      "longitude": "-90.12408077422971"
    }
  },
  {
    "service_request": "2023-1009054",
    "request_type": "Trash/Recycling",
    "request_reason": "Illegal Dumping",
    "date_created": "2023-06-15T15:33:42.000",
    "date_modified": "2023-06-15T15:33:42.000",
    "request_status": "Pending",
    "responsible_agency": "Department of Sanitation",
    "final_address": "1705 St Ferdinand St",
    "address_councildis": "D",
    "status": "Pending",
    "rowid": "1009054",
    "final_x": "3688348.62985",
    "final_y": "538627.372169",
    "longitude": "-90.04619277544288",
    "latitude": "29.97482876103792",
    "geocoded_column": {
      "latitude": "29.97482876103792",
      "longitude": "-90.04619277544288"
    }
  },
  {
    "service_request": "2023-1009052",
    "request_type": "Trash/Recycling",
    "request_reason": "MIssed Recycling Pick-Up",
    "date_created": "2023-06-15T15:28:37.000",
    "date_modified": "2023-06-15T15:28:38.000",
    "request_status": "Pending",
    "responsible_agency": "Department of Sanitation",
    "final_address": "1800 BLK Dumaine St",
    "address_councildis": "D",
    "status": "Assigned to Contractor",
    "contractor": "Richards Disposal",
    "rowid": "1009052",
    "final_x": "3679773.93438",
    "final_y": "535515.73289",
    "longitude": "-90.0733818783655",
    "latitude": "29.966534885177175",
    "geocoded_column": {
      "latitude": "29.966534885177175",
      "longitude": "-90.0733818783655"
    }
  },
  {
    "service_request": "2023-1009051",
    "request_type": "Trash/Recycling",
    "request_reason": "Missed Trash Pick-Up",
    "date_created": "2023-06-15T15:28:29.000",
    "date_modified": "2023-06-15T15:28:30.000",
    "request_status": "Pending",
    "responsible_agency": "Department of Sanitation",
    "final_address": "8900 Hayne Blvd",
    "address_councildis": "E",
    "status": "Assigned to Contractor",
    "contractor": "Waste Pro",
    "rowid": "1009051",
    "final_x": "3704561.67281",
    "final_y": "563793.769249",
    "longitude": "-89.99405932094116",
    "latitude": "30.043516032460918",
    "geocoded_column": {
      "latitude": "30.043516032460918",
      "longitude": "-89.99405932094116"
    }
  },
  {
    "service_request": "2023-1009050",
    "request_type": "Trash/Recycling",
    "request_reason": "Repair Recycling Cart",
    "date_created": "2023-06-15T15:26:44.000",
    "date_modified": "2023-06-15T15:26:44.000",
    "request_status": "Pending",
    "responsible_agency": "Department of Sanitation",
    "final_address": "5978 General Diaz St",
    "address_councildis": "A",
    "status": "Pending",
    "rowid": "1009050",
    "final_x": "3669423.63694",
    "final_y": "547133.175761",
    "longitude": "-90.10567502644442",
    "latitude": "29.998787784854745",
    "geocoded_column": {
      "latitude": "29.998787784854745",
      "longitude": "-90.10567502644442"
    }
  },
  {
    "service_request": "2023-1009049",
    "request_type": "Trash/Recycling",
    "request_reason": "MIssed Recycling Pick-Up",
    "date_created": "2023-06-15T15:25:54.000",
    "date_modified": "2023-06-15T15:25:55.000",
    "request_status": "Pending",
    "responsible_agency": "Department of Sanitation",
    "final_address": "5704 Baccich St",
    "address_councildis": "D",
    "status": "Assigned to Contractor",
    "contractor": "IV Waste",
    "rowid": "1009049",
    "final_x": "3687523.35254",
    "final_y": "554232.415896",
    "longitude": "-90.04824646369981",
    "latitude": "30.017762469337733",
    "geocoded_column": {
      "latitude": "30.017762469337733",
      "longitude": "-90.04824646369981"
    }
  },
  {
    "service_request": "2023-1009048",
    "request_type": "Trash/Recycling",
    "request_reason": "Order Trash Cart",
    "date_created": "2023-06-15T15:24:57.000",
    "date_modified": "2023-06-15T15:24:58.000",
    "request_status": "Pending",
    "responsible_agency": "Department of Sanitation",
    "final_address": "4520 Elba St",
    "address_councildis": "B",
    "status": "Assigned to Contractor",
    "contractor": "Richards Disposal",
    "rowid": "1009048",
    "final_x": "3669360.61089",
    "final_y": "530597.86029",
    "longitude": "-90.10643343230436",
    "latitude": "29.953323099658896",
    "geocoded_column": {
      "latitude": "29.953323099658896",
      "longitude": "-90.10643343230436"
    }
  },
  {
    "service_request": "2023-1009047",
    "request_type": "Trash/Recycling",
    "request_reason": "Replace Trash Cart",
    "date_created": "2023-06-15T15:22:27.000",
    "date_modified": "2023-06-15T15:22:27.000",
    "request_status": "Pending",
    "responsible_agency": "Department of Sanitation",
    "final_address": "2301 Ap Tureaud Ave",
    "address_councildis": "D",
    "status": "Assigned to Contractor",
    "contractor": "IV Waste",
    "rowid": "1009047",
    "final_x": "3681726.26901",
    "final_y": "540520.928907",
    "longitude": "-90.06704175224665",
    "latitude": "29.980238268096883",
    "geocoded_column": {
      "latitude": "29.980238268096883",
      "longitude": "-90.06704175224665"
    }
  },
  {
    "service_request": "2023-1009046",
    "request_type": "Trash/Recycling",
    "request_reason": "Request a Large Item Pick Up",
    "date_created": "2023-06-15T15:21:36.000",
    "date_modified": "2023-06-15T15:21:37.000",
    "request_status": "Pending",
    "responsible_agency": "Department of Sanitation",
    "final_address": "15 Tradewinds Ct",
    "address_councildis": "E",
    "status": "Assigned to Contractor",
    "contractor": "Waste Pro",
    "rowid": "1009046",
    "final_x": "3715572.44063",
    "final_y": "570788.789543",
    "longitude": "-89.95899583312217",
    "latitude": "30.062391009146324",
    "geocoded_column": {
      "latitude": "30.062391009146324",
      "longitude": "-89.95899583312217"
    }
  },
  {
    "service_request": "2023-1009045",
    "request_type": "Trash/Recycling",
    "request_reason": "Request a Large Item Pick Up",
    "date_created": "2023-06-15T15:18:33.000",
    "date_modified": "2023-06-15T15:18:34.000",
    "request_status": "Pending",
    "responsible_agency": "Department of Sanitation",
    "final_address": "13021 N Lake Carmel Dr",
    "address_councildis": "E",
    "status": "Assigned to Contractor",
    "contractor": "Waste Pro",
    "rowid": "1009045",
    "final_x": "3716818.28338",
    "final_y": "568643.188133",
    "longitude": "-89.95513931484496",
    "latitude": "30.056450348602834",
    "geocoded_column": {
      "latitude": "30.056450348602834",
      "longitude": "-89.95513931484496"
    }
  },
  {
    "service_request": "2023-1009042",
    "request_type": "Parks & Parkways",
    "request_reason": "Request Tree Service (Right of Way/Public Property)",
    "date_created": "2023-06-15T15:15:11.000",
    "date_modified": "2023-06-15T15:15:12.000",
    "request_status": "Pending",
    "responsible_agency": "Department of Parks & Parkway",
    "final_address": "7533 Zimple St",
    "address_councildis": "A",
    "status": "Pending",
    "rowid": "1009042",
    "final_x": "3663115.13415",
    "final_y": "526904.096318",
    "longitude": "-90.12627692841312",
    "latitude": "29.943348836397234",
    "geocoded_column": {
      "latitude": "29.943348836397234",
      "longitude": "-90.12627692841312"
    }
  },
  {
    "service_request": "2023-1009041",
    "request_type": "Trash/Recycling",
    "request_reason": "Order Trash Cart",
    "date_created": "2023-06-15T15:11:11.000",
    "date_modified": "2023-06-15T15:11:19.000",
    "request_status": "Pending",
    "responsible_agency": "Department of Sanitation",
    "final_address": "609 Seventh St",
    "address_councildis": "B",
    "status": "Assigned to Contractor",
    "contractor": "Richards Disposal",
    "rowid": "1009041",
    "final_x": "3677351.57755",
    "final_y": "518954.459575",
    "longitude": "-90.08160299519085",
    "latitude": "29.921069887532116",
    "geocoded_column": {
      "latitude": "29.921069887532116",
      "longitude": "-90.08160299519085"
    }
  },
  {
    "service_request": "2023-1009040",
    "request_type": "Trash/Recycling",
    "request_reason": "Missed Trash Pick-Up",
    "date_created": "2023-06-15T15:10:19.000",
    "date_modified": "2023-06-15T15:10:20.000",
    "request_status": "Pending",
    "responsible_agency": "Department of Sanitation",
    "final_address": "2618 Josephine St",
    "address_councildis": "B",
    "status": "Assigned to Contractor",
    "contractor": "Richards Disposal",
    "rowid": "1009040",
    "final_x": "3675592.20488",
    "final_y": "526906.00051",
    "longitude": "-90.08688351782043",
    "latitude": "29.942986767802573",
    "geocoded_column": {
      "latitude": "29.942986767802573",
      "longitude": "-90.08688351782043"
    }
  },
  {
    "service_request": "2023-1009039",
    "request_type": "Abandoned Vehicles",
    "request_reason": "Abandoned/Junk Vehicles",
    "date_created": "2023-06-15T15:09:30.000",
    "date_modified": "2023-06-15T15:13:05.000",
    "request_status": "Pending",
    "responsible_agency": "Department of Public Works",
    "final_address": "900 BLK Lesseps St",
    "address_councildis": "C",
    "status": "Inspected",
    "rowid": "1009039",
    "final_x": "3692547.12274",
    "final_y": "534468.869498",
    "longitude": "-90.03308196650977",
    "latitude": "29.963264001606905",
    "geocoded_column": {
      "latitude": "29.963264001606905",
      "longitude": "-90.03308196650977"
    }
  },
  {
    "service_request": "2023-1009038",
    "request_type": "Trash/Recycling",
    "request_reason": "Request a Large Item Pick Up",
    "date_created": "2023-06-15T15:08:30.000",
    "date_modified": "2023-06-15T15:08:30.000",
    "request_status": "Pending",
    "responsible_agency": "Department of Sanitation",
    "final_address": "1833 Baronne St",
    "address_councildis": "B",
    "status": "Assigned to Contractor",
    "contractor": "Richards Disposal",
    "rowid": "1009038",
    "final_x": "3677656.91003",
    "final_y": "525003.346557",
    "longitude": "-90.08043042071986",
    "latitude": "29.937693178722842",
    "geocoded_column": {
      "latitude": "29.937693178722842",
      "longitude": "-90.08043042071986"
    }
  },
  {
    "service_request": "2023-1009037",
    "request_type": "Trash/Recycling",
    "request_reason": "Request a Large Item Pick Up",
    "date_created": "2023-06-15T15:08:24.000",
    "date_modified": "2023-06-15T15:08:25.000",
    "request_status": "Pending",
    "responsible_agency": "Department of Sanitation",
    "final_address": "5620 Red Maple Dr",
    "address_councildis": "E",
    "status": "Assigned to Contractor",
    "contractor": "Waste Pro",
    "rowid": "1009037",
    "final_x": "3723325.78879",
    "final_y": "564176.835489",
    "longitude": "-89.93474275137726",
    "latitude": "30.043952916343304",
    "geocoded_column": {
      "latitude": "30.043952916343304",
      "longitude": "-89.93474275137726"
    }
  },
  {
    "service_request": "2023-1009036",
    "request_type": "Abandoned Vehicles",
    "request_reason": "Abandoned/Junk Vehicles",
    "date_created": "2023-06-15T15:05:30.000",
    "date_modified": "2023-06-15T15:08:45.000",
    "request_status": "Pending",
    "responsible_agency": "Department of Public Works",
    "final_address": "2800 BLK Royal St",
    "address_councildis": "C",
    "status": "Inspected",
    "rowid": "1009036",
    "final_x": "3687513.5895",
    "final_y": "534779.771435",
    "longitude": "-90.04896624403273",
    "latitude": "29.964274969965363",
    "geocoded_column": {
      "latitude": "29.964274969965363",
      "longitude": "-90.04896624403273"
    }
  },
  {
    "service_request": "2023-1009035",
    "request_type": "Trash/Recycling",
    "request_reason": "Order Recycling Cart",
    "date_created": "2023-06-15T15:04:57.000",
    "date_modified": "2023-06-15T15:04:58.000",
    "request_status": "Pending",
    "responsible_agency": "Department of Sanitation",
    "final_address": "11421 Morrison Rd",
    "address_councildis": "E",
    "status": "Pending",
    "rowid": "1009035",
    "final_x": "3712158.75576",
    "final_y": "565760.895011",
    "longitude": "-89.96997557015497",
    "latitude": "30.04867849092433",
    "geocoded_column": {
      "latitude": "30.04867849092433",
      "longitude": "-89.96997557015497"
    }
  },
  {
    "service_request": "2023-1009034",
    "request_type": "Trash/Recycling",
    "request_reason": "Order Trash Cart",
    "date_created": "2023-06-15T15:04:39.000",
    "date_modified": "2023-06-15T15:04:41.000",
    "request_status": "Pending",
    "responsible_agency": "Department of Sanitation",
    "final_address": "11421 Morrison Rd",
    "address_councildis": "E",
    "status": "Assigned to Contractor",
    "contractor": "Waste Pro",
    "rowid": "1009034",
    "final_x": "3712158.75576",
    "final_y": "565760.895011",
    "longitude": "-89.96997557015497",
    "latitude": "30.04867849092433",
    "geocoded_column": {
      "latitude": "30.04867849092433",
      "longitude": "-89.96997557015497"
    }
  },
  {
    "service_request": "2023-1009033",
    "request_type": "Trash/Recycling",
    "request_reason": "Repair Recycling Cart",
    "date_created": "2023-06-15T15:04:32.000",
    "date_modified": "2023-06-15T15:05:38.000",
    "request_status": "Pending",
    "responsible_agency": "Department of Sanitation",
    "final_address": "5812 Annunciation St",
    "address_councildis": "A",
    "contractor": "Richards Disposal",
    "rowid": "1009033",
    "final_x": "3665080.08186",
    "final_y": "517624.945014",
    "longitude": "-90.1203831854618",
    "latitude": "29.91777704338096",
    "geocoded_column": {
      "latitude": "29.91777704338096",
      "longitude": "-90.1203831854618"
    }
  },
  {
    "service_request": "2023-1009032",
    "request_type": "Trash/Recycling",
    "request_reason": "Order Trash Cart",
    "date_created": "2023-06-15T15:00:40.000",
    "date_modified": "2023-06-15T15:00:40.000",
    "case_close_date": "2023-05-25T19:00:00.000",
    "request_status": "Closed",
    "responsible_agency": "Department of Sanitation",
    "final_address": "4718 Rosemont Pl",
    "address_councildis": "E",
    "status": "Invalid Request",
    "contractor": "Waste Pro",
    "rowid": "1009032",
    "final_x": "3702677.3274",
    "final_y": "554748.174872",
    "longitude": "-90.00034718470943",
    "latitude": "30.01870458841486",
    "geocoded_column": {
      "latitude": "30.01870458841486",
      "longitude": "-90.00034718470943"
    }
  },
  {
    "service_request": "2023-1009031",
    "request_type": "Trash/Recycling",
    "request_reason": "Request a Large Item Pick Up",
    "date_created": "2023-06-15T14:56:09.000",
    "date_modified": "2023-06-15T14:56:10.000",
    "request_status": "Pending",
    "responsible_agency": "Department of Sanitation",
    "final_address": "6101 Louis Xiv St",
    "address_councildis": "A",
    "status": "Assigned to Contractor",
    "contractor": "IV Waste",
    "rowid": "1009031",
    "final_x": "3668197.3385",
    "final_y": "548019.754578",
    "longitude": "-90.10951901556574",
    "latitude": "30.001261639383678",
    "geocoded_column": {
      "latitude": "30.001261639383678",
      "longitude": "-90.10951901556574"
    }
  },
  {
    "service_request": "2023-1009030",
    "request_type": "Property Maintenance",
    "request_reason": "Property Maintenance",
    "date_created": "2023-06-15T14:53:43.000",
    "date_modified": "2023-06-15T14:53:44.000",
    "request_status": "Pending",
    "responsible_agency": "Department of Code Enforcement",
    "final_address": "1720 St Bernard Ave",
    "address_councildis": "D",
    "status": "Pending",
    "rowid": "1009030",
    "final_x": "3681806.39388",
    "final_y": "538213.235017",
    "longitude": "-90.0668692437783",
    "latitude": "29.973890477521564",
    "geocoded_column": {
      "latitude": "29.973890477521564",
      "longitude": "-90.0668692437783"
    }
  },
  {
    "service_request": "2023-1009029",
    "request_type": "Trash/Recycling",
    "request_reason": "Request a Large Item Pick Up",
    "date_created": "2023-06-15T14:53:04.000",
    "date_modified": "2023-06-15T14:53:05.000",
    "request_status": "Pending",
    "responsible_agency": "Department of Sanitation",
    "final_address": "4153 State Street Dr",
    "address_councildis": "B",
    "status": "Assigned to Contractor",
    "contractor": "Richards Disposal",
    "rowid": "1009029",
    "final_x": "3668475.63623",
    "final_y": "530976.590786",
    "longitude": "-90.10921503606093",
    "latitude": "29.954390510011674",
    "geocoded_column": {
      "latitude": "29.954390510011674",
      "longitude": "-90.10921503606093"
    }
  },
  {
    "service_request": "2023-1009028",
    "request_type": "Trash/Recycling",
    "request_reason": "Request a Large Item Pick Up",
    "date_created": "2023-06-15T14:45:30.000",
    "date_modified": "2023-06-15T14:46:02.000",
    "request_status": "Pending",
    "responsible_agency": "Department of Sanitation",
    "final_address": "1822 S Lopez St",
    "address_councildis": "B",
    "status": "Assigned to Contractor",
    "contractor": "Richards Disposal",
    "rowid": "1009028",
    "final_x": "3669778.12769",
    "final_y": "530161.311361",
    "longitude": "-90.10512986475561",
    "latitude": "29.95211043437856",
    "geocoded_column": {
      "latitude": "29.95211043437856",
      "longitude": "-90.10512986475561"
    }
  },
  {
    "service_request": "2023-1009025",
    "request_type": "Trash/Recycling",
    "request_reason": "Missed Trash Pick-Up",
    "date_created": "2023-06-15T14:35:54.000",
    "date_modified": "2023-06-15T14:35:55.000",
    "request_status": "Pending",
    "responsible_agency": "Department of Sanitation",
    "final_address": "PAINTERS ST & MIRABEAU AVE",
    "address_councildis": "D",
    "status": "Assigned to Contractor",
    "contractor": "IV Waste",
    "rowid": "1009025",
    "final_x": "3686180.0",
    "final_y": "550887.08",
    "longitude": "-90.05260906868233",
    "latitude": "30.00860537947102",
    "geocoded_column": {
      "latitude": "30.00860537947102",
      "longitude": "-90.05260906868233"
    }
  },
  {
    "service_request": "2023-1009024",
    "request_type": "Trash/Recycling",
    "request_reason": "Order Recycling Cart",
    "date_created": "2023-06-15T14:35:27.000",
    "date_modified": "2023-06-15T14:35:27.000",
    "request_status": "Pending",
    "responsible_agency": "Department of Sanitation",
    "final_address": "822 Desire St",
    "address_councildis": "C",
    "status": "Pending",
    "rowid": "1009024",
    "final_x": "3689912.4447",
    "final_y": "534759.554502",
    "longitude": "-90.0413916014145",
    "latitude": "29.964145227861334",
    "geocoded_column": {
      "latitude": "29.964145227861334",
      "longitude": "-90.0413916014145"
    }
  },
  {
    "service_request": "2023-1009022",
    "request_type": "Trash/Recycling",
    "request_reason": "Missed Trash Pick-Up",
    "date_created": "2023-06-15T14:32:57.000",
    "date_modified": "2023-06-15T14:32:58.000",
    "request_status": "Pending",
    "responsible_agency": "Department of Sanitation",
    "final_address": "PAINTERS ST & MIRABEAU AVE",
    "address_councildis": "D",
    "status": "Assigned to Contractor",
    "contractor": "IV Waste",
    "rowid": "1009022",
    "final_x": "3686180.0",
    "final_y": "550887.08",
    "longitude": "-90.05260906868233",
    "latitude": "30.00860537947102",
    "geocoded_column": {
      "latitude": "30.00860537947102",
      "longitude": "-90.05260906868233"
    }
  },
  {
    "service_request": "2023-1009021",
    "request_type": "Roads/Drainage",
    "request_reason": "Leaking Hydrant",
    "date_created": "2023-06-15T14:32:29.000",
    "date_modified": "2023-06-15T14:32:30.000",
    "request_status": "Pending",
    "responsible_agency": "Department of Public Works",
    "final_address": "MARCONI DR & FINCH ST",
    "address_councildis": "D",
    "status": "Pending",
    "rowid": "1009021",
    "final_x": "3672147.9",
    "final_y": "555243.78",
    "longitude": "-90.09679253732708",
    "latitude": "30.021008542287035",
    "geocoded_column": {
      "latitude": "30.021008542287035",
      "longitude": "-90.09679253732708"
    }
  },
  {
    "service_request": "2023-1009020",
    "request_type": "Abandoned Vehicles",
    "request_reason": "Abandoned/Junk Vehicles",
    "date_created": "2023-06-15T14:30:36.000",
    "date_modified": "2023-06-15T14:30:36.000",
    "request_status": "Pending",
    "responsible_agency": "Department of Public Works",
    "final_address": "1600 Baronne St",
    "address_councildis": "B",
    "status": "Pending",
    "rowid": "1009020",
    "final_x": "3678268.87349",
    "final_y": "525691.432637",
    "longitude": "-90.07847461436116",
    "latitude": "29.939566774944016",
    "geocoded_column": {
      "latitude": "29.939566774944016",
      "longitude": "-90.07847461436116"
    }
  },
  {
    "service_request": "2023-1009019",
    "request_type": "Abandoned Vehicles",
    "request_reason": "Abandoned/Junk Vehicles",
    "date_created": "2023-06-15T14:30:32.000",
    "date_modified": "2023-06-15T14:32:16.000",
    "request_status": "Pending",
    "responsible_agency": "Department of Public Works",
    "final_address": "8643 Bill St",
    "address_councildis": "E",
    "status": "Pending",
    "rowid": "1009019",
    "final_x": "3703936.3825",
    "final_y": "563355.78736",
    "longitude": "-89.9960516450514",
    "latitude": "30.042331836036247",
    "geocoded_column": {
      "latitude": "30.042331836036247",
      "longitude": "-89.9960516450514"
    }
  },
  {
    "service_request": "2023-1009018",
    "request_type": "Trash/Recycling",
    "request_reason": "Repair Trash Cart",
    "date_created": "2023-06-15T14:29:36.000",
    "date_modified": "2023-06-15T14:29:37.000",
    "request_status": "Pending",
    "responsible_agency": "Department of Sanitation",
    "final_address": "235 S Scott St",
    "address_councildis": "A",
    "status": "Assigned to Contractor",
    "contractor": "Richards Disposal",
    "rowid": "1009018",
    "final_x": "3671282.57185",
    "final_y": "537270.432648",
    "longitude": "-90.10013793575972",
    "latitude": "29.97161372344123",
    "geocoded_column": {
      "latitude": "29.97161372344123",
      "longitude": "-90.10013793575972"
    }
  },
  {
    "service_request": "2023-1009017",
    "request_type": "Trash/Recycling",
    "request_reason": "Request a Large Item Pick Up",
    "date_created": "2023-06-15T14:28:53.000",
    "date_modified": "2023-06-15T14:28:54.000",
    "request_status": "Pending",
    "responsible_agency": "Department of Sanitation",
    "final_address": "130 s telemachus",
    "address_councildis": "B",
    "status": "Assigned to Contractor",
    "contractor": "Richards Disposal",
    "rowid": "1009017",
    "final_x": "3672212.00366",
    "final_y": "537114.909256",
    "longitude": "-90.09720794322331",
    "latitude": "29.97115854936369",
    "geocoded_column": {
      "latitude": "29.97115854936369",
      "longitude": "-90.09720794322331"
    }
  },
  {
    "service_request": "2023-1009016",
    "request_type": "Trash/Recycling",
    "request_reason": "Request a Large Item Pick Up",
    "date_created": "2023-06-15T14:19:46.000",
    "date_modified": "2023-06-15T14:19:47.000",
    "request_status": "Pending",
    "responsible_agency": "Department of Sanitation",
    "final_address": "6928 Lamb Rd",
    "address_councildis": "D",
    "status": "Assigned to Contractor",
    "contractor": "Waste Pro",
    "rowid": "1009016",
    "final_x": "3697684.56426",
    "final_y": "556884.112666",
    "longitude": "-90.01604484846655",
    "latitude": "30.024736364694895",
    "geocoded_column": {
      "latitude": "30.024736364694895",
      "longitude": "-90.01604484846655"
    }
  },
  {
    "service_request": "2023-1009015",
    "request_type": "Property Maintenance",
    "request_reason": "Property Maintenance",
    "date_created": "2023-06-15T14:18:58.000",
    "date_modified": "2023-06-15T14:18:58.000",
    "request_status": "Pending",
    "responsible_agency": "Department of Code Enforcement",
    "final_address": "3405 Metropolitan St",
    "address_councildis": "D",
    "status": "Pending",
    "rowid": "1009015",
    "final_x": "3691603.20265",
    "final_y": "545043.646351",
    "longitude": "-90.03568456549736",
    "latitude": "29.992370286996678",
    "geocoded_column": {
      "latitude": "29.992370286996678",
      "longitude": "-90.03568456549736"
    }
  },
  {
    "service_request": "2023-1009014",
    "request_type": "Trash/Recycling",
    "request_reason": "Request a Large Item Pick Up",
    "date_created": "2023-06-15T14:18:31.000",
    "date_modified": "2023-06-15T14:18:32.000",
    "request_status": "Pending",
    "responsible_agency": "Department of Sanitation",
    "final_address": "1131 Fourth St",
    "address_councildis": "B",
    "status": "Assigned to Contractor",
    "contractor": "Richards Disposal",
    "rowid": "1009014",
    "final_x": "3677218.12718",
    "final_y": "521233.383801",
    "longitude": "-90.08194567671121",
    "latitude": "29.927340198795825",
    "geocoded_column": {
      "latitude": "29.927340198795825",
      "longitude": "-90.08194567671121"
    }
  },
  {
    "service_request": "2023-1009013",
    "request_type": "Abandoned Vehicles",
    "request_reason": "Abandoned/Junk Vehicles",
    "date_created": "2023-06-15T14:16:28.000",
    "date_modified": "2023-06-15T14:16:29.000",
    "request_status": "Pending",
    "responsible_agency": "Department of Public Works",
    "final_address": "3304 St Claude Ave",
    "address_councildis": "C",
    "status": "Pending",
    "rowid": "1009013",
    "final_x": "3689896.60412",
    "final_y": "535738.828871",
    "longitude": "-90.04140675717225",
    "latitude": "29.966838380664072",
    "geocoded_column": {
      "latitude": "29.966838380664072",
      "longitude": "-90.04140675717225"
    }
  },
  {
    "service_request": "2023-1009012",
    "request_type": "Trash/Recycling",
    "request_reason": "Request a Large Item Pick Up",
    "date_created": "2023-06-15T14:15:39.000",
    "date_modified": "2023-06-15T14:16:03.000",
    "request_status": "Pending",
    "responsible_agency": "Department of Sanitation",
    "final_address": "2460 Mexico St",
    "address_councildis": "D",
    "status": "Assigned to Contractor",
    "contractor": "IV Waste",
    "rowid": "1009012",
    "final_x": "3685469.7142",
    "final_y": "556263.45897",
    "longitude": "-90.05466353805173",
    "latitude": "30.02341025781033",
    "geocoded_column": {
      "latitude": "30.02341025781033",
      "longitude": "-90.05466353805173"
    }
  },
  {
    "service_request": "2023-1009011",
    "request_type": "Trash/Recycling",
    "request_reason": "Request a Large Item Pick Up",
    "date_created": "2023-06-15T14:13:23.000",
    "date_modified": "2023-06-15T14:13:24.000",
    "request_status": "Pending",
    "responsible_agency": "Department of Sanitation",
    "final_address": "5831 Norland Ave",
    "address_councildis": "C",
    "status": "Assigned to Contractor",
    "contractor": "Richards Disposal",
    "rowid": "1009011",
    "final_x": "3705261.23665",
    "final_y": "520333.467256",
    "longitude": "-89.99345454082561",
    "latitude": "29.923993834569913",
    "geocoded_column": {
      "latitude": "29.923993834569913",
      "longitude": "-89.99345454082561"
    }
  },
  {
    "service_request": "2023-1009010",
    "request_type": "Abandoned Vehicles",
    "request_reason": "Abandoned/Junk Vehicles",
    "date_created": "2023-06-15T14:12:02.000",
    "date_modified": "2023-06-15T14:19:00.000",
    "request_status": "Pending",
    "responsible_agency": "Department of Public Works",
    "final_address": "2700 BLK N Peters St",
    "address_councildis": "C",
    "status": "Inspected",
    "rowid": "1009010",
    "final_x": "3686976.14963",
    "final_y": "534038.324099",
    "longitude": "-90.05068964062791",
    "latitude": "29.9622528002218",
    "geocoded_column": {
      "latitude": "29.9622528002218",
      "longitude": "-90.05068964062791"
    }
  },
  {
    "service_request": "2023-1009008",
    "request_type": "Abandoned Vehicles",
    "request_reason": "Abandoned/Junk Vehicles",
    "date_created": "2023-06-15T14:08:27.000",
    "date_modified": "2023-06-15T14:08:27.000",
    "request_status": "Pending",
    "responsible_agency": "Department of Public Works",
    "final_address": "5539 Montegut Dr",
    "address_councildis": "D",
    "status": "Pending",
    "rowid": "1009008",
    "final_x": "3689733.84604",
    "final_y": "553755.959447",
    "longitude": "-90.04127916107161",
    "latitude": "30.016384038988658",
    "geocoded_column": {
      "latitude": "30.016384038988658",
      "longitude": "-90.04127916107161"
    }
  },
  {
    "service_request": "2023-1009007",
    "request_type": "Trash/Recycling",
    "request_reason": "Illegal Dumping",
    "date_created": "2023-06-15T14:06:16.000",
    "date_modified": "2023-06-15T14:06:17.000",
    "request_status": "Pending",
    "responsible_agency": "Department of Sanitation",
    "final_address": "2547 Palmyra St",
    "address_councildis": "B",
    "status": "Pending",
    "rowid": "1009007",
    "final_x": "3675382.90005",
    "final_y": "534126.723589",
    "longitude": "-90.08729643403625",
    "latitude": "29.962847610398626",
    "geocoded_column": {
      "latitude": "29.962847610398626",
      "longitude": "-90.08729643403625"
    }
  },
  {
    "service_request": "2023-1009006",
    "request_type": "Parks & Parkways",
    "request_reason": "Request Tree Service (Right of Way/Public Property)",
    "date_created": "2023-06-15T14:04:12.000",
    "date_modified": "2023-06-15T14:04:13.000",
    "request_status": "Pending",
    "responsible_agency": "Department of Parks & Parkway",
    "final_address": "2323 Louisiana Ave",
    "address_councildis": "B",
    "status": "Pending",
    "rowid": "1009006",
    "final_x": "3673198.781",
    "final_y": "524043.258428",
    "longitude": "-90.09453787117123",
    "latitude": "29.935186533183003",
    "geocoded_column": {
      "latitude": "29.935186533183003",
      "longitude": "-90.09453787117123"
    }
  },
  {
    "service_request": "2023-1009003",
    "request_type": "Abandoned Vehicles",
    "request_reason": "Abandoned/Junk Vehicles",
    "date_created": "2023-06-15T14:03:02.000",
    "date_modified": "2023-06-15T14:03:02.000",
    "request_status": "Pending",
    "responsible_agency": "Department of Public Works",
    "final_address": "5435 Press Dr",
    "address_councildis": "D",
    "status": "Pending",
    "rowid": "1009003",
    "final_x": "3689416.42748",
    "final_y": "553391.556503",
    "longitude": "-90.04229503585978",
    "latitude": "30.01539190363039",
    "geocoded_column": {
      "latitude": "30.01539190363039",
      "longitude": "-90.04229503585978"
    }
  },
  {
    "service_request": "2023-1009002",
    "request_type": "Property Maintenance",
    "request_reason": "Property Maintenance",
    "date_created": "2023-06-15T14:00:37.000",
    "date_modified": "2023-06-15T14:00:37.000",
    "request_status": "Pending",
    "responsible_agency": "Department of Code Enforcement",
    "final_address": "248 Cherokee St",
    "address_councildis": "A",
    "status": "Pending",
    "rowid": "1009002",
    "final_x": "3661212.55507",
    "final_y": "524446.792764",
    "longitude": "-90.13236520500695",
    "latitude": "29.93664700232731",
    "geocoded_column": {
      "latitude": "29.93664700232731",
      "longitude": "-90.13236520500695"
    }
  },
  {
    "service_request": "2023-1009001",
    "request_type": "Property Maintenance",
    "request_reason": "Property Maintenance",
    "date_created": "2023-06-15T13:59:06.000",
    "date_modified": "2023-06-15T13:59:06.000",
    "request_status": "Pending",
    "responsible_agency": "Department of Code Enforcement",
    "final_address": "5601 Press Dr",
    "address_councildis": "D",
    "status": "Pending",
    "rowid": "1009001",
    "final_x": "3689512.90575",
    "final_y": "553968.845784",
    "longitude": "-90.04196965413101",
    "latitude": "30.01697624586019",
    "geocoded_column": {
      "latitude": "30.01697624586019",
      "longitude": "-90.04196965413101"
    }
  },
  {
    "service_request": "2023-1009000",
    "request_type": "Traffic Signals/Signs/Striping/Streetlights",
    "request_reason": "Street Light Outage/Malfunction",
    "date_created": "2023-06-15T13:58:49.000",
    "date_modified": "2023-06-15T13:58:50.000",
    "request_status": "Pending",
    "responsible_agency": "Department of Public Works",
    "final_address": "4420 S Rocheblave St",
    "address_councildis": "B",
    "status": "Assigned to Contractor",
    "contractor": "Legacy Professional Services",
    "rowid": "1009000",
    "final_x": "3669883.54087",
    "final_y": "528366.96128",
    "longitude": "-90.10485776147463",
    "latitude": "29.94717345162337",
    "geocoded_column": {
      "latitude": "29.94717345162337",
      "longitude": "-90.10485776147463"
    }
  },
  {
    "service_request": "2023-1008999",
    "request_type": "Trash/Recycling",
    "request_reason": "MIssed Recycling Pick-Up",
    "date_created": "2023-06-15T13:57:28.000",
    "date_modified": "2023-06-15T13:57:29.000",
    "request_status": "Pending",
    "responsible_agency": "Department of Sanitation",
    "final_address": "1815 Dumaine St",
    "address_councildis": "D",
    "status": "Assigned to Contractor",
    "contractor": "Richards Disposal",
    "rowid": "1008999",
    "final_x": "3679827.44815",
    "final_y": "535532.284422",
    "longitude": "-90.0732123076612",
    "latitude": "29.96657877813849",
    "geocoded_column": {
      "latitude": "29.96657877813849",
      "longitude": "-90.0732123076612"
    }
  },
  {
    "service_request": "2023-1008998",
    "request_type": "Trash/Recycling",
    "request_reason": "Request a Large Item Pick Up",
    "date_created": "2023-06-15T13:55:29.000",
    "date_modified": "2023-06-15T13:55:30.000",
    "request_status": "Pending",
    "responsible_agency": "Department of Sanitation",
    "final_address": "3512 Nashville Ave",
    "address_councildis": "A",
    "status": "Assigned to Contractor",
    "contractor": "Richards Disposal",
    "rowid": "1008998",
    "final_x": "3668105.81396",
    "final_y": "528569.547392",
    "longitude": "-90.11046390699097",
    "latitude": "29.94778278467895",
    "geocoded_column": {
      "latitude": "29.94778278467895",
      "longitude": "-90.11046390699097"
    }
  },
  {
    "service_request": "2023-1008997",
    "request_type": "Abandoned Vehicles",
    "request_reason": "Abandoned/Junk Vehicles",
    "date_created": "2023-06-15T13:54:34.000",
    "date_modified": "2023-06-15T13:54:34.000",
    "request_status": "Pending",
    "responsible_agency": "Department of Public Works",
    "final_address": "719 Desire St",
    "address_councildis": "C",
    "status": "Pending",
    "rowid": "1008997",
    "final_x": "3689907.17865",
    "final_y": "534358.634373",
    "longitude": "-90.04142250575885",
    "latitude": "29.963043000816846",
    "geocoded_column": {
      "latitude": "29.963043000816846",
      "longitude": "-90.04142250575885"
    }
  },
  {
    "service_request": "2023-1008996",
    "request_type": "Trash/Recycling",
    "request_reason": "Order Recycling Cart",
    "date_created": "2023-06-15T13:51:57.000",
    "date_modified": "2023-06-15T13:51:57.000",
    "request_status": "Pending",
    "responsible_agency": "Department of Sanitation",
    "final_address": "2616 Joseph St",
    "address_councildis": "A",
    "status": "Pending",
    "rowid": "1008996",
    "final_x": "3667572.31757",
    "final_y": "525579.725437",
    "longitude": "-90.11224897177817",
    "latitude": "29.93957738526633",
    "geocoded_column": {
      "latitude": "29.93957738526633",
      "longitude": "-90.11224897177817"
    }
  },
  {
    "service_request": "2023-1008995",
    "request_type": "Trash/Recycling",
    "request_reason": "Missed Trash Pick-Up",
    "date_created": "2023-06-15T13:51:33.000",
    "date_modified": "2023-06-15T13:51:33.000",
    "request_status": "Pending",
    "responsible_agency": "Department of Sanitation",
    "final_address": "2314 Delery St",
    "address_councildis": "E",
    "status": "Assigned to Contractor",
    "contractor": "Waste Pro",
    "rowid": "1008995",
    "final_x": "3702208.70065",
    "final_y": "537434.866696",
    "longitude": "-90.00246323893724",
    "latitude": "29.971114425544155",
    "geocoded_column": {
      "latitude": "29.971114425544155",
      "longitude": "-90.00246323893724"
    }
  },
  {
    "service_request": "2023-1008994",
    "request_type": "Trash/Recycling",
    "request_reason": "Order Trash Cart",
    "date_created": "2023-06-15T13:51:07.000",
    "date_modified": "2023-06-15T13:51:08.000",
    "request_status": "Pending",
    "responsible_agency": "Department of Sanitation",
    "final_address": "2616 Joseph St",
    "address_councildis": "A",
    "status": "Assigned to Contractor",
    "contractor": "Richards Disposal",
    "rowid": "1008994",
    "final_x": "3667572.31757",
    "final_y": "525579.725437",
    "longitude": "-90.11224897177817",
    "latitude": "29.93957738526633",
    "geocoded_column": {
      "latitude": "29.93957738526633",
      "longitude": "-90.11224897177817"
    }
  },
  {
    "service_request": "2023-1008993",
    "request_type": "Trash/Recycling",
    "request_reason": "Illegal Dumping",
    "date_created": "2023-06-15T13:48:11.000",
    "date_modified": "2023-06-15T13:49:38.000",
    "request_status": "Pending",
    "responsible_agency": "Department of Sanitation",
    "final_address": "2401 General De Gaulle Dr",
    "address_councildis": "C",
    "status": "Pending",
    "rowid": "1008993",
    "final_x": "3692487.06275",
    "final_y": "522231.918138",
    "longitude": "-90.0337099192038",
    "latitude": "29.929618481014572",
    "geocoded_column": {
      "latitude": "29.929618481014572",
      "longitude": "-90.0337099192038"
    }
  },
  {
    "service_request": "2023-1008992",
    "request_type": "Trash/Recycling",
    "request_reason": "Missed Trash Pick-Up",
    "date_created": "2023-06-15T13:47:15.000",
    "date_modified": "2023-06-15T13:58:13.000",
    "request_status": "Pending",
    "responsible_agency": "Department of Sanitation",
    "final_address": "3600 BLK Simms St",
    "address_councildis": "C",
    "status": "Assigned to Contractor",
    "contractor": "Richards Disposal",
    "rowid": "1008992",
    "final_x": "3714069.32642",
    "final_y": "517838.18524",
    "longitude": "-89.96574485738653",
    "latitude": "29.91684654873127",
    "geocoded_column": {
      "latitude": "29.91684654873127",
      "longitude": "-89.96574485738653"
    }
  },
  {
    "service_request": "2023-1008991",
    "request_type": "Trash/Recycling",
    "request_reason": "Request a Large Item Pick Up",
    "date_created": "2023-06-15T13:45:42.000",
    "date_modified": "2023-06-15T13:45:42.000",
    "request_status": "Pending",
    "responsible_agency": "Department of Sanitation",
    "final_address": "237 Dauphine St",
    "address_councildis": "C",
    "status": "Assigned to Contractor",
    "contractor": "Empire Services",
    "rowid": "1008991",
    "final_x": "3681009.33679",
    "final_y": "531713.167683",
    "longitude": "-90.06961293138833",
    "latitude": "29.956041717074235",
    "geocoded_column": {
      "latitude": "29.956041717074235",
      "longitude": "-90.06961293138833"
    }
  },
  {
    "service_request": "2023-1008990",
    "request_type": "Roads/Drainage",
    "request_reason": "Accessibility Ramps, Curbs and Sidewalk Repair",
    "date_created": "2023-06-15T13:42:16.000",
    "date_modified": "2023-06-15T13:42:16.000",
    "request_status": "Pending",
    "responsible_agency": "Department of Public Works",
    "final_address": "2120 Rousseau St",
    "address_councildis": "B",
    "status": "Pending",
    "rowid": "1008990",
    "final_x": "3680388.31112",
    "final_y": "520381.419896",
    "longitude": "-90.07196781025753",
    "latitude": "29.924901997001097",
    "geocoded_column": {
      "latitude": "29.924901997001097",
      "longitude": "-90.07196781025753"
    }
  },
  {
    "service_request": "2023-1008989",
    "request_type": "Traffic Signals/Signs/Striping/Streetlights",
    "request_reason": "Street Light Outage/Malfunction",
    "date_created": "2023-06-15T13:40:18.000",
    "date_modified": "2023-06-15T13:40:19.000",
    "request_status": "Pending",
    "responsible_agency": "Department of Public Works",
    "final_address": "5671 Cartier Ave",
    "address_councildis": "D",
    "status": "Assigned to Contractor",
    "contractor": "Legacy Professional Services",
    "rowid": "1008989",
    "final_x": "3677632.02766",
    "final_y": "553176.680727",
    "longitude": "-90.07953572114896",
    "latitude": "30.015160896382138",
    "geocoded_column": {
      "latitude": "30.015160896382138",
      "longitude": "-90.07953572114896"
    }
  },
  {
    "service_request": "2023-1008988",
    "request_type": "Trash/Recycling",
    "request_reason": "Order Trash Cart",
    "date_created": "2023-06-15T13:34:48.000",
    "date_modified": "2023-06-15T13:34:48.000",
    "request_status": "Pending",
    "responsible_agency": "Department of Sanitation",
    "final_address": "2103 Josephine St Apt B",
    "address_councildis": "B",
    "status": "Assigned to Contractor",
    "contractor": "Richards Disposal",
    "rowid": "1008988",
    "final_x": "3676777.69857",
    "final_y": "525511.813373",
    "longitude": "-90.08318864682741",
    "latitude": "29.939117700296862",
    "geocoded_column": {
      "latitude": "29.939117700296862",
      "longitude": "-90.08318864682741"
    }
  },
  {
    "service_request": "2023-1008987",
    "request_type": "Property Maintenance",
    "request_reason": "Property Maintenance",
    "date_created": "2023-06-15T13:33:52.000",
    "date_modified": "2023-06-15T13:33:52.000",
    "request_status": "Pending",
    "responsible_agency": "Department of Code Enforcement",
    "final_address": "3650 Dickens Dr",
    "address_councildis": "C",
    "status": "Pending",
    "rowid": "1008987",
    "final_x": "3708161.73982",
    "final_y": "517370.391221",
    "longitude": "-89.98440888036102",
    "latitude": "29.915752831053346",
    "geocoded_column": {
      "latitude": "29.915752831053346",
      "longitude": "-89.98440888036102"
    }
  },
  {
    "service_request": "2023-1008986",
    "request_type": "Trash/Recycling",
    "request_reason": "Order Trash Cart",
    "date_created": "2023-06-15T13:33:50.000",
    "date_modified": "2023-06-15T13:33:51.000",
    "request_status": "Pending",
    "responsible_agency": "Department of Sanitation",
    "final_address": "2103 Josephine St Apt A",
    "address_councildis": "B",
    "status": "Assigned to Contractor",
    "contractor": "Richards Disposal",
    "rowid": "1008986",
    "final_x": "3676770.22376",
    "final_y": "525508.046205",
    "longitude": "-90.08321237548816",
    "latitude": "29.939107566064003",
    "geocoded_column": {
      "latitude": "29.939107566064003",
      "longitude": "-90.08321237548816"
    }
  },
  {
    "service_request": "2023-1008985",
    "request_type": "Property Maintenance",
    "request_reason": "Property Maintenance",
    "date_created": "2023-06-15T13:33:42.000",
    "date_modified": "2023-06-15T13:33:43.000",
    "request_status": "Pending",
    "responsible_agency": "Department of Code Enforcement",
    "final_address": "3620 Dickens Dr",
    "address_councildis": "C",
    "status": "Pending",
    "rowid": "1008985",
    "final_x": "3708259.22366",
    "final_y": "517527.913078",
    "longitude": "-89.98409533228647",
    "latitude": "29.916182805467688",
    "geocoded_column": {
      "latitude": "29.916182805467688",
      "longitude": "-89.98409533228647"
    }
  },
  {
    "service_request": "2023-1008984",
    "request_type": "Trash/Recycling",
    "request_reason": "Order Trash Cart",
    "date_created": "2023-06-15T13:33:13.000",
    "date_modified": "2023-06-15T13:33:14.000",
    "request_status": "Pending",
    "responsible_agency": "Department of Sanitation",
    "final_address": "2423 S Robertson St",
    "address_councildis": "B",
    "status": "Assigned to Contractor",
    "contractor": "Richards Disposal",
    "rowid": "1008984",
    "final_x": "3674774.01173",
    "final_y": "526152.36723",
    "longitude": "-90.08949258589755",
    "latitude": "29.940938971393017",
    "geocoded_column": {
      "latitude": "29.940938971393017",
      "longitude": "-90.08949258589755"
    }
  },
  {
    "service_request": "2023-1008983",
    "request_type": "Trash/Recycling",
    "request_reason": "Repair Trash Cart",
    "date_created": "2023-06-15T13:33:11.000",
    "date_modified": "2023-06-15T13:33:12.000",
    "request_status": "Pending",
    "responsible_agency": "Department of Sanitation",
    "final_address": "2101 Josephine St",
    "address_councildis": "B",
    "status": "Assigned to Contractor",
    "contractor": "Richards Disposal",
    "rowid": "1008983",
    "final_x": "3676768.73953",
    "final_y": "525485.620221",
    "longitude": "-90.0832178338333",
    "latitude": "29.93904594651091",
    "geocoded_column": {
      "latitude": "29.93904594651091",
      "longitude": "-90.0832178338333"
    }
  },
  {
    "service_request": "2023-1008982",
    "request_type": "Trash/Recycling",
    "request_reason": "MIssed Recycling Pick-Up",
    "date_created": "2023-06-15T13:32:42.000",
    "date_modified": "2023-06-15T13:32:43.000",
    "request_status": "Pending",
    "responsible_agency": "Department of Sanitation",
    "final_address": "719 S Dupre St",
    "address_councildis": "B",
    "status": "Assigned to Contractor",
    "contractor": "Richards Disposal",
    "rowid": "1008982",
    "final_x": "3673011.51131",
    "final_y": "533619.045125",
    "longitude": "-90.09480232008228",
    "latitude": "29.96152235837982",
    "geocoded_column": {
      "latitude": "29.96152235837982",
      "longitude": "-90.09480232008228"
    }
  },
  {
    "service_request": "2023-1008981",
    "request_type": "Trash/Recycling",
    "request_reason": "Request a Large Item Pick Up",
    "date_created": "2023-06-15T13:27:41.000",
    "date_modified": "2023-06-15T13:27:42.000",
    "request_status": "Pending",
    "responsible_agency": "Department of Sanitation",
    "final_address": "3129 Burgundy St",
    "address_councildis": "C",
    "status": "Assigned to Contractor",
    "contractor": "IV Waste",
    "rowid": "1008981",
    "final_x": "3689057.21615",
    "final_y": "535174.644614",
    "longitude": "-90.04407758231892",
    "latitude": "29.965313067325226",
    "geocoded_column": {
      "latitude": "29.965313067325226",
      "longitude": "-90.04407758231892"
    }
  },
  {
    "service_request": "2023-1008980",
    "request_type": "Traffic Signals/Signs/Striping/Streetlights",
    "request_reason": "Street Light Outage/Malfunction",
    "date_created": "2023-06-15T13:27:06.000",
    "date_modified": "2023-06-15T13:27:17.000",
    "request_status": "Pending",
    "responsible_agency": "Department of Public Works",
    "final_address": "1021 Moss St",
    "address_councildis": "A",
    "status": "Assigned to Contractor",
    "contractor": "Legacy Professional Services",
    "rowid": "1008980",
    "final_x": "3674816.06011",
    "final_y": "539961.676042",
    "longitude": "-90.08888632747582",
    "latitude": "29.97890868535699",
    "geocoded_column": {
      "latitude": "29.97890868535699",
      "longitude": "-90.08888632747582"
    }
  },
  {
    "service_request": "2023-1008979",
    "request_type": "Trash/Recycling",
    "request_reason": "Missed Trash Pick-Up",
    "date_created": "2023-06-15T13:21:25.000",
    "date_modified": "2023-06-15T13:21:26.000",
    "request_status": "Pending",
    "responsible_agency": "Department of Sanitation",
    "final_address": "4028 Prytania St",
    "address_councildis": "B",
    "status": "Assigned to Contractor",
    "contractor": "Richards Disposal",
    "rowid": "1008979",
    "final_x": "3672142.74375",
    "final_y": "520403.683704",
    "longitude": "-90.09799566101609",
    "latitude": "29.925210225338862",
    "geocoded_column": {
      "latitude": "29.925210225338862",
      "longitude": "-90.09799566101609"
    }
  },
  {
    "service_request": "2023-1008977",
    "request_type": "Trash/Recycling",
    "request_reason": "Request a Large Item Pick Up",
    "date_created": "2023-06-15T13:18:21.000",
    "date_modified": "2023-06-15T13:18:22.000",
    "request_status": "Pending",
    "responsible_agency": "Department of Sanitation",
    "final_address": "6111 Delord St",
    "address_councildis": "A",
    "status": "Assigned to Contractor",
    "contractor": "Richards Disposal",
    "rowid": "1008977",
    "final_x": "3666815.21575",
    "final_y": "526202.654974",
    "longitude": "-90.11461833668986",
    "latitude": "29.94131240445944",
    "geocoded_column": {
      "latitude": "29.94131240445944",
      "longitude": "-90.11461833668986"
    }
  },
  {
    "service_request": "2023-1008976",
    "request_type": "Property Maintenance",
    "request_reason": "Property Maintenance",
    "date_created": "2023-06-15T13:17:34.000",
    "date_modified": "2023-06-15T13:17:35.000",
    "request_status": "Pending",
    "responsible_agency": "Department of Code Enforcement",
    "final_address": "3925 N Johnson St",
    "address_councildis": "D",
    "status": "Pending",
    "rowid": "1008976",
    "final_x": "3692579.66429",
    "final_y": "538777.229577",
    "longitude": "-90.03282478681618",
    "latitude": "29.975109452067226",
    "geocoded_column": {
      "latitude": "29.975109452067226",
      "longitude": "-90.03282478681618"
    }
  },
  {
    "service_request": "2023-1008975",
    "request_type": "Property Maintenance",
    "request_reason": "Property Maintenance",
    "date_created": "2023-06-15T13:15:45.000",
    "date_modified": "2023-06-15T13:15:46.000",
    "request_status": "Pending",
    "responsible_agency": "Department of Code Enforcement",
    "final_address": "4948 Rosalia Dr",
    "address_councildis": "E",
    "status": "Pending",
    "rowid": "1008975",
    "final_x": "3710997.26398",
    "final_y": "557180.330907",
    "longitude": "-89.97396826636813",
    "latitude": "30.025123308925984",
    "geocoded_column": {
      "latitude": "30.025123308925984",
      "longitude": "-89.97396826636813"
    }
  },
  {
    "service_request": "2023-1008974",
    "request_type": "Parks & Parkways",
    "request_reason": "Request Tree Service (Right of Way/Public Property)",
    "date_created": "2023-06-15T13:13:33.000",
    "date_modified": "2023-06-15T13:13:33.000",
    "request_status": "Pending",
    "responsible_agency": "Department of Parks & Parkway",
    "final_address": "428 32Nd St",
    "address_councildis": "A",
    "status": "Pending",
    "rowid": "1008974",
    "final_x": "3664628.93972",
    "final_y": "550680.84418",
    "longitude": "-90.12070298600686",
    "latitude": "30.008683029673087",
    "geocoded_column": {
      "latitude": "30.008683029673087",
      "longitude": "-90.12070298600686"
    }
  },
  {
    "service_request": "2023-1008973",
    "request_type": "Trash/Recycling",
    "request_reason": "Return Recycling Cart",
    "date_created": "2023-06-15T13:10:37.000",
    "date_modified": "2023-06-15T13:10:38.000",
    "request_status": "Pending",
    "responsible_agency": "Department of Sanitation",
    "final_address": "6114 Louis Xiv St",
    "address_councildis": "A",
    "status": "Pending",
    "rowid": "1008973",
    "final_x": "3668078.08641",
    "final_y": "548079.063826",
    "longitude": "-90.1098937442213",
    "latitude": "30.001428220874132",
    "geocoded_column": {
      "latitude": "30.001428220874132",
      "longitude": "-90.1098937442213"
    }
  },
  {
    "service_request": "2023-1008972",
    "request_type": "Trash/Recycling",
    "request_reason": "Order Trash Cart",
    "date_created": "2023-06-15T13:09:04.000",
    "date_modified": "2023-06-15T13:09:05.000",
    "request_status": "Pending",
    "responsible_agency": "Department of Sanitation",
    "final_address": "2614 S Miro St",
    "address_councildis": "B",
    "status": "Assigned to Contractor",
    "contractor": "Richards Disposal",
    "rowid": "1008972",
    "final_x": "3672449.40308",
    "final_y": "528650.975616",
    "longitude": "-90.09674667416719",
    "latitude": "29.94787850754181",
    "geocoded_column": {
      "latitude": "29.94787850754181",
      "longitude": "-90.09674667416719"
    }
  },
  {
    "service_request": "2023-1008971",
    "request_type": "Trash/Recycling",
    "request_reason": "Request a Large Item Pick Up",
    "date_created": "2023-06-15T13:04:53.000",
    "date_modified": "2023-06-15T13:04:53.000",
    "request_status": "Pending",
    "responsible_agency": "Department of Sanitation",
    "final_address": "6417 Catina St",
    "address_councildis": "A",
    "status": "Assigned to Contractor",
    "contractor": "IV Waste",
    "rowid": "1008971",
    "final_x": "3667046.97991",
    "final_y": "550491.330132",
    "longitude": "-90.11306996283494",
    "latitude": "30.008091347459633",
    "geocoded_column": {
      "latitude": "30.008091347459633",
      "longitude": "-90.11306996283494"
    }
  },