[
  {
    "service_request": "2025-1231132",
    "request_type": "Trash/Recycling",
    "request_reason": "Dead Animal Pick Up",
    "date_created": "2025-10-04T21:49:17.000",
    "date_modified": "2025-10-04T21:49:20.000",
    "request_status": "Pending",
    "responsible_agency": "Department of Sanitation",
    "final_address": "4800 BLK Banks St",
    "address_councildis": "A",
    "status": "Assigned to Contractor",
    "contractor": "IV Waste",
    "rowid": "1231132",
    "final_x": "3667930.69265",
    "final_y": "539203.766196",
    "longitude": "-90.11065855667945",
    "latitude": "29.977028508337188",
    "geocoded_column": {
      "latitude": "29.977028508337188",
      "longitude": "-90.11065855667945"
    }
  },
  {
    "service_request": "2025-1231131",
    "request_type": "Property Maintenance",
    "request_reason": "Property Maintenance",
    "date_created": "2025-10-04T21:42:18.000",
    "date_modified": "2025-10-04T21:42:20.000",
    "request_status": "Pending",
    "responsible_agency": "Department of Code Enforcement",
    "final_address": "4947 Charlene Dr",
    "address_councildis": "E",
    "status": "Pending",
    "rowid": "1231131",
    "final_x": "3707839.48241",
    "final_y": "556849.70857",
    "longitude": "-89.98395857841219",
    "latitude": "30.02431685574397",
    "geocoded_column": {
      "latitude": "30.02431685574397",
      "longitude": "-89.98395857841219"
    }
  },
  {
    "service_request": "2025-1231130",
    "request_type": "Trash/Recycling",
    "request_reason": "Order Recycling Cart",
    "date_created": "2025-10-04T20:48:29.000",
    "date_modified": "2025-10-04T20:48:32.000",
    "request_status": "Pending",
    "responsible_agency": "Department of Sanitation",
    "final_address": "6320 N Rampart St",
    "address_councildis": "E",
    "status": "Pending",
    "rowid": "1231130",
    "final_x": "3700111.46602",
    "final_y": "532527.37498",
    "longitude": "-90.00926563602006",
    "latitude": "29.957687394516938",
    "geocoded_column": {
      "latitude": "29.957687394516938",
      "longitude": "-90.00926563602006"
    }
  },
  {
    "service_request": "2025-1231129",
    "request_type": "Streetlights",
    "request_reason": "Streetlight Outage/Malfunction",
    "date_created": "2025-10-04T20:01:07.000",
    "date_modified": "2025-10-04T20:01:09.000",
    "request_status": "Pending",
    "responsible_agency": "Department of Public Works",
    "final_address": "3369 State Street Dr",
    "address_councildis": "A",
    "status": "Pending",
    "rowid": "1231129",
    "final_x": "3667858.05236",
    "final_y": "528807.869824",
    "longitude": "-90.11123816553213",
    "latitude": "29.948445362173977",
    "geocoded_column": {
      "latitude": "29.948445362173977",
      "longitude": "-90.11123816553213"
    }
  },
  {
    "service_request": "2025-1231128",
    "request_type": "Abandoned Vehicles",
    "request_reason": "Abandoned/Junk Vehicles",
    "date_created": "2025-10-04T18:39:08.000",
    "date_modified": "2025-10-04T18:39:10.000",
    "request_status": "Pending",
    "responsible_agency": "Department of Public Works",
    "final_address": "6741 Tara Ln Apt 48",
    "address_councildis": "E",
    "status": "Pending",
    "rowid": "1231128",
    "final_x": "3707569.81432",
    "final_y": "558953.00502",
    "longitude": "-89.98473245265204",
    "latitude": "30.0301088271831",
    "geocoded_column": {
      "latitude": "30.0301088271831",
      "longitude": "-89.98473245265204"
    }
  },
  {
    "service_request": "2025-1231127",
    "request_type": "Street and Traffic Signs",
    "request_reason": "Additional Signage Request",
    "date_created": "2025-10-04T18:17:34.000",
    "date_modified": "2025-10-04T18:17:36.000",
    "request_status": "Pending",
    "responsible_agency": "Department of Public Works",
    "final_address": "1241 Harmony St",
    "address_councildis": "B",
    "status": "Pending",
    "rowid": "1231127",
    "final_x": "3675506.41755",
    "final_y": "520648.428089",
    "longitude": "-90.08736920000389",
    "latitude": "29.92578305065559",
    "geocoded_column": {
      "latitude": "29.92578305065559",
      "longitude": "-90.08736920000389"
    }
  },
  {
    "service_request": "2025-1231126",
    "request_type": "Utility Poles",
    "request_reason": "Utility Pole Leaning",
    "date_created": "2025-10-04T18:06:58.000",
    "date_modified": "2025-10-04T18:07:01.000",
    "request_status": "Pending",
    "responsible_agency": "Utility Company Collective",
    "final_address": "6114 Shetland Dr",
    "address_councildis": "C",
    "status": "Pending",
    "rowid": "1231126",
    "final_x": "3705449.72587",
    "final_y": "520246.999672",
    "longitude": "-89.99286274552568",
    "latitude": "29.923750016966594",
    "geocoded_column": {
      "latitude": "29.923750016966594",
      "longitude": "-89.99286274552568"
    }
  },
  {
    "service_request": "2025-1231125",
    "request_type": "Abandoned Vehicles",
    "request_reason": "Abandoned/Junk Vehicles",
    "date_created": "2025-10-04T17:23:50.000",
    "date_modified": "2025-10-04T17:23:52.000",
    "request_status": "Pending",
    "responsible_agency": "Department of Public Works",
    "final_address": "1438 N Derbigny St",
    "address_councildis": "D",
    "status": "Pending",
    "rowid": "1231125",
    "final_x": "3681213.39784",
    "final_y": "537053.180552",
    "longitude": "-90.0687824885412",
    "latitude": "29.970718736931055",
    "geocoded_column": {
      "latitude": "29.970718736931055",
      "longitude": "-90.0687824885412"
    }
  },
  {
    "service_request": "2025-1231124",
    "request_type": "Trash/Recycling",
    "request_reason": "Missed Trash Pick-Up",
    "date_created": "2025-10-04T17:04:34.000",
    "date_modified": "2025-10-04T17:04:36.000",
    "request_status": "Pending",
    "responsible_agency": "Department of Sanitation",
    "final_address": "1032 Desire St, New Orleans, Louisiana, 70117",
    "address_councildis": "C",
    "status": "Assigned to Contractor",
    "contractor": "IV Waste",
    "rowid": "1231124",
    "final_x": "3690106.57372",
    "final_y": "535519.973126",
    "longitude": "-90.04075147220213",
    "latitude": "29.966230092923873",
    "geocoded_column": {
      "latitude": "29.966230092923873",
      "longitude": "-90.04075147220213"
    }
  },
  {
    "service_request": "2025-1231123",
    "request_type": "Trash/Recycling",
    "request_reason": "Request a Large Item Pick Up",
    "date_created": "2025-10-04T16:43:16.000",
    "date_modified": "2025-10-04T16:43:19.000",
    "request_status": "Pending",
    "responsible_agency": "Department of Sanitation",
    "final_address": "5011 Warren Dr",
    "address_councildis": "E",
    "status": "Assigned to Contractor",
    "contractor": "Waste Pro",
    "rowid": "1231123",
    "final_x": "3713398.4309",
    "final_y": "557565.618011",
    "longitude": "-89.96636651028481",
    "latitude": "30.02610415105788",
    "geocoded_column": {
      "latitude": "30.02610415105788",
      "longitude": "-89.96636651028481"
    }
  },
  {
    "service_request": "2025-1231122",
    "request_type": "Trash/Recycling",
    "request_reason": "Repair Trash Cart",
    "date_created": "2025-10-04T16:03:11.000",
    "date_modified": "2025-10-04T16:03:24.000",
    "request_status": "Pending",
    "responsible_agency": "Department of Sanitation",
    "final_address": "4934 Tchoupitoulas St",
    "address_councildis": "B",
    "status": "Assigned to Contractor",
    "contractor": "IV Waste",
    "rowid": "1231122",
    "final_x": "3668679.0443",
    "final_y": "517149.539765",
    "longitude": "-90.1090392492869",
    "latitude": "29.91636458202471",
    "geocoded_column": {
      "latitude": "29.91636458202471",
      "longitude": "-90.1090392492869"
    }
  },
  {
    "service_request": "2025-1231121",
    "request_type": "Trash/Recycling",
    "request_reason": "Request a Large Item Pick Up",
    "date_created": "2025-10-04T15:49:44.000",
    "date_modified": "2025-10-04T15:49:46.000",
    "request_status": "Pending",
    "responsible_agency": "Department of Sanitation",
    "final_address": "6164 Orleans Ave",
    "address_councildis": "A",
    "status": "Assigned to Contractor",
    "contractor": "IV Waste",
    "rowid": "1231121",
    "final_x": "3670950.03188",
    "final_y": "548222.455186",
    "longitude": "-90.10081610372717",
    "latitude": "30.001737868152187",
    "geocoded_column": {
      "latitude": "30.001737868152187",
      "longitude": "-90.10081610372717"
    }
  },
  {
    "service_request": "2025-1231120",
    "request_type": "Trash/Recycling",
    "request_reason": "Missed Trash Pick-Up",
    "date_created": "2025-10-04T15:36:58.000",
    "date_modified": "2025-10-04T15:37:02.000",
    "request_status": "Pending",
    "responsible_agency": "Department of Sanitation",
    "final_address": "1362 Laharpe St",
    "address_councildis": "C",
    "status": "Assigned to Contractor",
    "contractor": "IV Waste",
    "rowid": "1231120",
    "final_x": "3682575.05564",
    "final_y": "536942.829128",
    "longitude": "-90.06448607111692",
    "latitude": "29.97037391859323",
    "geocoded_column": {
      "latitude": "29.97037391859323",
      "longitude": "-90.06448607111692"
    }
  },
  {
    "service_request": "2025-1231119",
    "request_type": "Streetlights",
    "request_reason": "Streetlight Outage/Malfunction",
    "date_created": "2025-10-04T15:31:57.000",
    "date_modified": "2025-10-04T15:31:59.000",
    "request_status": "Pending",
    "responsible_agency": "Department of Public Works",
    "final_address": "6362 Orleans Ave",
    "address_councildis": "A",
    "status": "Pending",
    "rowid": "1231119",
    "final_x": "3671053.85268",
    "final_y": "549580.288659",
    "longitude": "-90.1004419680292",
    "latitude": "30.005468364099222",
    "geocoded_column": {
      "latitude": "30.005468364099222",
      "longitude": "-90.1004419680292"
    }
  },
  {
    "service_request": "2025-1231118",
    "request_type": "Trash/Recycling",
    "request_reason": "Illegal Dumping",
    "date_created": "2025-10-04T15:31:31.000",
    "date_modified": "2025-10-04T15:31:34.000",
    "request_status": "Pending",
    "responsible_agency": "Department of Sanitation",
    "final_address": "1362 Laharpe St",
    "address_councildis": "C",
    "status": "Pending",
    "rowid": "1231118",
    "final_x": "3682575.05564",
    "final_y": "536942.829128",
    "longitude": "-90.06448607111692",
    "latitude": "29.97037391859323",
    "geocoded_column": {
      "latitude": "29.97037391859323",
      "longitude": "-90.06448607111692"
    }
  },
  {
    "service_request": "2025-1231117",
    "request_type": "Trash/Recycling",
    "request_reason": "Request a Large Item Pick Up",
    "date_created": "2025-10-04T15:20:05.000",
    "date_modified": "2025-10-04T15:20:06.000",
    "request_status": "Pending",
    "responsible_agency": "Department of Sanitation",
    "final_address": "7561 Vincent Rd",
    "address_councildis": "E",
    "status": "Assigned to Contractor",
    "contractor": "Waste Pro",
    "rowid": "1231117",
    "final_x": "3718757.16479",
    "final_y": "571351.245352",
    "longitude": "-89.94890748320675",
    "latitude": "30.063832113356852",
    "geocoded_column": {
      "latitude": "30.063832113356852",
      "longitude": "-89.94890748320675"
    }
  },
  {
    "service_request": "2025-1231116",
    "request_type": "Trash/Recycling",
    "request_reason": "Request a Large Item Pick Up",
    "date_created": "2025-10-04T15:17:36.000",
    "date_modified": "2025-10-04T15:17:38.000",
    "request_status": "Pending",
    "responsible_agency": "Department of Sanitation",
    "final_address": "6125 Dauphine St",
    "address_councildis": "E",
    "status": "Assigned to Contractor",
    "contractor": "Waste Pro",
    "rowid": "1231116",
    "final_x": "3699285.53303",
    "final_y": "532232.959939",
    "longitude": "-90.01188439756717",
    "latitude": "29.956904074567028",
    "geocoded_column": {
      "latitude": "29.956904074567028",
      "longitude": "-90.01188439756717"
    }
  },
  {
    "service_request": "2025-1231115",
    "request_type": "Property Maintenance",
    "request_reason": "Property Maintenance",
    "date_created": "2025-10-04T15:05:32.000",
    "date_modified": "2025-10-04T15:05:34.000",
    "request_status": "Pending",
    "responsible_agency": "Department of Code Enforcement",
    "final_address": "2424 St Philip St",
    "address_councildis": "D",
    "status": "Pending",
    "rowid": "1231115",
    "final_x": "3678288.80968",
    "final_y": "537109.658376",
    "longitude": "-90.07801674224068",
    "latitude": "29.970962454845534",
    "geocoded_column": {
      "latitude": "29.970962454845534",
      "longitude": "-90.07801674224068"
    }
  },
  {
    "service_request": "2025-1231114",
    "request_type": "Abandoned Vehicles",
    "request_reason": "Abandoned/Junk Vehicles",
    "date_created": "2025-10-04T15:01:39.000",
    "date_modified": "2025-10-04T15:01:42.000",
    "request_status": "Pending",
    "responsible_agency": "Department of Public Works",
    "final_address": "0 BLK French Market Pl",
    "address_councildis": "C",
    "status": "Pending",
    "rowid": "1231114",
    "final_x": "3684510.60863",
    "final_y": "533473.450557",
    "longitude": "-90.05849529192028",
    "latitude": "29.960775249897164",
    "geocoded_column": {
      "latitude": "29.960775249897164",
      "longitude": "-90.05849529192028"
    }
  },
  {
    "service_request": "2025-1231113",
    "request_type": "Mosquito, Termite & Rodent Control",
    "request_reason": "Non-Rodent Complaint (Possums & Snakes)",
    "date_created": "2025-10-04T14:36:33.000",
    "date_modified": "2025-10-04T14:36:34.000",
    "request_status": "Pending",
    "responsible_agency": "Mosquito, Termite & Rodent Control Board",
    "final_address": "4829 Laurel St",
    "address_councildis": "B",
    "status": "Pending",
    "rowid": "1231113",
    "final_x": "3669412.64602",
    "final_y": "517919.147702",
    "longitude": "-90.10669769559857",
    "latitude": "29.91845918811824",
    "geocoded_column": {
      "latitude": "29.91845918811824",
      "longitude": "-90.10669769559857"
    }
  },
  {
    "service_request": "2025-1231112",
    "request_type": "Property Maintenance",
    "request_reason": "Property Maintenance",
    "date_created": "2025-10-04T14:33:39.000",
    "date_modified": "2025-10-04T14:33:41.000",
    "request_status": "Pending",
    "responsible_agency": "Department of Code Enforcement",
    "final_address": "1908 First St",
    "address_councildis": "B",
    "status": "Pending",
    "rowid": "1231112",
    "final_x": "3676200.80385",
    "final_y": "524134.4647",
    "longitude": "-90.08505734737363",
    "latitude": "29.935347737023697",
    "geocoded_column": {
      "latitude": "29.935347737023697",
      "longitude": "-90.08505734737363"
    }
  },
  {
    "service_request": "2025-1231111",
    "request_type": "Parks & Parkways",
    "request_reason": "Request Grass Cutting Service (City Owned Property)",
    "date_created": "2025-10-04T14:32:32.000",
    "date_modified": "2025-10-04T14:32:34.000",
    "request_status": "Pending",
    "responsible_agency": "Department of Parks & Parkway",
    "final_address": "7501 Parry St",
    "address_councildis": "E",
    "status": "Pending",
    "rowid": "1231111",
    "final_x": "3714835.80671",
    "final_y": "567940.934437",
    "longitude": "-89.96143210692647",
    "latitude": "30.054584854320343",
    "geocoded_column": {
      "latitude": "30.054584854320343",
      "longitude": "-89.96143210692647"
    }
  },
  {
    "service_request": "2025-1231110",
    "request_type": "Parks & Parkways",
    "request_reason": "Request Tree Service (Right of Way/Public Property)",
    "date_created": "2025-10-04T14:14:50.000",
    "date_modified": "2025-10-04T14:46:52.000",
    "request_status": "Pending",
    "responsible_agency": "Department of Parks & Parkway",
    "final_address": "3400 BLK Magazine St",
    "address_councildis": "B",
    "status": "Pending",
    "rowid": "1231110",
    "final_x": "3674563.58522",
    "final_y": "519438.183024",
    "longitude": "-90.09038688448878",
    "latitude": "29.92248342256901",
    "geocoded_column": {
      "latitude": "29.92248342256901",
      "longitude": "-90.09038688448878"
    }
  },
  {
    "service_request": "2025-1231109",
    "request_type": "Trash/Recycling",
    "request_reason": "Request a Large Item Pick Up",
    "date_created": "2025-10-04T13:26:12.000",
    "date_modified": "2025-10-04T13:26:14.000",
    "request_status": "Pending",
    "responsible_agency": "Department of Sanitation",
    "final_address": "1016 N White St",
    "address_councildis": "A",
    "status": "Assigned to Contractor",
    "contractor": "IV Waste",
    "rowid": "1231109",
    "final_x": "3677110.0381",
    "final_y": "538292.274313",
    "longitude": "-90.08169866082069",
    "latitude": "29.974249700339058",
    "geocoded_column": {
      "latitude": "29.974249700339058",
      "longitude": "-90.08169866082069"
    }
  },
  {
    "service_request": "2025-1231108",
    "request_type": "General Services",
    "request_reason": "General Service Request",
    "date_created": "2025-10-04T13:09:11.000",
    "date_modified": "2025-10-04T13:09:14.000",
    "request_status": "Pending",
    "responsible_agency": "Orleans Parish Communication District",
    "final_address": "726 Alix St",
    "address_councildis": "C",
    "status": "Pending",
    "rowid": "1231108",
    "final_x": "3687752.99331",
    "final_y": "530396.186178",
    "longitude": "-90.04836546645329",
    "latitude": "29.952214243882917",
    "geocoded_column": {
      "latitude": "29.952214243882917",
      "longitude": "-90.04836546645329"
    }
  },
  {
    "service_request": "2025-1231107",
    "request_type": "Trash/Recycling",
    "request_reason": "Request a Large Item Pick Up",
    "date_created": "2025-10-04T13:03:54.000",
    "date_modified": "2025-10-04T13:03:56.000",
    "request_status": "Pending",
    "responsible_agency": "Department of Sanitation",
    "final_address": "3427 Magnolia St",
    "address_councildis": "B",
    "status": "Assigned to Contractor",
    "contractor": "IV Waste",
    "rowid": "1231107",
    "final_x": "3672365.89159",
    "final_y": "525070.496253",
    "longitude": "-90.09713231897864",
    "latitude": "29.938035837246492",
    "geocoded_column": {
      "latitude": "29.938035837246492",
      "longitude": "-90.09713231897864"
    }
  },
  {
    "service_request": "2025-1231105",
    "request_type": "Abandoned Vehicles",
    "request_reason": "Abandoned/Junk Vehicles",
    "date_created": "2025-10-04T12:58:24.000",
    "date_modified": "2025-10-04T12:58:26.000",
    "request_status": "Pending",
    "responsible_agency": "Department of Public Works",
    "final_address": "4508 Papania Dr",
    "address_councildis": "E",
    "status": "Pending",
    "rowid": "1231105",
    "final_x": "3715380.8284",
    "final_y": "555726.508377",
    "longitude": "-89.96017209481711",
    "latitude": "30.020982152505237",
    "geocoded_column": {
      "latitude": "30.020982152505237",
      "longitude": "-89.96017209481711"
    }
  },
  {
    "service_request": "2025-1231104",
    "request_type": "Streetlights",
    "request_reason": "Streetlight Outage/Malfunction",
    "date_created": "2025-10-04T12:45:52.000",
    "date_modified": "2025-10-04T12:45:54.000",
    "request_status": "Pending",
    "responsible_agency": "Department of Public Works",
    "final_address": "7000 BLK Panola St",
    "address_councildis": "A",
    "status": "Pending",
    "rowid": "1231104",
    "final_x": "3666250.65106",
    "final_y": "528931.288382",
    "longitude": "-90.1163092820989",
    "latitude": "29.948831764906927",
    "geocoded_column": {
      "latitude": "29.948831764906927",
      "longitude": "-90.1163092820989"
    }
  },
  {
    "service_request": "2025-1231103",
    "request_type": "Abandoned Vehicles",
    "request_reason": "Abandoned/Junk Vehicles",
    "date_created": "2025-10-04T12:35:25.000",
    "date_modified": "2025-10-04T12:35:27.000",
    "request_status": "Pending",
    "responsible_agency": "Department of Public Works",
    "final_address": "2510 Frenchmen St",
    "address_councildis": "D",
    "status": "Pending",
    "rowid": "1231103",
    "final_x": "3684133.02396",
    "final_y": "541539.02606",
    "longitude": "-90.05940446318336",
    "latitude": "29.98296432384742",
    "geocoded_column": {
      "latitude": "29.98296432384742",
      "longitude": "-90.05940446318336"
    }
  },
  {
    "service_request": "2025-1231102",
    "request_type": "Trash/Recycling",
    "request_reason": "Order Recycling Cart",
    "date_created": "2025-10-04T12:15:47.000",
    "date_modified": "2025-10-04T12:15:49.000",
    "request_status": "Pending",
    "responsible_agency": "Department of Sanitation",
    "final_address": "1210 Camp St Apt B",
    "address_councildis": "B",
    "status": "Pending",
    "rowid": "1231102",
    "final_x": "3680278.86152",
    "final_y": "525597.442813",
    "longitude": "-90.07213207703889",
    "latitude": "29.939247654735215",
    "geocoded_column": {
      "latitude": "29.939247654735215",
      "longitude": "-90.07213207703889"
    }
  },
  {
    "service_request": "2025-1231101",
    "request_type": "Roads and Streets",
    "request_reason": "Curb Damage",
    "date_created": "2025-10-04T12:01:07.000",
    "date_modified": "2025-10-04T12:01:09.000",
    "request_status": "Pending",
    "responsible_agency": "Department of Public Works",
    "final_address": "240 Pelican Ave",
    "address_councildis": "C",
    "status": "Pending",
    "rowid": "1231101",
    "final_x": "3686142.54665",
    "final_y": "530254.158913",
    "longitude": "-90.05345550826965",
    "latitude": "29.95187327769228",
    "geocoded_column": {
      "latitude": "29.95187327769228",
      "longitude": "-90.05345550826965"
    }
  },
  {
    "service_request": "2025-1231100",
    "request_type": "Streetlights",
    "request_reason": "Streetlight Outage/Malfunction",
    "date_created": "2025-10-04T11:59:02.000",
    "date_modified": "2025-10-04T11:59:05.000",
    "request_status": "Pending",
    "responsible_agency": "Department of Public Works",
    "final_address": "920 Poeyfarre St",
    "address_councildis": "B",
    "status": "Pending",
    "rowid": "1231100",
    "final_x": "3681386.82191",
    "final_y": "526445.697534",
    "longitude": "-90.0686045498335",
    "latitude": "29.941546493588717",
    "geocoded_column": {
      "latitude": "29.941546493588717",
      "longitude": "-90.0686045498335"
    }
  },
  {
    "service_request": "2025-1231099",
    "request_type": "Streetlights",
    "request_reason": "Streetlight Outage/Malfunction",
    "date_created": "2025-10-04T11:59:02.000",
    "date_modified": "2025-10-04T11:59:05.000",
    "request_status": "Pending",
    "responsible_agency": "Department of Public Works",
    "final_address": "920 Poeyfarre St",
    "address_councildis": "B",
    "status": "Pending",
    "rowid": "1231099",
    "final_x": "3681386.82191",
    "final_y": "526445.697534",
    "longitude": "-90.0686045498335",
    "latitude": "29.941546493588717",
    "geocoded_column": {
      "latitude": "29.941546493588717",
      "longitude": "-90.0686045498335"
    }
  },
  {
    "service_request": "2025-1231098",
    "request_type": "Streetlights",
    "request_reason": "Streetlight Outage/Malfunction",
    "date_created": "2025-10-04T11:55:48.000",
    "date_modified": "2025-10-04T11:55:51.000",
    "request_status": "Pending",
    "responsible_agency": "Department of Public Works",
    "final_address": "920 Poeyfarre St",
    "address_councildis": "B",
    "status": "Pending",
    "rowid": "1231098",
    "final_x": "3681386.82191",
    "final_y": "526445.697534",
    "longitude": "-90.0686045498335",
    "latitude": "29.941546493588717",
    "geocoded_column": {
      "latitude": "29.941546493588717",
      "longitude": "-90.0686045498335"
    }
  },
  {
    "service_request": "2025-1231097",
    "request_type": "Trash/Recycling",
    "request_reason": "Request a Large Item Pick Up",
    "date_created": "2025-10-04T11:48:50.000",
    "date_modified": "2025-10-04T11:48:53.000",
    "request_status": "Pending",
    "responsible_agency": "Department of Sanitation",
    "final_address": "26 N Oak Ridge Ct",
    "address_councildis": "E",
    "status": "Assigned to Contractor",
    "contractor": "Waste Pro",
    "rowid": "1231097",
    "final_x": "3713559.30552",
    "final_y": "568057.648485",
    "longitude": "-89.96546239650077",
    "latitude": "30.05494773178899",
    "geocoded_column": {
      "latitude": "30.05494773178899",
      "longitude": "-89.96546239650077"
    }
  },
  {
    "service_request": "2025-1231096",
    "request_type": "Trash/Recycling",
    "request_reason": "Request a Large Item Pick Up",
    "date_created": "2025-10-04T11:47:11.000",
    "date_modified": "2025-10-04T11:47:13.000",
    "request_status": "Pending",
    "responsible_agency": "Department of Sanitation",
    "final_address": "432 Bermuda St",
    "address_councildis": "C",
    "status": "Assigned to Contractor",
    "contractor": "Richards Disposal",
    "rowid": "1231096",
    "final_x": "3686768.44815",
    "final_y": "530346.626434",
    "longitude": "-90.05147594675714",
    "latitude": "29.95210829351578",
    "geocoded_column": {
      "latitude": "29.95210829351578",
      "longitude": "-90.05147594675714"
    }
  },
  {
    "service_request": "2025-1231095",
    "request_type": "General Services",
    "request_reason": "General Service Request",
    "date_created": "2025-10-04T11:19:04.000",
    "date_modified": "2025-10-04T11:19:06.000",
    "request_status": "Pending",
    "responsible_agency": "Orleans Parish Communication District",
    "final_address": "4745 Tulip St, New Orleans, Louisiana, 70126",
    "address_councildis": "E",
    "status": "Pending",
    "rowid": "1231095",
    "final_x": "3702127.19357",
    "final_y": "554346.128024",
    "longitude": "-90.00210015633633",
    "latitude": "30.017616699108352",
    "geocoded_column": {
      "latitude": "30.017616699108352",
      "longitude": "-90.00210015633633"
    }
  },
  {
    "service_request": "2025-1231094",
    "request_type": "Trash/Recycling",
    "request_reason": "Missed Trash Pick-Up",
    "date_created": "2025-10-04T11:17:25.000",
    "date_modified": "2025-10-04T12:05:08.000",
    "case_close_date": "2025-10-04T07:05:08.000",
    "request_status": "Closed",
    "responsible_agency": "Department of Sanitation",
    "final_address": "1832 Felicity St, New Orleans, Louisiana, 70113",
    "address_councildis": "B",
    "status": "Invalid Request",
    "contractor": "IV Waste",
    "contractor_action": "Invalid",
    "rowid": "1231094",
    "final_x": "3677652.66779",
    "final_y": "525347.990973",
    "longitude": "-90.08043191648206",
    "latitude": "29.93864096489939",
    "geocoded_column": {
      "latitude": "29.93864096489939",
      "longitude": "-90.08043191648206"
    }
  },
  {
    "service_request": "2025-1231093",
    "request_type": "Trash/Recycling",
    "request_reason": "Replace Trash Cart",
    "date_created": "2025-10-04T11:09:38.000",
    "date_modified": "2025-10-04T11:09:39.000",
    "request_status": "Pending",
    "responsible_agency": "Department of Sanitation",
    "final_address": "1038 Montegut St",
    "address_councildis": "C",
    "status": "Assigned to Contractor",
    "contractor": "IV Waste",
    "rowid": "1231093",
    "final_x": "3688375.16195",
    "final_y": "536020.686087",
    "longitude": "-90.04620145767633",
    "latitude": "29.967660469798844",
    "geocoded_column": {
      "latitude": "29.967660469798844",
      "longitude": "-90.04620145767633"
    }
  },
  {
    "service_request": "2025-1231092",
    "request_type": "Traffic Signals",
    "request_reason": "Traffic Signal Malfunctioning or Damaged",
    "date_created": "2025-10-04T11:07:18.000",
    "date_modified": "2025-10-04T11:07:20.000",
    "request_status": "Pending",
    "responsible_agency": "Department of Public Works",
    "final_address": "1111 Poland Ave",
    "address_councildis": "D",
    "status": "Pending",
    "rowid": "1231092",
    "final_x": "3693198.2847",
    "final_y": "535193.421126",
    "longitude": "-90.03099967493971",
    "latitude": "29.965235929674588",
    "geocoded_column": {
      "latitude": "29.965235929674588",
      "longitude": "-90.03099967493971"
    }
  },
  {
    "service_request": "2025-1231091",
    "request_type": "Healthy Homes",
    "request_reason": "Healthy Homes",
    "date_created": "2025-10-04T10:55:13.000",
    "date_modified": "2025-10-04T10:55:15.000",
    "request_status": "Pending",
    "responsible_agency": "Department of Code Enforcement",
    "final_address": "5424 Urquhart St",
    "address_councildis": "E",
    "status": "Pending",
    "rowid": "1231091",
    "final_x": "3697614.85271",
    "final_y": "534607.00135",
    "longitude": "-90.01707373478395",
    "latitude": "29.96348471902758",
    "geocoded_column": {
      "latitude": "29.96348471902758",
      "longitude": "-90.01707373478395"
    }
  },
  {
    "service_request": "2025-1231090",
    "request_type": "Trash/Recycling",
    "request_reason": "Missed Trash Pick-Up",
    "date_created": "2025-10-04T10:35:44.000",
    "date_modified": "2025-10-04T11:41:44.000",
    "case_close_date": "2025-10-04T06:41:42.000",
    "request_status": "Closed",
    "responsible_agency": "Department of Sanitation",
    "final_address": "2806 N Rampart St",
    "address_councildis": "C",
    "status": "Invalid Request",
    "contractor": "IV Waste",
    "contractor_action": "Invalid",
    "rowid": "1231090",
    "final_x": "3687670.53148",
    "final_y": "535841.522247",
    "longitude": "-90.04843303715046",
    "latitude": "29.967189576934842",
    "geocoded_column": {
      "latitude": "29.967189576934842",
      "longitude": "-90.04843303715046"
    }
  },
  {
    "service_request": "2025-1231089",
    "request_type": "Property Maintenance",
    "request_reason": "Property Maintenance",
    "date_created": "2025-10-04T10:33:21.000",
    "date_modified": "2025-10-04T10:33:23.000",
    "request_status": "Pending",
    "responsible_agency": "Department of Code Enforcement",
    "final_address": "9110 Fig St",
    "address_councildis": "A",
    "status": "Pending",
    "rowid": "1231089",
    "final_x": "3663595.32096",
    "final_y": "535561.015494",
    "longitude": "-90.12447249497585",
    "latitude": "29.967138638530155",
    "geocoded_column": {
      "latitude": "29.967138638530155",
      "longitude": "-90.12447249497585"
    }
  },
  {
    "service_request": "2025-1231088",
    "request_type": "Property Maintenance",
    "request_reason": "Property Maintenance",
    "date_created": "2025-10-04T10:30:01.000",
    "date_modified": "2025-10-04T10:30:02.000",
    "request_status": "Pending",
    "responsible_agency": "Department of Code Enforcement",
    "final_address": "5805 Fontainebleau Dr",
    "address_councildis": "B",
    "status": "Pending",
    "rowid": "1231088",
    "final_x": "3668477.80218",
    "final_y": "529867.832577",
    "longitude": "-90.10924559784861",
    "latitude": "29.951341724272368",
    "geocoded_column": {
      "latitude": "29.951341724272368",
      "longitude": "-90.10924559784861"
    }
  },
  {
    "service_request": "2025-1231087",
    "request_type": "Trash/Recycling",
    "request_reason": "Illegal Dumping",
    "date_created": "2025-10-04T10:25:38.000",
    "date_modified": "2025-10-04T10:25:40.000",
    "request_status": "Pending",
    "responsible_agency": "Department of Sanitation",
    "final_address": "922 Gallier St",
    "address_councildis": "C",
    "status": "Pending",
    "rowid": "1231087",
    "final_x": "3690283.42134",
    "final_y": "535035.809734",
    "longitude": "-90.04021024798624",
    "latitude": "29.96489332662835",
    "geocoded_column": {
      "latitude": "29.96489332662835",
      "longitude": "-90.04021024798624"
    }
  },
  {
    "service_request": "2025-1231086",
    "request_type": "Trash/Recycling",
    "request_reason": "Missed Trash Pick-Up",
    "date_created": "2025-10-04T09:56:26.000",
    "date_modified": "2025-10-04T10:24:37.000",
    "case_close_date": "2025-10-04T05:24:35.000",
    "request_status": "Closed",
    "responsible_agency": "Department of Sanitation",
    "final_address": "1323 S Rampart St",
    "address_councildis": "B",
    "status": "Invalid Request",
    "contractor": "IV Waste",
    "contractor_action": "Invalid",
    "rowid": "1231086",
    "final_x": "3677937.42114",
    "final_y": "526815.906686",
    "longitude": "-90.07948220726023",
    "latitude": "29.942668683518782",
    "geocoded_column": {
      "latitude": "29.942668683518782",
      "longitude": "-90.07948220726023"
    }
  },
  {
    "service_request": "2025-1231085",
    "request_type": "Trash/Recycling",
    "request_reason": "Illegal Dumping",
    "date_created": "2025-10-04T09:37:10.000",
    "date_modified": "2025-10-04T09:37:13.000",
    "request_status": "Pending",
    "responsible_agency": "Department of Sanitation",
    "final_address": "1801 Fern St",
    "address_councildis": "A",
    "status": "Pending",
    "rowid": "1231085",
    "final_x": "3664008.98976",
    "final_y": "529411.681537",
    "longitude": "-90.12337118363833",
    "latitude": "29.950217968234927",
    "geocoded_column": {
      "latitude": "29.950217968234927",
      "longitude": "-90.12337118363833"
    }
  },
  {
    "service_request": "2025-1231084",
    "request_type": "Property Maintenance",
    "request_reason": "Property Maintenance",
    "date_created": "2025-10-04T09:01:35.000",
    "date_modified": "2025-10-04T09:01:36.000",
    "request_status": "Pending",
    "responsible_agency": "Department of Code Enforcement",
    "final_address": "1228 Gallier St",
    "address_councildis": "C",
    "status": "Pending",
    "rowid": "1231084",
    "final_x": "3690574.97276",
    "final_y": "536246.590471",
    "longitude": "-90.03924636760223",
    "latitude": "29.968213498292172",
    "geocoded_column": {
      "latitude": "29.968213498292172",
      "longitude": "-90.03924636760223"
    }
  },
  {
    "service_request": "2025-1231083",
    "request_type": "Roads and Streets",
    "request_reason": "Debris in Driving Lanes",
    "date_created": "2025-10-04T08:57:53.000",
    "date_modified": "2025-10-04T08:57:55.000",
    "request_status": "Pending",
    "responsible_agency": "Department of Public Works",
    "final_address": "1725 Foucher St",
    "address_councildis": "B",
    "status": "Pending",
    "rowid": "1231083",
    "final_x": "3673313.19131",
    "final_y": "521898.361914",
    "longitude": "-90.09424990211004",
    "latitude": "29.92928536028441",
    "geocoded_column": {
      "latitude": "29.92928536028441",
      "longitude": "-90.09424990211004"
    }
  },
  {
    "service_request": "2025-1231082",
    "request_type": "Property Maintenance",
    "request_reason": "Property Maintenance",
    "date_created": "2025-10-04T08:08:13.000",
    "date_modified": "2025-10-04T08:08:14.000",
    "request_status": "Pending",
    "responsible_agency": "Department of Code Enforcement",
    "final_address": "2608 DAbadie St",
    "address_councildis": "D",
    "status": "Pending",
    "rowid": "1231082",
    "final_x": "3679417.01685",
    "final_y": "540802.400267",
    "longitude": "-90.07432557879501",
    "latitude": "29.981082185683896",
    "geocoded_column": {
      "latitude": "29.981082185683896",
      "longitude": "-90.07432557879501"
    }
  },
  {
    "service_request": "2025-1231081",
    "request_type": "Trash/Recycling",
    "request_reason": "Request a Large Item Pick Up",
    "date_created": "2025-10-04T07:50:14.000",
    "date_modified": "2025-10-04T07:50:16.000",
    "request_status": "Pending",
    "responsible_agency": "Department of Sanitation",
    "final_address": "7651 Michigan St",
    "address_councildis": "E",
    "status": "Assigned to Contractor",
    "contractor": "Waste Pro",
    "rowid": "1231081",
    "final_x": "3711715.68536",
    "final_y": "566672.276259",
    "longitude": "-89.97134168144463",
    "latitude": "30.05119890791",
    "geocoded_column": {
      "latitude": "30.05119890791",
      "longitude": "-89.97134168144463"
    }
  },
  {
    "service_request": "2025-1231080",
    "request_type": "Trash/Recycling",
    "request_reason": "Replace Recycling Cart",
    "date_created": "2025-10-04T07:49:42.000",
    "date_modified": "2025-10-04T07:49:44.000",
    "request_status": "Pending",
    "responsible_agency": "Department of Sanitation",
    "final_address": "1864 N Salcedo St",
    "address_councildis": "A",
    "status": "Pending",
    "rowid": "1231080",
    "final_x": "3677434.4251",
    "final_y": "543038.886861",
    "longitude": "-90.08051026487212",
    "latitude": "29.98729149711546",
    "geocoded_column": {
      "latitude": "29.98729149711546",
      "longitude": "-90.08051026487212"
    }
  },
  {
    "service_request": "2025-1231079",
    "request_type": "Trash/Recycling",
    "request_reason": "Request a Large Item Pick Up",
    "date_created": "2025-10-04T07:46:12.000",
    "date_modified": "2025-10-04T07:46:14.000",
    "request_status": "Pending",
    "responsible_agency": "Department of Sanitation",
    "final_address": "4856 Chantilly Dr",
    "address_councildis": "E",
    "status": "Assigned to Contractor",
    "contractor": "Waste Pro",
    "rowid": "1231079",
    "final_x": "3700740.58545",
    "final_y": "554825.167064",
    "longitude": "-90.0064637363177",
    "latitude": "30.018978096262053",
    "geocoded_column": {
      "latitude": "30.018978096262053",
      "longitude": "-90.0064637363177"
    }
  },
  {
    "service_request": "2025-1231078",
    "request_type": "Trash/Recycling",
    "request_reason": "Request a Large Item Pick Up",
    "date_created": "2025-10-04T07:34:00.000",
    "date_modified": "2025-10-04T07:34:02.000",
    "request_status": "Pending",
    "responsible_agency": "Department of Sanitation",
    "final_address": "3200 River Oaks Dr",
    "address_councildis": "C",
    "status": "Assigned to Contractor",
    "contractor": "Richards Disposal",
    "rowid": "1231078",
    "final_x": "3701501.84375",
    "final_y": "519451.431223",
    "longitude": "-90.00535379010971",
    "latitude": "29.921688879545165",
    "geocoded_column": {
      "latitude": "29.921688879545165",
      "longitude": "-90.00535379010971"
    }
  },
  {
    "service_request": "2025-1231077",
    "request_type": "Trash/Recycling",
    "request_reason": "Request a Large Item Pick Up",
    "date_created": "2025-10-04T06:34:51.000",
    "date_modified": "2025-10-04T06:34:53.000",
    "request_status": "Pending",
    "responsible_agency": "Department of Sanitation",
    "final_address": "3109 Jefferson Ave",
    "address_councildis": "B",
    "status": "Assigned to Contractor",
    "contractor": "IV Waste",
    "rowid": "1231077",
    "final_x": "3668575.30721",
    "final_y": "526700.508926",
    "longitude": "-90.10904457947177",
    "latitude": "29.94262974978033",
    "geocoded_column": {
      "latitude": "29.94262974978033",
      "longitude": "-90.10904457947177"
    }
  },
  {
    "service_request": "2025-1231076",
    "request_type": "Trash/Recycling",
    "request_reason": "Order Trash Cart",
    "date_created": "2025-10-04T05:25:57.000",
    "date_modified": "2025-10-04T05:25:59.000",
    "request_status": "Pending",
    "responsible_agency": "Department of Sanitation",
    "final_address": "423 Diana St",
    "address_councildis": "C",
    "status": "Assigned to Contractor",
    "contractor": "Richards Disposal",
    "rowid": "1231076",
    "final_x": "3686805.26306",
    "final_y": "527500.829055",
    "longitude": "-90.05146022734843",
    "latitude": "29.94428218800249",
    "geocoded_column": {
      "latitude": "29.94428218800249",
      "longitude": "-90.05146022734843"
    }
  },
  {
    "service_request": "2025-1231074",
    "request_type": "Streetlights",
    "request_reason": "Streetlight Outage/Malfunction",
    "date_created": "2025-10-03T23:06:48.000",
    "date_modified": "2025-10-03T23:06:51.000",
    "request_status": "Pending",
    "responsible_agency": "Department of Public Works",
    "final_address": "5360 Chestnut St",
    "address_councildis": "B",
    "status": "Pending",
    "rowid": "1231074",
    "final_x": "3667092.52199",
    "final_y": "519384.759735",
    "longitude": "-90.11397189037513",
    "latitude": "29.922557250929447",
    "geocoded_column": {
      "latitude": "29.922557250929447",
      "longitude": "-90.11397189037513"
    }
  },
  {
    "service_request": "2025-1231073",
    "request_type": "Street and Traffic Signs",
    "request_reason": "Additional Signage Request",
    "date_created": "2025-10-03T22:22:06.000",
    "date_modified": "2025-10-03T22:22:08.000",
    "request_status": "Pending",
    "responsible_agency": "Department of Public Works",
    "final_address": "920 Poeyfarre St",
    "address_councildis": "B",
    "status": "Pending",
    "rowid": "1231073",
    "final_x": "3681386.82191",
    "final_y": "526445.697534",
    "longitude": "-90.0686045498335",
    "latitude": "29.941546493588717",
    "geocoded_column": {
      "latitude": "29.941546493588717",
      "longitude": "-90.0686045498335"
    }
  },
  {
    "service_request": "2025-1231072",
    "request_type": "Streetlights",
    "request_reason": "Streetlight Outage/Malfunction",
    "date_created": "2025-10-03T22:17:19.000",
    "date_modified": "2025-10-03T22:17:20.000",
    "request_status": "Pending",
    "responsible_agency": "Department of Public Works",
    "final_address": "920 Poeyfarre St",
    "address_councildis": "B",
    "status": "Pending",
    "rowid": "1231072",
    "final_x": "3681386.82191",
    "final_y": "526445.697534",
    "longitude": "-90.0686045498335",
    "latitude": "29.941546493588717",
    "geocoded_column": {
      "latitude": "29.941546493588717",
      "longitude": "-90.0686045498335"
    }
  },
  {
    "service_request": "2025-1231071",
    "request_type": "Streetlights",
    "request_reason": "Streetlight Outage/Malfunction",
    "date_created": "2025-10-03T22:15:05.000",
    "date_modified": "2025-10-03T22:15:10.000",
    "request_status": "Pending",
    "responsible_agency": "Department of Public Works",
    "final_address": "920 Poeyfarre St",
    "address_councildis": "B",
    "status": "Pending",
    "rowid": "1231071",
    "final_x": "3681386.82191",
    "final_y": "526445.697534",
    "longitude": "-90.0686045498335",
    "latitude": "29.941546493588717",
    "geocoded_column": {
      "latitude": "29.941546493588717",
      "longitude": "-90.0686045498335"
    }
  },
  {
    "service_request": "2025-1231070",
    "request_type": "Trash/Recycling",
    "request_reason": "Request a Large Item Pick Up",
    "date_created": "2025-10-03T22:09:33.000",
    "date_modified": "2025-10-03T22:09:35.000",
    "request_status": "Pending",
    "responsible_agency": "Department of Sanitation",
    "final_address": "5661 Clements Dr",
    "address_councildis": "E",
    "status": "Assigned to Contractor",
    "contractor": "Waste Pro",
    "rowid": "1231070",
    "final_x": "3702569.44305",
    "final_y": "556412.327386",
    "longitude": "-90.00062690190053",
    "latitude": "30.02328381908828",
    "geocoded_column": {
      "latitude": "30.02328381908828",
      "longitude": "-90.00062690190053"
    }
  },
  {
    "service_request": "2025-1231069",
    "request_type": "Parks & Parkways",
    "request_reason": "Request Tree Service (Right of Way/Public Property)",
    "date_created": "2025-10-03T21:19:49.000",
    "date_modified": "2025-10-03T21:19:51.000",
    "request_status": "Pending",
    "responsible_agency": "Department of Parks & Parkway",
    "final_address": "0 BLK Charlotte Dr",
    "address_councildis": "D",
    "status": "Pending",
    "rowid": "1231069",
    "final_x": "3680128.54292",
    "final_y": "551659.371863",
    "longitude": "-90.07170069550259",
    "latitude": "30.01091349637605",
    "geocoded_column": {
      "latitude": "30.01091349637605",
      "longitude": "-90.07170069550259"
    }
  },
  {
    "service_request": "2025-1231068",
    "request_type": "Streetlights",
    "request_reason": "Streetlight Outage/Malfunction",
    "date_created": "2025-10-03T19:37:58.000",
    "date_modified": "2025-10-03T19:37:59.000",
    "request_status": "Pending",
    "responsible_agency": "Department of Public Works",
    "final_address": "6051 Charlotte Dr",
    "address_councildis": "D",
    "status": "Pending",
    "rowid": "1231068",
    "final_x": "3679948.74709",
    "final_y": "554882.789144",
    "longitude": "-90.07215664994266",
    "latitude": "30.019782168368202",
    "geocoded_column": {
      "latitude": "30.019782168368202",
      "longitude": "-90.07215664994266"
    }
  },
  {
    "service_request": "2025-1231067",
    "request_type": "Streetlights",
    "request_reason": "Streetlight Outage/Malfunction",
    "date_created": "2025-10-03T19:36:13.000",
    "date_modified": "2025-10-03T19:36:15.000",
    "request_status": "Pending",
    "responsible_agency": "Department of Public Works",
    "final_address": "6051 Charlotte Dr",
    "address_councildis": "D",
    "status": "Pending",
    "rowid": "1231067",
    "final_x": "3679948.74709",
    "final_y": "554882.789144",
    "longitude": "-90.07215664994266",
    "latitude": "30.019782168368202",
    "geocoded_column": {
      "latitude": "30.019782168368202",
      "longitude": "-90.07215664994266"
    }
  },
  {
    "service_request": "2025-1231066",
    "request_type": "Mosquito, Termite & Rodent Control",
    "request_reason": "Mosquito Complaint",
    "date_created": "2025-10-03T19:26:40.000",
    "date_modified": "2025-10-03T19:26:42.000",
    "request_status": "Pending",
    "responsible_agency": "Mosquito, Termite & Rodent Control Board",
    "final_address": "4123 DHemecourt St",
    "address_councildis": "A",
    "status": "Pending",
    "rowid": "1231066",
    "final_x": "3669605.25012",
    "final_y": "537030.870728",
    "longitude": "-90.10544329204224",
    "latitude": "29.971004538618622",
    "geocoded_column": {
      "latitude": "29.971004538618622",
      "longitude": "-90.10544329204224"
    }
  },
  {
    "service_request": "2025-1231065",
    "request_type": "Healthy Homes",
    "request_reason": "Healthy Homes",
    "date_created": "2025-10-03T19:25:58.000",
    "date_modified": "2025-10-03T19:26:00.000",
    "request_status": "Pending",
    "responsible_agency": "Department of Code Enforcement",
    "final_address": "1205 Elysian Fields Ave",
    "address_councildis": "C",
    "status": "Pending",
    "rowid": "1231065",
    "final_x": "3685092.35637",
    "final_y": "536725.209799",
    "longitude": "-90.0565438289897",
    "latitude": "29.96969865338815",
    "geocoded_column": {
      "latitude": "29.96969865338815",
      "longitude": "-90.0565438289897"
    }
  },
  {
    "service_request": "2025-1231064",
    "request_type": "Roads and Streets",
    "request_reason": "Debris in Driving Lanes",
    "date_created": "2025-10-03T19:22:03.000",
    "date_modified": "2025-10-03T19:22:04.000",
    "request_status": "Pending",
    "responsible_agency": "Department of Public Works",
    "final_address": "941 Second St",
    "address_councildis": "B",
    "status": "Pending",
    "rowid": "1231064",
    "final_x": "3678096.42062",
    "final_y": "520978.924857",
    "longitude": "-90.07918191551167",
    "latitude": "29.92661411558879",
    "geocoded_column": {
      "latitude": "29.92661411558879",
      "longitude": "-90.07918191551167"
    }
  },
  {
    "service_request": "2025-1231063",
    "request_type": "Abandoned Vehicles",
    "request_reason": "Abandoned/Junk Vehicles",
    "date_created": "2025-10-03T19:02:39.000",
    "date_modified": "2025-10-03T19:02:41.000",
    "request_status": "Pending",
    "responsible_agency": "Department of Public Works",
    "final_address": "3328 Third St",
    "address_councildis": "B",
    "status": "Pending",
    "rowid": "1231063",
    "final_x": "3672923.6603",
    "final_y": "528127.451391",
    "longitude": "-90.09526711231096",
    "latitude": "29.946424906288918",
    "geocoded_column": {
      "latitude": "29.946424906288918",
      "longitude": "-90.09526711231096"
    }
  },
  {
    "service_request": "2025-1231062",
    "request_type": "Trash/Recycling",
    "request_reason": "Request a Large Item Pick Up",
    "date_created": "2025-10-03T18:49:44.000",
    "date_modified": "2025-10-03T18:49:47.000",
    "request_status": "Pending",
    "responsible_agency": "Department of Sanitation",
    "final_address": "1423 Jackson Ave",
    "address_councildis": "B",
    "status": "Assigned to Contractor",
    "contractor": "IV Waste",
    "rowid": "1231062",
    "final_x": "3678172.36232",
    "final_y": "523074.648123",
    "longitude": "-90.07886976055788",
    "latitude": "29.93237438429335",
    "geocoded_column": {
      "latitude": "29.93237438429335",
      "longitude": "-90.07886976055788"
    }
  },
  {
    "service_request": "2025-1231061",
    "request_type": "General Services",
    "request_reason": "General Service Request",
    "date_created": "2025-10-03T18:44:21.000",
    "date_modified": "2025-10-03T18:44:23.000",
    "request_status": "Pending",
    "responsible_agency": "Orleans Parish Communication District",
    "final_address": "2037 Saint Ann",
    "status": "Pending",
    "rowid": "1231061",
    "longitude": "0.0",
    "latitude": "0.0",
    "geocoded_column": {
      "latitude": "0.0",
      "longitude": "0.0"
    }
  },
  {
    "service_request": "2025-1231060",
    "request_type": "Drainage",
    "request_reason": "Catch Basin Not Draining",
    "date_created": "2025-10-03T18:18:47.000",
    "date_modified": "2025-10-03T18:18:48.000",
    "request_status": "Pending",
    "responsible_agency": "Sewerage & Water Board",
    "final_address": "1117 N Miro St",
    "address_councildis": "D",
    "status": "Pending",
    "rowid": "1231060",
    "final_x": "3679068.84034",
    "final_y": "537247.776392",
    "longitude": "-90.07554851631643",
    "latitude": "29.971318711566454",
    "geocoded_column": {
      "latitude": "29.971318711566454",
      "longitude": "-90.07554851631643"
    }
  },
  {
    "service_request": "2025-1231059",
    "request_type": "Abandoned Vehicles",
    "request_reason": "Abandoned/Junk Vehicles",
    "date_created": "2025-10-03T18:18:18.000",
    "date_modified": "2025-10-03T18:18:20.000",
    "request_status": "Pending",
    "responsible_agency": "Department of Public Works",
    "final_address": "1036 Lowerline St",
    "address_councildis": "A",
    "status": "Pending",
    "rowid": "1231059",
    "final_x": "3663419.47117",
    "final_y": "526500.950782",
    "longitude": "-90.12532947303633",
    "latitude": "29.942231496127704",
    "geocoded_column": {
      "latitude": "29.942231496127704",
      "longitude": "-90.12532947303633"
    }
  },
  {
    "service_request": "2025-1231058",
    "request_type": "Trash/Recycling",
    "request_reason": "Replace Trash Cart",
    "date_created": "2025-10-03T17:51:04.000",
    "date_modified": "2025-10-03T17:51:06.000",
    "request_status": "Pending",
    "responsible_agency": "Department of Sanitation",
    "final_address": "2823 Baronne St",
    "address_councildis": "B",
    "status": "Assigned to Contractor",
    "contractor": "IV Waste",
    "rowid": "1231058",
    "final_x": "3675326.33429",
    "final_y": "523063.301051",
    "longitude": "-90.0878548104668",
    "latitude": "29.932428551701157",
    "geocoded_column": {
      "latitude": "29.932428551701157",
      "longitude": "-90.0878548104668"
    }
  },
  {
    "service_request": "2025-1231057",
    "request_type": "Property Maintenance",
    "request_reason": "Property Maintenance",
    "date_created": "2025-10-03T17:46:44.000",
    "date_modified": "2025-10-03T17:46:46.000",
    "request_status": "Pending",
    "responsible_agency": "Department of Code Enforcement",
    "final_address": "4300 Tchoupitoulas St",
    "address_councildis": "B",
    "status": "Pending",
    "rowid": "1231057",
    "final_x": "3671561.16647",
    "final_y": "517423.869877",
    "longitude": "-90.09993277094547",
    "latitude": "29.91703391321335",
    "geocoded_column": {
      "latitude": "29.91703391321335",
      "longitude": "-90.09993277094547"
    }
  },
  {
    "service_request": "2025-1231056",
    "request_type": "Trash/Recycling",
    "request_reason": "Order Trash Cart",
    "date_created": "2025-10-03T17:29:00.000",
    "date_modified": "2025-10-03T17:29:01.000",
    "request_status": "Pending",
    "responsible_agency": "Department of Sanitation",
    "final_address": "2312 Audubon St",
    "address_councildis": "A",
    "status": "Assigned to Contractor",
    "contractor": "IV Waste",
    "rowid": "1231056",
    "final_x": "3666663.74497",
    "final_y": "529728.874945",
    "longitude": "-90.1149781855271",
    "latitude": "29.951012798098585",
    "geocoded_column": {
      "latitude": "29.951012798098585",
      "longitude": "-90.1149781855271"
    }
  },
  {
    "service_request": "2025-1231055",
    "request_type": "Trash/Recycling",
    "request_reason": "Order Recycling Cart",
    "date_created": "2025-10-03T16:53:59.000",
    "date_modified": "2025-10-03T16:54:00.000",
    "request_status": "Pending",
    "responsible_agency": "Department of Sanitation",
    "final_address": "14096 Partridge Ln",
    "address_councildis": "E",
    "status": "Pending",
    "rowid": "1231055",
    "final_x": "3719927.69887",
    "final_y": "572021.11076",
    "longitude": "-89.94518173659424",
    "latitude": "30.06563502350737",
    "geocoded_column": {
      "latitude": "30.06563502350737",
      "longitude": "-89.94518173659424"
    }
  },
  {
    "service_request": "2025-1231054",
    "request_type": "Roads and Streets",
    "request_reason": "Pothole",
    "date_created": "2025-10-03T16:41:58.000",
    "date_modified": "2025-10-03T16:41:59.000",
    "request_status": "Pending",
    "responsible_agency": "Department of Public Works",
    "final_address": "FRANKLIN AVE & MYRTLE ST",
    "address_councildis": "D",
    "status": "Pending",
    "rowid": "1231054",
    "final_x": "3687130.1",
    "final_y": "546059.18",
    "longitude": "-90.04977826544432",
    "latitude": "29.99530117099799",
    "geocoded_column": {
      "latitude": "29.99530117099799",
      "longitude": "-90.04977826544432"
    }
  },
  {
    "service_request": "2025-1231053",
    "request_type": "Streetlights",
    "request_reason": "Streetlight Outage/Malfunction",
    "date_created": "2025-10-03T16:40:52.000",
    "date_modified": "2025-10-03T16:40:54.000",
    "request_status": "Pending",
    "responsible_agency": "Department of Public Works",
    "final_address": "FRANKLIN AVE & MYRTLE ST",
    "address_councildis": "D",
    "status": "Pending",
    "rowid": "1231053",
    "final_x": "3687130.1",
    "final_y": "546059.18",
    "longitude": "-90.04977826544432",
    "latitude": "29.99530117099799",
    "geocoded_column": {
      "latitude": "29.99530117099799",
      "longitude": "-90.04977826544432"
    }
  },
  {
    "service_request": "2025-1231052",
    "request_type": "Streetlights",
    "request_reason": "Streetlight Outage/Malfunction",
    "date_created": "2025-10-03T16:38:46.000",
    "date_modified": "2025-10-03T16:38:49.000",
    "request_status": "Pending",
    "responsible_agency": "Department of Public Works",
    "final_address": "700 BLK N Galvez St",
    "address_councildis": "D",
    "status": "Pending",
    "rowid": "1231052",
    "final_x": "3678506.73842",
    "final_y": "535877.930656",
    "longitude": "-90.07737113296444",
    "latitude": "29.9675690581848",
    "geocoded_column": {
      "latitude": "29.9675690581848",
      "longitude": "-90.07737113296444"
    }
  },
  {
    "service_request": "2025-1231051",
    "request_type": "Trash/Recycling",
    "request_reason": "Order Recycling Cart",
    "date_created": "2025-10-03T16:37:02.000",
    "date_modified": "2025-10-03T16:37:05.000",
    "request_status": "Pending",
    "responsible_agency": "Department of Sanitation",
    "final_address": "6164 Orleans Ave",
    "address_councildis": "A",
    "status": "Pending",
    "rowid": "1231051",
    "final_x": "3670950.03188",
    "final_y": "548222.455186",
    "longitude": "-90.10081610372717",
    "latitude": "30.001737868152187",
    "geocoded_column": {
      "latitude": "30.001737868152187",
      "longitude": "-90.10081610372717"
    }
  },
  {
    "service_request": "2025-1231050",
    "request_type": "Roads and Streets",
    "request_reason": "Pothole",
    "date_created": "2025-10-03T16:30:01.000",
    "date_modified": "2025-10-03T16:30:03.000",
    "request_status": "Pending",
    "responsible_agency": "Department of Public Works",
    "final_address": "0 BLK Blanc Pl",
    "address_councildis": "B",
    "status": "Pending",
    "rowid": "1231050",
    "final_x": "3667951.08401",
    "final_y": "520874.262829",
    "longitude": "-90.11121159835395",
    "latitude": "29.926627762655404",
    "geocoded_column": {
      "latitude": "29.926627762655404",
      "longitude": "-90.11121159835395"
    }
  },
  {
    "service_request": "2025-1231049",
    "request_type": "Trash/Recycling",
    "request_reason": "Replace Trash Cart",
    "date_created": "2025-10-03T16:20:17.000",
    "date_modified": "2025-10-03T16:20:19.000",
    "request_status": "Pending",
    "responsible_agency": "Department of Sanitation",
    "final_address": "6217 N Rampart St",
    "address_councildis": "E",
    "status": "Assigned to Contractor",
    "contractor": "Waste Pro",
    "rowid": "1231049",
    "final_x": "3699821.17482",
    "final_y": "532718.567236",
    "longitude": "-90.01017531381538",
    "latitude": "29.958222325572912",
    "geocoded_column": {
      "latitude": "29.958222325572912",
      "longitude": "-90.01017531381538"
    }
  },
  {
    "service_request": "2025-1231048",
    "request_type": "Roads and Streets",
    "request_reason": "Sidewalk Damaged or Missing",
    "date_created": "2025-10-03T16:18:21.000",
    "date_modified": "2025-10-03T16:18:22.000",
    "request_status": "Pending",
    "responsible_agency": "Department of Public Works",
    "final_address": "3138 Robert St",
    "address_councildis": "B",
    "status": "Pending",
    "rowid": "1231048",
    "final_x": "3668872.61607",
    "final_y": "526918.216126",
    "longitude": "-90.10809855348239",
    "latitude": "29.943219636005203",
    "geocoded_column": {
      "latitude": "29.943219636005203",
      "longitude": "-90.10809855348239"
    }
  },
  {
    "service_request": "2025-1231047",
    "request_type": "Streetlights",
    "request_reason": "Streetlight Outage/Malfunction",
    "date_created": "2025-10-03T16:13:35.000",
    "date_modified": "2025-10-03T16:13:37.000",
    "request_status": "Pending",
    "responsible_agency": "Department of Public Works",
    "final_address": "1301 Richland Rd",
    "address_councildis": "C",
    "status": "Pending",
    "rowid": "1231047",
    "final_x": "3697914.54986",
    "final_y": "526510.09939",
    "longitude": "-90.01642119393154",
    "latitude": "29.941211618366722",
    "geocoded_column": {
      "latitude": "29.941211618366722",
      "longitude": "-90.01642119393154"
    }
  },
  {
    "service_request": "2025-1231046",
    "request_type": "Roads and Streets",
    "request_reason": "Street Subsidence (Sinking)",
    "date_created": "2025-10-03T16:08:13.000",
    "date_modified": "2025-10-03T16:08:14.000",
    "request_status": "Pending",
    "responsible_agency": "Sewerage & Water Board",
    "final_address": "714 Barracks St",
    "address_councildis": "C",
    "status": "Pending",
    "rowid": "1231046",
    "final_x": "3683754.16431",
    "final_y": "534250.958533",
    "longitude": "-90.06085672809527",
    "latitude": "29.962936249375144",
    "geocoded_column": {
      "latitude": "29.962936249375144",
      "longitude": "-90.06085672809527"
    }
  },
  {
    "service_request": "2025-1231045",
    "request_type": "Trash/Recycling",
    "request_reason": "Return Trash Cart",
    "date_created": "2025-10-03T16:07:37.000",
    "date_modified": "2025-10-03T16:07:38.000",
    "request_status": "Pending",
    "responsible_agency": "Department of Sanitation",
    "final_address": "205 Rhodes Ave",
    "address_councildis": "C",
    "status": "Assigned to Contractor",
    "contractor": "Richards Disposal",
    "rowid": "1231045",
    "final_x": "3706269.74718",
    "final_y": "519311.205943",
    "longitude": "-89.9903088817084",
    "latitude": "29.921150506824137",
    "geocoded_column": {
      "latitude": "29.921150506824137",
      "longitude": "-89.9903088817084"
    }
  },
  {
    "service_request": "2025-1231044",
    "request_type": "Streetlights",
    "request_reason": "Streetlight Outage/Malfunction",
    "date_created": "2025-10-03T16:07:01.000",
    "date_modified": "2025-10-03T16:07:03.000",
    "request_status": "Pending",
    "responsible_agency": "Department of Public Works",
    "final_address": "600 BLK N Claiborne Ave",
    "address_councildis": "D",
    "status": "Pending",
    "rowid": "1231044",
    "final_x": "3679662.37095",
    "final_y": "534562.558943",
    "longitude": "-90.07376728311918",
    "latitude": "29.963917354793622",
    "geocoded_column": {
      "latitude": "29.963917354793622",
      "longitude": "-90.07376728311918"
    }
  },
  {
    "service_request": "2025-1231043",
    "request_type": "Trash/Recycling",
    "request_reason": "Request a Large Item Pick Up",
    "date_created": "2025-10-03T15:59:16.000",
    "date_modified": "2025-10-03T15:59:17.000",
    "request_status": "Pending",
    "responsible_agency": "Department of Sanitation",
    "final_address": "5439 Royal St",
    "address_councildis": "E",
    "status": "Assigned to Contractor",
    "contractor": "Waste Pro",
    "rowid": "1231043",
    "final_x": "3696992.39127",
    "final_y": "532472.374212",
    "longitude": "-90.01911670500233",
    "latitude": "29.957634897024995",
    "geocoded_column": {
      "latitude": "29.957634897024995",
      "longitude": "-90.01911670500233"
    }
  },
  {
    "service_request": "2025-1231042",
    "request_type": "Drainage",
    "request_reason": "Catch Basin Not Draining",
    "date_created": "2025-10-03T15:56:59.000",
    "date_modified": "2025-10-03T15:57:01.000",
    "request_status": "Pending",
    "responsible_agency": "Sewerage & Water Board",
    "final_address": "1315 Jackson Ave",
    "address_councildis": "B",
    "status": "Pending",
    "rowid": "1231042",
    "final_x": "3678416.22683",
    "final_y": "522880.170235",
    "longitude": "-90.0781066280203",
    "latitude": "29.93183229045679",
    "geocoded_column": {
      "latitude": "29.93183229045679",
      "longitude": "-90.0781066280203"
    }
  },
  {
    "service_request": "2025-1231041",
    "request_type": "Streetlights",
    "request_reason": "Streetlight Outage/Malfunction",
    "date_created": "2025-10-03T15:50:40.000",
    "date_modified": "2025-10-03T15:50:41.000",
    "request_status": "Pending",
    "responsible_agency": "Department of Public Works",
    "final_address": "0 BLK Charlotte Dr",
    "address_councildis": "D",
    "status": "Pending",
    "rowid": "1231041",
    "final_x": "3680128.54292",
    "final_y": "551659.371863",
    "longitude": "-90.07170069550259",
    "latitude": "30.01091349637605",
    "geocoded_column": {
      "latitude": "30.01091349637605",
      "longitude": "-90.07170069550259"
    }
  },
  {
    "service_request": "2025-1231040",
    "request_type": "Trash/Recycling",
    "request_reason": "Request a Large Item Pick Up",
    "date_created": "2025-10-03T15:50:33.000",
    "date_modified": "2025-10-03T15:50:36.000",
    "request_status": "Pending",
    "responsible_agency": "Department of Sanitation",
    "final_address": "13632 N Cavelier Dr",
    "address_councildis": "E",
    "status": "Assigned to Contractor",
    "contractor": "Waste Pro",
    "rowid": "1231040",
    "final_x": "3724085.57651",
    "final_y": "569858.311974",
    "longitude": "-89.93212194469127",
    "latitude": "30.059549083506568",
    "geocoded_column": {
      "latitude": "30.059549083506568",
      "longitude": "-89.93212194469127"
    }
  },
  {
    "service_request": "2025-1231039",
    "request_type": "Streetlights",
    "request_reason": "Streetlight Outage/Malfunction",
    "date_created": "2025-10-03T15:46:34.000",
    "date_modified": "2025-10-03T15:46:36.000",
    "request_status": "Pending",
    "responsible_agency": "Department of Public Works",
    "final_address": "0 BLK Charlotte Dr",
    "address_councildis": "D",
    "status": "Pending",
    "rowid": "1231039",
    "final_x": "3680128.54292",
    "final_y": "551659.371863",
    "longitude": "-90.07170069550259",
    "latitude": "30.01091349637605",
    "geocoded_column": {
      "latitude": "30.01091349637605",
      "longitude": "-90.07170069550259"
    }
  },
  {
    "service_request": "2025-1231038",
    "request_type": "Trash/Recycling",
    "request_reason": "Request a Large Item Pick Up",
    "date_created": "2025-10-03T15:42:44.000",
    "date_modified": "2025-10-03T15:42:47.000",
    "request_status": "Pending",
    "responsible_agency": "Department of Sanitation",
    "final_address": "95 Versailles Blvd",
    "address_councildis": "B",
    "status": "Assigned to Contractor",
    "contractor": "IV Waste",
    "rowid": "1231038",
    "final_x": "3668122.58516",
    "final_y": "530981.349058",
    "longitude": "-90.11032967518172",
    "latitude": "29.954413959885347",
    "geocoded_column": {
      "latitude": "29.954413959885347",
      "longitude": "-90.11032967518172"
    }
  },
  {
    "service_request": "2025-1231037",
    "request_type": "Trash/Recycling",
    "request_reason": "Request a Large Item Pick Up",
    "date_created": "2025-10-03T15:39:29.000",
    "date_modified": "2025-10-04T08:40:34.000",
    "case_close_date": "2025-10-04T03:40:32.000",
    "request_status": "Closed",
    "responsible_agency": "Department of Sanitation",
    "final_address": "1022 St Peter St",
    "address_councildis": "C",
    "status": "Invalid Request",
    "contractor": "IV Waste",
    "contractor_action": "Invalid",
    "rowid": "1231037",
    "final_x": "3681470.2196",
    "final_y": "533207.547844",
    "longitude": "-90.06810551854483",
    "latitude": "29.960136769860306",
    "geocoded_column": {
      "latitude": "29.960136769860306",
      "longitude": "-90.06810551854483"
    }
  },
  {
    "service_request": "2025-1231036",
    "request_type": "Trash/Recycling",
    "request_reason": "Order Recycling Cart",
    "date_created": "2025-10-03T15:39:04.000",
    "date_modified": "2025-10-03T15:39:08.000",
    "request_status": "Pending",
    "responsible_agency": "Department of Sanitation",
    "final_address": "1550 N Broad St",
    "address_councildis": "D",
    "status": "Pending",
    "rowid": "1231036",
    "final_x": "3679017.4027",
    "final_y": "539889.994954",
    "longitude": "-90.0756193715411",
    "latitude": "29.97858545446658",
    "geocoded_column": {
      "latitude": "29.97858545446658",
      "longitude": "-90.0756193715411"
    }
  },
  {
    "service_request": "2025-1231035",
    "request_type": "Trash/Recycling",
    "request_reason": "Order Recycling Cart",
    "date_created": "2025-10-03T15:35:40.000",
    "date_modified": "2025-10-03T15:35:41.000",
    "request_status": "Pending",
    "responsible_agency": "Department of Sanitation",
    "final_address": "3016 S Saratoga St",
    "address_councildis": "B",
    "status": "Pending",
    "rowid": "1231035",
    "final_x": "3674168.29934",
    "final_y": "523477.914683",
    "longitude": "-90.0914964427856",
    "latitude": "29.933603164852798",
    "geocoded_column": {
      "latitude": "29.933603164852798",
      "longitude": "-90.0914964427856"
    }
  },
  {
    "service_request": "2025-1231034",
    "request_type": "Mosquito, Termite & Rodent Control",
    "request_reason": "Rodent Complaint (Mice & Rats)",
    "date_created": "2025-10-03T15:35:17.000",
    "date_modified": "2025-10-03T15:35:19.000",
    "request_status": "Pending",
    "responsible_agency": "Mosquito, Termite & Rodent Control Board",
    "final_address": "900 Camp St",
    "address_councildis": "B",
    "status": "Pending",
    "rowid": "1231034",
    "final_x": "3680659.98952",
    "final_y": "527238.234815",
    "longitude": "-90.07087173436338",
    "latitude": "29.9437477458609",
    "geocoded_column": {
      "latitude": "29.9437477458609",
      "longitude": "-90.07087173436338"
    }
  },
  {
    "service_request": "2025-1231033",
    "request_type": "Trash/Recycling",
    "request_reason": "Dead Animal Pick Up",
    "date_created": "2025-10-03T15:35:14.000",
    "date_modified": "2025-10-04T07:44:10.000",
    "case_close_date": "2025-10-04T02:44:09.000",
    "request_status": "Closed",
    "responsible_agency": "Department of Sanitation",
    "final_address": "2048 St Denis St",
    "address_councildis": "D",
    "status": "Assigned to Contractor",
    "contractor": "IV Waste",
    "contractor_action": "Completed",
    "rowid": "1231033",
    "final_x": "3683141.943",
    "final_y": "546098.738896",
    "longitude": "-90.06237505303609",
    "latitude": "29.995532180869247",
    "geocoded_column": {
      "latitude": "29.995532180869247",
      "longitude": "-90.06237505303609"
    }
  },
  {
    "service_request": "2025-1231032",
    "request_type": "Trash/Recycling",
    "request_reason": "Request a Large Item Pick Up",
    "date_created": "2025-10-03T15:32:47.000",
    "date_modified": "2025-10-03T15:33:42.000",
    "request_status": "Pending",
    "responsible_agency": "Department of Sanitation",
    "final_address": "1309 Ursulines Ave",
    "address_councildis": "C",
    "status": "Assigned to Contractor",
    "contractor": "IV Waste",
    "rowid": "1231032",
    "final_x": "3681642.1798",
    "final_y": "535070.826502",
    "longitude": "-90.06749750525185",
    "latitude": "29.96525492686814",
    "geocoded_column": {
      "latitude": "29.96525492686814",
      "longitude": "-90.06749750525185"
    }
  },
  {
    "service_request": "2025-1231031",
    "request_type": "Trash/Recycling",
    "request_reason": "Request a Large Item Pick Up",
    "date_created": "2025-10-03T15:32:33.000",
    "date_modified": "2025-10-03T15:32:35.000",
    "request_status": "Pending",
    "responsible_agency": "Department of Sanitation",
    "final_address": "9723 Irby St",
    "address_councildis": "E",
    "status": "Assigned to Contractor",
    "contractor": "Waste Pro",
    "rowid": "1231031",
    "final_x": "3707309.89931",
    "final_y": "564950.31741",
    "longitude": "-89.98533082649713",
    "latitude": "30.046607469663737",
    "geocoded_column": {
      "latitude": "30.046607469663737",
      "longitude": "-89.98533082649713"
    }
  },
  {
    "service_request": "2025-1231030",
    "request_type": "Property Maintenance",
    "request_reason": "Property Maintenance",
    "date_created": "2025-10-03T15:30:10.000",
    "date_modified": "2025-10-03T15:36:21.000",
    "case_close_date": "2025-10-03T10:36:21.000",
    "request_status": "Closed",
    "responsible_agency": "Department of Code Enforcement",
    "final_address": "4842 Nighthart St",
    "address_councildis": "E",
    "status": "Referred to Code Enforcement",
    "rowid": "1231030",
    "final_x": "3716029.59954",
    "final_y": "557395.547227",
    "longitude": "-89.95805889172941",
    "latitude": "30.02554995273482",
    "geocoded_column": {
      "latitude": "30.02554995273482",
      "longitude": "-89.95805889172941"
    }
  },
  {
    "service_request": "2025-1231029",
    "request_type": "Trash/Recycling",
    "request_reason": "Order Recycling Cart",
    "date_created": "2025-10-03T15:26:16.000",
    "date_modified": "2025-10-03T15:26:17.000",
    "request_status": "Pending",
    "responsible_agency": "Department of Sanitation",
    "final_address": "3905 Thalia St",
    "address_councildis": "B",
    "status": "Pending",
    "rowid": "1231029",
    "final_x": "3672499.39393",
    "final_y": "530160.595649",
    "longitude": "-90.09653738446468",
    "latitude": "29.95202798163741",
    "geocoded_column": {
      "latitude": "29.95202798163741",
      "longitude": "-90.09653738446468"
    }
  },
  {
    "service_request": "2025-1231028",
    "request_type": "Traffic Signals",
    "request_reason": "Traffic Signal Malfunctioning or Damaged",
    "date_created": "2025-10-03T15:26:10.000",
    "date_modified": "2025-10-03T15:26:11.000",
    "request_status": "Pending",
    "responsible_agency": "Department of Public Works",
    "final_address": "1565 Tulane Ave",
    "address_councildis": "B",
    "status": "Pending",
    "rowid": "1231028",
    "final_x": "3678195.77326",
    "final_y": "531831.894019",
    "longitude": "-90.07849309758328",
    "latitude": "29.95645319699127",
    "geocoded_column": {
      "latitude": "29.95645319699127",
      "longitude": "-90.07849309758328"
    }
  },
  {
    "service_request": "2025-1231027",
    "request_type": "Trash/Recycling",
    "request_reason": "Replace Trash Cart",
    "date_created": "2025-10-03T15:25:56.000",
    "date_modified": "2025-10-03T15:25:58.000",
    "request_status": "Pending",
    "responsible_agency": "Department of Sanitation",
    "final_address": "6306 Ransom St",
    "address_councildis": "D",
    "status": "Assigned to Contractor",
    "contractor": "Waste Pro",
    "rowid": "1231027",
    "final_x": "3698104.47319",
    "final_y": "552855.419479",
    "longitude": "-90.01486449267257",
    "latitude": "30.01364570672022",
    "geocoded_column": {
      "latitude": "30.01364570672022",
      "longitude": "-90.01486449267257"
    }
  },
  {
    "service_request": "2025-1231026",
    "request_type": "Trash/Recycling",
    "request_reason": "Repair Trash Cart",
    "date_created": "2025-10-03T15:22:39.000",
    "date_modified": "2025-10-03T15:48:42.000",
    "request_status": "Pending",
    "responsible_agency": "Department of Sanitation",
    "final_address": "5201 Camp St",
    "address_councildis": "B",
    "status": "Assigned to Contractor",
    "contractor": "Sanitation Dept. ",
    "rowid": "1231026",
    "final_x": "3668019.37709",
    "final_y": "519063.205239",
    "longitude": "-90.11105699890958",
    "latitude": "29.92164592426312",
    "geocoded_column": {
      "latitude": "29.92164592426312",
      "longitude": "-90.11105699890958"
    }
  },
  {
    "service_request": "2025-1231025",
    "request_type": "Trash/Recycling",
    "request_reason": "Replace Trash Cart",
    "date_created": "2025-10-03T15:21:30.000",
    "date_modified": "2025-10-03T15:21:31.000",
    "request_status": "Pending",
    "responsible_agency": "Department of Sanitation",
    "final_address": "6541 Coveview Ct",
    "address_councildis": "E",
    "status": "Assigned to Contractor",
    "contractor": "Waste Pro",
    "rowid": "1231025",
    "final_x": "3698735.55338",
    "final_y": "555789.976857",
    "longitude": "-90.01276376402288",
    "latitude": "30.021694644733568",
    "geocoded_column": {
      "latitude": "30.021694644733568",
      "longitude": "-90.01276376402288"
    }
  },
  {
    "service_request": "2025-1231024",
    "request_type": "Abandoned Vehicles",
    "request_reason": "Abandoned/Junk Vehicles",
    "date_created": "2025-10-03T15:16:24.000",
    "date_modified": "2025-10-03T15:16:25.000",
    "request_status": "Pending",
    "responsible_agency": "Department of Public Works",
    "final_address": "1401 St Bernard Ave",
    "address_councildis": "C",
    "status": "Pending",
    "rowid": "1231024",
    "final_x": "3682546.33717",
    "final_y": "537278.550088",
    "longitude": "-90.06456502724843",
    "latitude": "29.971297909493472",
    "geocoded_column": {
      "latitude": "29.971297909493472",
      "longitude": "-90.06456502724843"
    }
  },
  {
    "service_request": "2025-1231023",
    "request_type": "Trash/Recycling",
    "request_reason": "Illegal Dumping",
    "date_created": "2025-10-03T15:13:07.000",
    "date_modified": "2025-10-03T15:13:09.000",
    "request_status": "Pending",
    "responsible_agency": "Department of Sanitation",
    "final_address": "4520 N Rampart St",
    "address_councildis": "C",
    "status": "Pending",
    "rowid": "1231023",
    "final_x": "3693364.90032",
    "final_y": "534417.454789",
    "longitude": "-90.03050137569733",
    "latitude": "29.963097087679955",
    "geocoded_column": {
      "latitude": "29.963097087679955",
      "longitude": "-90.03050137569733"
    }
  },
  {
    "service_request": "2025-1231022",
    "request_type": "Trash/Recycling",
    "request_reason": "Repair Trash Cart",
    "date_created": "2025-10-03T15:12:46.000",
    "date_modified": "2025-10-03T15:12:48.000",
    "request_status": "Pending",
    "responsible_agency": "Department of Sanitation",
    "final_address": "2616 Dante St",
    "address_councildis": "A",
    "status": "Assigned to Contractor",
    "contractor": "IV Waste",
    "rowid": "1231022",
    "final_x": "3664882.31194",
    "final_y": "532717.210116",
    "longitude": "-90.12050320758819",
    "latitude": "29.959281710779546",
    "geocoded_column": {
      "latitude": "29.959281710779546",
      "longitude": "-90.12050320758819"
    }
  },
  {
    "service_request": "2025-1231021",
    "request_type": "Trash/Recycling",
    "request_reason": "Request a Large Item Pick Up",
    "date_created": "2025-10-03T15:11:16.000",
    "date_modified": "2025-10-03T15:11:17.000",
    "request_status": "Pending",
    "responsible_agency": "Department of Sanitation",
    "final_address": "6521 Dorchester St",
    "address_councildis": "E",
    "status": "Assigned to Contractor",
    "contractor": "Waste Pro",
    "rowid": "1231021",
    "final_x": "3697554.67485",
    "final_y": "558891.93302",
    "longitude": "-90.01638235708397",
    "latitude": "30.030261207735794",
    "geocoded_column": {
      "latitude": "30.030261207735794",
      "longitude": "-90.01638235708397"
    }
  },
  {
    "service_request": "2025-1231020",
    "request_type": "Property Maintenance",
    "request_reason": "Property Maintenance",
    "date_created": "2025-10-03T15:10:44.000",
    "date_modified": "2025-10-03T15:33:52.000",
    "case_close_date": "2025-10-03T10:33:51.000",
    "request_status": "Closed",
    "responsible_agency": "Department of Code Enforcement",
    "final_address": "2225 Foucher St",
    "address_councildis": "B",
    "status": "Referred to Code Enforcement",
    "rowid": "1231020",
    "final_x": "3672754.76334",
    "final_y": "523519.593979",
    "longitude": "-90.09595748924494",
    "latitude": "29.933759817609364",
    "geocoded_column": {
      "latitude": "29.933759817609364",
      "longitude": "-90.09595748924494"
    }
  },
  {
    "service_request": "2025-1231019",
    "request_type": "Streetlights",
    "request_reason": "Streetlight Outage/Malfunction",
    "date_created": "2025-10-03T15:09:31.000",
    "date_modified": "2025-10-03T15:09:34.000",
    "request_status": "Pending",
    "responsible_agency": "Department of Public Works",
    "final_address": "CCC OUT ONRAMP & TCHOUPITOULAS EXIT",
    "address_councildis": "B",
    "status": "Pending",
    "rowid": "1231019",
    "final_x": "3681543.93",
    "final_y": "525555.62",
    "longitude": "-90.06813955736726",
    "latitude": "29.939094308013136",
    "geocoded_column": {
      "latitude": "29.939094308013136",
      "longitude": "-90.06813955736726"
    }
  },
  {
    "service_request": "2025-1231018",
    "request_type": "Trash/Recycling",
    "request_reason": "Repair Trash Cart",
    "date_created": "2025-10-03T15:09:08.000",
    "date_modified": "2025-10-03T15:09:11.000",
    "request_status": "Pending",
    "responsible_agency": "Department of Sanitation",
    "final_address": "1523 Nashville Ave",
    "address_councildis": "A",
    "status": "Assigned to Contractor",
    "contractor": "IV Waste",
    "rowid": "1231018",
    "final_x": "3666228.28653",
    "final_y": "521830.005434",
    "longitude": "-90.11661798385923",
    "latitude": "29.92930616505468",
    "geocoded_column": {
      "latitude": "29.92930616505468",
      "longitude": "-90.11661798385923"
    }
  },
  {
    "service_request": "2025-1231017",
    "request_type": "Roads and Streets",
    "request_reason": "Sidewalk Damaged or Missing",
    "date_created": "2025-10-03T15:09:02.000",
    "date_modified": "2025-10-03T15:09:05.000",
    "request_status": "Pending",
    "responsible_agency": "Department of Public Works",
    "final_address": "5021 Constance St",
    "address_councildis": "B",
    "status": "Pending",
    "rowid": "1231017",
    "final_x": "3668451.89831",
    "final_y": "518269.540278",
    "longitude": "-90.10971846442192",
    "latitude": "29.91945090262264",
    "geocoded_column": {
      "latitude": "29.91945090262264",
      "longitude": "-90.10971846442192"
    }
  },
  {
    "service_request": "2025-1231016",
    "request_type": "Trash/Recycling",
    "request_reason": "Illegal Dumping",
    "date_created": "2025-10-03T15:07:33.000",
    "date_modified": "2025-10-03T15:07:34.000",
    "request_status": "Pending",
    "responsible_agency": "Department of Sanitation",
    "final_address": "4520 N Rampart St",
    "address_councildis": "C",
    "status": "Pending",
    "rowid": "1231016",
    "final_x": "3693364.90032",
    "final_y": "534417.454789",
    "longitude": "-90.03050137569733",
    "latitude": "29.963097087679955",
    "geocoded_column": {
      "latitude": "29.963097087679955",
      "longitude": "-90.03050137569733"
    }
  },
  {
    "service_request": "2025-1231015",
    "request_type": "Roads and Streets",
    "request_reason": "Pothole",
    "date_created": "2025-10-03T15:04:49.000",
    "date_modified": "2025-10-03T15:04:50.000",
    "request_status": "Pending",
    "responsible_agency": "Department of Public Works",
    "final_address": "CHEF MENTEUR HWY & INDUSTRIAL PKWY",
    "address_councildis": "E",
    "status": "Pending",
    "rowid": "1231015",
    "final_x": "3735200.6",
    "final_y": "563330.48",
    "longitude": "-89.89724731255077",
    "latitude": "30.041221917111677",
    "geocoded_column": {
      "latitude": "30.041221917111677",
      "longitude": "-89.89724731255077"
    }
  },
  {
    "service_request": "2025-1231014",
    "request_type": "Trash/Recycling",
    "request_reason": "Missed Trash Pick-Up",
    "date_created": "2025-10-03T15:03:36.000",
    "date_modified": "2025-10-03T16:35:34.000",
    "case_close_date": "2025-10-03T11:35:33.000",
    "request_status": "Closed",
    "responsible_agency": "Department of Sanitation",
    "final_address": "5201 Camp St",
    "address_councildis": "B",
    "status": "Invalid Request",
    "contractor": "IV Waste",
    "contractor_action": "Invalid",
    "rowid": "1231014",
    "final_x": "3668019.37709",
    "final_y": "519063.205239",
    "longitude": "-90.11105699890958",
    "latitude": "29.92164592426312",
    "geocoded_column": {
      "latitude": "29.92164592426312",
      "longitude": "-90.11105699890958"
    }
  },
  {
    "service_request": "2025-1231013",
    "request_type": "Street and Traffic Signs",
    "request_reason": "Stop Sign Missing or Damaged",
    "date_created": "2025-10-03T15:02:09.000",
    "date_modified": "2025-10-03T15:02:11.000",
    "request_status": "Pending",
    "responsible_agency": "Department of Public Works",
    "final_address": "MANDEVILLE ST & N JOHNSON ST",
    "address_councildis": "D",
    "status": "Pending",
    "rowid": "1231013",
    "final_x": "3685508.9",
    "final_y": "539683.48",
    "longitude": "-90.05512413223884",
    "latitude": "29.977820093227592",
    "geocoded_column": {
      "latitude": "29.977820093227592",
      "longitude": "-90.05512413223884"
    }
  },
  {
    "service_request": "2025-1231012",
    "request_type": "Parks & Parkways",
    "request_reason": "Request Tree Service (Right of Way/Public Property)",
    "date_created": "2025-10-03T15:01:38.000",
    "date_modified": "2025-10-03T15:01:40.000",
    "request_status": "Pending",
    "responsible_agency": "Department of Parks & Parkway",
    "final_address": "2301 Dauphine St",
    "address_councildis": "C",
    "status": "Pending",
    "rowid": "1231012",
    "final_x": "3685559.45929",
    "final_y": "535292.272582",
    "longitude": "-90.05511916040699",
    "latitude": "29.9657442538213",
    "geocoded_column": {
      "latitude": "29.9657442538213",
      "longitude": "-90.05511916040699"
    }
  },
  {
    "service_request": "2025-1231011",
    "request_type": "Roads and Streets",
    "request_reason": "Pothole",
    "date_created": "2025-10-03T15:01:32.000",
    "date_modified": "2025-10-03T15:01:34.000",
    "request_status": "Pending",
    "responsible_agency": "Department of Public Works",
    "final_address": "LOUIS XIV ST & HARRISON AVE",
    "address_councildis": "A",
    "status": "Pending",
    "rowid": "1231011",
    "final_x": "3668255.6",
    "final_y": "549270.98",
    "longitude": "-90.10929273673351",
    "latitude": "30.00470036359114",
    "geocoded_column": {
      "latitude": "30.00470036359114",
      "longitude": "-90.10929273673351"
    }
  },
  {
    "service_request": "2025-1231010",
    "request_type": "Parks & Parkways",
    "request_reason": "Request Tree Service (Right of Way/Public Property)",
    "date_created": "2025-10-03T15:00:22.000",
    "date_modified": "2025-10-03T15:01:28.000",
    "request_status": "Pending",
    "responsible_agency": "Department of Parks & Parkway",
    "final_address": "2309 St Charles Ave",
    "address_councildis": "B",
    "status": "Pending",
    "rowid": "1231010",
    "final_x": "3677031.77378",
    "final_y": "523350.029051",
    "longitude": "-90.0824610061535",
    "latitude": "29.933165878082885",
    "geocoded_column": {
      "latitude": "29.933165878082885",
      "longitude": "-90.0824610061535"
    }
  },
  {
    "service_request": "2025-1231009",
    "request_type": "Abandoned Vehicles",
    "request_reason": "Abandoned/Junk Vehicles",
    "date_created": "2025-10-03T14:53:47.000",
    "date_modified": "2025-10-03T14:53:50.000",
    "request_status": "Pending",
    "responsible_agency": "Department of Public Works",
    "final_address": "3301 Feliciana St Apt A",
    "address_councildis": "D",
    "status": "Pending",
    "rowid": "1231009",
    "final_x": "3690999.16496",
    "final_y": "544764.298575",
    "longitude": "-90.03760257546459",
    "latitude": "29.99162097716296",
    "geocoded_column": {
      "latitude": "29.99162097716296",
      "longitude": "-90.03760257546459"
    }
  },
  {
    "service_request": "2025-1231008",
    "request_type": "Trash/Recycling",
    "request_reason": "Order Trash Cart",
    "date_created": "2025-10-03T14:53:06.000",
    "date_modified": "2025-10-03T14:53:08.000",
    "request_status": "Pending",
    "responsible_agency": "Department of Sanitation",
    "final_address": "7407 St Charles Ave",
    "address_councildis": "A",
    "status": "Assigned to Contractor",
    "contractor": "IV Waste",
    "rowid": "1231008",
    "final_x": "3662511.61133",
    "final_y": "525187.071357",
    "longitude": "-90.12823942795234",
    "latitude": "29.938645031628575",
    "geocoded_column": {
      "latitude": "29.938645031628575",
      "longitude": "-90.12823942795234"
    }
  },
  {
    "service_request": "2025-1231007",
    "request_type": "Trash/Recycling",
    "request_reason": "Request a Large Item Pick Up",
    "date_created": "2025-10-03T14:51:53.000",
    "date_modified": "2025-10-03T14:51:54.000",
    "request_status": "Pending",
    "responsible_agency": "Department of Sanitation",
    "final_address": "6036 Kuebel Dr",
    "address_councildis": "E",
    "status": "Assigned to Contractor",
    "contractor": "Waste Pro",
    "rowid": "1231007",
    "final_x": "3695144.13194",
    "final_y": "559710.080477",
    "longitude": "-90.02397010983198",
    "latitude": "30.032586758991627",
    "geocoded_column": {
      "latitude": "30.032586758991627",
      "longitude": "-90.02397010983198"
    }
  },
  {
    "service_request": "2025-1231006",
    "request_type": "Trash/Recycling",
    "request_reason": "Replace Trash Cart",
    "date_created": "2025-10-03T14:50:01.000",
    "date_modified": "2025-10-03T14:50:03.000",
    "request_status": "Pending",
    "responsible_agency": "Department of Sanitation",
    "final_address": "5224 Pitt St",
    "address_councildis": "B",
    "status": "Assigned to Contractor",
    "contractor": "IV Waste",
    "rowid": "1231006",
    "final_x": "3667884.20679",
    "final_y": "520354.672504",
    "longitude": "-90.1114402028925",
    "latitude": "29.925201015088376",
    "geocoded_column": {
      "latitude": "29.925201015088376",
      "longitude": "-90.1114402028925"
    }
  },
  {
    "service_request": "2025-1231005",
    "request_type": "Trash/Recycling",
    "request_reason": "Repair Trash Cart",
    "date_created": "2025-10-03T14:49:45.000",
    "date_modified": "2025-10-03T14:49:47.000",
    "request_status": "Pending",
    "responsible_agency": "Department of Sanitation",
    "final_address": "8800 Oleander St",
    "address_councildis": "A",
    "status": "Assigned to Contractor",
    "contractor": "IV Waste",
    "rowid": "1231005",
    "final_x": "3664867.6864",
    "final_y": "535348.334662",
    "longitude": "-90.1204614465796",
    "latitude": "29.96651686510512",
    "geocoded_column": {
      "latitude": "29.96651686510512",
      "longitude": "-90.1204614465796"
    }
  },
  {
    "service_request": "2025-1231004",
    "request_type": "Street and Traffic Signs",
    "request_reason": "Street Name Sign Damaged or Missing",
    "date_created": "2025-10-03T14:39:45.000",
    "date_modified": "2025-10-03T14:39:47.000",
    "request_status": "Pending",
    "responsible_agency": "Department of Public Works",
    "final_address": "LOWERLINE ST & FRERET ST",
    "address_councildis": "A",
    "status": "Pending",
    "rowid": "1231004",
    "final_x": "3663280.1",
    "final_y": "526228.18",
    "longitude": "-90.12577857642057",
    "latitude": "29.941485502920784",
    "geocoded_column": {
      "latitude": "29.941485502920784",
      "longitude": "-90.12577857642057"
    }
  },
  {
    "service_request": "2025-1231003",
    "request_type": "Trash/Recycling",
    "request_reason": "Illegal Dumping",
    "date_created": "2025-10-03T14:37:11.000",
    "date_modified": "2025-10-03T14:37:12.000",
    "request_status": "Pending",
    "responsible_agency": "Department of Sanitation",
    "final_address": "GENERAL DE GAULLE DR & HOLIDAY DR",
    "address_councildis": "C",
    "status": "Pending",
    "rowid": "1231003",
    "final_x": "3698595.0",
    "final_y": "519112.58",
    "longitude": "-90.01454170298932",
    "latitude": "29.920849468009546",
    "geocoded_column": {
      "latitude": "29.920849468009546",
      "longitude": "-90.01454170298932"
    }
  },
  {
    "service_request": "2025-1231002",
    "request_type": "Street and Traffic Signs",
    "request_reason": "Additional Signage Request",
    "date_created": "2025-10-03T14:36:24.000",
    "date_modified": "2025-10-03T14:36:27.000",
    "request_status": "Pending",
    "responsible_agency": "Department of Public Works",
    "final_address": "3128 Fortin St",
    "address_councildis": "A",
    "status": "Pending",
    "rowid": "1231002",
    "final_x": "3676344.04059",
    "final_y": "540919.483723",
    "longitude": "-90.08402739617037",
    "latitude": "29.981496608267335",
    "geocoded_column": {
      "latitude": "29.981496608267335",
      "longitude": "-90.08402739617037"
    }
  },
  {
    "service_request": "2025-1231001",
    "request_type": "Roads and Streets",
    "request_reason": "Push-up/Pavement Expansion",
    "date_created": "2025-10-03T14:32:11.000",
    "date_modified": "2025-10-03T14:32:12.000",
    "request_status": "Pending",
    "responsible_agency": "Department of Public Works",
    "final_address": "GENERAL DE GAULLE DR & HOLIDAY DR",
    "address_councildis": "C",
    "status": "Pending",
    "rowid": "1231001",
    "final_x": "3698595.0",
    "final_y": "519112.58",
    "longitude": "-90.01454170298932",
    "latitude": "29.920849468009546",
    "geocoded_column": {
      "latitude": "29.920849468009546",
      "longitude": "-90.01454170298932"
    }
  },
  {
    "service_request": "2025-1231000",
    "request_type": "Trash/Recycling",
    "request_reason": "Repair Trash Cart",
    "date_created": "2025-10-03T14:31:29.000",
    "date_modified": "2025-10-03T14:31:31.000",
    "request_status": "Pending",
    "responsible_agency": "Department of Sanitation",
    "final_address": "2322 Peniston St",
    "address_councildis": "B",
    "status": "Assigned to Contractor",
    "contractor": "IV Waste",
    "rowid": "1231000",
    "final_x": "3672216.37902",
    "final_y": "523727.631227",
    "longitude": "-90.09765006382968",
    "latitude": "29.93434782819365",
    "geocoded_column": {
      "latitude": "29.93434782819365",
      "longitude": "-90.09765006382968"
    }
  },
  {
    "service_request": "2025-1230999",
    "request_type": "Trash/Recycling",
    "request_reason": "Request a Large Item Pick Up",
    "date_created": "2025-10-03T14:28:23.000",
    "date_modified": "2025-10-03T14:28:25.000",
    "request_status": "Pending",
    "responsible_agency": "Department of Sanitation",
    "final_address": "7512 Jonlee Dr",
    "address_councildis": "E",
    "status": "Assigned to Contractor",
    "contractor": "Waste Pro",
    "rowid": "1230999",
    "final_x": "3717426.02578",
    "final_y": "569954.248934",
    "longitude": "-89.95316844834154",
    "latitude": "30.060035109428355",
    "geocoded_column": {
      "latitude": "30.060035109428355",
      "longitude": "-89.95316844834154"
    }
  },
  {
    "service_request": "2025-1230998",
    "request_type": "Abandoned Vehicles",
    "request_reason": "Abandoned/Junk Vehicles",
    "date_created": "2025-10-03T14:25:13.000",
    "date_modified": "2025-10-03T14:25:16.000",
    "request_status": "Pending",
    "responsible_agency": "Department of Public Works",
    "final_address": "6600 Morrison Rd",
    "address_councildis": "E",
    "status": "Pending",
    "rowid": "1230998",
    "final_x": "3698428.45098",
    "final_y": "558152.841243",
    "longitude": "-90.0136481332858",
    "latitude": "30.02820134692633",
    "geocoded_column": {
      "latitude": "30.02820134692633",
      "longitude": "-90.0136481332858"
    }
  },
  {
    "service_request": "2025-1230997",
    "request_type": "Trash/Recycling",
    "request_reason": "Return Trash Cart",
    "date_created": "2025-10-03T14:23:35.000",
    "date_modified": "2025-10-03T14:23:38.000",
    "request_status": "Pending",
    "responsible_agency": "Department of Sanitation",
    "final_address": "922 Race St",
    "address_councildis": "B",
    "status": "Assigned to Contractor",
    "contractor": "IV Waste",
    "rowid": "1230997",
    "final_x": "3680780.96738",
    "final_y": "523654.292283",
    "longitude": "-90.07061447168613",
    "latitude": "29.933889428909904",
    "geocoded_column": {
      "latitude": "29.933889428909904",
      "longitude": "-90.07061447168613"
    }
  },
  {
    "service_request": "2025-1230996",
    "request_type": "Trash/Recycling",
    "request_reason": "Start Trash Service",
    "date_created": "2025-10-03T14:16:14.000",
    "date_modified": "2025-10-03T14:16:16.000",
    "request_status": "Pending",
    "responsible_agency": "Department of Sanitation",
    "final_address": "5942 General Haig St",
    "address_councildis": "A",
    "status": "Assigned to Contractor",
    "contractor": "IV Waste",
    "rowid": "1230996",
    "final_x": "3670440.36961",
    "final_y": "546790.426321",
    "longitude": "-90.10247477989081",
    "latitude": "29.99781535089914",
    "geocoded_column": {
      "latitude": "29.99781535089914",
      "longitude": "-90.10247477989081"
    }
  },
  {
    "service_request": "2025-1230995",
    "request_type": "Trash/Recycling",
    "request_reason": "Request a Large Item Pick Up",
    "date_created": "2025-10-03T14:15:02.000",
    "date_modified": "2025-10-03T14:15:04.000",
    "request_status": "Pending",
    "responsible_agency": "Department of Sanitation",
    "final_address": "7501 Briarwood Dr",
    "address_councildis": "E",
    "status": "Assigned to Contractor",
    "contractor": "Waste Pro",
    "rowid": "1230995",
    "final_x": "3718028.91161",
    "final_y": "570334.094311",
    "longitude": "-89.9512482970548",
    "latitude": "30.061059545423795",
    "geocoded_column": {
      "latitude": "30.061059545423795",
      "longitude": "-89.9512482970548"
    }
  },
  {
    "service_request": "2025-1230994",
    "request_type": "Trash/Recycling",
    "request_reason": "Missed Trash Pick-Up",
    "date_created": "2025-10-03T14:13:58.000",
    "date_modified": "2025-10-03T14:14:00.000",
    "request_status": "Pending",
    "responsible_agency": "Department of Sanitation",
    "final_address": "603 Tricou St",
    "address_councildis": "E",
    "status": "Assigned to Contractor",
    "contractor": "Waste Pro",
    "rowid": "1230994",
    "final_x": "3699489.08823",
    "final_y": "531330.516034",
    "longitude": "-90.01127451721908",
    "latitude": "29.954416217344857",
    "geocoded_column": {
      "latitude": "29.954416217344857",
      "longitude": "-90.01127451721908"
    }
  },
  {
    "service_request": "2025-1230993",
    "request_type": "Property Maintenance",
    "request_reason": "Property Maintenance",
    "date_created": "2025-10-03T14:11:48.000",
    "date_modified": "2025-10-03T15:13:12.000",
    "case_close_date": "2025-10-03T10:13:10.000",
    "request_status": "Closed",
    "responsible_agency": "Department of Code Enforcement",
    "final_address": "1100 Music St",
    "address_councildis": "C",
    "status": "Referred to Code Enforcement",
    "rowid": "1230993",
    "final_x": "3686810.22018",
    "final_y": "536567.301703",
    "longitude": "-90.0511242545368",
    "latitude": "29.969211715920444",
    "geocoded_column": {
      "latitude": "29.969211715920444",
      "longitude": "-90.0511242545368"
    }
  },
  {
    "service_request": "2025-1230992",
    "request_type": "Trash/Recycling",
    "request_reason": "Replace Recycling Cart",
    "date_created": "2025-10-03T14:10:42.000",
    "date_modified": "2025-10-03T14:10:45.000",
    "request_status": "Pending",
    "responsible_agency": "Department of Sanitation",
    "final_address": "4618 Bienville Ave",
    "address_councildis": "A",
    "status": "Pending",
    "rowid": "1230992",
    "final_x": "3669730.85818",
    "final_y": "540291.021067",
    "longitude": "-90.10493622618948",
    "latitude": "29.979965151006738",
    "geocoded_column": {
      "latitude": "29.979965151006738",
      "longitude": "-90.10493622618948"
    }
  },