[
  {
    "service_request": "2022-945668",
    "request_type": "Traffic Signals/Signs/Striping/Streetlights",
    "request_reason": "Street Light Outage/Malfunction",
    "date_created": "2022-11-22T00:12:07.000",
    "date_modified": "2022-11-22T00:12:08.000",
    "request_status": "Pending",
    "responsible_agency": "Department of Public Works",
    "final_address": "3 Yellowstone Ct",
    "address_councildis": "C",
    "status": "Pending",
    "contractor": "Legacy Professional Services",
    "rowid": "945668",
    "final_x": "3699515.44394",
    "final_y": "518281.335094",
    "longitude": "-90.01166656424037",
    "latitude": "29.918534666840618",
    "geocoded_column": {
      "latitude": "29.918534666840618",
      "longitude": "-90.01166656424037"
    }
  },
  {
    "service_request": "2022-945667",
    "request_type": "Traffic Signals/Signs/Striping/Streetlights",
    "request_reason": "Street Light Outage/Malfunction",
    "date_created": "2022-11-22T00:05:53.000",
    "date_modified": "2022-11-22T00:05:53.000",
    "request_status": "Pending",
    "responsible_agency": "Department of Public Works",
    "final_address": "3 Yellowstone Ct",
    "address_councildis": "C",
    "status": "Pending",
    "contractor": "Legacy Professional Services",
    "rowid": "945667",
    "final_x": "3699515.44394",
    "final_y": "518281.335094",
    "longitude": "-90.01166656424037",
    "latitude": "29.918534666840618",
    "geocoded_column": {
      "latitude": "29.918534666840618",
      "longitude": "-90.01166656424037"
    }
  },
  {
    "service_request": "2022-945666",
    "request_type": "Trash/Recycling",
    "request_reason": "Request a Large Item Pick Up",
    "date_created": "2022-11-21T22:19:07.000",
    "date_modified": "2022-11-21T22:19:08.000",
    "request_status": "Pending",
    "responsible_agency": "Department of Sanitation",
    "final_address": "8439 Edinburgh St",
    "address_councildis": "A",
    "status": "Assigned to Contractor",
    "contractor": "Richards Disposal",
    "rowid": "945666",
    "final_x": "3666487.04666",
    "final_y": "535398.713542",
    "longitude": "-90.11534581473197",
    "latitude": "29.966608159230617",
    "geocoded_column": {
      "latitude": "29.966608159230617",
      "longitude": "-90.11534581473197"
    }
  },
  {
    "service_request": "2022-945664",
    "request_type": "Trash/Recycling",
    "request_reason": "Repair Recycling Cart",
    "date_created": "2022-11-21T22:10:03.000",
    "date_modified": "2022-11-21T22:10:03.000",
    "request_status": "Pending",
    "responsible_agency": "Department of Sanitation",
    "final_address": "6480 Argonne Blvd",
    "address_councildis": "A",
    "status": "Pending",
    "rowid": "945664",
    "final_x": "3670395.97748",
    "final_y": "550500.691988",
    "longitude": "-90.10248911251844",
    "latitude": "30.008018597594727",
    "geocoded_column": {
      "latitude": "30.008018597594727",
      "longitude": "-90.10248911251844"
    }
  },
  {
    "service_request": "2022-945663",
    "request_type": "Trash/Recycling",
    "request_reason": "Order Recycling Cart",
    "date_created": "2022-11-21T22:00:39.000",
    "date_modified": "2022-11-21T22:00:39.000",
    "request_status": "Pending",
    "responsible_agency": "Department of Sanitation",
    "final_address": "3625 Dauphine St",
    "address_councildis": "C",
    "status": "Pending",
    "rowid": "945663",
    "final_x": "3690651.48656",
    "final_y": "534407.718405",
    "longitude": "-90.03907032911582",
    "latitude": "29.96315486886352",
    "geocoded_column": {
      "latitude": "29.96315486886352",
      "longitude": "-90.03907032911582"
    }
  },
  {
    "service_request": "2022-945662",
    "request_type": "Abandoned Vehicles",
    "request_reason": "Abandoned/Junk Vehicles",
    "date_created": "2022-11-21T21:34:14.000",
    "date_modified": "2022-11-21T21:34:14.000",
    "request_status": "Pending",
    "responsible_agency": "Department of Public Works",
    "final_address": "3303 St Ann St",
    "address_councildis": "A",
    "status": "Pending",
    "rowid": "945662",
    "final_x": "3674875.44072",
    "final_y": "538815.126153",
    "longitude": "-90.08873811405942",
    "latitude": "29.975754292050297",
    "geocoded_column": {
      "latitude": "29.975754292050297",
      "longitude": "-90.08873811405942"
    }
  },
  {
    "service_request": "2022-945661",
    "request_type": "Abandoned Vehicles",
    "request_reason": "Abandoned/Junk Vehicles",
    "date_created": "2022-11-21T20:08:58.000",
    "date_modified": "2022-11-21T20:08:58.000",
    "request_status": "Pending",
    "responsible_agency": "Department of Public Works",
    "final_address": "2250 N Tonti St",
    "address_councildis": "D",
    "status": "Pending",
    "rowid": "945661",
    "final_x": "3685139.80303",
    "final_y": "540733.743755",
    "longitude": "-90.05625289600668",
    "latitude": "29.980719265523746",
    "geocoded_column": {
      "latitude": "29.980719265523746",
      "longitude": "-90.05625289600668"
    }
  },
  {
    "service_request": "2022-945660",
    "request_type": "Trash/Recycling",
    "request_reason": "Missed Trash Pick-Up",
    "date_created": "2022-11-21T20:00:56.000",
    "date_modified": "2022-11-21T20:00:57.000",
    "request_status": "Pending",
    "responsible_agency": "Department of Sanitation",
    "final_address": "1136 Eleonore St",
    "address_councildis": "A",
    "status": "Assigned to Contractor",
    "contractor": "Richards Disposal",
    "rowid": "945660",
    "final_x": "3665434.91501",
    "final_y": "520318.726648",
    "longitude": "-90.11917307127578",
    "latitude": "29.92517376575328",
    "geocoded_column": {
      "latitude": "29.92517376575328",
      "longitude": "-90.11917307127578"
    }
  },
  {
    "service_request": "2022-945659",
    "request_type": "Trash/Recycling",
    "request_reason": "Request a Large Item Pick Up",
    "date_created": "2022-11-21T19:53:34.000",
    "date_modified": "2022-11-21T19:53:35.000",
    "request_status": "Pending",
    "responsible_agency": "Department of Sanitation",
    "final_address": "11140 N Parkwood Ct",
    "address_councildis": "E",
    "status": "Assigned to Contractor",
    "contractor": "Waste Pro",
    "rowid": "945659",
    "final_x": "3716396.5548",
    "final_y": "559013.036764",
    "longitude": "-89.9568379803472",
    "latitude": "30.02998528747709",
    "geocoded_column": {
      "latitude": "30.02998528747709",
      "longitude": "-89.9568379803472"
    }
  },
  {
    "service_request": "2022-945658",
    "request_type": "Trash/Recycling",
    "request_reason": "MIssed Recycling Pick-Up",
    "date_created": "2022-11-21T19:51:35.000",
    "date_modified": "2022-11-21T19:51:36.000",
    "request_status": "Pending",
    "responsible_agency": "Department of Sanitation",
    "final_address": "619 Red Allen Way",
    "address_councildis": "C",
    "status": "Assigned to Contractor",
    "contractor": "Richards Disposal",
    "rowid": "945658",
    "final_x": "3687290.72022",
    "final_y": "528688.790912",
    "longitude": "-90.04988549279143",
    "latitude": "29.947533736736727",
    "geocoded_column": {
      "latitude": "29.947533736736727",
      "longitude": "-90.04988549279143"
    }
  },
  {
    "service_request": "2022-945657",
    "request_type": "Trash/Recycling",
    "request_reason": "Missed Trash Pick-Up",
    "date_created": "2022-11-21T19:49:31.000",
    "date_modified": "2022-11-21T19:49:32.000",
    "request_status": "Pending",
    "responsible_agency": "Department of Sanitation",
    "final_address": "1625 Nashville Ave",
    "address_councildis": "A",
    "status": "Assigned to Contractor",
    "contractor": "Richards Disposal",
    "rowid": "945657",
    "final_x": "3666376.67354",
    "final_y": "522384.303866",
    "longitude": "-90.11613096431026",
    "latitude": "29.930825976550093",
    "geocoded_column": {
      "latitude": "29.930825976550093",
      "longitude": "-90.11613096431026"
    }
  },
  {
    "service_request": "2022-945656",
    "request_type": "Trash/Recycling",
    "request_reason": "Request a Large Item Pick Up",
    "date_created": "2022-11-21T18:53:18.000",
    "date_modified": "2022-11-21T18:53:19.000",
    "request_status": "Pending",
    "responsible_agency": "Department of Sanitation",
    "final_address": "4718 Press Dr",
    "address_councildis": "D",
    "status": "Assigned to Contractor",
    "contractor": "IV Waste",
    "rowid": "945656",
    "final_x": "3689518.49583",
    "final_y": "550700.59522",
    "longitude": "-90.04206836059382",
    "latitude": "30.007989589810435",
    "geocoded_column": {
      "latitude": "30.007989589810435",
      "longitude": "-90.04206836059382"
    }
  },
  {
    "service_request": "2022-945655",
    "request_type": "Trash/Recycling",
    "request_reason": "Order Recycling Cart",
    "date_created": "2022-11-21T18:51:28.000",
    "date_modified": "2022-11-21T18:51:28.000",
    "request_status": "Pending",
    "responsible_agency": "Department of Sanitation",
    "final_address": "3816 Cleveland Ave",
    "address_councildis": "A",
    "status": "Pending",
    "rowid": "945655",
    "final_x": "3671664.22087",
    "final_y": "537328.13556",
    "longitude": "-90.09893066499582",
    "latitude": "29.971761087393524",
    "geocoded_column": {
      "latitude": "29.971761087393524",
      "longitude": "-90.09893066499582"
    }
  },
  {
    "service_request": "2022-945654",
    "request_type": "Trash/Recycling",
    "request_reason": "Order Recycling Cart",
    "date_created": "2022-11-21T18:50:00.000",
    "date_modified": "2022-11-21T18:50:00.000",
    "request_status": "Pending",
    "responsible_agency": "Department of Sanitation",
    "final_address": "2903 First St",
    "address_councildis": "B",
    "status": "Pending",
    "rowid": "945654",
    "final_x": "3674435.38587",
    "final_y": "527108.992959",
    "longitude": "-90.09052893180122",
    "latitude": "29.94357948125581",
    "geocoded_column": {
      "latitude": "29.94357948125581",
      "longitude": "-90.09052893180122"
    }
  },
  {
    "service_request": "2022-945653",
    "request_type": "Trash/Recycling",
    "request_reason": "Order Recycling Cart",
    "date_created": "2022-11-21T18:48:52.000",
    "date_modified": "2022-11-21T18:48:52.000",
    "request_status": "Pending",
    "responsible_agency": "Department of Sanitation",
    "final_address": "2901 First St",
    "address_councildis": "B",
    "status": "Pending",
    "rowid": "945653",
    "final_x": "3674442.02587",
    "final_y": "527096.449919",
    "longitude": "-90.0905083970815",
    "latitude": "29.943544793989016",
    "geocoded_column": {
      "latitude": "29.943544793989016",
      "longitude": "-90.0905083970815"
    }
  },
  {
    "service_request": "2022-945652",
    "request_type": "Trash/Recycling",
    "request_reason": "Replace Trash Cart",
    "date_created": "2022-11-21T18:47:02.000",
    "date_modified": "2022-11-21T18:47:03.000",
    "request_status": "Pending",
    "responsible_agency": "Department of Sanitation",
    "final_address": "2824 Gentilly Blvd",
    "address_councildis": "D",
    "status": "Assigned to Contractor",
    "contractor": "IV Waste",
    "rowid": "945652",
    "final_x": "3682984.44194",
    "final_y": "545966.28712",
    "longitude": "-90.06287722275893",
    "latitude": "29.995172788339747",
    "geocoded_column": {
      "latitude": "29.995172788339747",
      "longitude": "-90.06287722275893"
    }
  },
  {
    "service_request": "2022-945651",
    "request_type": "Trash/Recycling",
    "request_reason": "Order Recycling Cart",
    "date_created": "2022-11-21T18:45:02.000",
    "date_modified": "2022-11-21T18:45:02.000",
    "request_status": "Pending",
    "responsible_agency": "Department of Sanitation",
    "final_address": "2824 Gentilly Blvd",
    "address_councildis": "D",
    "status": "Pending",
    "rowid": "945651",
    "final_x": "3682984.44194",
    "final_y": "545966.28712",
    "longitude": "-90.06287722275893",
    "latitude": "29.995172788339747",
    "geocoded_column": {
      "latitude": "29.995172788339747",
      "longitude": "-90.06287722275893"
    }
  },
  {
    "service_request": "2022-945649",
    "request_type": "Trash/Recycling",
    "request_reason": "MIssed Recycling Pick-Up",
    "date_created": "2022-11-21T18:37:45.000",
    "date_modified": "2022-11-21T18:37:45.000",
    "request_status": "Pending",
    "responsible_agency": "Department of Sanitation",
    "final_address": "6065 General Meyer Ave",
    "address_councildis": "C",
    "status": "Assigned to Contractor",
    "contractor": "Richards Disposal",
    "rowid": "945649",
    "final_x": "3706429.86993",
    "final_y": "520953.953593",
    "longitude": "-89.98974264689541",
    "latitude": "29.925662328529434",
    "geocoded_column": {
      "latitude": "29.925662328529434",
      "longitude": "-89.98974264689541"
    }
  },
  {
    "service_request": "2022-945648",
    "request_type": "Parks & Parkways",
    "request_reason": "Request Tree Service (Right of Way/Public Property)",
    "date_created": "2022-11-21T18:34:46.000",
    "date_modified": "2022-11-21T18:34:46.000",
    "request_status": "Pending",
    "responsible_agency": "Department of Parks & Parkway",
    "final_address": "360 Leslie Ln",
    "address_councildis": "A",
    "status": "Pending",
    "rowid": "945648",
    "final_x": "3664659.42522",
    "final_y": "547336.598545",
    "longitude": "-90.1207184848632",
    "latitude": "29.999486620435047",
    "geocoded_column": {
      "latitude": "29.999486620435047",
      "longitude": "-90.1207184848632"
    }
  },
  {
    "service_request": "2022-945647",
    "request_type": "Trash/Recycling",
    "request_reason": "Missed Trash Pick-Up",
    "date_created": "2022-11-21T18:31:58.000",
    "date_modified": "2022-11-21T18:31:58.000",
    "request_status": "Pending",
    "responsible_agency": "Department of Sanitation",
    "final_address": "12 Christopher Ct",
    "address_councildis": "E",
    "status": "Assigned to Contractor",
    "contractor": "Waste Pro",
    "rowid": "945647",
    "final_x": "3716668.85125",
    "final_y": "570517.047143",
    "longitude": "-89.9555404206866",
    "latitude": "30.061607626131252",
    "geocoded_column": {
      "latitude": "30.061607626131252",
      "longitude": "-89.9555404206866"
    }
  },
  {
    "service_request": "2022-945646",
    "request_type": "Trash/Recycling",
    "request_reason": "Illegal Dumping",
    "date_created": "2022-11-21T18:31:51.000",
    "date_modified": "2022-11-21T18:31:51.000",
    "request_status": "Pending",
    "responsible_agency": "Department of Sanitation",
    "final_address": "2302 Esplanade Ave",
    "address_councildis": "D",
    "status": "Pending",
    "rowid": "945646",
    "final_x": "3679191.99253",
    "final_y": "538044.797449",
    "longitude": "-90.07513194506515",
    "latitude": "29.97350652782838",
    "geocoded_column": {
      "latitude": "29.97350652782838",
      "longitude": "-90.07513194506515"
    }
  },
  {
    "service_request": "2022-945645",
    "request_type": "Trash/Recycling",
    "request_reason": "Request a Large Item Pick Up",
    "date_created": "2022-11-21T18:27:41.000",
    "date_modified": "2022-11-21T18:27:42.000",
    "request_status": "Pending",
    "responsible_agency": "Department of Sanitation",
    "final_address": "86 Fontainebleau Dr",
    "address_councildis": "A",
    "status": "Assigned to Contractor",
    "contractor": "Richards Disposal",
    "rowid": "945645",
    "final_x": "3666910.29447",
    "final_y": "530715.840898",
    "longitude": "-90.11416654538185",
    "latitude": "29.953719422193565",
    "geocoded_column": {
      "latitude": "29.953719422193565",
      "longitude": "-90.11416654538185"
    }
  },
  {
    "service_request": "2022-945644",
    "request_type": "Traffic Signals/Signs/Striping/Streetlights",
    "request_reason": "Street Light Outage/Malfunction",
    "date_created": "2022-11-21T18:24:07.000",
    "date_modified": "2022-11-21T18:24:08.000",
    "request_status": "Pending",
    "responsible_agency": "Department of Public Works",
    "final_address": "1030 Webster St",
    "address_councildis": "A",
    "status": "Pending",
    "contractor": "Legacy Professional Services",
    "rowid": "945644",
    "final_x": "3664387.85229",
    "final_y": "520307.24812",
    "longitude": "-90.12247871146926",
    "latitude": "29.925172669361984",
    "geocoded_column": {
      "latitude": "29.925172669361984",
      "longitude": "-90.12247871146926"
    }
  },
  {
    "service_request": "2022-945643",
    "request_type": "Traffic Signals/Signs/Striping/Streetlights",
    "request_reason": "Traffic Signal Malfunctioning/Damaged",
    "date_created": "2022-11-21T17:58:21.000",
    "date_modified": "2022-11-21T17:58:21.000",
    "request_status": "Pending",
    "responsible_agency": "Department of Public Works",
    "final_address": "919 St Charles Ave",
    "address_councildis": "B",
    "status": "Pending",
    "rowid": "945643",
    "final_x": "3680174.97122",
    "final_y": "527316.807551",
    "longitude": "-90.07240033685378",
    "latitude": "29.94397847949933",
    "geocoded_column": {
      "latitude": "29.94397847949933",
      "longitude": "-90.07240033685378"
    }
  },
  {
    "service_request": "2022-945642",
    "request_type": "Trash/Recycling",
    "request_reason": "Order Recycling Cart",
    "date_created": "2022-11-21T17:45:19.000",
    "date_modified": "2022-11-21T17:45:19.000",
    "request_status": "Pending",
    "responsible_agency": "Department of Sanitation",
    "final_address": "7922 Marquis St",
    "address_councildis": "E",
    "status": "Pending",
    "rowid": "945642",
    "final_x": "3710579.37041",
    "final_y": "567198.887652",
    "longitude": "-89.97491343131185",
    "latitude": "30.052683965056456",
    "geocoded_column": {
      "latitude": "30.052683965056456",
      "longitude": "-89.97491343131185"
    }
  },
  {
    "service_request": "2022-945641",
    "request_type": "Trash/Recycling",
    "request_reason": "Order Trash Cart",
    "date_created": "2022-11-21T17:42:12.000",
    "date_modified": "2022-11-21T17:42:13.000",
    "request_status": "Pending",
    "responsible_agency": "Department of Sanitation",
    "final_address": "7322 Onyx Street",
    "address_councildis": "D",
    "status": "Assigned to Contractor",
    "contractor": "IV Waste",
    "rowid": "945641",
    "final_x": "3668821.58394",
    "final_y": "555765.820121",
    "longitude": "-90.10728512832769",
    "latitude": "30.02254224877879",
    "geocoded_column": {
      "latitude": "30.02254224877879",
      "longitude": "-90.10728512832769"
    }
  },
  {
    "service_request": "2022-945640",
    "request_type": "Trash/Recycling",
    "request_reason": "MIssed Recycling Pick-Up",
    "date_created": "2022-11-21T17:37:35.000",
    "date_modified": "2022-11-21T17:37:35.000",
    "request_status": "Pending",
    "responsible_agency": "Department of Sanitation",
    "final_address": "3620 N Homestead Dr",
    "address_councildis": "C",
    "status": "Assigned to Contractor",
    "contractor": "Richards Disposal",
    "rowid": "945640",
    "final_x": "3697156.19504",
    "final_y": "525370.605693",
    "longitude": "-90.01885671993838",
    "latitude": "29.93810234911292",
    "geocoded_column": {
      "latitude": "29.93810234911292",
      "longitude": "-90.01885671993838"
    }
  },
  {
    "service_request": "2022-945639",
    "request_type": "Trash/Recycling",
    "request_reason": "Repair Trash Cart",
    "date_created": "2022-11-21T17:37:09.000",
    "date_modified": "2022-11-21T17:37:10.000",
    "request_status": "Pending",
    "responsible_agency": "Department of Sanitation",
    "final_address": "2527 Holiday Dr",
    "address_councildis": "C",
    "status": "Assigned to Contractor",
    "contractor": "Richards Disposal",
    "rowid": "945639",
    "final_x": "3698768.40189",
    "final_y": "522085.957178",
    "longitude": "-90.01388627973132",
    "latitude": "29.929019748031866",
    "geocoded_column": {
      "latitude": "29.929019748031866",
      "longitude": "-90.01388627973132"
    }
  },
  {
    "service_request": "2022-945638",
    "request_type": "Roads/Drainage",
    "request_reason": "Street Flooding / Drainage",
    "date_created": "2022-11-21T17:32:04.000",
    "date_modified": "2022-11-21T17:32:04.000",
    "request_status": "Pending",
    "responsible_agency": "Department of Public Works",
    "final_address": "938 Dante St",
    "address_councildis": "A",
    "status": "Pending",
    "rowid": "945638",
    "final_x": "3660900.88454",
    "final_y": "528345.060864",
    "longitude": "-90.13322026832542",
    "latitude": "29.94737498160167",
    "geocoded_column": {
      "latitude": "29.94737498160167",
      "longitude": "-90.13322026832542"
    }
  },
  {
    "service_request": "2022-945637",
    "request_type": "Abandoned Vehicles",
    "request_reason": "Abandoned/Junk Vehicles",
    "date_created": "2022-11-21T17:32:04.000",
    "date_modified": "2022-11-21T17:32:04.000",
    "request_status": "Pending",
    "responsible_agency": "Department of Public Works",
    "final_address": "4700 Corinne St",
    "address_councildis": "E",
    "status": "Pending",
    "rowid": "945637",
    "final_x": "3714978.56837",
    "final_y": "556618.759258",
    "longitude": "-89.96140935173524",
    "latitude": "30.023448738126195",
    "geocoded_column": {
      "latitude": "30.023448738126195",
      "longitude": "-89.96140935173524"
    }
  },
  {
    "service_request": "2022-945636",
    "request_type": "Trash/Recycling",
    "request_reason": "Order Recycling Cart",
    "date_created": "2022-11-21T17:17:14.000",
    "date_modified": "2022-11-21T17:17:15.000",
    "request_status": "Pending",
    "responsible_agency": "Department of Sanitation",
    "final_address": "5800 Rhodes Ave",
    "address_councildis": "C",
    "status": "Pending",
    "rowid": "945636",
    "final_x": "3704744.28478",
    "final_y": "519711.96012",
    "longitude": "-89.99510927320685",
    "latitude": "29.922301517119667",
    "geocoded_column": {
      "latitude": "29.922301517119667",
      "longitude": "-89.99510927320685"
    }
  },
  {
    "service_request": "2022-945635",
    "request_type": "Trash/Recycling",
    "request_reason": "Order Recycling Cart",
    "date_created": "2022-11-21T17:15:55.000",
    "date_modified": "2022-11-21T17:19:54.000",
    "request_status": "Pending",
    "responsible_agency": "Department of Sanitation",
    "final_address": "2211 Dumaine St",
    "address_councildis": "D",
    "contractor": "Richards Disposal",
    "rowid": "945635",
    "final_x": "3678741.46312",
    "final_y": "536359.188423",
    "longitude": "-90.07661319818857",
    "latitude": "29.96888527609258",
    "geocoded_column": {
      "latitude": "29.96888527609258",
      "longitude": "-90.07661319818857"
    }
  },
  {
    "service_request": "2022-945634",
    "request_type": "Trash/Recycling",
    "request_reason": "Order Recycling Cart",
    "date_created": "2022-11-21T17:15:26.000",
    "date_modified": "2022-11-21T17:20:51.000",
    "request_status": "Pending",
    "responsible_agency": "Department of Sanitation",
    "final_address": "2213 Dumaine St",
    "address_councildis": "D",
    "contractor": "Richards Disposal",
    "rowid": "945634",
    "final_x": "3678732.34978",
    "final_y": "536365.438471",
    "longitude": "-90.07664176222467",
    "latitude": "29.96890273641814",
    "geocoded_column": {
      "latitude": "29.96890273641814",
      "longitude": "-90.07664176222467"
    }
  },
  {
    "service_request": "2022-945633",
    "request_type": "Trash/Recycling",
    "request_reason": "Order Trash Cart",
    "date_created": "2022-11-21T17:15:04.000",
    "date_modified": "2022-11-21T17:15:04.000",
    "request_status": "Pending",
    "responsible_agency": "Department of Sanitation",
    "final_address": "1425 Arts St",
    "address_councildis": "C",
    "status": "Assigned to Contractor",
    "contractor": "IV Waste",
    "rowid": "945633",
    "final_x": "3687132.68892",
    "final_y": "537815.850568",
    "longitude": "-90.05006171760687",
    "latitude": "29.97263486253544",
    "geocoded_column": {
      "latitude": "29.97263486253544",
      "longitude": "-90.05006171760687"
    }
  },
  {
    "service_request": "2022-945632",
    "request_type": "Trash/Recycling",
    "request_reason": "Order Trash Cart",
    "date_created": "2022-11-21T17:12:59.000",
    "date_modified": "2022-11-21T17:13:00.000",
    "request_status": "Pending",
    "responsible_agency": "Department of Sanitation",
    "final_address": "2213 Dumaine St",
    "address_councildis": "D",
    "status": "Assigned to Contractor",
    "contractor": "Richards Disposal",
    "rowid": "945632",
    "final_x": "3678732.34978",
    "final_y": "536365.438471",
    "longitude": "-90.07664176222467",
    "latitude": "29.96890273641814",
    "geocoded_column": {
      "latitude": "29.96890273641814",
      "longitude": "-90.07664176222467"
    }
  },
  {
    "service_request": "2022-945631",
    "request_type": "Trash/Recycling",
    "request_reason": "Order Trash Cart",
    "date_created": "2022-11-21T17:12:25.000",
    "date_modified": "2022-11-21T17:16:49.000",
    "request_status": "Pending",
    "responsible_agency": "Department of Sanitation",
    "final_address": "2211 Dumaine St",
    "address_councildis": "D",
    "status": "Assigned to Contractor",
    "contractor": "Richards Disposal",
    "rowid": "945631",
    "final_x": "3678741.46312",
    "final_y": "536359.188423",
    "longitude": "-90.07661319818857",
    "latitude": "29.96888527609258",
    "geocoded_column": {
      "latitude": "29.96888527609258",
      "longitude": "-90.07661319818857"
    }
  },
  {
    "service_request": "2022-945630",
    "request_type": "Traffic Signals/Signs/Striping/Streetlights",
    "request_reason": "Street Light Outage/Malfunction",
    "date_created": "2022-11-21T17:08:36.000",
    "date_modified": "2022-11-21T17:08:37.000",
    "request_status": "Pending",
    "responsible_agency": "Department of Public Works",
    "final_address": "5542 Chatham Dr",
    "address_councildis": "D",
    "status": "Pending",
    "contractor": "Legacy Professional Services",
    "rowid": "945630",
    "final_x": "3679641.27439",
    "final_y": "552916.108375",
    "longitude": "-90.07319650292024",
    "latitude": "30.014383811412316",
    "geocoded_column": {
      "latitude": "30.014383811412316",
      "longitude": "-90.07319650292024"
    }
  },
  {
    "service_request": "2022-945629",
    "request_type": "Traffic Signals/Signs/Striping/Streetlights",
    "request_reason": "Street Light Outage/Malfunction",
    "date_created": "2022-11-21T17:03:40.000",
    "date_modified": "2022-11-21T17:03:40.000",
    "request_status": "Pending",
    "responsible_agency": "Department of Public Works",
    "final_address": "3701 Delgado Dr",
    "address_councildis": "A",
    "status": "Pending",
    "contractor": "Legacy Professional Services",
    "rowid": "945629",
    "final_x": "3674311.29409",
    "final_y": "540561.876555",
    "longitude": "-90.09046001124534",
    "latitude": "29.980574095172003",
    "geocoded_column": {
      "latitude": "29.980574095172003",
      "longitude": "-90.09046001124534"
    }
  },
  {
    "service_request": "2022-945628",
    "request_type": "Trash/Recycling",
    "request_reason": "Missed Trash Pick-Up",
    "date_created": "2022-11-21T16:55:51.000",
    "date_modified": "2022-11-21T16:55:52.000",
    "request_status": "Pending",
    "responsible_agency": "Department of Sanitation",
    "final_address": "5491 Canal Blvd",
    "address_councildis": "A",
    "status": "Assigned to Contractor",
    "contractor": "IV Waste",
    "rowid": "945628",
    "final_x": "3668281.39105",
    "final_y": "543736.891534",
    "longitude": "-90.10939800618732",
    "latitude": "29.989482771270737",
    "geocoded_column": {
      "latitude": "29.989482771270737",
      "longitude": "-90.10939800618732"
    }
  },
  {
    "service_request": "2022-945627",
    "request_type": "Trash/Recycling",
    "request_reason": "Request a Large Item Pick Up",
    "date_created": "2022-11-21T16:55:46.000",
    "date_modified": "2022-11-21T16:55:47.000",
    "request_status": "Pending",
    "responsible_agency": "Department of Sanitation",
    "final_address": "35 Honeysuckle Ln",
    "address_councildis": "E",
    "status": "Assigned to Contractor",
    "contractor": "Waste Pro",
    "rowid": "945627",
    "final_x": "3713024.20478",
    "final_y": "568411.211237",
    "longitude": "-89.96714039497594",
    "latitude": "30.05593743804322",
    "geocoded_column": {
      "latitude": "30.05593743804322",
      "longitude": "-89.96714039497594"
    }
  },
  {
    "service_request": "2022-945626",
    "request_type": "Trash/Recycling",
    "request_reason": "Order Recycling Cart",
    "date_created": "2022-11-21T16:54:25.000",
    "date_modified": "2022-11-21T16:54:26.000",
    "request_status": "Pending",
    "responsible_agency": "Department of Sanitation",
    "final_address": "6650 Memphis St",
    "address_councildis": "A",
    "status": "Pending",
    "contractor": "Metro Disposal",
    "rowid": "945626",
    "final_x": "3669504.17441",
    "final_y": "551711.034069",
    "longitude": "-90.10526561404846",
    "latitude": "30.01137292362441",
    "geocoded_column": {
      "latitude": "30.01137292362441",
      "longitude": "-90.10526561404846"
    }
  },
  {
    "service_request": "2022-945625",
    "request_type": "Trash/Recycling",
    "request_reason": "Replace Recycling Cart",
    "date_created": "2022-11-21T16:52:47.000",
    "date_modified": "2022-11-21T16:52:47.000",
    "request_status": "Pending",
    "responsible_agency": "Department of Sanitation",
    "final_address": "6038 Stratford Pl",
    "address_councildis": "C",
    "status": "Pending",
    "rowid": "945625",
    "final_x": "3706226.3274",
    "final_y": "516245.19378",
    "longitude": "-89.9905593508636",
    "latitude": "29.912721434248297",
    "geocoded_column": {
      "latitude": "29.912721434248297",
      "longitude": "-89.9905593508636"
    }
  },
  {
    "service_request": "2022-945624",
    "request_type": "Property Maintenance",
    "request_reason": "Property Maintenance",
    "date_created": "2022-11-21T16:51:35.000",
    "date_modified": "2022-11-21T16:51:35.000",
    "request_status": "Pending",
    "responsible_agency": "Department of Code Enforcement",
    "final_address": "13400 Granville St",
    "address_councildis": "E",
    "status": "Pending",
    "rowid": "945624",
    "final_x": "3725338.6247",
    "final_y": "562046.473183",
    "longitude": "-89.9284639445308",
    "latitude": "30.038027594365506",
    "geocoded_column": {
      "latitude": "30.038027594365506",
      "longitude": "-89.9284639445308"
    }
  },
  {
    "service_request": "2022-945623",
    "request_type": "Trash/Recycling",
    "request_reason": "Repair Trash Cart",
    "date_created": "2022-11-21T16:50:54.000",
    "date_modified": "2022-11-21T16:50:54.000",
    "request_status": "Pending",
    "responsible_agency": "Department of Sanitation",
    "final_address": "7421 Benson St",
    "address_councildis": "E",
    "status": "Assigned to Contractor",
    "contractor": "Waste Pro",
    "rowid": "945623",
    "final_x": "3704758.26622",
    "final_y": "561933.935327",
    "longitude": "-89.99350673621443",
    "latitude": "30.038395904180657",
    "geocoded_column": {
      "latitude": "30.038395904180657",
      "longitude": "-89.99350673621443"
    }
  },
  {
    "service_request": "2022-945622",
    "request_type": "Trash/Recycling",
    "request_reason": "Order Recycling Cart",
    "date_created": "2022-11-21T16:44:35.000",
    "date_modified": "2022-11-21T16:44:36.000",
    "request_status": "Pending",
    "responsible_agency": "Department of Sanitation",
    "final_address": "1315 S White St",
    "address_councildis": "B",
    "status": "Pending",
    "rowid": "945622",
    "final_x": "3671535.92071",
    "final_y": "530792.57485",
    "longitude": "-90.0995581008791",
    "latitude": "29.953794276027768",
    "geocoded_column": {
      "latitude": "29.953794276027768",
      "longitude": "-90.0995581008791"
    }
  },
  {
    "service_request": "2022-945621",
    "request_type": "Trash/Recycling",
    "request_reason": "Order Trash Cart",
    "date_created": "2022-11-21T16:43:30.000",
    "date_modified": "2022-11-21T16:45:09.000",
    "request_status": "Pending",
    "responsible_agency": "Department of Sanitation",
    "final_address": "1315 S White St",
    "address_councildis": "B",
    "status": "Assigned to Contractor",
    "contractor": "Richards Disposal",
    "rowid": "945621",
    "final_x": "3671535.92071",
    "final_y": "530792.57485",
    "longitude": "-90.0995581008791",
    "latitude": "29.953794276027768",
    "geocoded_column": {
      "latitude": "29.953794276027768",
      "longitude": "-90.0995581008791"
    }
  },
  {
    "service_request": "2022-945620",
    "request_type": "Property Maintenance",
    "request_reason": "Property Maintenance",
    "date_created": "2022-11-21T16:42:01.000",
    "date_modified": "2022-11-21T16:42:01.000",
    "request_status": "Pending",
    "responsible_agency": "Department of Code Enforcement",
    "final_address": "624 Second St",
    "address_councildis": "B",
    "status": "Pending",
    "rowid": "945620",
    "final_x": "3678672.81582",
    "final_y": "519932.953336",
    "longitude": "-90.077398584241",
    "latitude": "29.923720674654003",
    "geocoded_column": {
      "latitude": "29.923720674654003",
      "longitude": "-90.077398584241"
    }
  },
  {
    "service_request": "2022-945619",
    "request_type": "Roads/Drainage",
    "request_reason": "Street Flooding / Drainage",
    "date_created": "2022-11-21T16:34:58.000",
    "date_modified": "2022-11-21T16:34:58.000",
    "request_status": "Pending",
    "responsible_agency": "Department of Public Works",
    "final_address": "2326 Short St",
    "address_councildis": "A",
    "status": "Pending",
    "rowid": "945619",
    "final_x": "3665011.70516",
    "final_y": "531111.10317",
    "longitude": "-90.1201483110338",
    "latitude": "29.954861674026077",
    "geocoded_column": {
      "latitude": "29.954861674026077",
      "longitude": "-90.1201483110338"
    }
  },
  {
    "service_request": "2022-945618",
    "request_type": "Trash/Recycling",
    "request_reason": "Order Recycling Cart",
    "date_created": "2022-11-21T16:32:26.000",
    "date_modified": "2022-11-21T16:32:27.000",
    "request_status": "Pending",
    "responsible_agency": "Department of Sanitation",
    "final_address": "14530 Duane Rd",
    "address_councildis": "E",
    "status": "Pending",
    "rowid": "945618",
    "final_x": "3720716.47314",
    "final_y": "573267.199978",
    "longitude": "-89.94264054508788",
    "latitude": "30.069034945215915",
    "geocoded_column": {
      "latitude": "30.069034945215915",
      "longitude": "-89.94264054508788"
    }
  },
  {
    "service_request": "2022-945617",
    "request_type": "Trash/Recycling",
    "request_reason": "Order Trash Cart",
    "date_created": "2022-11-21T16:32:05.000",
    "date_modified": "2022-11-21T16:32:06.000",
    "request_status": "Pending",
    "responsible_agency": "Department of Sanitation",
    "final_address": "14530 Duane Rd",
    "address_councildis": "E",
    "status": "Assigned to Contractor",
    "contractor": "Waste Pro",
    "rowid": "945617",
    "final_x": "3720716.47314",
    "final_y": "573267.199978",
    "longitude": "-89.94264054508788",
    "latitude": "30.069034945215915",
    "geocoded_column": {
      "latitude": "30.069034945215915",
      "longitude": "-89.94264054508788"
    }
  },
  {
    "service_request": "2022-945616",
    "request_type": "Trash/Recycling",
    "request_reason": "Replace Trash Cart",
    "date_created": "2022-11-21T16:24:24.000",
    "date_modified": "2022-11-21T16:24:25.000",
    "request_status": "Pending",
    "responsible_agency": "Department of Sanitation",
    "final_address": "3427 Palmyra St",
    "address_councildis": "B",
    "status": "Assigned to Contractor",
    "contractor": "Richards Disposal",
    "rowid": "945616",
    "final_x": "3672480.85454",
    "final_y": "536341.002951",
    "longitude": "-90.0963852583526",
    "latitude": "29.969022590361703",
    "geocoded_column": {
      "latitude": "29.969022590361703",
      "longitude": "-90.0963852583526"
    }
  },
  {
    "service_request": "2022-945615",
    "request_type": "Trash/Recycling",
    "request_reason": "Order Trash Cart",
    "date_created": "2022-11-21T16:24:05.000",
    "date_modified": "2022-11-21T16:24:05.000",
    "request_status": "Pending",
    "responsible_agency": "Department of Sanitation",
    "final_address": "4317 St Anthony Ave",
    "address_councildis": "D",
    "status": "Assigned to Contractor",
    "contractor": "IV Waste",
    "rowid": "945615",
    "final_x": "3682602.85256",
    "final_y": "548537.992786",
    "longitude": "-90.06399262924249",
    "latitude": "30.00225568783018",
    "geocoded_column": {
      "latitude": "30.00225568783018",
      "longitude": "-90.06399262924249"
    }
  },
  {
    "service_request": "2022-945614",
    "request_type": "Trash/Recycling",
    "request_reason": "Order Recycling Cart",
    "date_created": "2022-11-21T16:23:42.000",
    "date_modified": "2022-11-21T16:23:43.000",
    "request_status": "Pending",
    "responsible_agency": "Department of Sanitation",
    "final_address": "4317 St Anthony Ave",
    "address_councildis": "D",
    "status": "Pending",
    "rowid": "945614",
    "final_x": "3682602.85256",
    "final_y": "548537.992786",
    "longitude": "-90.06399262924249",
    "latitude": "30.00225568783018",
    "geocoded_column": {
      "latitude": "30.00225568783018",
      "longitude": "-90.06399262924249"
    }
  },
  {
    "service_request": "2022-945613",
    "request_type": "Trash/Recycling",
    "request_reason": "MIssed Recycling Pick-Up",
    "date_created": "2022-11-21T16:23:06.000",
    "date_modified": "2022-11-21T16:23:07.000",
    "request_status": "Pending",
    "responsible_agency": "Department of Sanitation",
    "final_address": "8416 Nelson St",
    "address_councildis": "A",
    "status": "Assigned to Contractor",
    "contractor": "Richards Disposal",
    "rowid": "945613",
    "final_x": "3664212.22842",
    "final_y": "532620.564548",
    "longitude": "-90.12262240435895",
    "latitude": "29.95903545223911",
    "geocoded_column": {
      "latitude": "29.95903545223911",
      "longitude": "-90.12262240435895"
    }
  },
  {
    "service_request": "2022-945612",
    "request_type": "Traffic Signals/Signs/Striping/Streetlights",
    "request_reason": "Street Light Outage/Malfunction",
    "date_created": "2022-11-21T16:22:12.000",
    "date_modified": "2022-11-21T16:22:13.000",
    "request_status": "Pending",
    "responsible_agency": "Department of Public Works",
    "final_address": "2525 Hamilton St",
    "address_councildis": "A",
    "status": "Pending",
    "contractor": "Legacy Professional Services",
    "rowid": "945612",
    "final_x": "3662655.33312",
    "final_y": "534324.765125",
    "longitude": "-90.12748208462061",
    "latitude": "29.963766589494412",
    "geocoded_column": {
      "latitude": "29.963766589494412",
      "longitude": "-90.12748208462061"
    }
  },
  {
    "service_request": "2022-945611",
    "request_type": "Trash/Recycling",
    "request_reason": "Repair Trash Cart",
    "date_created": "2022-11-21T16:21:30.000",
    "date_modified": "2022-11-21T16:21:31.000",
    "request_status": "Pending",
    "responsible_agency": "Department of Sanitation",
    "final_address": "14180 Kingswood Dr",
    "address_councildis": "E",
    "status": "Assigned to Contractor",
    "contractor": "Waste Pro",
    "rowid": "945611",
    "final_x": "3720219.52735",
    "final_y": "569102.81239",
    "longitude": "-89.94437106559181",
    "latitude": "30.05760120016164",
    "geocoded_column": {
      "latitude": "30.05760120016164",
      "longitude": "-89.94437106559181"
    }
  },
  {
    "service_request": "2022-945610",
    "request_type": "Trash/Recycling",
    "request_reason": "MIssed Recycling Pick-Up",
    "date_created": "2022-11-21T16:20:44.000",
    "date_modified": "2022-11-21T16:20:45.000",
    "request_status": "Pending",
    "responsible_agency": "Department of Sanitation",
    "final_address": "507 Nashville Ave",
    "address_councildis": "A",
    "status": "Assigned to Contractor",
    "contractor": "Richards Disposal",
    "rowid": "945610",
    "final_x": "3665373.41575",
    "final_y": "518068.629174",
    "longitude": "-90.11944245241348",
    "latitude": "29.918988494894045",
    "geocoded_column": {
      "latitude": "29.918988494894045",
      "longitude": "-90.11944245241348"
    }
  },
  {
    "service_request": "2022-945608",
    "request_type": "Traffic Signals/Signs/Striping/Streetlights",
    "request_reason": "Street Light Outage/Malfunction",
    "date_created": "2022-11-21T16:17:24.000",
    "date_modified": "2022-11-21T16:23:36.000",
    "request_status": "Pending",
    "responsible_agency": "Department of Public Works",
    "final_address": "2525 Hamilton St",
    "address_councildis": "A",
    "status": "Pending",
    "contractor": "Legacy Professional Services",
    "rowid": "945608",
    "final_x": "3662655.33312",
    "final_y": "534324.765125",
    "longitude": "-90.12748208462061",
    "latitude": "29.963766589494412",
    "geocoded_column": {
      "latitude": "29.963766589494412",
      "longitude": "-90.12748208462061"
    }
  },
  {
    "service_request": "2022-945607",
    "request_type": "Traffic Signals/Signs/Striping/Streetlights",
    "request_reason": "Street Light Outage/Malfunction",
    "date_created": "2022-11-21T16:14:12.000",
    "date_modified": "2022-11-21T16:17:27.000",
    "request_status": "Pending",
    "responsible_agency": "Department of Public Works",
    "final_address": "New Orleans,LA",
    "address_councildis": "A",
    "status": "Pending",
    "contractor": "Legacy Professional Services",
    "rowid": "945607",
    "final_x": "3662508.1",
    "final_y": "534219.18",
    "longitude": "-90.12795054217165",
    "latitude": "29.96348052451759",
    "geocoded_column": {
      "latitude": "29.96348052451759",
      "longitude": "-90.12795054217165"
    }
  },
  {
    "service_request": "2022-945606",
    "request_type": "Trash/Recycling",
    "request_reason": "Order Trash Cart",
    "date_created": "2022-11-21T16:12:54.000",
    "date_modified": "2022-11-21T16:12:55.000",
    "request_status": "Pending",
    "responsible_agency": "Department of Sanitation",
    "final_address": "3315 Leonidas St",
    "address_councildis": "A",
    "status": "Assigned to Contractor",
    "contractor": "Richards Disposal",
    "rowid": "945606",
    "final_x": "3665837.901",
    "final_y": "535199.54439",
    "longitude": "-90.1174024938915",
    "latitude": "29.96607946709079",
    "geocoded_column": {
      "latitude": "29.96607946709079",
      "longitude": "-90.1174024938915"
    }
  },
  {
    "service_request": "2022-945605",
    "request_type": "Trash/Recycling",
    "request_reason": "Order Recycling Cart",
    "date_created": "2022-11-21T16:10:49.000",
    "date_modified": "2022-11-21T16:10:49.000",
    "request_status": "Pending",
    "responsible_agency": "Department of Sanitation",
    "final_address": "728 Navarre St",
    "address_councildis": "A",
    "status": "Pending",
    "rowid": "945605",
    "final_x": "3668515.44769",
    "final_y": "543771.552782",
    "longitude": "-90.10865751527385",
    "latitude": "29.98957120140276",
    "geocoded_column": {
      "latitude": "29.98957120140276",
      "longitude": "-90.10865751527385"
    }
  },
  {
    "service_request": "2022-945604",
    "request_type": "Trash/Recycling",
    "request_reason": "Missed Trash Pick-Up",
    "date_created": "2022-11-21T16:08:39.000",
    "date_modified": "2022-11-21T16:08:40.000",
    "request_status": "Pending",
    "responsible_agency": "Department of Sanitation",
    "final_address": "1425 Shepherd St",
    "address_councildis": "C",
    "status": "Assigned to Contractor",
    "contractor": "Richards Disposal",
    "rowid": "945604",
    "final_x": "3689555.29571",
    "final_y": "523648.094395",
    "longitude": "-90.04291460758176",
    "latitude": "29.93360359598262",
    "geocoded_column": {
      "latitude": "29.93360359598262",
      "longitude": "-90.04291460758176"
    }
  },
  {
    "service_request": "2022-945603",
    "request_type": "Trash/Recycling",
    "request_reason": "Replace Trash Cart",
    "date_created": "2022-11-21T16:02:49.000",
    "date_modified": "2022-11-21T16:02:50.000",
    "request_status": "Pending",
    "responsible_agency": "Department of Sanitation",
    "final_address": "5965 Memphis St",
    "address_councildis": "A",
    "status": "Assigned to Contractor",
    "contractor": "IV Waste",
    "rowid": "945603",
    "final_x": "3669260.83706",
    "final_y": "547083.854993",
    "longitude": "-90.10619098307292",
    "latitude": "29.998656964879576",
    "geocoded_column": {
      "latitude": "29.998656964879576",
      "longitude": "-90.10619098307292"
    }
  },
  {
    "service_request": "2022-945602",
    "request_type": "Trash/Recycling",
    "request_reason": "MIssed Recycling Pick-Up",
    "date_created": "2022-11-21T16:00:28.000",
    "date_modified": "2022-11-21T16:00:29.000",
    "request_status": "Pending",
    "responsible_agency": "Department of Sanitation",
    "final_address": "5714 General Diaz St",
    "address_councildis": "A",
    "status": "Assigned to Contractor",
    "contractor": "IV Waste",
    "rowid": "945602",
    "final_x": "3669260.51719",
    "final_y": "545497.682",
    "longitude": "-90.10624565382413",
    "latitude": "29.994295546433356",
    "geocoded_column": {
      "latitude": "29.994295546433356",
      "longitude": "-90.10624565382413"
    }
  },
  {
    "service_request": "2022-945601",
    "request_type": "Trash/Recycling",
    "request_reason": "Missed Trash Pick-Up",
    "date_created": "2022-11-21T16:00:17.000",
    "date_modified": "2022-11-21T16:00:18.000",
    "request_status": "Pending",
    "responsible_agency": "Department of Sanitation",
    "final_address": "2209 Baronne St",
    "address_councildis": "B",
    "status": "Assigned to Contractor",
    "contractor": "Richards Disposal",
    "rowid": "945601",
    "final_x": "3676899.25602",
    "final_y": "524466.777532",
    "longitude": "-90.08284088127341",
    "latitude": "29.936240547846754",
    "geocoded_column": {
      "latitude": "29.936240547846754",
      "longitude": "-90.08284088127341"
    }
  },
  {
    "service_request": "2022-945600",
    "request_type": "Trash/Recycling",
    "request_reason": "MIssed Recycling Pick-Up",
    "date_created": "2022-11-21T15:53:24.000",
    "date_modified": "2022-11-21T15:53:29.000",
    "request_status": "Pending",
    "responsible_agency": "Department of Sanitation",
    "final_address": "630 Majestic Pl",
    "address_councildis": "C",
    "status": "Assigned to Contractor",
    "contractor": "Richards Disposal",
    "rowid": "945600",
    "final_x": "3687952.87113",
    "final_y": "526312.277438",
    "longitude": "-90.04787900936857",
    "latitude": "29.940978723276704",
    "geocoded_column": {
      "latitude": "29.940978723276704",
      "longitude": "-90.04787900936857"
    }
  },
  {
    "service_request": "2022-945599",
    "request_type": "Trash/Recycling",
    "request_reason": "Request a Large Item Pick Up",
    "date_created": "2022-11-21T15:50:31.000",
    "date_modified": "2022-11-21T15:50:32.000",
    "request_status": "Pending",
    "responsible_agency": "Department of Sanitation",
    "final_address": "2306 Columbus St",
    "address_councildis": "D",
    "status": "Assigned to Contractor",
    "contractor": "IV Waste",
    "rowid": "945599",
    "final_x": "3679646.28175",
    "final_y": "538675.240777",
    "longitude": "-90.07367531607699",
    "latitude": "29.975226305418918",
    "geocoded_column": {
      "latitude": "29.975226305418918",
      "longitude": "-90.07367531607699"
    }
  },
  {
    "service_request": "2022-945598",
    "request_type": "Trash/Recycling",
    "request_reason": "Request a Large Item Pick Up",
    "date_created": "2022-11-21T15:48:44.000",
    "date_modified": "2022-11-21T15:48:44.000",
    "request_status": "Pending",
    "responsible_agency": "Department of Sanitation",
    "final_address": "2413 State St",
    "address_councildis": "A",
    "status": "Assigned to Contractor",
    "contractor": "Richards Disposal",
    "rowid": "945598",
    "final_x": "3666789.1497",
    "final_y": "525449.843837",
    "longitude": "-90.11472590958984",
    "latitude": "29.939243177974493",
    "geocoded_column": {
      "latitude": "29.939243177974493",
      "longitude": "-90.11472590958984"
    }
  },
  {
    "service_request": "2022-945597",
    "request_type": "Trash/Recycling",
    "request_reason": "Request a Large Item Pick Up",
    "date_created": "2022-11-21T15:48:27.000",
    "date_modified": "2022-11-21T15:48:28.000",
    "request_status": "Pending",
    "responsible_agency": "Department of Sanitation",
    "final_address": "4612 Prytania St",
    "address_councildis": "B",
    "status": "Assigned to Contractor",
    "contractor": "Richards Disposal",
    "rowid": "945597",
    "final_x": "3670032.88398",
    "final_y": "520173.543864",
    "longitude": "-90.1046636254298",
    "latitude": "29.924639791020127",
    "geocoded_column": {
      "latitude": "29.924639791020127",
      "longitude": "-90.1046636254298"
    }
  },
  {
    "service_request": "2022-945596",
    "request_type": "Trash/Recycling",
    "request_reason": "MIssed Recycling Pick-Up",
    "date_created": "2022-11-21T15:46:43.000",
    "date_modified": "2022-11-21T15:46:44.000",
    "request_status": "Pending",
    "responsible_agency": "Department of Sanitation",
    "final_address": "13031 River Rd",
    "address_councildis": "C",
    "status": "Assigned to Contractor",
    "contractor": "Richards Disposal",
    "rowid": "945596",
    "final_x": "3731103.08339",
    "final_y": "509813.459566",
    "longitude": "-89.91229423012116",
    "latitude": "29.894211480879356",
    "geocoded_column": {
      "latitude": "29.894211480879356",
      "longitude": "-89.91229423012116"
    }
  },
  {
    "service_request": "2022-945595",
    "request_type": "Trash/Recycling",
    "request_reason": "Missed Trash Pick-Up",
    "date_created": "2022-11-21T15:46:16.000",
    "date_modified": "2022-11-21T15:46:17.000",
    "request_status": "Pending",
    "responsible_agency": "Department of Sanitation",
    "final_address": "6931 Bamberry St",
    "address_councildis": "E",
    "status": "Assigned to Contractor",
    "contractor": "Waste Pro",
    "rowid": "945595",
    "final_x": "3699187.30986",
    "final_y": "559252.629916",
    "longitude": "-90.01121009891226",
    "latitude": "30.031201289036016",
    "geocoded_column": {
      "latitude": "30.031201289036016",
      "longitude": "-90.01121009891226"
    }
  },
  {
    "service_request": "2022-945594",
    "request_type": "Property Maintenance",
    "request_reason": "Property Maintenance",
    "date_created": "2022-11-21T15:42:00.000",
    "date_modified": "2022-11-21T15:42:00.000",
    "request_status": "Pending",
    "responsible_agency": "Department of Code Enforcement",
    "final_address": "1326 Tennessee St",
    "address_councildis": "E",
    "status": "Pending",
    "rowid": "945594",
    "final_x": "3695858.43517",
    "final_y": "535297.285318",
    "longitude": "-90.02259534898008",
    "latitude": "29.96543811646523",
    "geocoded_column": {
      "latitude": "29.96543811646523",
      "longitude": "-90.02259534898008"
    }
  },
  {
    "service_request": "2022-945593",
    "request_type": "Parks & Parkways",
    "request_reason": "Request Tree Service (Right of Way/Public Property)",
    "date_created": "2022-11-21T15:40:40.000",
    "date_modified": "2022-11-21T15:40:40.000",
    "request_status": "Pending",
    "responsible_agency": "Department of Parks & Parkway",
    "final_address": "GENTILLY BLVD & ST ROCH AVE",
    "address_councildis": "D",
    "status": "Pending",
    "rowid": "945593",
    "final_x": "3685430.95",
    "final_y": "548609.51",
    "longitude": "-90.05505582618933",
    "latitude": "30.002365887238685",
    "geocoded_column": {
      "latitude": "30.002365887238685",
      "longitude": "-90.05505582618933"
    }
  },
  {
    "service_request": "2022-945591",
    "request_type": "Trash/Recycling",
    "request_reason": "Repair Trash Cart",
    "date_created": "2022-11-21T15:36:43.000",
    "date_modified": "2022-11-21T15:36:43.000",
    "request_status": "Pending",
    "responsible_agency": "Department of Sanitation",
    "final_address": "13169 Chateau Ct",
    "address_councildis": "E",
    "status": "Assigned to Contractor",
    "contractor": "Waste Pro",
    "rowid": "945591",
    "final_x": "3724414.75564",
    "final_y": "561954.941983",
    "longitude": "-89.93138710179623",
    "latitude": "30.037807034275623",
    "geocoded_column": {
      "latitude": "30.037807034275623",
      "longitude": "-89.93138710179623"
    }
  },
  {
    "service_request": "2022-945590",
    "request_type": "Property Maintenance",
    "request_reason": "Property Maintenance",
    "date_created": "2022-11-21T15:35:40.000",
    "date_modified": "2022-11-21T15:35:40.000",
    "request_status": "Pending",
    "responsible_agency": "Department of Code Enforcement",
    "final_address": "937 Fats Domino Ave",
    "address_councildis": "E",
    "status": "Pending",
    "rowid": "945590",
    "final_x": "3697942.42627",
    "final_y": "533287.40378",
    "longitude": "-90.01608720362415",
    "latitude": "29.959845944005593",
    "geocoded_column": {
      "latitude": "29.959845944005593",
      "longitude": "-90.01608720362415"
    }
  },
  {
    "service_request": "2022-945589",
    "request_type": "Parks & Parkways",
    "request_reason": "Request Tree Service (Right of Way/Public Property)",
    "date_created": "2022-11-21T15:35:09.000",
    "date_modified": "2022-11-21T16:01:39.000",
    "request_status": "Pending",
    "responsible_agency": "Department of Parks & Parkway",
    "final_address": "5575 Woodlawn Pl",
    "address_councildis": "A",
    "status": "Pending",
    "rowid": "945589",
    "final_x": "3667552.61357",
    "final_y": "544593.875087",
    "longitude": "-90.11167115408053",
    "latitude": "29.991860567754156",
    "geocoded_column": {
      "latitude": "29.991860567754156",
      "longitude": "-90.11167115408053"
    }
  },
  {
    "service_request": "2022-945588",
    "request_type": "Trash/Recycling",
    "request_reason": "Order Recycling Cart",
    "date_created": "2022-11-21T15:32:45.000",
    "date_modified": "2022-11-21T15:32:46.000",
    "request_status": "Pending",
    "responsible_agency": "Department of Sanitation",
    "final_address": "10139 Hillwood St",
    "address_councildis": "E",
    "status": "Pending",
    "rowid": "945588",
    "final_x": "3713074.71845",
    "final_y": "556751.188442",
    "longitude": "-89.96742006799512",
    "latitude": "30.02387540625517",
    "geocoded_column": {
      "latitude": "30.02387540625517",
      "longitude": "-89.96742006799512"
    }
  },
  {
    "service_request": "2022-945587",
    "request_type": "Trash/Recycling",
    "request_reason": "Repair Trash Cart",
    "date_created": "2022-11-21T15:31:19.000",
    "date_modified": "2022-11-21T15:31:20.000",
    "request_status": "Pending",
    "responsible_agency": "Department of Sanitation",
    "final_address": "10139 Hillwood St",
    "address_councildis": "E",
    "status": "Assigned to Contractor",
    "contractor": "Waste Pro",
    "rowid": "945587",
    "final_x": "3713074.71845",
    "final_y": "556751.188442",
    "longitude": "-89.96742006799512",
    "latitude": "30.02387540625517",
    "geocoded_column": {
      "latitude": "30.02387540625517",
      "longitude": "-89.96742006799512"
    }
  },
  {
    "service_request": "2022-945586",
    "request_type": "Trash/Recycling",
    "request_reason": "Request a Large Item Pick Up",
    "date_created": "2022-11-21T15:27:06.000",
    "date_modified": "2022-11-21T15:27:06.000",
    "request_status": "Pending",
    "responsible_agency": "Department of Sanitation",
    "final_address": "1916 Prytania St",
    "address_councildis": "B",
    "status": "Assigned to Contractor",
    "contractor": "Richards Disposal",
    "rowid": "945586",
    "final_x": "3678633.12104",
    "final_y": "523782.865275",
    "longitude": "-90.07739068110115",
    "latitude": "29.93430787045944",
    "geocoded_column": {
      "latitude": "29.93430787045944",
      "longitude": "-90.07739068110115"
    }
  },
  {
    "service_request": "2022-945585",
    "request_type": "Trash/Recycling",
    "request_reason": "Order Trash Cart",
    "date_created": "2022-11-21T15:24:46.000",
    "date_modified": "2022-11-21T15:24:46.000",
    "request_status": "Pending",
    "responsible_agency": "Department of Sanitation",
    "final_address": "1023 Opelousas Ave",
    "address_councildis": "C",
    "status": "Assigned to Contractor",
    "contractor": "Richards Disposal",
    "rowid": "945585",
    "final_x": "3688667.31439",
    "final_y": "529005.576704",
    "longitude": "-90.04552782210325",
    "latitude": "29.948362320024085",
    "geocoded_column": {
      "latitude": "29.948362320024085",
      "longitude": "-90.04552782210325"
    }
  },
  {
    "service_request": "2022-945584",
    "request_type": "Trash/Recycling",
    "request_reason": "Order Trash Cart",
    "date_created": "2022-11-21T15:21:04.000",
    "date_modified": "2022-11-21T15:21:05.000",
    "request_status": "Pending",
    "responsible_agency": "Department of Sanitation",
    "final_address": "3016 Peoples Ave",
    "address_councildis": "D",
    "status": "Assigned to Contractor",
    "contractor": "IV Waste",
    "rowid": "945584",
    "final_x": "3688628.14287",
    "final_y": "544176.559758",
    "longitude": "-90.04511297126939",
    "latitude": "29.990078416449702",
    "geocoded_column": {
      "latitude": "29.990078416449702",
      "longitude": "-90.04511297126939"
    }
  },
  {
    "service_request": "2022-945583",
    "request_type": "Trash/Recycling",
    "request_reason": "Repair Trash Cart",
    "date_created": "2022-11-21T15:18:32.000",
    "date_modified": "2022-11-21T15:18:33.000",
    "request_status": "Pending",
    "responsible_agency": "Department of Sanitation",
    "final_address": "7242 Hayne Blvd",
    "address_councildis": "E",
    "status": "Assigned to Contractor",
    "contractor": "Waste Pro",
    "rowid": "945583",
    "final_x": "3699277.4552",
    "final_y": "561623.100895",
    "longitude": "-90.01083878195931",
    "latitude": "30.037716306087553",
    "geocoded_column": {
      "latitude": "30.037716306087553",
      "longitude": "-90.01083878195931"
    }
  },
  {
    "service_request": "2022-945582",
    "request_type": "Trash/Recycling",
    "request_reason": "Request a Large Item Pick Up",
    "date_created": "2022-11-21T15:17:57.000",
    "date_modified": "2022-11-21T15:17:58.000",
    "request_status": "Pending",
    "responsible_agency": "Department of Sanitation",
    "final_address": "7220 Cranbrook Dr",
    "address_councildis": "E",
    "status": "Assigned to Contractor",
    "contractor": "Waste Pro",
    "rowid": "945582",
    "final_x": "3713698.3589",
    "final_y": "565913.272739",
    "longitude": "-89.96510381655028",
    "latitude": "30.04904700850115",
    "geocoded_column": {
      "latitude": "30.04904700850115",
      "longitude": "-89.96510381655028"
    }
  },
  {
    "service_request": "2022-945581",
    "request_type": "Mosquito, Termite & Rodent Control",
    "request_reason": "Non-Rodent Complaint (Mice, Possums, Snakes)",
    "date_created": "2022-11-21T15:17:40.000",
    "date_modified": "2022-11-21T15:17:40.000",
    "request_status": "Pending",
    "responsible_agency": "Mosquito, Termite & Rodent Control Board",
    "final_address": "5555 St Anthony Ave",
    "address_councildis": "D",
    "status": "Pending",
    "rowid": "945581",
    "final_x": "3682251.30197",
    "final_y": "553430.843607",
    "longitude": "-90.06493211461523",
    "latitude": "30.015719962750616",
    "geocoded_column": {
      "latitude": "30.015719962750616",
      "longitude": "-90.06493211461523"
    }
  },
  {
    "service_request": "2022-945580",
    "request_type": "Traffic Signals/Signs/Striping/Streetlights",
    "request_reason": "Street Light Outage/Malfunction",
    "date_created": "2022-11-21T15:15:39.000",
    "date_modified": "2022-11-21T15:15:39.000",
    "request_status": "Pending",
    "responsible_agency": "Department of Public Works",
    "final_address": "6635 Wales St",
    "address_councildis": "E",
    "status": "Pending",
    "contractor": "Legacy Professional Services",
    "rowid": "945580",
    "final_x": "3697473.03786",
    "final_y": "560382.100638",
    "longitude": "-90.01658621623154",
    "latitude": "30.03436117514757",
    "geocoded_column": {
      "latitude": "30.03436117514757",
      "longitude": "-90.01658621623154"
    }
  },
  {
    "service_request": "2022-945579",
    "request_type": "Trash/Recycling",
    "request_reason": "Order Recycling Cart",
    "date_created": "2022-11-21T15:15:28.000",
    "date_modified": "2022-11-21T15:15:28.000",
    "request_status": "Pending",
    "responsible_agency": "Department of Sanitation",
    "final_address": "6141 Eastover Dr",
    "address_councildis": "E",
    "status": "Pending",
    "rowid": "945579",
    "final_x": "3718130.01221",
    "final_y": "564888.29117",
    "longitude": "-89.95113637188115",
    "latitude": "30.046082481624747",
    "geocoded_column": {
      "latitude": "30.046082481624747",
      "longitude": "-89.95113637188115"
    }
  },
  {
    "service_request": "2022-945578",
    "request_type": "Trash/Recycling",
    "request_reason": "Request a Large Item Pick Up",
    "date_created": "2022-11-21T15:15:27.000",
    "date_modified": "2022-11-21T15:15:28.000",
    "request_status": "Pending",
    "responsible_agency": "Department of Sanitation",
    "final_address": "1219 N Dupre St",
    "address_councildis": "A",
    "status": "Assigned to Contractor",
    "contractor": "Richards Disposal",
    "rowid": "945578",
    "final_x": "3676973.04277",
    "final_y": "539426.903434",
    "longitude": "-90.08209219386485",
    "latitude": "29.977373654916374",
    "geocoded_column": {
      "latitude": "29.977373654916374",
      "longitude": "-90.08209219386485"
    }
  },
  {
    "service_request": "2022-945577",
    "request_type": "Health Related Request",
    "request_reason": "Noise Ordinance Complaint",
    "date_created": "2022-11-21T15:14:47.000",
    "date_modified": "2022-11-21T15:57:48.000",
    "case_close_date": "2022-11-21T09:57:48.000",
    "request_status": "Closed",
    "responsible_agency": "Health Department",
    "final_address": "4206 S Roman",
    "address_councildis": "B",
    "status": "Invalid Request",
    "rowid": "945577",
    "final_x": "3670942.40974",
    "final_y": "526588.168446",
    "longitude": "-90.10157487988783",
    "latitude": "29.94225109412278",
    "geocoded_column": {
      "latitude": "29.94225109412278",
      "longitude": "-90.10157487988783"
    }
  },
  {
    "service_request": "2022-945576",
    "request_type": "Trash/Recycling",
    "request_reason": "Missed Trash Pick-Up",
    "date_created": "2022-11-21T15:11:34.000",
    "date_modified": "2022-11-21T15:11:52.000",
    "case_close_date": "2022-11-20T18:00:00.000",
    "request_status": "Pending",
    "responsible_agency": "Department of Sanitation",
    "final_address": "2 Caddo Pl",
    "address_councildis": "E",
    "status": "Assigned to Contractor",
    "contractor": "Waste Pro",
    "rowid": "945576",
    "final_x": "3725823.42528",
    "final_y": "564237.865569",
    "longitude": "-89.92684686839588",
    "latitude": "30.0440366633928",
    "geocoded_column": {
      "latitude": "30.0440366633928",
      "longitude": "-89.92684686839588"
    }
  },
  {
    "service_request": "2022-945575",
    "request_type": "Trash/Recycling",
    "request_reason": "Order Recycling Cart",
    "date_created": "2022-11-21T15:11:11.000",
    "date_modified": "2022-11-21T15:11:11.000",
    "request_status": "Pending",
    "responsible_agency": "Department of Sanitation",
    "final_address": "4133 Palmyra St",
    "address_councildis": "A",
    "status": "Pending",
    "rowid": "945575",
    "final_x": "3670324.20186",
    "final_y": "538004.627337",
    "longitude": "-90.1031397260172",
    "latitude": "29.97366083781889",
    "geocoded_column": {
      "latitude": "29.97366083781889",
      "longitude": "-90.1031397260172"
    }
  },
  {
    "service_request": "2022-945574",
    "request_type": "Trash/Recycling",
    "request_reason": "MIssed Recycling Pick-Up",
    "date_created": "2022-11-21T15:10:15.000",
    "date_modified": "2022-11-21T15:10:16.000",
    "request_status": "Pending",
    "responsible_agency": "Department of Sanitation",
    "final_address": "4133 Palmyra St",
    "address_councildis": "A",
    "status": "Assigned to Contractor",
    "contractor": "Richards Disposal",
    "rowid": "945574",
    "final_x": "3670324.20186",
    "final_y": "538004.627337",
    "longitude": "-90.1031397260172",
    "latitude": "29.97366083781889",
    "geocoded_column": {
      "latitude": "29.97366083781889",
      "longitude": "-90.1031397260172"
    }
  },
  {
    "service_request": "2022-945573",
    "request_type": "Trash/Recycling",
    "request_reason": "Order Recycling Cart",
    "date_created": "2022-11-21T15:08:02.000",
    "date_modified": "2022-11-21T15:08:02.000",
    "request_status": "Pending",
    "responsible_agency": "Department of Sanitation",
    "final_address": "10830 Kinneil Rd",
    "address_councildis": "E",
    "status": "Pending",
    "rowid": "945573",
    "final_x": "3711234.79922",
    "final_y": "564053.131681",
    "longitude": "-89.9729598703775",
    "latitude": "30.04401302598918",
    "geocoded_column": {
      "latitude": "30.04401302598918",
      "longitude": "-89.9729598703775"
    }
  },
  {
    "service_request": "2022-945572",
    "request_type": "Trash/Recycling",
    "request_reason": "Order Recycling Cart",
    "date_created": "2022-11-21T15:06:10.000",
    "date_modified": "2022-11-21T15:06:10.000",
    "request_status": "Pending",
    "responsible_agency": "Department of Sanitation",
    "final_address": "5570 New England Dr",
    "address_councildis": "E",
    "status": "Pending",
    "rowid": "945572",
    "final_x": "3723604.23436",
    "final_y": "563969.113249",
    "longitude": "-89.9338707709996",
    "latitude": "30.043372418114092",
    "geocoded_column": {
      "latitude": "30.043372418114092",
      "longitude": "-89.9338707709996"
    }
  },
  {
    "service_request": "2022-945571",
    "request_type": "Trash/Recycling",
    "request_reason": "Repair Trash Cart",
    "date_created": "2022-11-21T15:05:56.000",
    "date_modified": "2022-11-21T15:05:57.000",
    "request_status": "Pending",
    "responsible_agency": "Department of Sanitation",
    "final_address": "1918 Pace Blvd",
    "address_councildis": "C",
    "status": "Assigned to Contractor",
    "contractor": "Richards Disposal",
    "rowid": "945571",
    "final_x": "3694512.04477",
    "final_y": "523483.407227",
    "longitude": "-90.02727241153072",
    "latitude": "29.932996340675203",
    "geocoded_column": {
      "latitude": "29.932996340675203",
      "longitude": "-90.02727241153072"
    }
  },
  {
    "service_request": "2022-945570",
    "request_type": "Trash/Recycling",
    "request_reason": "Repair Trash Cart",
    "date_created": "2022-11-21T15:05:05.000",
    "date_modified": "2022-11-21T15:05:06.000",
    "request_status": "Pending",
    "responsible_agency": "Department of Sanitation",
    "final_address": "1916 Pace Blvd",
    "address_councildis": "C",
    "status": "Assigned to Contractor",
    "contractor": "Richards Disposal",
    "rowid": "945570",
    "final_x": "3694514.27862",
    "final_y": "523507.980219",
    "longitude": "-90.02726447523264",
    "latitude": "29.93306383799318",
    "geocoded_column": {
      "latitude": "29.93306383799318",
      "longitude": "-90.02726447523264"
    }
  },
  {
    "service_request": "2022-945569",
    "request_type": "Trash/Recycling",
    "request_reason": "Replace Trash Cart",
    "date_created": "2022-11-21T15:03:38.000",
    "date_modified": "2022-11-21T15:03:39.000",
    "request_status": "Pending",
    "responsible_agency": "Department of Sanitation",
    "final_address": "5219 Hawthorne Pl",
    "address_councildis": "A",
    "status": "Assigned to Contractor",
    "contractor": "IV Waste",
    "rowid": "945569",
    "final_x": "3667803.40538",
    "final_y": "542989.671117",
    "longitude": "-90.11093301176342",
    "latitude": "29.987442199898247",
    "geocoded_column": {
      "latitude": "29.987442199898247",
      "longitude": "-90.11093301176342"
    }
  },
  {
    "service_request": "2022-945568",
    "request_type": "Roads/Drainage",
    "request_reason": "Pothole",
    "date_created": "2022-11-21T14:58:51.000",
    "date_modified": "2022-11-21T14:58:52.000",
    "request_status": "Pending",
    "responsible_agency": "Department of Public Works",
    "final_address": "100 BLK N Genois St",
    "address_councildis": "B",
    "status": "Pending",
    "rowid": "945568",
    "final_x": "3672745.62429",
    "final_y": "537389.808866",
    "longitude": "-90.09551331505293",
    "latitude": "29.9718985906979",
    "geocoded_column": {
      "latitude": "29.9718985906979",
      "longitude": "-90.09551331505293"
    }
  },
  {
    "service_request": "2022-945567",
    "request_type": "Abandoned Vehicles",
    "request_reason": "Abandoned/Junk Vehicles",
    "date_created": "2022-11-21T14:58:08.000",
    "date_modified": "2022-11-21T15:01:34.000",
    "request_status": "Pending",
    "responsible_agency": "Department of Public Works",
    "final_address": "1345 St Bernard Ave",
    "address_councildis": "C",
    "status": "Pending",
    "rowid": "945567",
    "final_x": "3682765.14447",
    "final_y": "536825.698056",
    "longitude": "-90.06388984834804",
    "latitude": "29.97004605939959",
    "geocoded_column": {
      "latitude": "29.97004605939959",
      "longitude": "-90.06388984834804"
    }
  },
  {
    "service_request": "2022-945566",
    "request_type": "Trash/Recycling",
    "request_reason": "Missed Trash Pick-Up",
    "date_created": "2022-11-21T14:55:50.000",
    "date_modified": "2022-11-21T14:55:51.000",
    "request_status": "Pending",
    "responsible_agency": "Department of Sanitation",
    "final_address": "7501 Endeavors Ct",
    "address_councildis": "E",
    "status": "Assigned to Contractor",
    "contractor": "Waste Pro",
    "rowid": "945566",
    "final_x": "3726247.47097",
    "final_y": "570886.861479",
    "longitude": "-89.92524848605618",
    "latitude": "30.06230428991181",
    "geocoded_column": {
      "latitude": "30.06230428991181",
      "longitude": "-89.92524848605618"
    }
  },
  {
    "service_request": "2022-945565",
    "request_type": "Traffic Signals/Signs/Striping/Streetlights",
    "request_reason": "Street Name Sign Damaged or Missing",
    "date_created": "2022-11-21T14:50:08.000",
    "date_modified": "2022-11-21T14:50:08.000",
    "request_status": "Pending",
    "responsible_agency": "Department of Public Works",
    "final_address": "5491 Michoud Blvd",
    "address_councildis": "E",
    "status": "Pending",
    "rowid": "945565",
    "final_x": "3724624.73715",
    "final_y": "564112.047073",
    "longitude": "-89.93064006766738",
    "latitude": "30.04373111674728",
    "geocoded_column": {
      "latitude": "30.04373111674728",
      "longitude": "-89.93064006766738"
    }
  },
  {
    "service_request": "2022-945562",
    "request_type": "Trash/Recycling",
    "request_reason": "Repair Trash Cart",
    "date_created": "2022-11-21T14:46:02.000",
    "date_modified": "2022-11-21T14:46:03.000",
    "request_status": "Pending",
    "responsible_agency": "Department of Sanitation",
    "final_address": "827 Greenwood St",
    "address_councildis": "A",
    "status": "Assigned to Contractor",
    "contractor": "IV Waste",
    "rowid": "945562",
    "final_x": "3668851.49159",
    "final_y": "542883.577613",
    "longitude": "-90.10762604761601",
    "latitude": "29.98711969306303",
    "geocoded_column": {
      "latitude": "29.98711969306303",
      "longitude": "-90.10762604761601"
    }
  },
  {
    "service_request": "2022-945561",
    "request_type": "Trash/Recycling",
    "request_reason": "Missed Trash Pick-Up",
    "date_created": "2022-11-21T14:42:35.000",
    "date_modified": "2022-11-21T14:42:35.000",
    "request_status": "Pending",
    "responsible_agency": "Department of Sanitation",
    "final_address": "6128 Old Gentilly Rd",
    "address_councildis": "E",
    "status": "Assigned to Contractor",
    "contractor": "Waste Pro",
    "rowid": "945561",
    "final_x": "3697481.07427",
    "final_y": "550723.020117",
    "longitude": "-90.01691150091783",
    "latitude": "30.00780211741916",
    "geocoded_column": {
      "latitude": "30.00780211741916",
      "longitude": "-90.01691150091783"
    }
  },
  {
    "service_request": "2022-945560",
    "request_type": "Trash/Recycling",
    "request_reason": "Missed Trash Pick-Up",
    "date_created": "2022-11-21T14:42:15.000",
    "date_modified": "2022-11-21T14:42:25.000",
    "request_status": "Pending",
    "responsible_agency": "Department of Sanitation",
    "final_address": "6750 Old Gentilly Rd",
    "address_councildis": "E",
    "status": "Assigned to Contractor",
    "contractor": "Waste Pro",
    "rowid": "945560",
    "final_x": "3699918.2618",
    "final_y": "551328.381845",
    "longitude": "-90.00918965297019",
    "latitude": "30.009389419025183",
    "geocoded_column": {
      "latitude": "30.009389419025183",
      "longitude": "-90.00918965297019"
    }
  },
  {
    "service_request": "2022-945559",
    "request_type": "Roads/Drainage",
    "request_reason": "Catch Basin - Broken/Damage",
    "date_created": "2022-11-21T14:36:37.000",
    "date_modified": "2022-11-21T14:36:38.000",
    "request_status": "Pending",
    "responsible_agency": "Department of Public Works",
    "final_address": "1482 N Roman St",
    "address_councildis": "D",
    "status": "Pending",
    "rowid": "945559",
    "final_x": "3681164.49141",
    "final_y": "537577.283144",
    "longitude": "-90.06891867629274",
    "latitude": "29.972161322220646",
    "geocoded_column": {
      "latitude": "29.972161322220646",
      "longitude": "-90.06891867629274"
    }
  },
  {
    "service_request": "2022-945558",
    "request_type": "Trash/Recycling",
    "request_reason": "Order Recycling Cart",
    "date_created": "2022-11-21T14:32:18.000",
    "date_modified": "2022-11-21T14:32:18.000",
    "request_status": "Pending",
    "responsible_agency": "Department of Sanitation",
    "final_address": "7512 Devine Ave",
    "address_councildis": "E",
    "status": "Pending",
    "rowid": "945558",
    "final_x": "3705775.93259",
    "final_y": "562697.642272",
    "longitude": "-89.99026237800962",
    "latitude": "30.04046303801624",
    "geocoded_column": {
      "latitude": "30.04046303801624",
      "longitude": "-89.99026237800962"
    }
  },
  {
    "service_request": "2022-945557",
    "request_type": "Trash/Recycling",
    "request_reason": "Order Recycling Cart",
    "date_created": "2022-11-21T14:31:23.000",
    "date_modified": "2022-11-21T14:31:24.000",
    "request_status": "Pending",
    "responsible_agency": "Department of Sanitation",
    "final_address": "612 N Alexander St",
    "address_councildis": "A",
    "status": "Pending",
    "rowid": "945557",
    "final_x": "3671182.83003",
    "final_y": "540677.531275",
    "longitude": "-90.10033715031817",
    "latitude": "29.98098504189818",
    "geocoded_column": {
      "latitude": "29.98098504189818",
      "longitude": "-90.10033715031817"
    }
  },
  {
    "service_request": "2022-945556",
    "request_type": "Trash/Recycling",
    "request_reason": "Repair Trash Cart",
    "date_created": "2022-11-21T14:29:12.000",
    "date_modified": "2022-11-21T14:29:13.000",
    "request_status": "Pending",
    "responsible_agency": "Department of Sanitation",
    "final_address": "612 N Alexander St",
    "address_councildis": "A",
    "status": "Assigned to Contractor",
    "contractor": "Richards Disposal",
    "rowid": "945556",
    "final_x": "3671182.83003",
    "final_y": "540677.531275",
    "longitude": "-90.10033715031817",
    "latitude": "29.98098504189818",
    "geocoded_column": {
      "latitude": "29.98098504189818",
      "longitude": "-90.10033715031817"
    }
  },
  {
    "service_request": "2022-945555",
    "request_type": "Trash/Recycling",
    "request_reason": "Order Recycling Cart",
    "date_created": "2022-11-21T14:28:32.000",
    "date_modified": "2022-11-21T14:28:32.000",
    "request_status": "Pending",
    "responsible_agency": "Department of Sanitation",
    "final_address": "7910 Lady Gray St",
    "address_councildis": "E",
    "status": "Pending",
    "rowid": "945555",
    "final_x": "3709296.71537",
    "final_y": "566304.653795",
    "longitude": "-89.97900091083956",
    "latitude": "30.05026693178168",
    "geocoded_column": {
      "latitude": "30.05026693178168",
      "longitude": "-89.97900091083956"
    }
  },
  {
    "service_request": "2022-945554",
    "request_type": "Trash/Recycling",
    "request_reason": "Replace Trash Cart",
    "date_created": "2022-11-21T14:26:34.000",
    "date_modified": "2022-11-21T14:26:36.000",
    "request_status": "Pending",
    "responsible_agency": "Department of Sanitation",
    "final_address": "1915 Martin Luther King, Jr. Blvd",
    "address_councildis": "B",
    "status": "Assigned to Contractor",
    "contractor": "Richards Disposal",
    "rowid": "945554",
    "final_x": "3677947.1908",
    "final_y": "526406.231614",
    "longitude": "-90.07946551597472",
    "latitude": "29.94154191874119",
    "geocoded_column": {
      "latitude": "29.94154191874119",
      "longitude": "-90.07946551597472"
    }
  },
  {
    "service_request": "2022-945553",
    "request_type": "Trash/Recycling",
    "request_reason": "Replace Trash Cart",
    "date_created": "2022-11-21T14:22:53.000",
    "date_modified": "2022-11-21T14:22:54.000",
    "request_status": "Pending",
    "responsible_agency": "Department of Sanitation",
    "final_address": "6038 Stratford Pl",
    "address_councildis": "C",
    "status": "Assigned to Contractor",
    "contractor": "Richards Disposal",
    "rowid": "945553",
    "final_x": "3706226.3274",
    "final_y": "516245.19378",
    "longitude": "-89.9905593508636",
    "latitude": "29.912721434248297",
    "geocoded_column": {
      "latitude": "29.912721434248297",
      "longitude": "-89.9905593508636"
    }
  },
  {
    "service_request": "2022-945552",
    "request_type": "Trash/Recycling",
    "request_reason": "Missed Trash Pick-Up",
    "date_created": "2022-11-21T14:21:00.000",
    "date_modified": "2022-11-21T14:21:01.000",
    "request_status": "Pending",
    "responsible_agency": "Department of Sanitation",
    "final_address": "6800 BLK Coventry St",
    "address_councildis": "E",
    "status": "Assigned to Contractor",
    "contractor": "Waste Pro",
    "rowid": "945552",
    "final_x": "3698916.00108",
    "final_y": "559811.104575",
    "longitude": "-90.01204708933759",
    "latitude": "30.03274548377904",
    "geocoded_column": {
      "latitude": "30.03274548377904",
      "longitude": "-90.01204708933759"
    }
  },
  {
    "service_request": "2022-945551",
    "request_type": "Trash/Recycling",
    "request_reason": "Request a Large Item Pick Up",
    "date_created": "2022-11-21T14:05:49.000",
    "date_modified": "2022-11-21T14:05:50.000",
    "request_status": "Pending",
    "responsible_agency": "Department of Sanitation",
    "final_address": "2415 Dreux Ave",
    "address_councildis": "D",
    "status": "Assigned to Contractor",
    "contractor": "IV Waste",
    "rowid": "945551",
    "final_x": "3685332.36002",
    "final_y": "552193.866518",
    "longitude": "-90.05524097996293",
    "latitude": "30.01222458932384",
    "geocoded_column": {
      "latitude": "30.01222458932384",
      "longitude": "-90.05524097996293"
    }
  },
  {
    "service_request": "2022-945550",
    "request_type": "Trash/Recycling",
    "request_reason": "Illegal Dumping",
    "date_created": "2022-11-21T14:01:31.000",
    "date_modified": "2022-11-21T14:01:31.000",
    "request_status": "Pending",
    "responsible_agency": "Department of Sanitation",
    "final_address": "4622 Conti St",
    "address_councildis": "A",
    "status": "Pending",
    "rowid": "945550",
    "final_x": "3669940.52295",
    "final_y": "540635.219083",
    "longitude": "-90.10426235527699",
    "latitude": "29.980905396650964",
    "geocoded_column": {
      "latitude": "29.980905396650964",
      "longitude": "-90.10426235527699"
    }
  },
  {
    "service_request": "2022-945549",
    "request_type": "Trash/Recycling",
    "request_reason": "Order Recycling Cart",
    "date_created": "2022-11-21T14:01:09.000",
    "date_modified": "2022-11-21T14:01:10.000",
    "request_status": "Pending",
    "responsible_agency": "Department of Sanitation",
    "final_address": "7121 Whitmore Pl",
    "address_councildis": "E",
    "status": "Pending",
    "rowid": "945549",
    "final_x": "3718795.89221",
    "final_y": "569678.169638",
    "longitude": "-89.94884896624778",
    "latitude": "30.05923056648961",
    "geocoded_column": {
      "latitude": "30.05923056648961",
      "longitude": "-89.94884896624778"
    }
  },
  {
    "service_request": "2022-945547",
    "request_type": "Trash/Recycling",
    "request_reason": "Missed Trash Pick-Up",
    "date_created": "2022-11-21T13:59:53.000",
    "date_modified": "2022-11-21T13:59:54.000",
    "request_status": "Pending",
    "responsible_agency": "Department of Sanitation",
    "final_address": "4622 Conti St",
    "address_councildis": "A",
    "status": "Assigned to Contractor",
    "contractor": "Richards Disposal",
    "rowid": "945547",
    "final_x": "3669940.52295",
    "final_y": "540635.219083",
    "longitude": "-90.10426235527699",
    "latitude": "29.980905396650964",
    "geocoded_column": {
      "latitude": "29.980905396650964",
      "longitude": "-90.10426235527699"
    }
  },
  {
    "service_request": "2022-945546",
    "request_type": "Abandoned Vehicles",
    "request_reason": "Abandoned/Junk Vehicles",
    "date_created": "2022-11-21T13:59:47.000",
    "date_modified": "2022-11-21T13:59:47.000",
    "request_status": "Pending",
    "responsible_agency": "Department of Public Works",
    "final_address": "3914 Palmyra St",
    "address_councildis": "A",
    "status": "Pending",
    "rowid": "945546",
    "final_x": "3671114.27086",
    "final_y": "537241.287368",
    "longitude": "-90.10067044701267",
    "latitude": "29.971538563166344",
    "geocoded_column": {
      "latitude": "29.971538563166344",
      "longitude": "-90.10067044701267"
    }
  },
  {
    "service_request": "2022-945545",
    "request_type": "Trash/Recycling",
    "request_reason": "Order Recycling Cart",
    "date_created": "2022-11-21T13:54:45.000",
    "date_modified": "2022-11-21T13:54:46.000",
    "request_status": "Pending",
    "responsible_agency": "Department of Sanitation",
    "final_address": "628 S Tonti St",
    "address_councildis": "B",
    "status": "Pending",
    "rowid": "945545",
    "final_x": "3675128.20513",
    "final_y": "532488.563076",
    "longitude": "-90.08815694486462",
    "latitude": "29.95835083219583",
    "geocoded_column": {
      "latitude": "29.95835083219583",
      "longitude": "-90.08815694486462"
    }
  },
  {
    "service_request": "2022-945544",
    "request_type": "Trash/Recycling",
    "request_reason": "Missed Trash Pick-Up",
    "date_created": "2022-11-21T13:54:18.000",
    "date_modified": "2022-11-21T13:54:19.000",
    "request_status": "Pending",
    "responsible_agency": "Department of Sanitation",
    "final_address": "7423 Downman Rd",
    "address_councildis": "D",
    "status": "Assigned to Contractor",
    "contractor": "Waste Pro",
    "rowid": "945544",
    "final_x": "3694920.97085",
    "final_y": "557938.725467",
    "longitude": "-90.02473924048844",
    "latitude": "30.027723218336078",
    "geocoded_column": {
      "latitude": "30.027723218336078",
      "longitude": "-90.02473924048844"
    }
  },
  {
    "service_request": "2022-945543",
    "request_type": "Trash/Recycling",
    "request_reason": "Order Trash Cart",
    "date_created": "2022-11-21T13:54:12.000",
    "date_modified": "2022-11-21T13:54:13.000",
    "request_status": "Pending",
    "responsible_agency": "Department of Sanitation",
    "final_address": "628 S Tonti St",
    "address_councildis": "B",
    "status": "Assigned to Contractor",
    "contractor": "Richards Disposal",
    "rowid": "945543",
    "final_x": "3675128.20513",
    "final_y": "532488.563076",
    "longitude": "-90.08815694486462",
    "latitude": "29.95835083219583",
    "geocoded_column": {
      "latitude": "29.95835083219583",
      "longitude": "-90.08815694486462"
    }
  },
  {
    "service_request": "2022-945542",
    "request_type": "Trash/Recycling",
    "request_reason": "Missed Trash Pick-Up",
    "date_created": "2022-11-21T13:53:23.000",
    "date_modified": "2022-11-21T13:53:24.000",
    "request_status": "Pending",
    "responsible_agency": "Department of Sanitation",
    "final_address": "11247 Willow Dr",
    "address_councildis": "C",
    "status": "Assigned to Contractor",
    "contractor": "Richards Disposal",
    "rowid": "945542",
    "final_x": "3725921.12032",
    "final_y": "514781.819251",
    "longitude": "-89.92845448648133",
    "latitude": "29.90804837929013",
    "geocoded_column": {
      "latitude": "29.90804837929013",
      "longitude": "-89.92845448648133"
    }
  },
  {
    "service_request": "2022-945541",
    "request_type": "Trash/Recycling",
    "request_reason": "Order Recycling Cart",
    "date_created": "2022-11-21T13:52:53.000",
    "date_modified": "2022-11-21T13:52:53.000",
    "request_status": "Pending",
    "responsible_agency": "Department of Sanitation",
    "final_address": "4969 Metropolitan Dr",
    "address_councildis": "D",
    "status": "Pending",
    "rowid": "945541",
    "final_x": "3690543.00496",
    "final_y": "551996.416534",
    "longitude": "-90.03878538648146",
    "latitude": "30.01152083524177",
    "geocoded_column": {
      "latitude": "30.01152083524177",
      "longitude": "-90.03878538648146"
    }
  },
  {
    "service_request": "2022-945540",
    "request_type": "Trash/Recycling",
    "request_reason": "Order Recycling Cart",
    "date_created": "2022-11-21T13:52:25.000",
    "date_modified": "2022-11-21T13:52:25.000",
    "request_status": "Pending",
    "responsible_agency": "Department of Sanitation",
    "final_address": "38 Vivian Ct",
    "address_councildis": "C",
    "status": "Pending",
    "rowid": "945540",
    "final_x": "3702168.44266",
    "final_y": "521008.574969",
    "longitude": "-90.00319258063631",
    "latitude": "29.925949227839972",
    "geocoded_column": {
      "latitude": "29.925949227839972",
      "longitude": "-90.00319258063631"
    }
  },
  {
    "service_request": "2022-945539",
    "request_type": "Trash/Recycling",
    "request_reason": "Order Recycling Cart",
    "date_created": "2022-11-21T13:52:16.000",
    "date_modified": "2022-11-21T13:52:17.000",
    "request_status": "Pending",
    "responsible_agency": "Department of Sanitation",
    "final_address": "4863 Feliciana Dr",
    "address_councildis": "D",
    "status": "Pending",
    "rowid": "945539",
    "final_x": "3690155.67715",
    "final_y": "551250.011797",
    "longitude": "-90.04003572785251",
    "latitude": "30.009480524059978",
    "geocoded_column": {
      "latitude": "30.009480524059978",
      "longitude": "-90.04003572785251"
    }
  },
  {
    "service_request": "2022-945538",
    "request_type": "Trash/Recycling",
    "request_reason": "Order Recycling Cart",
    "date_created": "2022-11-21T13:51:45.000",
    "date_modified": "2022-11-21T13:51:45.000",
    "request_status": "Pending",
    "responsible_agency": "Department of Sanitation",
    "final_address": "1222 Music St",
    "address_councildis": "C",
    "status": "Pending",
    "rowid": "945538",
    "final_x": "3686759.97858",
    "final_y": "537003.066056",
    "longitude": "-90.0512675230177",
    "latitude": "29.97041146155865",
    "geocoded_column": {
      "latitude": "29.97041146155865",
      "longitude": "-90.0512675230177"
    }
  },
  {
    "service_request": "2022-945537",
    "request_type": "Trash/Recycling",
    "request_reason": "Request a Large Item Pick Up",
    "date_created": "2022-11-21T13:50:37.000",
    "date_modified": "2022-11-21T13:50:38.000",
    "request_status": "Pending",
    "responsible_agency": "Department of Sanitation",
    "final_address": "2320 Valentine Ct",
    "address_councildis": "C",
    "status": "Assigned to Contractor",
    "contractor": "Richards Disposal",
    "rowid": "945537",
    "final_x": "3699414.68912",
    "final_y": "522551.439354",
    "longitude": "-90.01182914440058",
    "latitude": "29.930279184513513",
    "geocoded_column": {
      "latitude": "29.930279184513513",
      "longitude": "-90.01182914440058"
    }
  },
  {
    "service_request": "2022-945536",
    "request_type": "Roads/Drainage",
    "request_reason": "Pothole",
    "date_created": "2022-11-21T13:47:32.000",
    "date_modified": "2022-11-21T13:47:33.000",
    "request_status": "Pending",
    "responsible_agency": "Department of Public Works",
    "final_address": "800 BLK Dumaine St",
    "address_councildis": "C",
    "status": "Pending",
    "rowid": "945536",
    "final_x": "3682569.71849",
    "final_y": "533376.716827",
    "longitude": "-90.06462762426051",
    "latitude": "29.960568498465552",
    "geocoded_column": {
      "latitude": "29.960568498465552",
      "longitude": "-90.06462762426051"
    }
  },
  {
    "service_request": "2022-945535",
    "request_type": "Trash/Recycling",
    "request_reason": "Order Trash Cart",
    "date_created": "2022-11-21T13:47:23.000",
    "date_modified": "2022-11-21T13:47:24.000",
    "request_status": "Pending",
    "responsible_agency": "Department of Sanitation",
    "final_address": "1113 Louisa St",
    "address_councildis": "C",
    "status": "Assigned to Contractor",
    "contractor": "IV Waste",
    "rowid": "945535",
    "final_x": "3689635.27324",
    "final_y": "536033.156295",
    "longitude": "-90.04222156388676",
    "latitude": "29.967655777145733",
    "geocoded_column": {
      "latitude": "29.967655777145733",
      "longitude": "-90.04222156388676"
    }
  },
  {
    "service_request": "2022-945534",
    "request_type": "Abandoned Vehicles",
    "request_reason": "Vehicle Blocking Your Driveway",
    "date_created": "2022-11-21T13:45:45.000",
    "date_modified": "2022-11-21T13:45:45.000",
    "request_status": "Pending",
    "responsible_agency": "Department of Public Works",
    "final_address": "2739 Conti St Ste A",
    "address_councildis": "B",
    "status": "Pending",
    "rowid": "945534",
    "final_x": "3675820.87925",
    "final_y": "536335.432135",
    "longitude": "-90.08583741407314",
    "latitude": "29.968907708216907",
    "geocoded_column": {
      "latitude": "29.968907708216907",
      "longitude": "-90.08583741407314"
    }
  },
  {
    "service_request": "2022-945533",
    "request_type": "Trash/Recycling",
    "request_reason": "Repair Trash Cart",
    "date_created": "2022-11-21T13:44:23.000",
    "date_modified": "2022-11-21T13:44:24.000",
    "case_close_date": "2021-09-26T19:00:00.000",
    "request_status": "Pending",
    "responsible_agency": "Department of Sanitation",
    "final_address": "7701 Symmes Ave",
    "address_councildis": "E",
    "status": "Assigned to Contractor",
    "contractor": "Waste Pro",
    "rowid": "945533",
    "final_x": "3707781.64875",
    "final_y": "564826.71517",
    "longitude": "-89.98384446453092",
    "latitude": "30.046252344682884",
    "geocoded_column": {
      "latitude": "30.046252344682884",
      "longitude": "-89.98384446453092"
    }
  },
  {
    "service_request": "2022-945532",
    "request_type": "Traffic Signals/Signs/Striping/Streetlights",
    "request_reason": "Street Light Outage/Malfunction",
    "date_created": "2022-11-21T13:42:58.000",
    "date_modified": "2022-11-21T13:42:59.000",
    "request_status": "Pending",
    "responsible_agency": "Department of Public Works",
    "final_address": "5091 Wright Rd",
    "address_councildis": "E",
    "status": "Pending",
    "contractor": "Legacy Professional Services",
    "rowid": "945532",
    "final_x": "3716371.82098",
    "final_y": "558556.336604",
    "longitude": "-89.95693347378136",
    "latitude": "30.028730361761983",
    "geocoded_column": {
      "latitude": "30.028730361761983",
      "longitude": "-89.95693347378136"
    }
  },
  {
    "service_request": "2022-945531",
    "request_type": "Abandoned Vehicles",
    "request_reason": "Abandoned/Junk Vehicles",
    "date_created": "2022-11-21T13:40:30.000",
    "date_modified": "2022-11-21T13:40:30.000",
    "request_status": "Pending",
    "responsible_agency": "Department of Public Works",
    "final_address": "4300 BLK S Rocheblave St",
    "address_councildis": "B",
    "status": "Pending",
    "rowid": "945531",
    "final_x": "3670309.10029",
    "final_y": "528495.662285",
    "longitude": "-90.10350974513072",
    "latitude": "29.947514785119463",
    "geocoded_column": {
      "latitude": "29.947514785119463",
      "longitude": "-90.10350974513072"
    }
  },
  {
    "service_request": "2022-945530",
    "request_type": "Traffic Signals/Signs/Striping/Streetlights",
    "request_reason": "Street Light Outage/Malfunction",
    "date_created": "2022-11-21T13:38:51.000",
    "date_modified": "2022-11-21T13:38:52.000",
    "request_status": "Pending",
    "responsible_agency": "Department of Public Works",
    "final_address": "10114 Hillwood St",
    "address_councildis": "E",
    "status": "Pending",
    "contractor": "Legacy Professional Services",
    "rowid": "945530",
    "final_x": "3712911.06142",
    "final_y": "556582.864474",
    "longitude": "-89.96794352457451",
    "latitude": "30.0234179449592",
    "geocoded_column": {
      "latitude": "30.0234179449592",
      "longitude": "-89.96794352457451"
    }
  },
  {
    "service_request": "2022-945529",
    "request_type": "Trash/Recycling",
    "request_reason": "Request a Large Item Pick Up",
    "date_created": "2022-11-21T13:37:31.000",
    "date_modified": "2022-11-21T13:37:32.000",
    "request_status": "Pending",
    "responsible_agency": "Department of Sanitation",
    "final_address": "6941 Manchester St",
    "address_councildis": "E",
    "status": "Assigned to Contractor",
    "contractor": "Waste Pro",
    "rowid": "945529",
    "final_x": "3698876.36183",
    "final_y": "560179.754397",
    "longitude": "-90.01215891978553",
    "latitude": "30.033760385134865",
    "geocoded_column": {
      "latitude": "30.033760385134865",
      "longitude": "-90.01215891978553"
    }
  },
  {
    "service_request": "2022-945528",
    "request_type": "Trash/Recycling",
    "request_reason": "Order Recycling Cart",
    "date_created": "2022-11-21T13:36:42.000",
    "date_modified": "2022-11-21T13:36:42.000",
    "request_status": "Pending",
    "responsible_agency": "Department of Sanitation",
    "final_address": "6941 Manchester St",
    "address_councildis": "E",
    "status": "Pending",
    "contractor": "Metro Disposal",
    "rowid": "945528",
    "final_x": "3698876.36183",
    "final_y": "560179.754397",
    "longitude": "-90.01215891978553",
    "latitude": "30.033760385134865",
    "geocoded_column": {
      "latitude": "30.033760385134865",
      "longitude": "-90.01215891978553"
    }
  },
  {
    "service_request": "2022-945527",
    "request_type": "Trash/Recycling",
    "request_reason": "Illegal Dumping",
    "date_created": "2022-11-21T13:35:22.000",
    "date_modified": "2022-11-21T13:35:23.000",
    "request_status": "Pending",
    "responsible_agency": "Department of Code Enforcement",
    "final_address": "1718 Laharpe St",
    "address_councildis": "D",
    "status": "Pending",
    "rowid": "945527",
    "final_x": "3681524.11804",
    "final_y": "537760.911752",
    "longitude": "-90.06777651082382",
    "latitude": "29.972655320732894",
    "geocoded_column": {
      "latitude": "29.972655320732894",
      "longitude": "-90.06777651082382"
    }
  },
  {
    "service_request": "2022-945526",
    "request_type": "Trash/Recycling",
    "request_reason": "Repair Recycling Cart",
    "date_created": "2022-11-21T13:32:04.000",
    "date_modified": "2022-11-21T13:32:05.000",
    "request_status": "Pending",
    "responsible_agency": "Department of Sanitation",
    "final_address": "11177 Winchester Park Dr",
    "address_councildis": "E",
    "status": "Pending",
    "rowid": "945526",
    "final_x": "3715343.32811",
    "final_y": "561862.275679",
    "longitude": "-89.96005823060771",
    "latitude": "30.03785429831887",
    "geocoded_column": {
      "latitude": "30.03785429831887",
      "longitude": "-89.96005823060771"
    }
  },
  {
    "service_request": "2022-945525",
    "request_type": "Trash/Recycling",
    "request_reason": "Repair Trash Cart",
    "date_created": "2022-11-21T13:31:34.000",
    "date_modified": "2022-11-21T13:31:35.000",
    "request_status": "Pending",
    "responsible_agency": "Department of Sanitation",
    "final_address": "11177 Winchester Park Dr",
    "address_councildis": "E",
    "status": "Assigned to Contractor",
    "contractor": "Waste Pro",
    "rowid": "945525",
    "final_x": "3715343.32811",
    "final_y": "561862.275679",
    "longitude": "-89.96005823060771",
    "latitude": "30.03785429831887",
    "geocoded_column": {
      "latitude": "30.03785429831887",
      "longitude": "-89.96005823060771"
    }
  },
  {
    "service_request": "2022-945523",
    "request_type": "Trash/Recycling",
    "request_reason": "Order Recycling Cart",
    "date_created": "2022-11-21T13:25:21.000",
    "date_modified": "2022-11-21T13:25:21.000",
    "request_status": "Pending",
    "responsible_agency": "Department of Sanitation",
    "final_address": "1844 Burgundy St",
    "address_councildis": "C",
    "status": "Pending",
    "rowid": "945523",
    "final_x": "3683745.031",
    "final_y": "535448.554054",
    "longitude": "-90.06084357128333",
    "latitude": "29.966229503392896",
    "geocoded_column": {
      "latitude": "29.966229503392896",
      "longitude": "-90.06084357128333"
    }
  },