[
  {
    "service_request": "2026-1274650",
    "request_type": "Abandoned Vehicles",
    "request_reason": "Abandoned/Junk Vehicles",
    "date_created": "2026-04-17T23:51:50.000",
    "date_modified": "2026-04-17T23:51:52.000",
    "request_status": "Pending",
    "responsible_agency": "Department of Public Works",
    "final_address": "231 Opal St",
    "address_councildis": "D",
    "status": "Pending",
    "rowid": "1274650",
    "final_x": "3667317.59585",
    "final_y": "555576.680857",
    "longitude": "-90.11204376063915",
    "latitude": "30.022066346163435",
    "geocoded_column": {
      "latitude": "30.022066346163435",
      "longitude": "-90.11204376063915"
    }
  },
  {
    "service_request": "2026-1274649",
    "request_type": "Abandoned Vehicles",
    "request_reason": "Abandoned/Junk Vehicles",
    "date_created": "2026-04-17T23:44:54.000",
    "date_modified": "2026-04-17T23:44:55.000",
    "request_status": "Pending",
    "responsible_agency": "Department of Public Works",
    "final_address": "309 Opal St",
    "address_councildis": "D",
    "status": "Pending",
    "rowid": "1274649",
    "final_x": "3667586.789",
    "final_y": "555470.071705",
    "longitude": "-90.11119676813749",
    "latitude": "30.02176531686609",
    "geocoded_column": {
      "latitude": "30.02176531686609",
      "longitude": "-90.11119676813749"
    }
  },
  {
    "service_request": "2026-1274648",
    "request_type": "General Services",
    "request_reason": "General Service Request",
    "date_created": "2026-04-17T22:31:31.000",
    "date_modified": "2026-04-17T22:31:37.000",
    "request_status": "Pending",
    "responsible_agency": "Orleans Parish Communication District",
    "final_address": "2726 Prytania St",
    "address_councildis": "B",
    "status": "Pending",
    "rowid": "1274648",
    "final_x": "3676306.64277",
    "final_y": "522107.487226",
    "longitude": "-90.08479294057153",
    "latitude": "29.92977103935137",
    "geocoded_column": {
      "latitude": "29.92977103935137",
      "longitude": "-90.08479294057153"
    }
  },
  {
    "service_request": "2026-1274647",
    "request_type": "General Services",
    "request_reason": "General Service Request",
    "date_created": "2026-04-17T22:10:35.000",
    "date_modified": "2026-04-17T22:10:36.000",
    "request_status": "Pending",
    "responsible_agency": "Orleans Parish Communication District",
    "final_address": "535 Madison St",
    "address_councildis": "C",
    "status": "Pending",
    "rowid": "1274647",
    "final_x": "3683291.09045",
    "final_y": "532639.222596",
    "longitude": "-90.06237550993669",
    "latitude": "29.958518659782698",
    "geocoded_column": {
      "latitude": "29.958518659782698",
      "longitude": "-90.06237550993669"
    }
  },
  {
    "service_request": "2026-1274646",
    "request_type": "Traffic Signals",
    "request_reason": "Traffic Signal Malfunctioning or Damaged",
    "date_created": "2026-04-17T21:15:39.000",
    "date_modified": "2026-04-17T21:15:41.000",
    "request_status": "Pending",
    "responsible_agency": "Department of Public Works",
    "final_address": "6000 Bullard Ave",
    "address_councildis": "E",
    "status": "Pending",
    "rowid": "1274646",
    "final_x": "3714876.25311",
    "final_y": "563881.658913",
    "longitude": "-89.96145788051206",
    "latitude": "30.043422170200817",
    "geocoded_column": {
      "latitude": "30.043422170200817",
      "longitude": "-89.96145788051206"
    }
  },
  {
    "service_request": "2026-1274645",
    "request_type": "Health Related Request",
    "request_reason": "Noise Ordinance Complaint",
    "date_created": "2026-04-17T20:58:30.000",
    "date_modified": "2026-04-17T20:58:32.000",
    "request_status": "Pending",
    "responsible_agency": "Health Department",
    "final_address": "800 Bourbon St, New Orleans, Louisiana, 70116",
    "address_councildis": "C",
    "status": "Pending",
    "rowid": "1274645",
    "final_x": "3682553.51528",
    "final_y": "533013.631428",
    "longitude": "-90.06469148499534",
    "latitude": "29.95957063099051",
    "geocoded_column": {
      "latitude": "29.95957063099051",
      "longitude": "-90.06469148499534"
    }
  },
  {
    "service_request": "2026-1274644",
    "request_type": "Health Related Request",
    "request_reason": "Noise Ordinance Complaint",
    "date_created": "2026-04-17T20:58:08.000",
    "date_modified": "2026-04-17T20:58:12.000",
    "request_status": "Pending",
    "responsible_agency": "Health Department",
    "final_address": "801 Bourbon St, New Orleans, Louisiana, 70116",
    "address_councildis": "C",
    "status": "Pending",
    "rowid": "1274644",
    "final_x": "3682490.98735",
    "final_y": "533018.672772",
    "longitude": "-90.06488875731978",
    "latitude": "29.959586396383013",
    "geocoded_column": {
      "latitude": "29.959586396383013",
      "longitude": "-90.06488875731978"
    }
  },
  {
    "service_request": "2026-1274643",
    "request_type": "Streetlights",
    "request_reason": "Streetlight Outage/Malfunction",
    "date_created": "2026-04-17T20:50:07.000",
    "date_modified": "2026-04-17T20:50:09.000",
    "request_status": "Pending",
    "responsible_agency": "Department of Public Works",
    "final_address": "6167 Catina St",
    "address_councildis": "A",
    "status": "Pending",
    "rowid": "1274643",
    "final_x": "3666934.58433",
    "final_y": "548888.354771",
    "longitude": "-90.11347897020205",
    "latitude": "30.003687012956757",
    "geocoded_column": {
      "latitude": "30.003687012956757",
      "longitude": "-90.11347897020205"
    }
  },
  {
    "service_request": "2026-1274642",
    "request_type": "Abandoned Vehicles",
    "request_reason": "Abandoned/Junk Vehicles",
    "date_created": "2026-04-17T19:26:34.000",
    "date_modified": "2026-04-17T19:26:36.000",
    "request_status": "Pending",
    "responsible_agency": "Department of Public Works",
    "final_address": "2830 Audubon St",
    "address_councildis": "B",
    "status": "Pending",
    "rowid": "1274642",
    "final_x": "3667641.8153",
    "final_y": "531333.695618",
    "longitude": "-90.111835901721",
    "latitude": "29.955396898587033",
    "geocoded_column": {
      "latitude": "29.955396898587033",
      "longitude": "-90.111835901721"
    }
  },
  {
    "service_request": "2026-1274641",
    "request_type": "Trash/Recycling",
    "request_reason": "Damaged Caused By Contractor",
    "date_created": "2026-04-17T19:12:51.000",
    "date_modified": "2026-04-17T19:12:53.000",
    "request_status": "Pending",
    "responsible_agency": "Department of Sanitation",
    "final_address": "4878 Lafon Dr",
    "address_councildis": "E",
    "status": "Assigned to Contractor",
    "contractor": "Waste Pro",
    "rowid": "1274641",
    "final_x": "3700998.83581",
    "final_y": "555029.436633",
    "longitude": "-90.00564028263179",
    "latitude": "30.019531534231835",
    "geocoded_column": {
      "latitude": "30.019531534231835",
      "longitude": "-90.00564028263179"
    }
  },
  {
    "service_request": "2026-1274640",
    "request_type": "Trash/Recycling",
    "request_reason": "Replace Trash Cart",
    "date_created": "2026-04-17T18:58:32.000",
    "date_modified": "2026-04-17T18:58:35.000",
    "request_status": "Pending",
    "responsible_agency": "Department of Sanitation",
    "final_address": "2009 Elysian Fields Ave",
    "address_councildis": "D",
    "status": "Assigned to Contractor",
    "contractor": "IV Waste",
    "rowid": "1274640",
    "final_x": "3684844.81621",
    "final_y": "539729.033802",
    "longitude": "-90.05721993297973",
    "latitude": "29.977965702906413",
    "geocoded_column": {
      "latitude": "29.977965702906413",
      "longitude": "-90.05721993297973"
    }
  },
  {
    "service_request": "2026-1274639",
    "request_type": "Trash/Recycling",
    "request_reason": "Return Recycling Cart",
    "date_created": "2026-04-17T18:52:45.000",
    "date_modified": "2026-04-17T18:52:47.000",
    "request_status": "Pending",
    "responsible_agency": "Department of Sanitation",
    "final_address": "137 S Hennessey St",
    "address_councildis": "A",
    "status": "Pending",
    "rowid": "1274639",
    "final_x": "3670038.24705",
    "final_y": "538698.561033",
    "longitude": "-90.10401932270256",
    "latitude": "29.975577360066254",
    "geocoded_column": {
      "latitude": "29.975577360066254",
      "longitude": "-90.10401932270256"
    }
  },
  {
    "service_request": "2026-1274638",
    "request_type": "Drainage",
    "request_reason": "Catch Basin Not Draining",
    "date_created": "2026-04-17T18:47:08.000",
    "date_modified": "2026-04-17T18:47:14.000",
    "request_status": "Pending",
    "responsible_agency": "Sewerage & Water Board",
    "final_address": "900 Delachaise St",
    "address_councildis": "B",
    "status": "Pending",
    "rowid": "1274638",
    "final_x": "3674918.17198",
    "final_y": "518810.837751",
    "longitude": "-90.08928909594911",
    "latitude": "29.920747843494055",
    "geocoded_column": {
      "latitude": "29.920747843494055",
      "longitude": "-90.08928909594911"
    }
  },
  {
    "service_request": "2026-1274637",
    "request_type": "Safety & Permits",
    "request_reason": "Licenses & Permits",
    "date_created": "2026-04-17T18:41:08.000",
    "date_modified": "2026-04-17T18:41:11.000",
    "request_status": "Pending",
    "responsible_agency": "Safety and Permits",
    "final_address": "702 Washington Ave",
    "address_councildis": "B",
    "status": "Pending",
    "rowid": "1274637",
    "final_x": "3677804.5339",
    "final_y": "519561.826295",
    "longitude": "-90.08015224693371",
    "latitude": "29.92272633588398",
    "geocoded_column": {
      "latitude": "29.92272633588398",
      "longitude": "-90.08015224693371"
    }
  },
  {
    "service_request": "2026-1274636",
    "request_type": "Streetlights",
    "request_reason": "Streetlight Outage/Malfunction",
    "date_created": "2026-04-17T18:33:58.000",
    "date_modified": "2026-04-17T18:34:02.000",
    "request_status": "Pending",
    "responsible_agency": "Department of Public Works",
    "final_address": "6049 St Anthony Ave",
    "address_councildis": "D",
    "status": "Pending",
    "rowid": "1274636",
    "final_x": "3682063.08834",
    "final_y": "555366.397081",
    "longitude": "-90.06545911606611",
    "latitude": "30.02104775510075",
    "geocoded_column": {
      "latitude": "30.02104775510075",
      "longitude": "-90.06545911606611"
    }
  },
  {
    "service_request": "2026-1274635",
    "request_type": "Property Maintenance",
    "request_reason": "Property Maintenance",
    "date_created": "2026-04-17T18:31:28.000",
    "date_modified": "2026-04-17T18:31:30.000",
    "request_status": "Pending",
    "responsible_agency": "Department of Code Enforcement",
    "final_address": "6049 St Anthony Ave",
    "address_councildis": "D",
    "status": "Pending",
    "rowid": "1274635",
    "final_x": "3682063.08834",
    "final_y": "555366.397081",
    "longitude": "-90.06545911606611",
    "latitude": "30.02104775510075",
    "geocoded_column": {
      "latitude": "30.02104775510075",
      "longitude": "-90.06545911606611"
    }
  },
  {
    "service_request": "2026-1274634",
    "request_type": "Mosquito, Termite & Rodent Control",
    "request_reason": "Mosquito Complaint",
    "date_created": "2026-04-17T18:29:42.000",
    "date_modified": "2026-04-17T18:29:43.000",
    "request_status": "Pending",
    "responsible_agency": "Mosquito, Termite & Rodent Control Board",
    "final_address": "6049 St Anthony Ave",
    "address_councildis": "D",
    "status": "Pending",
    "rowid": "1274634",
    "final_x": "3682063.08834",
    "final_y": "555366.397081",
    "longitude": "-90.06545911606611",
    "latitude": "30.02104775510075",
    "geocoded_column": {
      "latitude": "30.02104775510075",
      "longitude": "-90.06545911606611"
    }
  },
  {
    "service_request": "2026-1274633",
    "request_type": "Mosquito, Termite & Rodent Control",
    "request_reason": "Mosquito Complaint",
    "date_created": "2026-04-17T18:27:19.000",
    "date_modified": "2026-04-17T18:27:20.000",
    "request_status": "Pending",
    "responsible_agency": "Mosquito, Termite & Rodent Control Board",
    "final_address": "6049 St Anthony Ave",
    "address_councildis": "D",
    "status": "Pending",
    "rowid": "1274633",
    "final_x": "3682063.08834",
    "final_y": "555366.397081",
    "longitude": "-90.06545911606611",
    "latitude": "30.02104775510075",
    "geocoded_column": {
      "latitude": "30.02104775510075",
      "longitude": "-90.06545911606611"
    }
  },
  {
    "service_request": "2026-1274632",
    "request_type": "Trash/Recycling",
    "request_reason": "Order Trash Cart",
    "date_created": "2026-04-17T18:13:29.000",
    "date_modified": "2026-04-17T18:13:30.000",
    "request_status": "Pending",
    "responsible_agency": "Department of Sanitation",
    "final_address": "400 Millaudon St",
    "address_councildis": "A",
    "status": "Assigned to Contractor",
    "contractor": "IV Waste",
    "rowid": "1274632",
    "final_x": "3661897.87584",
    "final_y": "524676.659196",
    "longitude": "-90.13019398647383",
    "latitude": "29.937259293857206",
    "geocoded_column": {
      "latitude": "29.937259293857206",
      "longitude": "-90.13019398647383"
    }
  },
  {
    "service_request": "2026-1274631",
    "request_type": "Street and Traffic Signs",
    "request_reason": "Street Name Sign Damaged or Missing",
    "date_created": "2026-04-17T18:10:28.000",
    "date_modified": "2026-04-17T18:10:30.000",
    "request_status": "Pending",
    "responsible_agency": "Department of Public Works",
    "final_address": "MORRISON RD & MEANS AVE",
    "address_councildis": "E",
    "status": "Pending",
    "rowid": "1274631",
    "final_x": "3708688.4",
    "final_y": "563618.08",
    "longitude": "-89.98102377294356",
    "latitude": "30.042899687046326",
    "geocoded_column": {
      "latitude": "30.042899687046326",
      "longitude": "-89.98102377294356"
    }
  },
  {
    "service_request": "2026-1274630",
    "request_type": "Drainage",
    "request_reason": "Catch Basin Not Draining",
    "date_created": "2026-04-17T18:00:19.000",
    "date_modified": "2026-04-17T18:00:21.000",
    "request_status": "Pending",
    "responsible_agency": "Sewerage & Water Board",
    "final_address": "900 Delachaise St",
    "address_councildis": "B",
    "status": "Pending",
    "rowid": "1274630",
    "final_x": "3674918.17198",
    "final_y": "518810.837751",
    "longitude": "-90.08928909594911",
    "latitude": "29.920747843494055",
    "geocoded_column": {
      "latitude": "29.920747843494055",
      "longitude": "-90.08928909594911"
    }
  },
  {
    "service_request": "2026-1274629",
    "request_type": "Trash/Recycling",
    "request_reason": "Missed Trash Pick-Up",
    "date_created": "2026-04-17T17:56:32.000",
    "date_modified": "2026-04-17T17:56:34.000",
    "request_status": "Pending",
    "responsible_agency": "Department of Sanitation",
    "final_address": "900 Delachaise St",
    "address_councildis": "B",
    "status": "Assigned to Contractor",
    "contractor": "IV Waste",
    "rowid": "1274629",
    "final_x": "3674918.17198",
    "final_y": "518810.837751",
    "longitude": "-90.08928909594911",
    "latitude": "29.920747843494055",
    "geocoded_column": {
      "latitude": "29.920747843494055",
      "longitude": "-90.08928909594911"
    }
  },
  {
    "service_request": "2026-1274628",
    "request_type": "Trash/Recycling",
    "request_reason": "Order Trash Cart",
    "date_created": "2026-04-17T17:51:32.000",
    "date_modified": "2026-04-17T17:51:34.000",
    "request_status": "Pending",
    "responsible_agency": "Department of Sanitation",
    "final_address": "2708 Soniat St",
    "address_councildis": "B",
    "status": "Assigned to Contractor",
    "contractor": "IV Waste",
    "rowid": "1274628",
    "final_x": "3668504.36673",
    "final_y": "525427.791869",
    "longitude": "-90.10931148017478",
    "latitude": "29.93913227278933",
    "geocoded_column": {
      "latitude": "29.93913227278933",
      "longitude": "-90.10931148017478"
    }
  },
  {
    "service_request": "2026-1274627",
    "request_type": "Parks & Grass Service",
    "request_reason": "Request Grass Cutting Service (City Owned Property)",
    "date_created": "2026-04-17T17:47:26.000",
    "date_modified": "2026-04-17T17:47:29.000",
    "request_status": "Pending",
    "responsible_agency": "Department of Parks & Parkways",
    "final_address": "4400 BLK Saint Roch Ave",
    "address_councildis": "D",
    "status": "Pending",
    "rowid": "1274627",
    "final_x": "3685443.97422",
    "final_y": "549110.112853",
    "longitude": "-90.05499703781302",
    "latitude": "30.003741964559364",
    "geocoded_column": {
      "latitude": "30.003741964559364",
      "longitude": "-90.05499703781302"
    }
  },
  {
    "service_request": "2026-1274626",
    "request_type": "Trash/Recycling",
    "request_reason": "Repair Trash Cart",
    "date_created": "2026-04-17T17:34:43.000",
    "date_modified": "2026-04-17T17:34:45.000",
    "request_status": "Pending",
    "responsible_agency": "Department of Sanitation",
    "final_address": "3227 River Oaks Dr",
    "address_councildis": "C",
    "status": "Assigned to Contractor",
    "contractor": "Richards Disposal",
    "rowid": "1274626",
    "final_x": "3701381.81693",
    "final_y": "519288.390199",
    "longitude": "-90.00573862346195",
    "latitude": "29.92124439715032",
    "geocoded_column": {
      "latitude": "29.92124439715032",
      "longitude": "-90.00573862346195"
    }
  },
  {
    "service_request": "2026-1274625",
    "request_type": "Trash/Recycling",
    "request_reason": "Order Trash Cart",
    "date_created": "2026-04-17T17:12:46.000",
    "date_modified": "2026-04-17T17:12:48.000",
    "request_status": "Pending",
    "responsible_agency": "Department of Sanitation",
    "final_address": "3805 Magnolia St",
    "address_councildis": "B",
    "status": "Assigned to Contractor",
    "contractor": "IV Waste",
    "rowid": "1274625",
    "final_x": "3671807.02497",
    "final_y": "524916.366524",
    "longitude": "-90.09890195596995",
    "latitude": "29.937628597496246",
    "geocoded_column": {
      "latitude": "29.937628597496246",
      "longitude": "-90.09890195596995"
    }
  },
  {
    "service_request": "2026-1274624",
    "request_type": "Abandoned Vehicles",
    "request_reason": "Abandoned/Junk Vehicles",
    "date_created": "2026-04-17T17:12:11.000",
    "date_modified": "2026-04-17T17:12:13.000",
    "request_status": "Pending",
    "responsible_agency": "Department of Public Works",
    "final_address": "4307 S Carrollton Ave",
    "address_councildis": "A",
    "status": "Pending",
    "rowid": "1274624",
    "final_x": "3669750.22913",
    "final_y": "536973.752584",
    "longitude": "-90.10498736183938",
    "latitude": "29.970843210200663",
    "geocoded_column": {
      "latitude": "29.970843210200663",
      "longitude": "-90.10498736183938"
    }
  },
  {
    "service_request": "2026-1274623",
    "request_type": "Trash/Recycling",
    "request_reason": "Repair Trash Cart",
    "date_created": "2026-04-17T16:59:21.000",
    "date_modified": "2026-04-17T16:59:24.000",
    "request_status": "Pending",
    "responsible_agency": "Department of Sanitation",
    "final_address": "3421 Roger Williams St",
    "address_councildis": "D",
    "status": "Assigned to Contractor",
    "contractor": "IV Waste",
    "rowid": "1274623",
    "final_x": "3676633.08283",
    "final_y": "544054.491022",
    "longitude": "-90.08300641901687",
    "latitude": "29.990108121915696",
    "geocoded_column": {
      "latitude": "29.990108121915696",
      "longitude": "-90.08300641901687"
    }
  },
  {
    "service_request": "2026-1274622",
    "request_type": "Trash/Recycling",
    "request_reason": "Request a Large Item Pick Up",
    "date_created": "2026-04-17T16:57:10.000",
    "date_modified": "2026-04-17T16:57:12.000",
    "request_status": "Pending",
    "responsible_agency": "Department of Sanitation",
    "final_address": "3400 Touro St",
    "address_councildis": "D",
    "status": "Assigned to Contractor",
    "contractor": "IV Waste",
    "rowid": "1274622",
    "final_x": "3683473.27362",
    "final_y": "545123.721295",
    "longitude": "-90.06136260194431",
    "latitude": "29.992841120388324",
    "geocoded_column": {
      "latitude": "29.992841120388324",
      "longitude": "-90.06136260194431"
    }
  },
  {
    "service_request": "2026-1274621",
    "request_type": "Trash/Recycling",
    "request_reason": "Request a Large Item Pick Up",
    "date_created": "2026-04-17T16:47:20.000",
    "date_modified": "2026-04-17T16:47:24.000",
    "request_status": "Pending",
    "responsible_agency": "Department of Sanitation",
    "final_address": "7081 W Tamaron Blvd",
    "address_councildis": "E",
    "status": "Assigned to Contractor",
    "contractor": "Waste Pro",
    "rowid": "1274621",
    "final_x": "3718554.55077",
    "final_y": "568542.487909",
    "longitude": "-89.94965516814176",
    "latitude": "30.05611592900367",
    "geocoded_column": {
      "latitude": "30.05611592900367",
      "longitude": "-89.94965516814176"
    }
  },
  {
    "service_request": "2026-1274620",
    "request_type": "Trash/Recycling",
    "request_reason": "Request a Large Item Pick Up",
    "date_created": "2026-04-17T16:24:12.000",
    "date_modified": "2026-04-17T16:24:13.000",
    "request_status": "Pending",
    "responsible_agency": "Department of Sanitation",
    "final_address": "8001 Sandpiper Dr",
    "address_councildis": "E",
    "status": "Assigned to Contractor",
    "contractor": "Waste Pro",
    "rowid": "1274620",
    "final_x": "3715230.23986",
    "final_y": "570723.034663",
    "longitude": "-89.96008001729037",
    "latitude": "30.062221491527225",
    "geocoded_column": {
      "latitude": "30.062221491527225",
      "longitude": "-89.96008001729037"
    }
  },
  {
    "service_request": "2026-1274619",
    "request_type": "Trash/Recycling",
    "request_reason": "Order Recycling Cart",
    "date_created": "2026-04-17T16:23:05.000",
    "date_modified": "2026-04-17T16:23:08.000",
    "request_status": "Pending",
    "responsible_agency": "Department of Sanitation",
    "final_address": "1214 Marigny St",
    "address_councildis": "C",
    "status": "Pending",
    "rowid": "1274619",
    "final_x": "3685350.66626",
    "final_y": "536846.394632",
    "longitude": "-90.05572379756947",
    "latitude": "29.97002395265299",
    "geocoded_column": {
      "latitude": "29.97002395265299",
      "longitude": "-90.05572379756947"
    }
  },
  {
    "service_request": "2026-1274618",
    "request_type": "Trash/Recycling",
    "request_reason": "Request a Large Item Pick Up",
    "date_created": "2026-04-17T16:17:43.000",
    "date_modified": "2026-04-17T16:17:45.000",
    "request_status": "Pending",
    "responsible_agency": "Department of Sanitation",
    "final_address": "1322 Adams St",
    "address_councildis": "A",
    "status": "Assigned to Contractor",
    "contractor": "IV Waste",
    "rowid": "1274618",
    "final_x": "3663393.24749",
    "final_y": "527812.524223",
    "longitude": "-90.12536861293408",
    "latitude": "29.945838663624276",
    "geocoded_column": {
      "latitude": "29.945838663624276",
      "longitude": "-90.12536861293408"
    }
  },
  {
    "service_request": "2026-1274617",
    "request_type": "Drainage",
    "request_reason": "Catch Basin Not Draining",
    "date_created": "2026-04-17T16:15:01.000",
    "date_modified": "2026-04-17T16:46:35.000",
    "request_status": "Pending",
    "responsible_agency": "Sewerage & Water Board",
    "final_address": "AUBRY ST & N DUPRE ST",
    "address_councildis": "D",
    "status": "Pending",
    "rowid": "1274617",
    "final_x": "3679188.5",
    "final_y": "541490.38",
    "longitude": "-90.07502347543073",
    "latitude": "29.982980792808643",
    "geocoded_column": {
      "latitude": "29.982980792808643",
      "longitude": "-90.07502347543073"
    }
  },
  {
    "service_request": "2026-1274616",
    "request_type": "Trash/Recycling",
    "request_reason": "Order Second Trash Cart",
    "date_created": "2026-04-17T16:02:50.000",
    "date_modified": "2026-04-17T16:02:52.000",
    "request_status": "Pending",
    "responsible_agency": "Department of Sanitation",
    "final_address": "7621 Poitevent Ave",
    "address_councildis": "E",
    "status": "Assigned to Contractor",
    "contractor": "Waste Pro",
    "rowid": "1274616",
    "final_x": "3706998.22731",
    "final_y": "564179.977697",
    "longitude": "-89.98634448589046",
    "latitude": "30.04449942094845",
    "geocoded_column": {
      "latitude": "30.04449942094845",
      "longitude": "-89.98634448589046"
    }
  },
  {
    "service_request": "2026-1274615",
    "request_type": "Trash/Recycling",
    "request_reason": "Request a Large Item Pick Up",
    "date_created": "2026-04-17T15:56:42.000",
    "date_modified": "2026-04-17T15:56:43.000",
    "request_status": "Pending",
    "responsible_agency": "Department of Sanitation",
    "final_address": "1212 Park Island Dr",
    "address_councildis": "D",
    "status": "Assigned to Contractor",
    "contractor": "IV Waste",
    "rowid": "1274615",
    "final_x": "3676675.90837",
    "final_y": "547780.398482",
    "longitude": "-90.08274269366879",
    "latitude": "30.000351774781066",
    "geocoded_column": {
      "latitude": "30.000351774781066",
      "longitude": "-90.08274269366879"
    }
  },
  {
    "service_request": "2026-1274614",
    "request_type": "Trash/Recycling",
    "request_reason": "Order Recycling Cart",
    "date_created": "2026-04-17T15:54:33.000",
    "date_modified": "2026-04-17T15:54:35.000",
    "request_status": "Pending",
    "responsible_agency": "Department of Sanitation",
    "final_address": "1212 Park Island Dr",
    "address_councildis": "D",
    "status": "Pending",
    "rowid": "1274614",
    "final_x": "3676675.90837",
    "final_y": "547780.398482",
    "longitude": "-90.08274269366879",
    "latitude": "30.000351774781066",
    "geocoded_column": {
      "latitude": "30.000351774781066",
      "longitude": "-90.08274269366879"
    }
  },
  {
    "service_request": "2026-1274613",
    "request_type": "Trash/Recycling",
    "request_reason": "Request a Large Item Pick Up",
    "date_created": "2026-04-17T15:50:01.000",
    "date_modified": "2026-04-17T15:50:03.000",
    "request_status": "Pending",
    "responsible_agency": "Department of Sanitation",
    "final_address": "1700 S Salcedo St",
    "address_councildis": "B",
    "status": "Assigned to Contractor",
    "contractor": "IV Waste",
    "rowid": "1274613",
    "final_x": "3670203.57754",
    "final_y": "530442.40429",
    "longitude": "-90.10377696521923",
    "latitude": "29.952870801367883",
    "geocoded_column": {
      "latitude": "29.952870801367883",
      "longitude": "-90.10377696521923"
    }
  },
  {
    "service_request": "2026-1274612",
    "request_type": "Trash/Recycling",
    "request_reason": "Replace Trash Cart",
    "date_created": "2026-04-17T15:46:15.000",
    "date_modified": "2026-04-17T15:46:17.000",
    "request_status": "Pending",
    "responsible_agency": "Department of Sanitation",
    "final_address": "5142 Desire Dr",
    "address_councildis": "D",
    "status": "Assigned to Contractor",
    "contractor": "IV Waste",
    "rowid": "1274612",
    "final_x": "3691386.69174",
    "final_y": "552765.998742",
    "longitude": "-90.0360923140736",
    "latitude": "30.01361066503764",
    "geocoded_column": {
      "latitude": "30.01361066503764",
      "longitude": "-90.0360923140736"
    }
  },
  {
    "service_request": "2026-1274611",
    "request_type": "Safety & Permits",
    "request_reason": "Zoning Enforcement",
    "date_created": "2026-04-17T15:43:03.000",
    "date_modified": "2026-04-17T15:43:04.000",
    "request_status": "Pending",
    "responsible_agency": "Safety and Permits",
    "final_address": "PRITCHARD PL & AUDUBON ST",
    "address_councildis": "B",
    "status": "Pending",
    "rowid": "1274611",
    "final_x": "3667714.3",
    "final_y": "531377.78",
    "longitude": "-90.11160553636421",
    "latitude": "29.95551599130505",
    "geocoded_column": {
      "latitude": "29.95551599130505",
      "longitude": "-90.11160553636421"
    }
  },
  {
    "service_request": "2026-1274610",
    "request_type": "Abandoned Vehicles",
    "request_reason": "Abandoned/Junk Vehicles",
    "date_created": "2026-04-17T15:38:10.000",
    "date_modified": "2026-04-17T15:38:12.000",
    "request_status": "Pending",
    "responsible_agency": "Department of Public Works",
    "final_address": "4303 Canal St",
    "address_councildis": "A",
    "status": "Pending",
    "rowid": "1274610",
    "final_x": "3670320.00737",
    "final_y": "539063.925578",
    "longitude": "-90.10311705470039",
    "latitude": "29.976573674255192",
    "geocoded_column": {
      "latitude": "29.976573674255192",
      "longitude": "-90.10311705470039"
    }
  },
  {
    "service_request": "2026-1274609",
    "request_type": "Drainage",
    "request_reason": "Drainage Manhole Cover Missing or Damaged",
    "date_created": "2026-04-17T15:35:46.000",
    "date_modified": "2026-04-17T15:43:38.000",
    "request_status": "Pending",
    "responsible_agency": "Sewerage & Water Board",
    "final_address": "1223 Royal St",
    "address_councildis": "C",
    "status": "Pending",
    "rowid": "1274609",
    "final_x": "3683746.34447",
    "final_y": "534069.877189",
    "longitude": "-90.06088777228473",
    "latitude": "29.962438576704958",
    "geocoded_column": {
      "latitude": "29.962438576704958",
      "longitude": "-90.06088777228473"
    }
  },
  {
    "service_request": "2026-1274608",
    "request_type": "Trash/Recycling",
    "request_reason": "Request a Large Item Pick Up",
    "date_created": "2026-04-17T15:29:39.000",
    "date_modified": "2026-04-17T15:29:40.000",
    "request_status": "Pending",
    "responsible_agency": "Department of Sanitation",
    "final_address": "1205 St Charles Ave",
    "address_councildis": "B",
    "status": "Assigned to Contractor",
    "contractor": "IV Waste",
    "rowid": "1274608",
    "final_x": "3679654.76706",
    "final_y": "526356.192382",
    "longitude": "-90.07407609579455",
    "latitude": "29.94135283774421",
    "geocoded_column": {
      "latitude": "29.94135283774421",
      "longitude": "-90.07407609579455"
    }
  },
  {
    "service_request": "2026-1274607",
    "request_type": "Trash/Recycling",
    "request_reason": "Request a Large Item Pick Up",
    "date_created": "2026-04-17T15:29:33.000",
    "date_modified": "2026-04-17T15:29:34.000",
    "request_status": "Pending",
    "responsible_agency": "Department of Sanitation",
    "final_address": "1748 N Rocheblave St",
    "address_councildis": "D",
    "status": "Assigned to Contractor",
    "contractor": "IV Waste",
    "rowid": "1274607",
    "final_x": "3680679.12674",
    "final_y": "540427.780363",
    "longitude": "-90.07035231176941",
    "latitude": "29.98001391995228",
    "geocoded_column": {
      "latitude": "29.98001391995228",
      "longitude": "-90.07035231176941"
    }
  },
  {
    "service_request": "2026-1274606",
    "request_type": "Trash/Recycling",
    "request_reason": "Request a Large Item Pick Up",
    "date_created": "2026-04-17T15:28:00.000",
    "date_modified": "2026-04-17T15:28:01.000",
    "request_status": "Pending",
    "responsible_agency": "Department of Sanitation",
    "final_address": "6271 Eastover Dr",
    "address_councildis": "E",
    "status": "Assigned to Contractor",
    "contractor": "Waste Pro",
    "rowid": "1274606",
    "final_x": "3717619.05484",
    "final_y": "564369.677537",
    "longitude": "-89.9527709857951",
    "latitude": "30.044673443488524",
    "geocoded_column": {
      "latitude": "30.044673443488524",
      "longitude": "-89.9527709857951"
    }
  },
  {
    "service_request": "2026-1274605",
    "request_type": "Traffic Signals",
    "request_reason": "Traffic Signal Malfunctioning or Damaged",
    "date_created": "2026-04-17T15:19:13.000",
    "date_modified": "2026-04-17T15:20:14.000",
    "request_status": "Pending",
    "responsible_agency": "Department of Public Works",
    "final_address": "S CARROLLTON AVE & ULLOA ST",
    "address_councildis": "A",
    "status": "Pending",
    "rowid": "1274605",
    "final_x": "3669560.4",
    "final_y": "536554.38",
    "longitude": "-90.10560105868353",
    "latitude": "29.969695670207965",
    "geocoded_column": {
      "latitude": "29.969695670207965",
      "longitude": "-90.10560105868353"
    }
  },
  {
    "service_request": "2026-1274604",
    "request_type": "Trash/Recycling",
    "request_reason": "Request a Large Item Pick Up",
    "date_created": "2026-04-17T15:18:54.000",
    "date_modified": "2026-04-17T15:18:57.000",
    "request_status": "Pending",
    "responsible_agency": "Department of Sanitation",
    "final_address": "4924 Marigny St",
    "address_councildis": "D",
    "status": "Assigned to Contractor",
    "contractor": "IV Waste",
    "rowid": "1274604",
    "final_x": "3684322.10095",
    "final_y": "550939.718101",
    "longitude": "-90.05847690922917",
    "latitude": "30.008807083408897",
    "geocoded_column": {
      "latitude": "30.008807083408897",
      "longitude": "-90.05847690922917"
    }
  },
  {
    "service_request": "2026-1274603",
    "request_type": "Drainage",
    "request_reason": "Catch Basin Not Draining",
    "date_created": "2026-04-17T15:13:45.000",
    "date_modified": "2026-04-17T15:13:46.000",
    "request_status": "Pending",
    "responsible_agency": "Sewerage & Water Board",
    "final_address": "2127 Robin St",
    "address_councildis": "D",
    "status": "Pending",
    "rowid": "1274603",
    "final_x": "3683210.62255",
    "final_y": "551851.534422",
    "longitude": "-90.06195646603909",
    "latitude": "30.011348203495608",
    "geocoded_column": {
      "latitude": "30.011348203495608",
      "longitude": "-90.06195646603909"
    }
  },
  {
    "service_request": "2026-1274602",
    "request_type": "Mosquito, Termite & Rodent Control",
    "request_reason": "Mosquito Complaint",
    "date_created": "2026-04-17T15:01:58.000",
    "date_modified": "2026-04-17T15:14:04.000",
    "request_status": "Pending",
    "responsible_agency": "Mosquito, Termite & Rodent Control Board",
    "final_address": "1775 N Tonti St",
    "address_councildis": "D",
    "status": "Pending",
    "rowid": "1274602",
    "final_x": "3681176.03765",
    "final_y": "540480.465803",
    "longitude": "-90.06878102497835",
    "latitude": "29.980143717053533",
    "geocoded_column": {
      "latitude": "29.980143717053533",
      "longitude": "-90.06878102497835"
    }
  },
  {
    "service_request": "2026-1274601",
    "request_type": "Property Maintenance",
    "request_reason": "Property Maintenance",
    "date_created": "2026-04-17T14:59:33.000",
    "date_modified": "2026-04-17T14:59:37.000",
    "request_status": "Pending",
    "responsible_agency": "Department of Code Enforcement",
    "final_address": "6143 Carlisle Ct",
    "address_councildis": "C",
    "status": "Pending",
    "rowid": "1274601",
    "final_x": "3706713.38231",
    "final_y": "516405.041269",
    "longitude": "-89.98901615983992",
    "latitude": "29.913145256534676",
    "geocoded_column": {
      "latitude": "29.913145256534676",
      "longitude": "-89.98901615983992"
    }
  },
  {
    "service_request": "2026-1274600",
    "request_type": "Trash/Recycling",
    "request_reason": "Repair Trash Cart",
    "date_created": "2026-04-17T14:58:24.000",
    "date_modified": "2026-04-17T14:58:25.000",
    "request_status": "Pending",
    "responsible_agency": "Department of Sanitation",
    "final_address": "5831 Durbridge Dr",
    "address_councildis": "C",
    "status": "Assigned to Contractor",
    "contractor": "Richards Disposal",
    "rowid": "1274600",
    "final_x": "3705173.79223",
    "final_y": "521397.252025",
    "longitude": "-89.99369131012801",
    "latitude": "29.926921683444114",
    "geocoded_column": {
      "latitude": "29.926921683444114",
      "longitude": "-89.99369131012801"
    }
  },
  {
    "service_request": "2026-1274599",
    "request_type": "Trash/Recycling",
    "request_reason": "Request a Large Item Pick Up",
    "date_created": "2026-04-17T14:58:17.000",
    "date_modified": "2026-04-17T14:58:19.000",
    "request_status": "Pending",
    "responsible_agency": "Department of Sanitation",
    "final_address": "700 Austerlitz St",
    "address_councildis": "B",
    "status": "Assigned to Contractor",
    "contractor": "IV Waste",
    "rowid": "1274599",
    "final_x": "3672898.22555",
    "final_y": "518260.229814",
    "longitude": "-90.09568392413718",
    "latitude": "29.919293994935824",
    "geocoded_column": {
      "latitude": "29.919293994935824",
      "longitude": "-90.09568392413718"
    }
  },
  {
    "service_request": "2026-1274598",
    "request_type": "Trash/Recycling",
    "request_reason": "Request a Large Item Pick Up",
    "date_created": "2026-04-17T14:57:21.000",
    "date_modified": "2026-04-17T14:57:22.000",
    "request_status": "Pending",
    "responsible_agency": "Department of Sanitation",
    "final_address": "1541 N Rocheblave St",
    "address_councildis": "D",
    "status": "Assigned to Contractor",
    "contractor": "IV Waste",
    "rowid": "1274598",
    "final_x": "3679663.54869",
    "final_y": "539195.932874",
    "longitude": "-90.07360270316711",
    "latitude": "29.976657506802617",
    "geocoded_column": {
      "latitude": "29.976657506802617",
      "longitude": "-90.07360270316711"
    }
  },
  {
    "service_request": "2026-1274597",
    "request_type": "Trash/Recycling",
    "request_reason": "Start Trash Service",
    "date_created": "2026-04-17T14:56:30.000",
    "date_modified": "2026-04-17T14:56:32.000",
    "request_status": "Pending",
    "responsible_agency": "Department of Sanitation",
    "final_address": "4125 St Bernard Ave",
    "address_councildis": "D",
    "status": "Assigned to Contractor",
    "contractor": "IV Waste",
    "rowid": "1274597",
    "final_x": "3677364.55662",
    "final_y": "547355.912529",
    "longitude": "-90.08058187237192",
    "latitude": "29.999163904040216",
    "geocoded_column": {
      "latitude": "29.999163904040216",
      "longitude": "-90.08058187237192"
    }
  },
  {
    "service_request": "2026-1274596",
    "request_type": "Trash/Recycling",
    "request_reason": "Start Trash Service",
    "date_created": "2026-04-17T14:54:53.000",
    "date_modified": "2026-04-17T14:54:56.000",
    "request_status": "Pending",
    "responsible_agency": "Department of Sanitation",
    "final_address": "4127 St Bernard Ave",
    "address_councildis": "D",
    "status": "Assigned to Contractor",
    "contractor": "IV Waste",
    "rowid": "1274596",
    "final_x": "3677362.63067",
    "final_y": "547364.404433",
    "longitude": "-90.0805876632046",
    "latitude": "29.99918731167479",
    "geocoded_column": {
      "latitude": "29.99918731167479",
      "longitude": "-90.0805876632046"
    }
  },
  {
    "service_request": "2026-1274595",
    "request_type": "Trash/Recycling",
    "request_reason": "Replace Recycling Cart",
    "date_created": "2026-04-17T14:54:34.000",
    "date_modified": "2026-04-17T14:54:36.000",
    "request_status": "Pending",
    "responsible_agency": "Department of Sanitation",
    "final_address": "626 Huntlee Dr",
    "address_councildis": "C",
    "status": "Pending",
    "rowid": "1274595",
    "final_x": "3701851.48093",
    "final_y": "520472.079608",
    "longitude": "-90.00421277278309",
    "latitude": "29.924484164254434",
    "geocoded_column": {
      "latitude": "29.924484164254434",
      "longitude": "-90.00421277278309"
    }
  },
  {
    "service_request": "2026-1274594",
    "request_type": "Trash/Recycling",
    "request_reason": "Replace Trash Cart",
    "date_created": "2026-04-17T14:52:11.000",
    "date_modified": "2026-04-17T14:52:14.000",
    "request_status": "Pending",
    "responsible_agency": "Department of Sanitation",
    "final_address": "3630 Toledano St",
    "address_councildis": "B",
    "status": "Assigned to Contractor",
    "contractor": "IV Waste",
    "rowid": "1274594",
    "final_x": "3671512.37364",
    "final_y": "528751.11936",
    "longitude": "-90.09970185251366",
    "latitude": "29.948181642428704",
    "geocoded_column": {
      "latitude": "29.948181642428704",
      "longitude": "-90.09970185251366"
    }
  },
  {
    "service_request": "2026-1274593",
    "request_type": "Trash/Recycling",
    "request_reason": "Repair Trash Cart",
    "date_created": "2026-04-17T14:49:13.000",
    "date_modified": "2026-04-17T14:49:14.000",
    "request_status": "Pending",
    "responsible_agency": "Department of Sanitation",
    "final_address": "6542 Virgilian St",
    "address_councildis": "D",
    "status": "Assigned to Contractor",
    "contractor": "Waste Pro",
    "rowid": "1274593",
    "final_x": "3697214.31504",
    "final_y": "555374.200153",
    "longitude": "-90.01758553408598",
    "latitude": "30.02059953569368",
    "geocoded_column": {
      "latitude": "30.02059953569368",
      "longitude": "-90.01758553408598"
    }
  },
  {
    "service_request": "2026-1274592",
    "request_type": "Trash/Recycling",
    "request_reason": "Replace Trash Cart",
    "date_created": "2026-04-17T14:48:34.000",
    "date_modified": "2026-04-17T14:48:37.000",
    "request_status": "Pending",
    "responsible_agency": "Department of Sanitation",
    "final_address": "1923 Elysian Fields Ave A",
    "address_councildis": "D",
    "status": "Assigned to Contractor",
    "contractor": "IV Waste",
    "rowid": "1274592",
    "final_x": "3684891.31503",
    "final_y": "539457.925578",
    "longitude": "-90.0570826107016",
    "latitude": "29.977218826343012",
    "geocoded_column": {
      "latitude": "29.977218826343012",
      "longitude": "-90.0570826107016"
    }
  },
  {
    "service_request": "2026-1274591",
    "request_type": "Trash/Recycling",
    "request_reason": "Request a Large Item Pick Up",
    "date_created": "2026-04-17T14:38:50.000",
    "date_modified": "2026-04-17T14:38:51.000",
    "request_status": "Pending",
    "responsible_agency": "Department of Sanitation",
    "final_address": "6143 Carlisle Ct",
    "address_councildis": "C",
    "status": "Assigned to Contractor",
    "contractor": "Richards Disposal",
    "rowid": "1274591",
    "final_x": "3706713.38231",
    "final_y": "516405.041269",
    "longitude": "-89.98901615983992",
    "latitude": "29.913145256534676",
    "geocoded_column": {
      "latitude": "29.913145256534676",
      "longitude": "-89.98901615983992"
    }
  },
  {
    "service_request": "2026-1274590",
    "request_type": "Trash/Recycling",
    "request_reason": "Return Trash Cart",
    "date_created": "2026-04-17T14:37:33.000",
    "date_modified": "2026-04-17T14:37:35.000",
    "request_status": "Pending",
    "responsible_agency": "Department of Sanitation",
    "final_address": "2131 S Liberty St",
    "address_councildis": "B",
    "status": "Assigned to Contractor",
    "contractor": "IV Waste",
    "rowid": "1274590",
    "final_x": "3676078.14625",
    "final_y": "525892.279933",
    "longitude": "-90.08538413856623",
    "latitude": "29.940184826119726",
    "geocoded_column": {
      "latitude": "29.940184826119726",
      "longitude": "-90.08538413856623"
    }
  },
  {
    "service_request": "2026-1274589",
    "request_type": "Property Maintenance",
    "request_reason": "Property Maintenance",
    "date_created": "2026-04-17T14:33:22.000",
    "date_modified": "2026-04-17T14:33:24.000",
    "request_status": "Pending",
    "responsible_agency": "Department of Code Enforcement",
    "final_address": "6143 Carlisle Ct",
    "address_councildis": "C",
    "status": "Pending",
    "rowid": "1274589",
    "final_x": "3706713.38231",
    "final_y": "516405.041269",
    "longitude": "-89.98901615983992",
    "latitude": "29.913145256534676",
    "geocoded_column": {
      "latitude": "29.913145256534676",
      "longitude": "-89.98901615983992"
    }
  },
  {
    "service_request": "2026-1274588",
    "request_type": "Trash/Recycling",
    "request_reason": "Repair Trash Cart",
    "date_created": "2026-04-17T14:31:58.000",
    "date_modified": "2026-04-17T14:32:01.000",
    "request_status": "Pending",
    "responsible_agency": "Department of Sanitation",
    "final_address": "3017 Bell St",
    "address_councildis": "A",
    "status": "Assigned to Contractor",
    "contractor": "IV Waste",
    "rowid": "1274588",
    "final_x": "3676476.35944",
    "final_y": "539351.374986",
    "longitude": "-90.0836634877542",
    "latitude": "29.97718088160687",
    "geocoded_column": {
      "latitude": "29.97718088160687",
      "longitude": "-90.0836634877542"
    }
  },
  {
    "service_request": "2026-1274587",
    "request_type": "Trash/Recycling",
    "request_reason": "Repair Trash Cart",
    "date_created": "2026-04-17T14:28:15.000",
    "date_modified": "2026-04-17T14:33:41.000",
    "request_status": "Pending",
    "responsible_agency": "Department of Sanitation",
    "final_address": "3011 Bell St",
    "address_councildis": "A",
    "status": "Assigned to Contractor",
    "contractor": "IV Waste",
    "rowid": "1274587",
    "final_x": "3676534.69032",
    "final_y": "539339.384714",
    "longitude": "-90.08347967272707",
    "latitude": "29.977146163114117",
    "geocoded_column": {
      "latitude": "29.977146163114117",
      "longitude": "-90.08347967272707"
    }
  },
  {
    "service_request": "2026-1274586",
    "request_type": "Trash/Recycling",
    "request_reason": "Repair Trash Cart",
    "date_created": "2026-04-17T14:24:47.000",
    "date_modified": "2026-04-17T14:24:49.000",
    "request_status": "Pending",
    "responsible_agency": "Department of Sanitation",
    "final_address": "836 St Mary St",
    "address_councildis": "B",
    "status": "Assigned to Contractor",
    "contractor": "IV Waste",
    "rowid": "1274586",
    "final_x": "3680292.52885",
    "final_y": "522122.719738",
    "longitude": "-90.0722096660123",
    "latitude": "29.929692899998365",
    "geocoded_column": {
      "latitude": "29.929692899998365",
      "longitude": "-90.0722096660123"
    }
  },
  {
    "service_request": "2026-1274585",
    "request_type": "Trash/Recycling",
    "request_reason": "Replace Trash Cart",
    "date_created": "2026-04-17T14:24:36.000",
    "date_modified": "2026-04-17T14:24:37.000",
    "request_status": "Pending",
    "responsible_agency": "Department of Sanitation",
    "final_address": "8541 Huntington Park Dr",
    "address_councildis": "E",
    "status": "Assigned to Contractor",
    "contractor": "Waste Pro",
    "rowid": "1274585",
    "final_x": "3705266.68945",
    "final_y": "560242.518429",
    "longitude": "-89.99196257164061",
    "latitude": "30.033728816549615",
    "geocoded_column": {
      "latitude": "30.033728816549615",
      "longitude": "-89.99196257164061"
    }
  },
  {
    "service_request": "2026-1274584",
    "request_type": "Abandoned Vehicles",
    "request_reason": "Abandoned/Junk Vehicles",
    "date_created": "2026-04-17T14:20:57.000",
    "date_modified": "2026-04-17T15:27:46.000",
    "request_status": "Pending",
    "responsible_agency": "Department of Public Works",
    "final_address": "2900 BLK Serantine St",
    "address_councildis": "D",
    "status": "Inspected",
    "rowid": "1274584",
    "final_x": "3679435.31531",
    "final_y": "542696.665707",
    "longitude": "-90.07420203919612",
    "latitude": "29.986290202650586",
    "geocoded_column": {
      "latitude": "29.986290202650586",
      "longitude": "-90.07420203919612"
    }
  },
  {
    "service_request": "2026-1274583",
    "request_type": "Abandoned Vehicles",
    "request_reason": "Abandoned/Junk Vehicles",
    "date_created": "2026-04-17T14:19:42.000",
    "date_modified": "2026-04-17T14:24:59.000",
    "request_status": "Pending",
    "responsible_agency": "Department of Public Works",
    "final_address": "1714 Paul Morphy St",
    "address_councildis": "D",
    "status": "Inspected",
    "rowid": "1274583",
    "final_x": "3679345.67407",
    "final_y": "541060.045196",
    "longitude": "-90.07454197162137",
    "latitude": "29.981792774933133",
    "geocoded_column": {
      "latitude": "29.981792774933133",
      "longitude": "-90.07454197162137"
    }
  },
  {
    "service_request": "2026-1274582",
    "request_type": "Trash/Recycling",
    "request_reason": "Return Trash Cart",
    "date_created": "2026-04-17T14:03:49.000",
    "date_modified": "2026-04-17T14:03:50.000",
    "request_status": "Pending",
    "responsible_agency": "Department of Sanitation",
    "final_address": "4748 Dodt Ave",
    "address_councildis": "E",
    "status": "Assigned to Contractor",
    "contractor": "Waste Pro",
    "rowid": "1274582",
    "final_x": "3705379.79569",
    "final_y": "555425.652377",
    "longitude": "-89.991783362656",
    "latitude": "30.020480668908835",
    "geocoded_column": {
      "latitude": "30.020480668908835",
      "longitude": "-89.991783362656"
    }
  },
  {
    "service_request": "2026-1274581",
    "request_type": "Mosquito, Termite & Rodent Control",
    "request_reason": "Rodent Complaint (Mice & Rats)",
    "date_created": "2026-04-17T14:03:04.000",
    "date_modified": "2026-04-17T14:03:05.000",
    "request_status": "Pending",
    "responsible_agency": "Mosquito, Termite & Rodent Control Board",
    "final_address": "612 Seventh St",
    "address_councildis": "B",
    "status": "Pending",
    "rowid": "1274581",
    "final_x": "3677278.33992",
    "final_y": "518945.003831",
    "longitude": "-90.08183449963803",
    "latitude": "29.92104608698331",
    "geocoded_column": {
      "latitude": "29.92104608698331",
      "longitude": "-90.08183449963803"
    }
  },
  {
    "service_request": "2026-1274580",
    "request_type": "Traffic Signals",
    "request_reason": "Traffic Signal Malfunctioning or Damaged",
    "date_created": "2026-04-17T14:01:48.000",
    "date_modified": "2026-04-17T14:01:51.000",
    "request_status": "Pending",
    "responsible_agency": "Department of Public Works",
    "final_address": "S PETERS ST & POYDRAS ST",
    "address_councildis": "B",
    "status": "Pending",
    "rowid": "1274580",
    "final_x": "3682208.9",
    "final_y": "529032.88",
    "longitude": "-90.065918739428",
    "latitude": "29.948635401408637",
    "geocoded_column": {
      "latitude": "29.948635401408637",
      "longitude": "-90.065918739428"
    }
  },
  {
    "service_request": "2026-1274579",
    "request_type": "Health Related Request",
    "request_reason": "Noise Ordinance Complaint",
    "date_created": "2026-04-17T14:01:27.000",
    "date_modified": "2026-04-17T14:01:29.000",
    "request_status": "Pending",
    "responsible_agency": "Health Department",
    "final_address": "5701 Durbridge Dr",
    "address_councildis": "C",
    "status": "Pending",
    "rowid": "1274579",
    "final_x": "3704748.35262",
    "final_y": "521637.949113",
    "longitude": "-89.99502542555685",
    "latitude": "29.927597186408732",
    "geocoded_column": {
      "latitude": "29.927597186408732",
      "longitude": "-89.99502542555685"
    }
  },
  {
    "service_request": "2026-1274578",
    "request_type": "Property Maintenance",
    "request_reason": "Property Maintenance",
    "date_created": "2026-04-17T14:00:48.000",
    "date_modified": "2026-04-17T14:00:50.000",
    "request_status": "Pending",
    "responsible_agency": "Department of Code Enforcement",
    "final_address": "3628 Paris Ave",
    "address_councildis": "D",
    "status": "Pending",
    "rowid": "1274578",
    "final_x": "3679501.53103",
    "final_y": "545699.113168",
    "longitude": "-90.07388865105825",
    "latitude": "29.99454387749467",
    "geocoded_column": {
      "latitude": "29.99454387749467",
      "longitude": "-90.07388865105825"
    }
  },
  {
    "service_request": "2026-1274577",
    "request_type": "Trash/Recycling",
    "request_reason": "Request a Large Item Pick Up",
    "date_created": "2026-04-17T13:59:03.000",
    "date_modified": "2026-04-17T14:29:51.000",
    "request_status": "Pending",
    "responsible_agency": "Department of Sanitation",
    "final_address": "3218 Bienville Ave",
    "address_councildis": "B",
    "status": "Assigned to Contractor",
    "contractor": "IV Waste",
    "rowid": "1274577",
    "final_x": "3674175.63713",
    "final_y": "536906.62836",
    "longitude": "-90.09101364477009",
    "latitude": "29.97052745385892",
    "geocoded_column": {
      "latitude": "29.97052745385892",
      "longitude": "-90.09101364477009"
    }
  },
  {
    "service_request": "2026-1274576",
    "request_type": "Trash/Recycling",
    "request_reason": "Repair Trash Cart",
    "date_created": "2026-04-17T13:59:00.000",
    "date_modified": "2026-04-17T13:59:01.000",
    "request_status": "Pending",
    "responsible_agency": "Department of Sanitation",
    "final_address": "2068 N Miro St",
    "address_councildis": "D",
    "status": "Assigned to Contractor",
    "contractor": "IV Waste",
    "rowid": "1274576",
    "final_x": "3683771.41973",
    "final_y": "540245.431883",
    "longitude": "-90.06059197521121",
    "latitude": "29.97941844342821",
    "geocoded_column": {
      "latitude": "29.97941844342821",
      "longitude": "-90.06059197521121"
    }
  },
  {
    "service_request": "2026-1274575",
    "request_type": "Property Maintenance",
    "request_reason": "Property Maintenance",
    "date_created": "2026-04-17T13:58:19.000",
    "date_modified": "2026-04-17T13:58:21.000",
    "request_status": "Pending",
    "responsible_agency": "Department of Code Enforcement",
    "final_address": "612 Seventh St",
    "address_councildis": "B",
    "status": "Pending",
    "rowid": "1274575",
    "final_x": "3677278.33992",
    "final_y": "518945.003831",
    "longitude": "-90.08183449963803",
    "latitude": "29.92104608698331",
    "geocoded_column": {
      "latitude": "29.92104608698331",
      "longitude": "-90.08183449963803"
    }
  },
  {
    "service_request": "2026-1274574",
    "request_type": "Mosquito, Termite & Rodent Control",
    "request_reason": "Non-Rodent Complaint (Possums & Snakes)",
    "date_created": "2026-04-17T13:56:18.000",
    "date_modified": "2026-04-17T13:56:20.000",
    "request_status": "Pending",
    "responsible_agency": "Mosquito, Termite & Rodent Control Board",
    "final_address": "2455 Deslonde St",
    "address_councildis": "E",
    "status": "Pending",
    "rowid": "1274574",
    "final_x": "3696913.4536",
    "final_y": "539581.764106",
    "longitude": "-90.01910848247033",
    "latitude": "29.97718567133247",
    "geocoded_column": {
      "latitude": "29.97718567133247",
      "longitude": "-90.01910848247033"
    }
  },
  {
    "service_request": "2026-1274573",
    "request_type": "Street and Traffic Signs",
    "request_reason": "Stop Sign Missing or Damaged",
    "date_created": "2026-04-17T13:56:10.000",
    "date_modified": "2026-04-17T13:56:11.000",
    "request_status": "Pending",
    "responsible_agency": "Department of Public Works",
    "final_address": "ZENITH ST & LUCERNE ST",
    "address_councildis": "E",
    "status": "Pending",
    "rowid": "1274573",
    "final_x": "3711009.8",
    "final_y": "565709.98",
    "longitude": "-89.97360882266658",
    "latitude": "30.048576034157524",
    "geocoded_column": {
      "latitude": "30.048576034157524",
      "longitude": "-89.97360882266658"
    }
  },
  {
    "service_request": "2026-1274572",
    "request_type": "Mosquito, Termite & Rodent Control",
    "request_reason": "Rodent Complaint (Mice & Rats)",
    "date_created": "2026-04-17T13:55:56.000",
    "date_modified": "2026-04-17T13:59:27.000",
    "request_status": "Pending",
    "responsible_agency": "Mosquito, Termite & Rodent Control Board",
    "final_address": "2215 St Philip St",
    "address_councildis": "C",
    "status": "Pending",
    "rowid": "1274572",
    "final_x": "3678961.79547",
    "final_y": "536700.477319",
    "longitude": "-90.07590554681443",
    "latitude": "29.96981705723779",
    "geocoded_column": {
      "latitude": "29.96981705723779",
      "longitude": "-90.07590554681443"
    }
  },
  {
    "service_request": "2026-1274571",
    "request_type": "Abandoned Vehicles",
    "request_reason": "Abandoned/Junk Vehicles",
    "date_created": "2026-04-17T13:55:11.000",
    "date_modified": "2026-04-17T13:55:13.000",
    "request_status": "Pending",
    "responsible_agency": "Department of Public Works",
    "final_address": "612 Seventh St",
    "address_councildis": "B",
    "status": "Pending",
    "rowid": "1274571",
    "final_x": "3677278.33992",
    "final_y": "518945.003831",
    "longitude": "-90.08183449963803",
    "latitude": "29.92104608698331",
    "geocoded_column": {
      "latitude": "29.92104608698331",
      "longitude": "-90.08183449963803"
    }
  },
  {
    "service_request": "2026-1274570",
    "request_type": "Trash/Recycling",
    "request_reason": "Return Trash Cart",
    "date_created": "2026-04-17T13:55:07.000",
    "date_modified": "2026-04-17T13:55:10.000",
    "request_status": "Pending",
    "responsible_agency": "Department of Sanitation",
    "final_address": "47 Fontainebleau Dr",
    "address_councildis": "A",
    "status": "Assigned to Contractor",
    "contractor": "IV Waste",
    "rowid": "1274570",
    "final_x": "3666323.91956",
    "final_y": "531359.166594",
    "longitude": "-90.11599649926748",
    "latitude": "29.955505500067996",
    "geocoded_column": {
      "latitude": "29.955505500067996",
      "longitude": "-90.11599649926748"
    }
  },
  {
    "service_request": "2026-1274569",
    "request_type": "Streetlights",
    "request_reason": "Streetlight Outage/Malfunction",
    "date_created": "2026-04-17T13:50:37.000",
    "date_modified": "2026-04-17T13:52:42.000",
    "request_status": "Pending",
    "responsible_agency": "Department of Public Works",
    "final_address": "4027 Delgado Dr",
    "address_councildis": "A",
    "status": "Pending",
    "rowid": "1274569",
    "final_x": "3673830.0546",
    "final_y": "540953.462283",
    "longitude": "-90.09196657760572",
    "latitude": "29.98166516588389",
    "geocoded_column": {
      "latitude": "29.98166516588389",
      "longitude": "-90.09196657760572"
    }
  },
  {
    "service_request": "2026-1274568",
    "request_type": "Trash/Recycling",
    "request_reason": "Repair Trash Cart",
    "date_created": "2026-04-17T13:45:11.000",
    "date_modified": "2026-04-17T14:31:14.000",
    "request_status": "Pending",
    "responsible_agency": "Department of Sanitation",
    "final_address": "4329 Baudin St",
    "address_councildis": "A",
    "status": "Assigned to Contractor",
    "contractor": "IV Waste",
    "rowid": "1274568",
    "final_x": "3669128.93281",
    "final_y": "537859.337673",
    "longitude": "-90.10691956498127",
    "latitude": "29.973296571203473",
    "geocoded_column": {
      "latitude": "29.973296571203473",
      "longitude": "-90.10691956498127"
    }
  },
  {
    "service_request": "2026-1274567",
    "request_type": "Traffic Signals",
    "request_reason": "Traffic Signal Malfunctioning or Damaged",
    "date_created": "2026-04-17T13:41:42.000",
    "date_modified": "2026-04-17T13:41:44.000",
    "request_status": "Pending",
    "responsible_agency": "Department of Public Works",
    "final_address": "AIRLINE HWY & MONROE ST & AIRLINE EXIT",
    "address_councildis": "A",
    "status": "Pending",
    "rowid": "1274567",
    "final_x": "3667048.8",
    "final_y": "537015.68",
    "longitude": "-90.1135174356129",
    "latitude": "29.971037848695328",
    "geocoded_column": {
      "latitude": "29.971037848695328",
      "longitude": "-90.1135174356129"
    }
  },
  {
    "service_request": "2026-1274566",
    "request_type": "Trash/Recycling",
    "request_reason": "Request a Large Item Pick Up",
    "date_created": "2026-04-17T13:41:16.000",
    "date_modified": "2026-04-17T13:41:18.000",
    "request_status": "Pending",
    "responsible_agency": "Department of Sanitation",
    "final_address": "9330 Old Gentilly Rd",
    "address_councildis": "E",
    "status": "Assigned to Contractor",
    "contractor": "Waste Pro",
    "rowid": "1274566",
    "final_x": "3710301.46859",
    "final_y": "552666.228438",
    "longitude": "-89.97633577387583",
    "latitude": "30.012733966626847",
    "geocoded_column": {
      "latitude": "30.012733966626847",
      "longitude": "-89.97633577387583"
    }
  },
  {
    "service_request": "2026-1274565",
    "request_type": "Trash/Recycling",
    "request_reason": "Order Recycling Cart",
    "date_created": "2026-04-17T13:39:30.000",
    "date_modified": "2026-04-17T13:39:31.000",
    "request_status": "Pending",
    "responsible_agency": "Department of Sanitation",
    "final_address": "2902 Ursulines Ave",
    "address_councildis": "A",
    "status": "Pending",
    "rowid": "1274565",
    "final_x": "3676778.16296",
    "final_y": "538728.773065",
    "longitude": "-90.0827317547044",
    "latitude": "29.97545988609756",
    "geocoded_column": {
      "latitude": "29.97545988609756",
      "longitude": "-90.0827317547044"
    }
  },
  {
    "service_request": "2026-1274564",
    "request_type": "Abandoned Vehicles",
    "request_reason": "Abandoned/Junk Vehicles",
    "date_created": "2026-04-17T13:37:27.000",
    "date_modified": "2026-04-17T13:40:35.000",
    "request_status": "Pending",
    "responsible_agency": "Department of Public Works",
    "final_address": "3138 De Soto St",
    "address_councildis": "A",
    "status": "Inspected",
    "rowid": "1274564",
    "final_x": "3676079.28347",
    "final_y": "539883.654538",
    "longitude": "-90.08489926804575",
    "latitude": "29.9786563691904",
    "geocoded_column": {
      "latitude": "29.9786563691904",
      "longitude": "-90.08489926804575"
    }
  },
  {
    "service_request": "2026-1274563",
    "request_type": "Property Maintenance",
    "request_reason": "Property Maintenance",
    "date_created": "2026-04-17T13:35:00.000",
    "date_modified": "2026-04-17T13:37:18.000",
    "request_status": "Pending",
    "responsible_agency": "Department of Code Enforcement",
    "final_address": "1300 BLK Forstall St",
    "address_councildis": "E",
    "status": "Pending",
    "rowid": "1274563",
    "final_x": "3696503.61253",
    "final_y": "535114.458102",
    "longitude": "-90.02056453381283",
    "latitude": "29.964915097741308",
    "geocoded_column": {
      "latitude": "29.964915097741308",
      "longitude": "-90.02056453381283"
    }
  },
  {
    "service_request": "2026-1274562",
    "request_type": "Abandoned Vehicles",
    "request_reason": "Abandoned/Junk Vehicles",
    "date_created": "2026-04-17T13:34:02.000",
    "date_modified": "2026-04-17T13:34:03.000",
    "request_status": "Pending",
    "responsible_agency": "Department of Public Works",
    "final_address": "2308 Third St",
    "address_councildis": "B",
    "status": "Pending",
    "rowid": "1274562",
    "final_x": "3674982.28558",
    "final_y": "525009.310525",
    "longitude": "-90.08887422152522",
    "latitude": "29.937789721634402",
    "geocoded_column": {
      "latitude": "29.937789721634402",
      "longitude": "-90.08887422152522"
    }
  },
  {
    "service_request": "2026-1274561",
    "request_type": "Property Maintenance",
    "request_reason": "Property Maintenance",
    "date_created": "2026-04-17T13:33:26.000",
    "date_modified": "2026-04-17T13:33:28.000",
    "request_status": "Pending",
    "responsible_agency": "Department of Code Enforcement",
    "final_address": "817 Adams St",
    "address_councildis": "A",
    "status": "Pending",
    "rowid": "1274561",
    "final_x": "3662241.82759",
    "final_y": "526432.56883",
    "longitude": "-90.12904984097422",
    "latitude": "29.94207755306097",
    "geocoded_column": {
      "latitude": "29.94207755306097",
      "longitude": "-90.12904984097422"
    }
  },
  {
    "service_request": "2026-1274560",
    "request_type": "Trash/Recycling",
    "request_reason": "Illegal Dumping",
    "date_created": "2026-04-17T13:31:19.000",
    "date_modified": "2026-04-17T13:31:21.000",
    "request_status": "Pending",
    "responsible_agency": "Department of Sanitation",
    "final_address": "1504 Mandolin St",
    "address_councildis": "D",
    "status": "Pending",
    "rowid": "1274560",
    "final_x": "3678870.4653",
    "final_y": "547975.552402",
    "longitude": "-90.07580319034014",
    "latitude": "30.00082233732221",
    "geocoded_column": {
      "latitude": "30.00082233732221",
      "longitude": "-90.07580319034014"
    }
  },
  {
    "service_request": "2026-1274559",
    "request_type": "Business Issues",
    "request_reason": "Illegal Business",
    "date_created": "2026-04-17T13:29:56.000",
    "date_modified": "2026-04-17T14:03:53.000",
    "case_close_date": "2026-04-17T09:03:53.000",
    "request_status": "Closed",
    "responsible_agency": "Bureau of Revenue",
    "final_address": "4941 Pecan St",
    "address_councildis": "E",
    "status": "Resolved",
    "rowid": "1274559",
    "final_x": "3701761.84733",
    "final_y": "555395.102681",
    "longitude": "-90.00321602505336",
    "latitude": "30.020512644093255",
    "geocoded_column": {
      "latitude": "30.020512644093255",
      "longitude": "-90.00321602505336"
    }
  },
  {
    "service_request": "2026-1274558",
    "request_type": "Business Issues",
    "request_reason": "Illegal Business",
    "date_created": "2026-04-17T13:28:24.000",
    "date_modified": "2026-04-17T14:02:28.000",
    "case_close_date": "2026-04-17T09:02:28.000",
    "request_status": "Closed",
    "responsible_agency": "Department of Code Enforcement",
    "final_address": "4941 Pecan St",
    "address_councildis": "E",
    "status": "Resolved",
    "rowid": "1274558",
    "final_x": "3701761.84733",
    "final_y": "555395.102681",
    "longitude": "-90.00321602505336",
    "latitude": "30.020512644093255",
    "geocoded_column": {
      "latitude": "30.020512644093255",
      "longitude": "-90.00321602505336"
    }
  },
  {
    "service_request": "2026-1274557",
    "request_type": "Property Maintenance",
    "request_reason": "Property Maintenance",
    "date_created": "2026-04-17T13:24:22.000",
    "date_modified": "2026-04-17T13:26:51.000",
    "request_status": "Pending",
    "responsible_agency": "Department of Code Enforcement",
    "final_address": "3628 Paris Ave",
    "address_councildis": "D",
    "status": "Pending",
    "rowid": "1274557",
    "final_x": "3679501.53103",
    "final_y": "545699.113168",
    "longitude": "-90.07388865105825",
    "latitude": "29.99454387749467",
    "geocoded_column": {
      "latitude": "29.99454387749467",
      "longitude": "-90.07388865105825"
    }
  },
  {
    "service_request": "2026-1274556",
    "request_type": "Trash/Recycling",
    "request_reason": "Repair Trash Cart",
    "date_created": "2026-04-17T13:20:22.000",
    "date_modified": "2026-04-17T13:25:32.000",
    "request_status": "Pending",
    "responsible_agency": "Department of Sanitation",
    "final_address": "3720 Rue Delphine",
    "address_councildis": "C",
    "status": "Assigned to Contractor",
    "contractor": "Richards Disposal",
    "rowid": "1274556",
    "final_x": "3703073.75953",
    "final_y": "516808.502197",
    "longitude": "-90.00048900481926",
    "latitude": "29.914371546882617",
    "geocoded_column": {
      "latitude": "29.914371546882617",
      "longitude": "-90.00048900481926"
    }
  },
  {
    "service_request": "2026-1274555",
    "request_type": "Property Maintenance",
    "request_reason": "Property Maintenance",
    "date_created": "2026-04-17T13:17:18.000",
    "date_modified": "2026-04-17T13:17:20.000",
    "request_status": "Pending",
    "responsible_agency": "Department of Code Enforcement",
    "final_address": "1537 Louisa St",
    "address_councildis": "D",
    "status": "Pending",
    "rowid": "1274555",
    "final_x": "3690037.8719",
    "final_y": "537643.565576",
    "longitude": "-90.04089278782799",
    "latitude": "29.972071356276718",
    "geocoded_column": {
      "latitude": "29.972071356276718",
      "longitude": "-90.04089278782799"
    }
  },
  {
    "service_request": "2026-1274554",
    "request_type": "Streetlights",
    "request_reason": "Streetlight Outage/Malfunction",
    "date_created": "2026-04-17T13:12:42.000",
    "date_modified": "2026-04-17T13:12:44.000",
    "request_status": "Pending",
    "responsible_agency": "Department of Public Works",
    "final_address": "CHERRY ST & BELFAST ST",
    "address_councildis": "A",
    "status": "Pending",
    "rowid": "1274554",
    "final_x": "3662468.3",
    "final_y": "535211.38",
    "longitude": "-90.12804326862556",
    "latitude": "29.966209901091485",
    "geocoded_column": {
      "latitude": "29.966209901091485",
      "longitude": "-90.12804326862556"
    }
  },
  {
    "service_request": "2026-1274553",
    "request_type": "Property Maintenance",
    "request_reason": "Property Maintenance",
    "date_created": "2026-04-17T13:06:20.000",
    "date_modified": "2026-04-17T13:06:22.000",
    "request_status": "Pending",
    "responsible_agency": "Department of Code Enforcement",
    "final_address": "2234 Reynes St",
    "address_councildis": "E",
    "status": "Pending",
    "rowid": "1274553",
    "final_x": "3697169.53872",
    "final_y": "538680.684105",
    "longitude": "-90.01833234698192",
    "latitude": "29.974699947451157",
    "geocoded_column": {
      "latitude": "29.974699947451157",
      "longitude": "-90.01833234698192"
    }
  },
  {
    "service_request": "2026-1274552",
    "request_type": "Trash/Recycling",
    "request_reason": "Order Trash Cart",
    "date_created": "2026-04-17T13:04:54.000",
    "date_modified": "2026-04-17T13:04:56.000",
    "request_status": "Pending",
    "responsible_agency": "Department of Sanitation",
    "final_address": "1662 State St",
    "address_councildis": "A",
    "status": "Assigned to Contractor",
    "contractor": "IV Waste",
    "rowid": "1274552",
    "final_x": "3665910.96052",
    "final_y": "523230.624891",
    "longitude": "-90.1175728131946",
    "latitude": "29.933166685542844",
    "geocoded_column": {
      "latitude": "29.933166685542844",
      "longitude": "-90.1175728131946"
    }
  },
  {
    "service_request": "2026-1274551",
    "request_type": "Streetlights",
    "request_reason": "Streetlight Outage/Malfunction",
    "date_created": "2026-04-17T13:03:07.000",
    "date_modified": "2026-04-17T13:04:03.000",
    "request_status": "Pending",
    "responsible_agency": "Department of Public Works",
    "final_address": "8351 Aberdeen Rd",
    "address_councildis": "E",
    "status": "Pending",
    "rowid": "1274551",
    "final_x": "3703414.72177",
    "final_y": "561722.543327",
    "longitude": "-89.99776044754279",
    "latitude": "30.037857787285766",
    "geocoded_column": {
      "latitude": "30.037857787285766",
      "longitude": "-89.99776044754279"
    }
  },
  {
    "service_request": "2026-1274550",
    "request_type": "Trash/Recycling",
    "request_reason": "Request a Large Item Pick Up",
    "date_created": "2026-04-17T13:01:49.000",
    "date_modified": "2026-04-17T13:01:50.000",
    "request_status": "Pending",
    "responsible_agency": "Department of Sanitation",
    "final_address": "7832 Berg Rd",
    "address_councildis": "E",
    "status": "Assigned to Contractor",
    "contractor": "Waste Pro",
    "rowid": "1274550",
    "final_x": "3711430.44722",
    "final_y": "567442.437796",
    "longitude": "-89.97221430063018",
    "latitude": "30.05332585869509",
    "geocoded_column": {
      "latitude": "30.05332585869509",
      "longitude": "-89.97221430063018"
    }
  },
  {
    "service_request": "2026-1274549",
    "request_type": "Trash/Recycling",
    "request_reason": "Request a Large Item Pick Up",
    "date_created": "2026-04-17T13:00:29.000",
    "date_modified": "2026-04-17T13:00:32.000",
    "request_status": "Pending",
    "responsible_agency": "Department of Sanitation",
    "final_address": "4119 Clara St",
    "address_councildis": "B",
    "status": "Assigned to Contractor",
    "contractor": "IV Waste",
    "rowid": "1274549",
    "final_x": "3671437.27707",
    "final_y": "525286.055741",
    "longitude": "-90.10005671842734",
    "latitude": "29.938656070698716",
    "geocoded_column": {
      "latitude": "29.938656070698716",
      "longitude": "-90.10005671842734"
    }
  },
  {
    "service_request": "2026-1274548",
    "request_type": "Trash/Recycling",
    "request_reason": "Request a Large Item Pick Up",
    "date_created": "2026-04-17T12:57:27.000",
    "date_modified": "2026-04-17T12:57:29.000",
    "request_status": "Pending",
    "responsible_agency": "Department of Sanitation",
    "final_address": "2235 S Carrollton Ave",
    "address_councildis": "A",
    "status": "Assigned to Contractor",
    "contractor": "IV Waste",
    "rowid": "1274548",
    "final_x": "3664661.26752",
    "final_y": "531089.695042",
    "longitude": "-90.12125557972438",
    "latitude": "29.954813006177318",
    "geocoded_column": {
      "latitude": "29.954813006177318",
      "longitude": "-90.12125557972438"
    }
  },
  {
    "service_request": "2026-1274547",
    "request_type": "Trash/Recycling",
    "request_reason": "Illegal Dumping",
    "date_created": "2026-04-17T12:42:23.000",
    "date_modified": "2026-04-17T12:42:25.000",
    "request_status": "Pending",
    "responsible_agency": "Department of Sanitation",
    "final_address": "5413 N Galvez St",
    "address_councildis": "E",
    "status": "Pending",
    "rowid": "1274547",
    "final_x": "3698350.19523",
    "final_y": "537710.510024",
    "longitude": "-90.01463882608932",
    "latitude": "29.971995009032653",
    "geocoded_column": {
      "latitude": "29.971995009032653",
      "longitude": "-90.01463882608932"
    }
  },
  {
    "service_request": "2026-1274546",
    "request_type": "Roads and Streets",
    "request_reason": "Pothole",
    "date_created": "2026-04-17T12:40:14.000",
    "date_modified": "2026-04-17T12:40:17.000",
    "request_status": "Pending",
    "responsible_agency": "Department of Public Works",
    "final_address": "1035 Lamanche St",
    "address_councildis": "E",
    "status": "Pending",
    "rowid": "1274546",
    "final_x": "3698358.31453",
    "final_y": "533508.521284",
    "longitude": "-90.01476589387907",
    "latitude": "29.960440785905803",
    "geocoded_column": {
      "latitude": "29.960440785905803",
      "longitude": "-90.01476589387907"
    }
  },
  {
    "service_request": "2026-1274545",
    "request_type": "Abandoned Vehicles",
    "request_reason": "Abandoned/Junk Vehicles",
    "date_created": "2026-04-17T12:39:51.000",
    "date_modified": "2026-04-17T12:39:53.000",
    "request_status": "Pending",
    "responsible_agency": "Department of Public Works",
    "final_address": "2036 Delachaise St",
    "address_councildis": "B",
    "status": "Pending",
    "rowid": "1274545",
    "final_x": "3673111.95835",
    "final_y": "522966.763771",
    "longitude": "-90.0948487032543",
    "latitude": "29.93222910237178",
    "geocoded_column": {
      "latitude": "29.93222910237178",
      "longitude": "-90.0948487032543"
    }
  },
  {
    "service_request": "2026-1274544",
    "request_type": "Health Related Request",
    "request_reason": "Noise Ordinance Complaint",
    "date_created": "2026-04-17T12:37:53.000",
    "date_modified": "2026-04-17T12:37:55.000",
    "request_status": "Pending",
    "responsible_agency": "Health Department",
    "final_address": "233 Decatur St",
    "address_councildis": "C",
    "status": "Pending",
    "rowid": "1274544",
    "final_x": "3682188.17468",
    "final_y": "530779.769218",
    "longitude": "-90.06592316937477",
    "latitude": "29.95343938670711",
    "geocoded_column": {
      "latitude": "29.95343938670711",
      "longitude": "-90.06592316937477"
    }
  },
  {
    "service_request": "2026-1274543",
    "request_type": "Trash/Recycling",
    "request_reason": "Request a Large Item Pick Up",
    "date_created": "2026-04-17T12:37:43.000",
    "date_modified": "2026-04-17T12:37:44.000",
    "request_status": "Pending",
    "responsible_agency": "Department of Sanitation",
    "final_address": "4642 Pecan St",
    "address_councildis": "E",
    "status": "Assigned to Contractor",
    "contractor": "Waste Pro",
    "rowid": "1274543",
    "final_x": "3701797.9041",
    "final_y": "553740.807767",
    "longitude": "-90.00316277666032",
    "latitude": "30.015962814464665",
    "geocoded_column": {
      "latitude": "30.015962814464665",
      "longitude": "-90.00316277666032"
    }
  },
  {
    "service_request": "2026-1274542",
    "request_type": "Streetlights",
    "request_reason": "Streetlight Outage/Malfunction",
    "date_created": "2026-04-17T12:36:13.000",
    "date_modified": "2026-04-17T12:36:14.000",
    "request_status": "Pending",
    "responsible_agency": "Department of Public Works",
    "final_address": "2528 Clover St",
    "address_councildis": "D",
    "status": "Pending",
    "rowid": "1274542",
    "final_x": "3686616.5869",
    "final_y": "546554.131281",
    "longitude": "-90.05138290602025",
    "latitude": "29.99667791583359",
    "geocoded_column": {
      "latitude": "29.99667791583359",
      "longitude": "-90.05138290602025"
    }
  },
  {
    "service_request": "2026-1274541",
    "request_type": "Health Related Request",
    "request_reason": "Noise Ordinance Complaint",
    "date_created": "2026-04-17T12:36:10.000",
    "date_modified": "2026-04-17T12:36:11.000",
    "request_status": "Pending",
    "responsible_agency": "Health Department",
    "final_address": "309 Decatur St",
    "address_councildis": "C",
    "status": "Pending",
    "rowid": "1274541",
    "final_x": "3682303.87119",
    "final_y": "530935.66509",
    "longitude": "-90.06555240294671",
    "latitude": "29.953864528206758",
    "geocoded_column": {
      "latitude": "29.953864528206758",
      "longitude": "-90.06555240294671"
    }
  },
  {
    "service_request": "2026-1274540",
    "request_type": "Property Maintenance",
    "request_reason": "Property Maintenance",
    "date_created": "2026-04-17T12:34:36.000",
    "date_modified": "2026-04-17T12:34:38.000",
    "request_status": "Pending",
    "responsible_agency": "Department of Code Enforcement",
    "final_address": "200 Decatur St",
    "address_councildis": "C",
    "status": "Pending",
    "rowid": "1274540",
    "final_x": "3682117.50172",
    "final_y": "530549.22893",
    "longitude": "-90.06615437467656",
    "latitude": "29.952807628250106",
    "geocoded_column": {
      "latitude": "29.952807628250106",
      "longitude": "-90.06615437467656"
    }
  },
  {
    "service_request": "2026-1274539",
    "request_type": "Graffiti Removal",
    "request_reason": "Graffiti Removal",
    "date_created": "2026-04-17T12:33:03.000",
    "date_modified": "2026-04-17T12:33:05.000",
    "request_status": "Pending",
    "responsible_agency": "Department of Code Enforcement",
    "final_address": "200 Decatur St",
    "address_councildis": "C",
    "status": "Pending",
    "rowid": "1274539",
    "final_x": "3682117.50172",
    "final_y": "530549.22893",
    "longitude": "-90.06615437467656",
    "latitude": "29.952807628250106",
    "geocoded_column": {
      "latitude": "29.952807628250106",
      "longitude": "-90.06615437467656"
    }
  },
  {
    "service_request": "2026-1274538",
    "request_type": "Property Maintenance",
    "request_reason": "Property Maintenance",
    "date_created": "2026-04-17T12:32:11.000",
    "date_modified": "2026-04-17T12:32:13.000",
    "request_status": "Pending",
    "responsible_agency": "Department of Code Enforcement",
    "final_address": "237 Decatur St",
    "address_councildis": "C",
    "status": "Pending",
    "rowid": "1274538",
    "final_x": "3682205.84687",
    "final_y": "530795.958978",
    "longitude": "-90.06586680269743",
    "latitude": "29.953483365567994",
    "geocoded_column": {
      "latitude": "29.953483365567994",
      "longitude": "-90.06586680269743"
    }
  },
  {
    "service_request": "2026-1274537",
    "request_type": "Trash/Recycling",
    "request_reason": "Order Second Trash Cart",
    "date_created": "2026-04-17T12:28:25.000",
    "date_modified": "2026-04-17T12:28:27.000",
    "request_status": "Pending",
    "responsible_agency": "Department of Sanitation",
    "final_address": "433 Huntlee Dr",
    "address_councildis": "C",
    "status": "Assigned to Contractor",
    "contractor": "Richards Disposal",
    "rowid": "1274537",
    "final_x": "3701804.71306",
    "final_y": "521914.131322",
    "longitude": "-90.00430760405457",
    "latitude": "29.928450799488612",
    "geocoded_column": {
      "latitude": "29.928450799488612",
      "longitude": "-90.00430760405457"
    }
  },
  {
    "service_request": "2026-1274536",
    "request_type": "Health Related Request",
    "request_reason": "Noise Ordinance Complaint",
    "date_created": "2026-04-17T12:24:32.000",
    "date_modified": "2026-04-17T12:24:34.000",
    "request_status": "Pending",
    "responsible_agency": "Health Department",
    "final_address": "3318 N Prieur St, New Orleans, Louisiana, 70117",
    "address_councildis": "D",
    "status": "Pending",
    "rowid": "1274536",
    "final_x": "3690713.69769",
    "final_y": "538651.558089",
    "longitude": "-90.03872245918468",
    "latitude": "29.974822001280035",
    "geocoded_column": {
      "latitude": "29.974822001280035",
      "longitude": "-90.03872245918468"
    }
  },
  {
    "service_request": "2026-1274535",
    "request_type": "Safety & Permits",
    "request_reason": "Licenses & Permits",
    "date_created": "2026-04-17T12:23:34.000",
    "date_modified": "2026-04-17T13:57:52.000",
    "case_close_date": "2026-04-17T08:57:51.000",
    "request_status": "Closed",
    "responsible_agency": "Safety and Permits",
    "final_address": "233 Decatur St",
    "address_councildis": "C",
    "status": "Resolved",
    "rowid": "1274535",
    "final_x": "3682188.17468",
    "final_y": "530779.769218",
    "longitude": "-90.06592316937477",
    "latitude": "29.95343938670711",
    "geocoded_column": {
      "latitude": "29.95343938670711",
      "longitude": "-90.06592316937477"
    }
  },
  {
    "service_request": "2026-1274534",
    "request_type": "Streetlights",
    "request_reason": "Streetlight Outage/Malfunction",
    "date_created": "2026-04-17T12:23:06.000",
    "date_modified": "2026-04-17T12:23:07.000",
    "request_status": "Pending",
    "responsible_agency": "Department of Public Works",
    "final_address": "5526 Pasteur Blvd",
    "address_councildis": "D",
    "status": "Pending",
    "rowid": "1274534",
    "final_x": "3682818.98376",
    "final_y": "553300.917399",
    "longitude": "-90.06314305007625",
    "latitude": "30.01534542207465",
    "geocoded_column": {
      "latitude": "30.01534542207465",
      "longitude": "-90.06314305007625"
    }
  },
  {
    "service_request": "2026-1274533",
    "request_type": "Trash/Recycling",
    "request_reason": "Illegal Dumping",
    "date_created": "2026-04-17T12:22:44.000",
    "date_modified": "2026-04-17T12:22:46.000",
    "request_status": "Pending",
    "responsible_agency": "Department of Sanitation",
    "final_address": "1840 Gordon St",
    "address_councildis": "E",
    "status": "Pending",
    "rowid": "1274533",
    "final_x": "3700248.31888",
    "final_y": "536259.412871",
    "longitude": "-90.00869726200702",
    "latitude": "29.967944813763026",
    "geocoded_column": {
      "latitude": "29.967944813763026",
      "longitude": "-90.00869726200702"
    }
  },
  {
    "service_request": "2026-1274532",
    "request_type": "Trash/Recycling",
    "request_reason": "Order Recycling Cart",
    "date_created": "2026-04-17T12:18:34.000",
    "date_modified": "2026-04-17T12:50:09.000",
    "case_close_date": "2026-04-17T07:50:08.000",
    "request_status": "Closed",
    "responsible_agency": "Department of Sanitation",
    "final_address": "470 Pine St",
    "address_councildis": "A",
    "status": "Duplicate Request",
    "rowid": "1274532",
    "final_x": "3662249.6704",
    "final_y": "524321.347644",
    "longitude": "-90.12909513243731",
    "latitude": "29.93627213787553",
    "geocoded_column": {
      "latitude": "29.93627213787553",
      "longitude": "-90.12909513243731"
    }
  },
  {
    "service_request": "2026-1274531",
    "request_type": "Trash/Recycling",
    "request_reason": "Illegal Dumping",
    "date_created": "2026-04-17T12:17:25.000",
    "date_modified": "2026-04-17T12:17:26.000",
    "request_status": "Pending",
    "responsible_agency": "Department of Sanitation",
    "final_address": "5920 Florida Ave",
    "address_councildis": "E",
    "status": "Pending",
    "rowid": "1274531",
    "final_x": "3700959.24849",
    "final_y": "539331.943818",
    "longitude": "-90.00633976579756",
    "latitude": "29.976370543292887",
    "geocoded_column": {
      "latitude": "29.976370543292887",
      "longitude": "-90.00633976579756"
    }
  },
  {
    "service_request": "2026-1274530",
    "request_type": "Abandoned Vehicles",
    "request_reason": "Abandoned/Junk Vehicles",
    "date_created": "2026-04-17T12:16:49.000",
    "date_modified": "2026-04-17T12:17:21.000",
    "request_status": "Pending",
    "responsible_agency": "Department of Public Works",
    "final_address": "846 Howard Ave",
    "address_councildis": "B",
    "status": "Pending",
    "rowid": "1274530",
    "final_x": "3679453.33045",
    "final_y": "527486.561855",
    "longitude": "-90.0746728681028",
    "latitude": "29.94446706335573",
    "geocoded_column": {
      "latitude": "29.94446706335573",
      "longitude": "-90.0746728681028"
    }
  },
  {
    "service_request": "2026-1274529",
    "request_type": "Trash/Recycling",
    "request_reason": "Illegal Dumping",
    "date_created": "2026-04-17T12:14:10.000",
    "date_modified": "2026-04-17T12:14:12.000",
    "request_status": "Pending",
    "responsible_agency": "Department of Sanitation",
    "final_address": "2210 Tupelo St",
    "address_councildis": "E",
    "status": "Pending",
    "rowid": "1274529",
    "final_x": "3701028.82756",
    "final_y": "537372.6962",
    "longitude": "-90.00619168526433",
    "latitude": "29.970981107591008",
    "geocoded_column": {
      "latitude": "29.970981107591008",
      "longitude": "-90.00619168526433"
    }
  },
  {
    "service_request": "2026-1274528",
    "request_type": "Trash/Recycling",
    "request_reason": "Illegal Dumping",
    "date_created": "2026-04-17T12:14:03.000",
    "date_modified": "2026-04-17T12:14:05.000",
    "request_status": "Pending",
    "responsible_agency": "Department of Sanitation",
    "final_address": "2210 Tupelo St",
    "address_councildis": "E",
    "status": "Pending",
    "rowid": "1274528",
    "final_x": "3701028.82756",
    "final_y": "537372.6962",
    "longitude": "-90.00619168526433",
    "latitude": "29.970981107591008",
    "geocoded_column": {
      "latitude": "29.970981107591008",
      "longitude": "-90.00619168526433"
    }
  },
  {
    "service_request": "2026-1274527",
    "request_type": "Trash/Recycling",
    "request_reason": "Repair Recycling Cart",
    "date_created": "2026-04-17T12:11:35.000",
    "date_modified": "2026-04-17T12:11:37.000",
    "request_status": "Pending",
    "responsible_agency": "Department of Sanitation",
    "final_address": "2009 Gallier St",
    "address_councildis": "D",
    "status": "Pending",
    "rowid": "1274527",
    "final_x": "3691370.46064",
    "final_y": "539083.606666",
    "longitude": "-90.03663280268186",
    "latitude": "29.97598956169182",
    "geocoded_column": {
      "latitude": "29.97598956169182",
      "longitude": "-90.03663280268186"
    }
  },
  {
    "service_request": "2026-1274526",
    "request_type": "Trash/Recycling",
    "request_reason": "Dead Animal Pick Up",
    "date_created": "2026-04-17T12:07:11.000",
    "date_modified": "2026-04-17T14:53:38.000",
    "case_close_date": "2026-04-17T09:53:36.000",
    "request_status": "Closed",
    "responsible_agency": "Department of Sanitation",
    "final_address": "2620 Orleans Ave",
    "address_councildis": "C",
    "status": "Pending",
    "contractor": "IV Waste",
    "contractor_action": "Completed",
    "rowid": "1274526",
    "final_x": "3677024.10939",
    "final_y": "536754.110535",
    "longitude": "-90.08202309421185",
    "latitude": "29.970022856385725",
    "geocoded_column": {
      "latitude": "29.970022856385725",
      "longitude": "-90.08202309421185"
    }
  },
  {
    "service_request": "2026-1274525",
    "request_type": "Trash/Recycling",
    "request_reason": "Request a Large Item Pick Up",
    "date_created": "2026-04-17T12:03:28.000",
    "date_modified": "2026-04-17T12:03:31.000",
    "request_status": "Pending",
    "responsible_agency": "Department of Sanitation",
    "final_address": "2577 Eton St",
    "address_councildis": "C",
    "status": "Assigned to Contractor",
    "contractor": "Richards Disposal",
    "rowid": "1274525",
    "final_x": "3703896.48298",
    "final_y": "521565.014137",
    "longitude": "-89.99771723435111",
    "latitude": "29.92742397115508",
    "geocoded_column": {
      "latitude": "29.92742397115508",
      "longitude": "-89.99771723435111"
    }
  },
  {
    "service_request": "2026-1274524",
    "request_type": "Property Maintenance",
    "request_reason": "Property Maintenance",
    "date_created": "2026-04-17T12:02:40.000",
    "date_modified": "2026-04-17T12:02:42.000",
    "request_status": "Pending",
    "responsible_agency": "Department of Code Enforcement",
    "final_address": "2520 Governor Nicholls St",
    "address_councildis": "C",
    "status": "Pending",
    "rowid": "1274524",
    "final_x": "3678467.2139",
    "final_y": "537875.033289",
    "longitude": "-90.07742682513296",
    "latitude": "29.973061597942852",
    "geocoded_column": {
      "latitude": "29.973061597942852",
      "longitude": "-90.07742682513296"
    }
  },
  {
    "service_request": "2026-1274523",
    "request_type": "Roads and Streets",
    "request_reason": "Abandoned Service Cut",
    "date_created": "2026-04-17T11:56:35.000",
    "date_modified": "2026-04-17T11:56:37.000",
    "request_status": "Pending",
    "responsible_agency": "Department of Public Works",
    "final_address": "12520 N Lake Carmel Dr",
    "address_councildis": "E",
    "status": "Pending",
    "rowid": "1274523",
    "final_x": "3715717.08274",
    "final_y": "567826.407844",
    "longitude": "-89.9586509638633",
    "latitude": "30.054240911531537",
    "geocoded_column": {
      "latitude": "30.054240911531537",
      "longitude": "-89.9586509638633"
    }
  },
  {
    "service_request": "2026-1274522",
    "request_type": "Trash/Recycling",
    "request_reason": "Request a Large Item Pick Up",
    "date_created": "2026-04-17T11:55:45.000",
    "date_modified": "2026-04-17T11:55:54.000",
    "request_status": "Pending",
    "responsible_agency": "Department of Sanitation",
    "final_address": "7818 Star St",
    "address_councildis": "E",
    "status": "Assigned to Contractor",
    "contractor": "Waste Pro",
    "rowid": "1274522",
    "final_x": "3720624.15545",
    "final_y": "574449.507307",
    "longitude": "-89.94288702528745",
    "latitude": "30.072288870462703",
    "geocoded_column": {
      "latitude": "30.072288870462703",
      "longitude": "-89.94288702528745"
    }
  },
  {
    "service_request": "2026-1274521",
    "request_type": "Trash/Recycling",
    "request_reason": "Request a Large Item Pick Up",
    "date_created": "2026-04-17T11:43:26.000",
    "date_modified": "2026-04-17T12:02:31.000",
    "request_status": "Pending",
    "responsible_agency": "Department of Sanitation",
    "final_address": "201 S Gayoso St",
    "address_councildis": "B",
    "status": "Assigned to Contractor",
    "contractor": "IV Waste",
    "rowid": "1274521",
    "final_x": "3674008.52878",
    "final_y": "535506.597702",
    "longitude": "-90.09158930832939",
    "latitude": "29.96668282345407",
    "geocoded_column": {
      "latitude": "29.96668282345407",
      "longitude": "-90.09158930832939"
    }
  },
  {
    "service_request": "2026-1274520",
    "request_type": "Trash/Recycling",
    "request_reason": "Repair Trash Cart",
    "date_created": "2026-04-17T11:43:23.000",
    "date_modified": "2026-04-17T11:43:24.000",
    "request_status": "Pending",
    "responsible_agency": "Department of Sanitation",
    "final_address": "2517 S Rocheblave St",
    "address_councildis": "B",
    "status": "Assigned to Contractor",
    "contractor": "IV Waste",
    "rowid": "1274520",
    "final_x": "3672303.71073",
    "final_y": "529425.043969",
    "longitude": "-90.0971803172018",
    "latitude": "29.950011263372026",
    "geocoded_column": {
      "latitude": "29.950011263372026",
      "longitude": "-90.0971803172018"
    }
  },
  {
    "service_request": "2026-1274519",
    "request_type": "Safety & Permits",
    "request_reason": "Licenses & Permits",
    "date_created": "2026-04-17T11:38:19.000",
    "date_modified": "2026-04-17T11:38:20.000",
    "request_status": "Pending",
    "responsible_agency": "Safety and Permits",
    "final_address": "4618 S Saratoga St",
    "address_councildis": "B",
    "status": "Pending",
    "rowid": "1274519",
    "final_x": "3669739.8043",
    "final_y": "522466.45017",
    "longitude": "-90.105511224129",
    "latitude": "29.930953189725493",
    "geocoded_column": {
      "latitude": "29.930953189725493",
      "longitude": "-90.105511224129"
    }
  },
  {
    "service_request": "2026-1274518",
    "request_type": "Abandoned Vehicles",
    "request_reason": "Abandoned/Junk Vehicles",
    "date_created": "2026-04-17T11:36:29.000",
    "date_modified": "2026-04-17T11:39:21.000",
    "request_status": "Pending",
    "responsible_agency": "Department of Public Works",
    "final_address": "2ND ST & S GALVEZ ST",
    "address_councildis": "B",
    "status": "Pending",
    "rowid": "1274518",
    "final_x": "3673014.0",
    "final_y": "528622.98",
    "longitude": "-90.09496496847001",
    "latitude": "29.94778476271393",
    "geocoded_column": {
      "latitude": "29.94778476271393",
      "longitude": "-90.09496496847001"
    }
  },
  {
    "service_request": "2026-1274517",
    "request_type": "Trash/Recycling",
    "request_reason": "Request a Large Item Pick Up",
    "date_created": "2026-04-17T11:35:10.000",
    "date_modified": "2026-04-17T11:35:12.000",
    "request_status": "Pending",
    "responsible_agency": "Department of Sanitation",
    "final_address": "12910 Chanelle Ct",
    "address_councildis": "E",
    "status": "Assigned to Contractor",
    "contractor": "Waste Pro",
    "rowid": "1274517",
    "final_x": "3716891.61119",
    "final_y": "567581.044196",
    "longitude": "-89.9549479262822",
    "latitude": "30.053527465480617",
    "geocoded_column": {
      "latitude": "30.053527465480617",
      "longitude": "-89.9549479262822"
    }
  },
  {
    "service_request": "2026-1274516",
    "request_type": "Trash/Recycling",
    "request_reason": "Replace Recycling Cart",
    "date_created": "2026-04-17T11:33:47.000",
    "date_modified": "2026-04-17T11:33:49.000",
    "request_status": "Pending",
    "responsible_agency": "Department of Sanitation",
    "final_address": "928 Mazant St",
    "address_councildis": "C",
    "status": "Pending",
    "rowid": "1274516",
    "final_x": "3691933.87101",
    "final_y": "534676.007686",
    "longitude": "-90.03501112616924",
    "latitude": "29.963852679300714",
    "geocoded_column": {
      "latitude": "29.963852679300714",
      "longitude": "-90.03501112616924"
    }
  },
  {
    "service_request": "2026-1274515",
    "request_type": "Trash/Recycling",
    "request_reason": "Repair Recycling Cart",
    "date_created": "2026-04-17T11:33:06.000",
    "date_modified": "2026-04-17T11:33:08.000",
    "request_status": "Pending",
    "responsible_agency": "Department of Sanitation",
    "final_address": "904 Louisiana Ave",
    "address_councildis": "B",
    "status": "Pending",
    "rowid": "1274515",
    "final_x": "3675240.56347",
    "final_y": "518973.926583",
    "longitude": "-90.08826585906664",
    "latitude": "29.921186656997694",
    "geocoded_column": {
      "latitude": "29.921186656997694",
      "longitude": "-90.08826585906664"
    }
  },
  {
    "service_request": "2026-1274514",
    "request_type": "Roads and Streets",
    "request_reason": "Pothole",
    "date_created": "2026-04-17T11:31:13.000",
    "date_modified": "2026-04-17T11:31:15.000",
    "request_status": "Pending",
    "responsible_agency": "Department of Public Works",
    "final_address": "2407 Tennessee St",
    "address_councildis": "E",
    "status": "Pending",
    "rowid": "1274514",
    "final_x": "3697112.14032",
    "final_y": "539270.70177",
    "longitude": "-90.01849224178872",
    "latitude": "29.976324094607264",
    "geocoded_column": {
      "latitude": "29.976324094607264",
      "longitude": "-90.01849224178872"
    }
  },
  {
    "service_request": "2026-1274513",
    "request_type": "Mosquito, Termite & Rodent Control",
    "request_reason": "Mosquito Complaint",
    "date_created": "2026-04-17T11:29:36.000",
    "date_modified": "2026-04-17T11:29:38.000",
    "request_status": "Pending",
    "responsible_agency": "Mosquito, Termite & Rodent Control Board",
    "final_address": "2407 Tennessee St",
    "address_councildis": "E",
    "status": "Pending",
    "rowid": "1274513",
    "final_x": "3697112.14032",
    "final_y": "539270.70177",
    "longitude": "-90.01849224178872",
    "latitude": "29.976324094607264",
    "geocoded_column": {
      "latitude": "29.976324094607264",
      "longitude": "-90.01849224178872"
    }
  },
  {
    "service_request": "2026-1274512",
    "request_type": "Trash/Recycling",
    "request_reason": "Request a Large Item Pick Up",
    "date_created": "2026-04-17T11:25:11.000",
    "date_modified": "2026-04-17T11:25:14.000",
    "request_status": "Pending",
    "responsible_agency": "Department of Sanitation",
    "final_address": "7927 Green St",
    "address_councildis": "A",
    "status": "Assigned to Contractor",
    "contractor": "IV Waste",
    "rowid": "1274512",
    "final_x": "3663576.8704",
    "final_y": "529329.894465",
    "longitude": "-90.12473831897978",
    "latitude": "29.950005619843875",
    "geocoded_column": {
      "latitude": "29.950005619843875",
      "longitude": "-90.12473831897978"
    }
  },
  {
    "service_request": "2026-1274511",
    "request_type": "Trash/Recycling",
    "request_reason": "Replace Trash Cart",
    "date_created": "2026-04-17T11:22:07.000",
    "date_modified": "2026-04-17T15:22:43.000",
    "request_status": "Pending",
    "responsible_agency": "Department of Sanitation",
    "final_address": "928 Mazant St",
    "address_councildis": "C",
    "status": "Assigned to Contractor",
    "contractor": "IV Waste",
    "rowid": "1274511",
    "final_x": "3691933.87101",
    "final_y": "534676.007686",
    "longitude": "-90.03501112616924",
    "latitude": "29.963852679300714",
    "geocoded_column": {
      "latitude": "29.963852679300714",
      "longitude": "-90.03501112616924"
    }
  },