[
  {
    "service_request": "2023-1036353",
    "request_type": "Roads/Drainage",
    "request_reason": "Pothole",
    "date_created": "2023-09-19T01:44:25.000",
    "date_modified": "2023-09-19T01:44:25.000",
    "request_status": "Pending",
    "responsible_agency": "Department of Public Works",
    "final_address": "1509 Valmont St",
    "address_councildis": "B",
    "status": "Pending",
    "rowid": "1036353",
    "final_x": "3667781.74388",
    "final_y": "520516.710776",
    "longitude": "-90.11175819366206",
    "latitude": "29.9256495730252",
    "geocoded_column": {
      "latitude": "29.9256495730252",
      "longitude": "-90.11175819366206"
    }
  },
  {
    "service_request": "2023-1036352",
    "request_type": "Roads/Drainage",
    "request_reason": "Pothole",
    "date_created": "2023-09-19T01:25:43.000",
    "date_modified": "2023-09-19T01:25:43.000",
    "request_status": "Pending",
    "responsible_agency": "Department of Public Works",
    "final_address": "4814 Dryades St",
    "address_councildis": "B",
    "status": "Pending",
    "rowid": "1036352",
    "final_x": "3669238.80628",
    "final_y": "521747.273466",
    "longitude": "-90.1071171072219",
    "latitude": "29.928990435479623",
    "geocoded_column": {
      "latitude": "29.928990435479623",
      "longitude": "-90.1071171072219"
    }
  },
  {
    "service_request": "2023-1036351",
    "request_type": "Roads/Drainage",
    "request_reason": "Pothole",
    "date_created": "2023-09-19T01:14:16.000",
    "date_modified": "2023-09-19T01:14:16.000",
    "request_status": "Pending",
    "responsible_agency": "Department of Public Works",
    "final_address": "1660 Robert St",
    "address_councildis": "B",
    "status": "Pending",
    "rowid": "1036351",
    "final_x": "3668683.23905",
    "final_y": "521388.005817",
    "longitude": "-90.1088830476268",
    "latitude": "29.928018900042137",
    "geocoded_column": {
      "latitude": "29.928018900042137",
      "longitude": "-90.1088830476268"
    }
  },
  {
    "service_request": "2023-1036350",
    "request_type": "Property Maintenance",
    "request_reason": "Property Maintenance",
    "date_created": "2023-09-18T23:47:57.000",
    "date_modified": "2023-09-18T23:47:57.000",
    "request_status": "Pending",
    "responsible_agency": "Department of Code Enforcement",
    "final_address": "4023 N Robertson St",
    "address_councildis": "D",
    "status": "Pending",
    "rowid": "1036350",
    "final_x": "3692362.20816",
    "final_y": "536834.253192",
    "longitude": "-90.03358117391474",
    "latitude": "29.96977374118976",
    "geocoded_column": {
      "latitude": "29.96977374118976",
      "longitude": "-90.03358117391474"
    }
  },
  {
    "service_request": "2023-1036349",
    "request_type": "Traffic Signals/Signs/Striping/Streetlights",
    "request_reason": "Street Light Outage/Malfunction",
    "date_created": "2023-09-18T22:52:28.000",
    "date_modified": "2023-09-18T22:52:29.000",
    "request_status": "Pending",
    "responsible_agency": "Department of Public Works",
    "final_address": "725 General Taylor St",
    "address_councildis": "B",
    "status": "Assigned to Contractor",
    "contractor": "Legacy Professional Services",
    "rowid": "1036349",
    "final_x": "3673276.32635",
    "final_y": "518478.40799",
    "longitude": "-90.09448300298435",
    "latitude": "29.919882680331078",
    "geocoded_column": {
      "latitude": "29.919882680331078",
      "longitude": "-90.09448300298435"
    }
  },
  {
    "service_request": "2023-1036348",
    "request_type": "Roads/Drainage",
    "request_reason": "Catch Basin - Clogged",
    "date_created": "2023-09-18T22:40:00.000",
    "date_modified": "2023-09-18T22:40:00.000",
    "request_status": "Pending",
    "responsible_agency": "Department of Public Works",
    "final_address": "2625 Saint Philip St, New Orleans, Louisiana, 70119",
    "status": "Pending",
    "rowid": "1036348",
    "longitude": "0.0",
    "latitude": "0.0",
    "geocoded_column": {
      "latitude": "0.0",
      "longitude": "0.0"
    }
  },
  {
    "service_request": "2023-1036347",
    "request_type": "Trash/Recycling",
    "request_reason": "MIssed Recycling Pick-Up",
    "date_created": "2023-09-18T22:02:00.000",
    "date_modified": "2023-09-18T22:02:01.000",
    "request_status": "Pending",
    "responsible_agency": "Department of Sanitation",
    "final_address": "6303 Fontainebleau Dr",
    "address_councildis": "B",
    "status": "Assigned to Contractor",
    "contractor": "Richards Disposal",
    "rowid": "1036347",
    "final_x": "3667952.26727",
    "final_y": "530080.978945",
    "longitude": "-90.11089780434226",
    "latitude": "29.95194323399175",
    "geocoded_column": {
      "latitude": "29.95194323399175",
      "longitude": "-90.11089780434226"
    }
  },
  {
    "service_request": "2023-1036346",
    "request_type": "Trash/Recycling",
    "request_reason": "Repair Recycling Cart",
    "date_created": "2023-09-18T21:12:39.000",
    "date_modified": "2023-09-18T21:12:39.000",
    "request_status": "Pending",
    "responsible_agency": "Department of Sanitation",
    "final_address": "4122 Magazine St A",
    "address_councildis": "B",
    "status": "Pending",
    "rowid": "1036346",
    "final_x": "3671969.39969",
    "final_y": "518825.067127",
    "longitude": "-90.09859655225502",
    "latitude": "29.920874671214964",
    "geocoded_column": {
      "latitude": "29.920874671214964",
      "longitude": "-90.09859655225502"
    }
  },
  {
    "service_request": "2023-1036345",
    "request_type": "Abandoned Vehicles",
    "request_reason": "Abandoned/Junk Vehicles",
    "date_created": "2023-09-18T20:59:43.000",
    "date_modified": "2023-09-18T20:59:43.000",
    "request_status": "Pending",
    "responsible_agency": "Department of Public Works",
    "final_address": "1238 St Roch Ave",
    "address_councildis": "C",
    "status": "Pending",
    "rowid": "1036345",
    "final_x": "3686354.94454",
    "final_y": "537092.957192",
    "longitude": "-90.05254348985332",
    "latitude": "29.97067108567722",
    "geocoded_column": {
      "latitude": "29.97067108567722",
      "longitude": "-90.05254348985332"
    }
  },
  {
    "service_request": "2023-1036344",
    "request_type": "Abandoned Vehicles",
    "request_reason": "Abandoned/Junk Vehicles",
    "date_created": "2023-09-18T20:57:37.000",
    "date_modified": "2023-09-18T20:57:37.000",
    "request_status": "Pending",
    "responsible_agency": "Department of Public Works",
    "final_address": "1708 St Roch Ave",
    "address_councildis": "D",
    "status": "Pending",
    "rowid": "1036344",
    "final_x": "3686234.071",
    "final_y": "538712.577353",
    "longitude": "-90.05286806312215",
    "latitude": "29.975128188953043",
    "geocoded_column": {
      "latitude": "29.975128188953043",
      "longitude": "-90.05286806312215"
    }
  },
  {
    "service_request": "2023-1036343",
    "request_type": "Abandoned Vehicles",
    "request_reason": "Abandoned/Junk Vehicles",
    "date_created": "2023-09-18T20:55:40.000",
    "date_modified": "2023-09-18T20:55:40.000",
    "request_status": "Pending",
    "responsible_agency": "Department of Public Works",
    "final_address": "2515 N Galvez St",
    "address_councildis": "D",
    "status": "Pending",
    "rowid": "1036343",
    "final_x": "3687065.79945",
    "final_y": "540205.674763",
    "longitude": "-90.05018844723845",
    "latitude": "29.979208098038146",
    "geocoded_column": {
      "latitude": "29.979208098038146",
      "longitude": "-90.05018844723845"
    }
  },
  {
    "service_request": "2023-1036342",
    "request_type": "Abandoned Vehicles",
    "request_reason": "Abandoned/Junk Vehicles",
    "date_created": "2023-09-18T20:53:10.000",
    "date_modified": "2023-09-18T20:53:10.000",
    "request_status": "Pending",
    "responsible_agency": "Department of Public Works",
    "final_address": "2335 St Roch Ave",
    "address_councildis": "D",
    "status": "Pending",
    "rowid": "1036342",
    "final_x": "3686190.62524",
    "final_y": "541127.909708",
    "longitude": "-90.0529200344699",
    "latitude": "29.98177083749868",
    "geocoded_column": {
      "latitude": "29.98177083749868",
      "longitude": "-90.0529200344699"
    }
  },
  {
    "service_request": "2023-1036341",
    "request_type": "Abandoned Vehicles",
    "request_reason": "Abandoned/Junk Vehicles",
    "date_created": "2023-09-18T20:50:36.000",
    "date_modified": "2023-09-18T20:50:36.000",
    "request_status": "Pending",
    "responsible_agency": "Department of Public Works",
    "final_address": "1509 Dumaine St",
    "address_councildis": "C",
    "status": "Pending",
    "rowid": "1036341",
    "final_x": "3680698.17243",
    "final_y": "534853.836166",
    "longitude": "-90.07048618295018",
    "latitude": "29.96468691916799",
    "geocoded_column": {
      "latitude": "29.96468691916799",
      "longitude": "-90.07048618295018"
    }
  },
  {
    "service_request": "2023-1036340",
    "request_type": "Abandoned Vehicles",
    "request_reason": "Abandoned/Junk Vehicles",
    "date_created": "2023-09-18T20:50:26.000",
    "date_modified": "2023-09-18T20:50:26.000",
    "request_status": "Pending",
    "responsible_agency": "Department of Public Works",
    "final_address": "2118 Music St",
    "address_councildis": "D",
    "status": "Pending",
    "rowid": "1036340",
    "final_x": "3686499.49858",
    "final_y": "540304.924299",
    "longitude": "-90.05197353703865",
    "latitude": "29.979498424292423",
    "geocoded_column": {
      "latitude": "29.979498424292423",
      "longitude": "-90.05197353703865"
    }
  },
  {
    "service_request": "2023-1036339",
    "request_type": "Traffic Signals/Signs/Striping/Streetlights",
    "request_reason": "Street Light Outage/Malfunction",
    "date_created": "2023-09-18T20:49:24.000",
    "date_modified": "2023-09-18T20:49:25.000",
    "request_status": "Pending",
    "responsible_agency": "Department of Public Works",
    "final_address": "2800 DAbadie St",
    "address_councildis": "D",
    "status": "Assigned to Contractor",
    "contractor": "Legacy Professional Services",
    "rowid": "1036339",
    "final_x": "3678914.20635",
    "final_y": "541186.461836",
    "longitude": "-90.07590036884237",
    "latitude": "29.982153403064945",
    "geocoded_column": {
      "latitude": "29.982153403064945",
      "longitude": "-90.07590036884237"
    }
  },
  {
    "service_request": "2023-1036338",
    "request_type": "Abandoned Vehicles",
    "request_reason": "Abandoned/Junk Vehicles",
    "date_created": "2023-09-18T20:48:42.000",
    "date_modified": "2023-09-18T20:48:42.000",
    "request_status": "Pending",
    "responsible_agency": "Department of Public Works",
    "final_address": "1820 Music St",
    "address_councildis": "D",
    "status": "Pending",
    "rowid": "1036338",
    "final_x": "3686597.8751",
    "final_y": "539220.73185",
    "longitude": "-90.05170112658236",
    "latitude": "29.976514251626096",
    "geocoded_column": {
      "latitude": "29.976514251626096",
      "longitude": "-90.05170112658236"
    }
  },
  {
    "service_request": "2023-1036337",
    "request_type": "Abandoned Vehicles",
    "request_reason": "Abandoned/Junk Vehicles",
    "date_created": "2023-09-18T20:47:47.000",
    "date_modified": "2023-09-18T20:47:47.000",
    "request_status": "Pending",
    "responsible_agency": "Department of Public Works",
    "final_address": "1509 Dumaine St",
    "address_councildis": "C",
    "status": "Pending",
    "rowid": "1036337",
    "final_x": "3680698.17243",
    "final_y": "534853.836166",
    "longitude": "-90.07048618295018",
    "latitude": "29.96468691916799",
    "geocoded_column": {
      "latitude": "29.96468691916799",
      "longitude": "-90.07048618295018"
    }
  },
  {
    "service_request": "2023-1036336",
    "request_type": "Abandoned Vehicles",
    "request_reason": "Abandoned/Junk Vehicles",
    "date_created": "2023-09-18T20:45:50.000",
    "date_modified": "2023-09-18T20:45:50.000",
    "request_status": "Pending",
    "responsible_agency": "Department of Public Works",
    "status": "Pending",
    "rowid": "1036336",
    "longitude": "0.0",
    "latitude": "0.0",
    "geocoded_column": {
      "latitude": "0.0",
      "longitude": "0.0"
    }
  },
  {
    "service_request": "2023-1036335",
    "request_type": "Abandoned Vehicles",
    "request_reason": "Abandoned/Junk Vehicles",
    "date_created": "2023-09-18T20:45:23.000",
    "date_modified": "2023-09-18T20:45:23.000",
    "request_status": "Pending",
    "responsible_agency": "Department of Public Works",
    "final_address": "1830 Arts St",
    "address_councildis": "D",
    "status": "Pending",
    "rowid": "1036335",
    "final_x": "3686953.02447",
    "final_y": "539313.219722",
    "longitude": "-90.05057618909143",
    "latitude": "29.976757633289385",
    "geocoded_column": {
      "latitude": "29.976757633289385",
      "longitude": "-90.05057618909143"
    }
  },
  {
    "service_request": "2023-1036334",
    "request_type": "Abandoned Vehicles",
    "request_reason": "Abandoned/Junk Vehicles",
    "date_created": "2023-09-18T20:43:23.000",
    "date_modified": "2023-09-18T20:43:23.000",
    "request_status": "Pending",
    "responsible_agency": "Department of Public Works",
    "final_address": "1806 Arts St",
    "address_councildis": "D",
    "status": "Pending",
    "rowid": "1036334",
    "final_x": "3686967.91913",
    "final_y": "539131.473866",
    "longitude": "-90.05053557339468",
    "latitude": "29.97625743764972",
    "geocoded_column": {
      "latitude": "29.97625743764972",
      "longitude": "-90.05053557339468"
    }
  },
  {
    "service_request": "2023-1036333",
    "request_type": "Traffic Signals/Signs/Striping/Streetlights",
    "request_reason": "Request for Traffic Calming due to Speeding",
    "date_created": "2023-09-18T20:42:19.000",
    "date_modified": "2023-09-18T20:42:19.000",
    "request_status": "Pending",
    "responsible_agency": "Department of Public Works",
    "final_address": "5409 Marigny St",
    "address_councildis": "D",
    "status": "Pending",
    "rowid": "1036333",
    "final_x": "3684130.78229",
    "final_y": "552798.73519",
    "longitude": "-90.05901602889033",
    "latitude": "30.013924555185753",
    "geocoded_column": {
      "latitude": "30.013924555185753",
      "longitude": "-90.05901602889033"
    }
  },
  {
    "service_request": "2023-1036332",
    "request_type": "Abandoned Vehicles",
    "request_reason": "Abandoned/Junk Vehicles",
    "date_created": "2023-09-18T20:40:52.000",
    "date_modified": "2023-09-18T20:40:52.000",
    "request_status": "Pending",
    "responsible_agency": "Department of Public Works",
    "final_address": "1532 Painters St",
    "address_councildis": "C",
    "status": "Pending",
    "rowid": "1036332",
    "final_x": "3687395.9805",
    "final_y": "538203.894921",
    "longitude": "-90.04921646283428",
    "latitude": "29.973693737773896",
    "geocoded_column": {
      "latitude": "29.973693737773896",
      "longitude": "-90.04921646283428"
    }
  },
  {
    "service_request": "2023-1036331",
    "request_type": "Abandoned Vehicles",
    "request_reason": "Abandoned/Junk Vehicles",
    "date_created": "2023-09-18T20:38:57.000",
    "date_modified": "2023-09-18T20:38:57.000",
    "request_status": "Pending",
    "responsible_agency": "Department of Public Works",
    "final_address": "1528 Painters St",
    "address_councildis": "C",
    "status": "Pending",
    "rowid": "1036331",
    "final_x": "3687400.29154",
    "final_y": "538176.777609",
    "longitude": "-90.04920380745604",
    "latitude": "29.973619041844042",
    "geocoded_column": {
      "latitude": "29.973619041844042",
      "longitude": "-90.04920380745604"
    }
  },
  {
    "service_request": "2023-1036330",
    "request_type": "Abandoned Vehicles",
    "request_reason": "Abandoned/Junk Vehicles",
    "date_created": "2023-09-18T20:35:38.000",
    "date_modified": "2023-09-18T20:35:38.000",
    "request_status": "Pending",
    "responsible_agency": "Department of Public Works",
    "final_address": "2515 Franklin Ave",
    "address_councildis": "D",
    "status": "Pending",
    "rowid": "1036330",
    "final_x": "3687643.94108",
    "final_y": "541802.575116",
    "longitude": "-90.0483058921285",
    "latitude": "29.983581193511274",
    "geocoded_column": {
      "latitude": "29.983581193511274",
      "longitude": "-90.0483058921285"
    }
  },
  {
    "service_request": "2023-1036329",
    "request_type": "Traffic Signals/Signs/Striping/Streetlights",
    "request_reason": "Street Light Outage/Malfunction",
    "date_created": "2023-09-18T19:50:18.000",
    "date_modified": "2023-09-18T19:50:19.000",
    "request_status": "Pending",
    "responsible_agency": "Department of Public Works",
    "final_address": "7530 Farwood Dr",
    "address_councildis": "E",
    "status": "Assigned to Contractor",
    "contractor": "Legacy Professional Services",
    "rowid": "1036329",
    "final_x": "3702039.60189",
    "final_y": "556954.479578",
    "longitude": "-90.00228117499506",
    "latitude": "30.02479146280455",
    "geocoded_column": {
      "latitude": "30.02479146280455",
      "longitude": "-90.00228117499506"
    }
  },
  {
    "service_request": "2023-1036328",
    "request_type": "Trash/Recycling",
    "request_reason": "Replace Trash Cart",
    "date_created": "2023-09-18T19:37:37.000",
    "date_modified": "2023-09-18T19:37:38.000",
    "request_status": "Pending",
    "responsible_agency": "Department of Sanitation",
    "final_address": "6126 Willow St",
    "address_councildis": "A",
    "status": "Assigned to Contractor",
    "contractor": "Richards Disposal",
    "rowid": "1036328",
    "final_x": "3666591.34497",
    "final_y": "525771.868093",
    "longitude": "-90.11533959941936",
    "latitude": "29.940134424247983",
    "geocoded_column": {
      "latitude": "29.940134424247983",
      "longitude": "-90.11533959941936"
    }
  },
  {
    "service_request": "2023-1036327",
    "request_type": "Trash/Recycling",
    "request_reason": "MIssed Recycling Pick-Up",
    "date_created": "2023-09-18T19:33:52.000",
    "date_modified": "2023-09-18T19:33:53.000",
    "request_status": "Pending",
    "responsible_agency": "Department of Sanitation",
    "final_address": "6310 Fontainebleau Dr",
    "address_councildis": "A",
    "status": "Assigned to Contractor",
    "contractor": "Richards Disposal",
    "rowid": "1036327",
    "final_x": "3667846.57057",
    "final_y": "529999.568705",
    "longitude": "-90.11123428734047",
    "latitude": "29.951722482568357",
    "geocoded_column": {
      "latitude": "29.951722482568357",
      "longitude": "-90.11123428734047"
    }
  },
  {
    "service_request": "2023-1036326",
    "request_type": "Trash/Recycling",
    "request_reason": "Request a Large Item Pick Up",
    "date_created": "2023-09-18T19:14:38.000",
    "date_modified": "2023-09-18T19:14:38.000",
    "request_status": "Pending",
    "responsible_agency": "Department of Sanitation",
    "final_address": "7801 Pyramid St, New Orleans, Louisiana, 70128",
    "address_councildis": "E",
    "status": "Assigned to Contractor",
    "contractor": "Waste Pro",
    "rowid": "1036326",
    "final_x": "3714940.40037",
    "final_y": "569631.106534",
    "longitude": "-89.96103753289857",
    "latitude": "30.059228688391027",
    "geocoded_column": {
      "latitude": "30.059228688391027",
      "longitude": "-89.96103753289857"
    }
  },
  {
    "service_request": "2023-1036325",
    "request_type": "Property Maintenance",
    "request_reason": "Property Maintenance",
    "date_created": "2023-09-18T19:05:41.000",
    "date_modified": "2023-09-18T19:05:41.000",
    "request_status": "Pending",
    "responsible_agency": "Department of Code Enforcement",
    "final_address": "3425 Fern St",
    "address_councildis": "B",
    "status": "Pending",
    "rowid": "1036325",
    "final_x": "3668002.4201",
    "final_y": "533777.145221",
    "longitude": "-90.11061490700801",
    "latitude": "29.96210500549849",
    "geocoded_column": {
      "latitude": "29.96210500549849",
      "longitude": "-90.11061490700801"
    }
  },
  {
    "service_request": "2023-1036324",
    "request_type": "Trash/Recycling",
    "request_reason": "Missed Trash Pick-Up",
    "date_created": "2023-09-18T19:03:36.000",
    "date_modified": "2023-09-18T19:03:37.000",
    "request_status": "Pending",
    "responsible_agency": "Department of Sanitation",
    "final_address": "1924 Conti St",
    "address_councildis": "B",
    "status": "Assigned to Contractor",
    "contractor": "Richards Disposal",
    "rowid": "1036324",
    "final_x": "3678308.20539",
    "final_y": "534268.424197",
    "longitude": "-90.07805378800992",
    "latitude": "29.963149445172075",
    "geocoded_column": {
      "latitude": "29.963149445172075",
      "longitude": "-90.07805378800992"
    }
  },
  {
    "service_request": "2023-1036323",
    "request_type": "Trash/Recycling",
    "request_reason": "Request a Large Item Pick Up",
    "date_created": "2023-09-18T19:03:08.000",
    "date_modified": "2023-09-18T19:03:09.000",
    "request_status": "Pending",
    "responsible_agency": "Department of Sanitation",
    "final_address": "3732 Toledano St",
    "address_councildis": "B",
    "status": "Assigned to Contractor",
    "contractor": "Richards Disposal",
    "rowid": "1036323",
    "final_x": "3671381.54395",
    "final_y": "529035.9232",
    "longitude": "-90.10010525802015",
    "latitude": "29.948968631901483",
    "geocoded_column": {
      "latitude": "29.948968631901483",
      "longitude": "-90.10010525802015"
    }
  },
  {
    "service_request": "2023-1036322",
    "request_type": "Trash/Recycling",
    "request_reason": "Request a Large Item Pick Up",
    "date_created": "2023-09-18T18:58:48.000",
    "date_modified": "2023-09-18T18:58:49.000",
    "request_status": "Pending",
    "responsible_agency": "Department of Sanitation",
    "final_address": "3732 Toledano St",
    "address_councildis": "B",
    "status": "Assigned to Contractor",
    "contractor": "Richards Disposal",
    "rowid": "1036322",
    "final_x": "3671381.54395",
    "final_y": "529035.9232",
    "longitude": "-90.10010525802015",
    "latitude": "29.948968631901483",
    "geocoded_column": {
      "latitude": "29.948968631901483",
      "longitude": "-90.10010525802015"
    }
  },
  {
    "service_request": "2023-1036321",
    "request_type": "Roads/Drainage",
    "request_reason": "Debris in Roadway",
    "date_created": "2023-09-18T18:45:59.000",
    "date_modified": "2023-09-18T18:45:59.000",
    "request_status": "Pending",
    "responsible_agency": "Department of Public Works",
    "final_address": "7022 Hickory St",
    "address_councildis": "A",
    "status": "Pending",
    "rowid": "1036321",
    "final_x": "3665724.10317",
    "final_y": "527966.290623",
    "longitude": "-90.11800414332197",
    "latitude": "29.946193700136856",
    "geocoded_column": {
      "latitude": "29.946193700136856",
      "longitude": "-90.11800414332197"
    }
  },
  {
    "service_request": "2023-1036320",
    "request_type": "Trash/Recycling",
    "request_reason": "Replace Trash Cart",
    "date_created": "2023-09-18T18:27:34.000",
    "date_modified": "2023-09-18T18:27:34.000",
    "request_status": "Pending",
    "responsible_agency": "Department of Sanitation",
    "final_address": "4410 Knight Dr",
    "address_councildis": "E",
    "status": "Assigned to Contractor",
    "contractor": "Waste Pro",
    "rowid": "1036320",
    "final_x": "3708239.89662",
    "final_y": "553751.443415",
    "longitude": "-89.98280874076022",
    "latitude": "30.015784859298993",
    "geocoded_column": {
      "latitude": "30.015784859298993",
      "longitude": "-89.98280874076022"
    }
  },
  {
    "service_request": "2023-1036318",
    "request_type": "Parks & Parkways",
    "request_reason": "Request Tree Service (Right of Way/Public Property)",
    "date_created": "2023-09-18T18:17:20.000",
    "date_modified": "2023-09-18T18:17:20.000",
    "request_status": "Pending",
    "responsible_agency": "Department of Parks & Parkway",
    "final_address": "6760 General Haig St",
    "address_councildis": "A",
    "status": "Pending",
    "rowid": "1036318",
    "final_x": "3670903.34075",
    "final_y": "552322.489558",
    "longitude": "-90.10082428485133",
    "latitude": "30.013012903033637",
    "geocoded_column": {
      "latitude": "30.013012903033637",
      "longitude": "-90.10082428485133"
    }
  },
  {
    "service_request": "2023-1036317",
    "request_type": "Property Maintenance",
    "request_reason": "Property Maintenance",
    "date_created": "2023-09-18T18:07:27.000",
    "date_modified": "2023-09-18T18:07:27.000",
    "request_status": "Pending",
    "responsible_agency": "Department of Code Enforcement",
    "final_address": "2559 Industry St",
    "address_councildis": "D",
    "status": "Pending",
    "rowid": "1036317",
    "final_x": "3687183.22607",
    "final_y": "543186.384717",
    "longitude": "-90.04971210657808",
    "latitude": "29.987400376433435",
    "geocoded_column": {
      "latitude": "29.987400376433435",
      "longitude": "-90.04971210657808"
    }
  },
  {
    "service_request": "2023-1036316",
    "request_type": "Trash/Recycling",
    "request_reason": "Request a Large Item Pick Up",
    "date_created": "2023-09-18T17:48:08.000",
    "date_modified": "2023-09-18T17:48:09.000",
    "request_status": "Pending",
    "responsible_agency": "Department of Sanitation",
    "final_address": "406 Huntlee Dr",
    "address_councildis": "C",
    "status": "Assigned to Contractor",
    "contractor": "Richards Disposal",
    "rowid": "1036316",
    "final_x": "3701914.01079",
    "final_y": "522270.241594",
    "longitude": "-90.00394953480962",
    "latitude": "29.929426493034768",
    "geocoded_column": {
      "latitude": "29.929426493034768",
      "longitude": "-90.00394953480962"
    }
  },
  {
    "service_request": "2023-1036314",
    "request_type": "Property Maintenance",
    "request_reason": "Property Maintenance",
    "date_created": "2023-09-18T17:45:47.000",
    "date_modified": "2023-09-18T17:45:47.000",
    "request_status": "Pending",
    "responsible_agency": "Department of Code Enforcement",
    "final_address": "1221 Hillary St",
    "address_councildis": "A",
    "status": "Pending",
    "rowid": "1036314",
    "final_x": "3663451.60083",
    "final_y": "527273.816703",
    "longitude": "-90.12520230453033",
    "latitude": "29.944355698890035",
    "geocoded_column": {
      "latitude": "29.944355698890035",
      "longitude": "-90.12520230453033"
    }
  },
  {
    "service_request": "2023-1036313",
    "request_type": "Trash/Recycling",
    "request_reason": "Request a Large Item Pick Up",
    "date_created": "2023-09-18T17:36:52.000",
    "date_modified": "2023-09-18T17:36:52.000",
    "request_status": "Pending",
    "responsible_agency": "Department of Sanitation",
    "final_address": "5448 N Galvez St",
    "address_councildis": "E",
    "status": "Assigned to Contractor",
    "contractor": "Waste Pro",
    "rowid": "1036313",
    "final_x": "3698510.09412",
    "final_y": "537591.213384",
    "longitude": "-90.01413818007737",
    "latitude": "29.97166192533662",
    "geocoded_column": {
      "latitude": "29.97166192533662",
      "longitude": "-90.01413818007737"
    }
  },
  {
    "service_request": "2023-1036312",
    "request_type": "Trash/Recycling",
    "request_reason": "Request a Large Item Pick Up",
    "date_created": "2023-09-18T17:34:49.000",
    "date_modified": "2023-09-18T17:34:50.000",
    "request_status": "Pending",
    "responsible_agency": "Department of Sanitation",
    "final_address": "2506 Tricou St",
    "address_councildis": "E",
    "status": "Assigned to Contractor",
    "contractor": "Waste Pro",
    "rowid": "1036312",
    "final_x": "3702169.28093",
    "final_y": "538173.750217",
    "longitude": "-90.00256062981535",
    "latitude": "29.97314734564872",
    "geocoded_column": {
      "latitude": "29.97314734564872",
      "longitude": "-90.00256062981535"
    }
  },
  {
    "service_request": "2023-1036311",
    "request_type": "Trash/Recycling",
    "request_reason": "Replace Trash Cart",
    "date_created": "2023-09-18T17:27:57.000",
    "date_modified": "2023-09-18T17:27:58.000",
    "request_status": "Pending",
    "responsible_agency": "Department of Sanitation",
    "final_address": "3784 Mimosa Ct",
    "address_councildis": "C",
    "status": "Assigned to Contractor",
    "contractor": "Richards Disposal",
    "rowid": "1036311",
    "final_x": "3703920.09719",
    "final_y": "513286.457906",
    "longitude": "-89.99794725335757",
    "latitude": "29.90466003167871",
    "geocoded_column": {
      "latitude": "29.90466003167871",
      "longitude": "-89.99794725335757"
    }
  },
  {
    "service_request": "2023-1036310",
    "request_type": "Roads/Drainage",
    "request_reason": "Pothole",
    "date_created": "2023-09-18T17:23:36.000",
    "date_modified": "2023-09-18T17:23:37.000",
    "request_status": "Pending",
    "responsible_agency": "Department of Public Works",
    "final_address": "DOWNMAN RD & LEWIS RD",
    "address_councildis": "D",
    "status": "Pending",
    "rowid": "1036310",
    "final_x": "3695427.7",
    "final_y": "556101.98",
    "longitude": "-90.02320438277123",
    "latitude": "30.022656943771942",
    "geocoded_column": {
      "latitude": "30.022656943771942",
      "longitude": "-90.02320438277123"
    }
  },
  {
    "service_request": "2023-1036309",
    "request_type": "Trash/Recycling",
    "request_reason": "Replace Trash Cart",
    "date_created": "2023-09-18T17:08:33.000",
    "date_modified": "2023-09-18T17:08:33.000",
    "request_status": "Pending",
    "responsible_agency": "Department of Sanitation",
    "final_address": "4842 Lurline St",
    "address_councildis": "E",
    "status": "Assigned to Contractor",
    "contractor": "Waste Pro",
    "rowid": "1036309",
    "final_x": "3711842.21963",
    "final_y": "556677.80521",
    "longitude": "-89.97131724006849",
    "latitude": "30.02371397157899",
    "geocoded_column": {
      "latitude": "30.02371397157899",
      "longitude": "-89.97131724006849"
    }
  },
  {
    "service_request": "2023-1036308",
    "request_type": "Trash/Recycling",
    "request_reason": "Return Trash Cart",
    "date_created": "2023-09-18T16:39:36.000",
    "date_modified": "2023-09-18T16:55:24.000",
    "request_status": "Pending",
    "responsible_agency": "Department of Sanitation",
    "final_address": "4624 Duplessis St",
    "address_councildis": "D",
    "status": "Assigned to Contractor",
    "contractor": "IV Waste",
    "rowid": "1036308",
    "final_x": "3678092.1428",
    "final_y": "549676.534804",
    "longitude": "-90.07820310954264",
    "latitude": "30.005522898469007",
    "geocoded_column": {
      "latitude": "30.005522898469007",
      "longitude": "-90.07820310954264"
    }
  },
  {
    "service_request": "2023-1036307",
    "request_type": "Trash/Recycling",
    "request_reason": "Repair Trash Cart",
    "date_created": "2023-09-18T16:39:03.000",
    "date_modified": "2023-09-18T16:54:25.000",
    "request_status": "Pending",
    "responsible_agency": "Department of Sanitation",
    "final_address": "4624 Duplessis St",
    "address_councildis": "D",
    "status": "Assigned to Contractor",
    "contractor": "IV Waste",
    "rowid": "1036307",
    "final_x": "3678092.1428",
    "final_y": "549676.534804",
    "longitude": "-90.07820310954264",
    "latitude": "30.005522898469007",
    "geocoded_column": {
      "latitude": "30.005522898469007",
      "longitude": "-90.07820310954264"
    }
  },
  {
    "service_request": "2023-1036306",
    "request_type": "Trash/Recycling",
    "request_reason": "Repair Recycling Cart",
    "date_created": "2023-09-18T16:37:19.000",
    "date_modified": "2023-09-18T16:52:14.000",
    "request_status": "Pending",
    "responsible_agency": "Department of Sanitation",
    "final_address": "5716 Laurel St",
    "address_councildis": "A",
    "status": "Pending",
    "rowid": "1036306",
    "final_x": "3665445.68039",
    "final_y": "517932.344054",
    "longitude": "-90.11921890736036",
    "latitude": "29.918611648140505",
    "geocoded_column": {
      "latitude": "29.918611648140505",
      "longitude": "-90.11921890736036"
    }
  },
  {
    "service_request": "2023-1036305",
    "request_type": "Trash/Recycling",
    "request_reason": "Request a Large Item Pick Up",
    "date_created": "2023-09-18T16:34:37.000",
    "date_modified": "2023-09-18T16:48:13.000",
    "request_status": "Pending",
    "responsible_agency": "Department of Sanitation",
    "final_address": "8520 Bill St",
    "address_councildis": "E",
    "status": "Assigned to Contractor",
    "contractor": "Waste Pro",
    "rowid": "1036305",
    "final_x": "3703539.41911",
    "final_y": "563044.233632",
    "longitude": "-89.99731767508419",
    "latitude": "30.041487918765867",
    "geocoded_column": {
      "latitude": "30.041487918765867",
      "longitude": "-89.99731767508419"
    }
  },
  {
    "service_request": "2023-1036304",
    "request_type": "Trash/Recycling",
    "request_reason": "Missed Trash Pick-Up",
    "date_created": "2023-09-18T16:24:29.000",
    "date_modified": "2023-09-18T16:31:13.000",
    "request_status": "Pending",
    "responsible_agency": "Department of Sanitation",
    "final_address": "5512 Perrier St",
    "address_councildis": "A",
    "status": "Assigned to Contractor",
    "contractor": "Richards Disposal",
    "rowid": "1036304",
    "final_x": "3666587.49236",
    "final_y": "520134.684984",
    "longitude": "-90.11554091327206",
    "latitude": "29.92463407714813",
    "geocoded_column": {
      "latitude": "29.92463407714813",
      "longitude": "-90.11554091327206"
    }
  },
  {
    "service_request": "2023-1036303",
    "request_type": "Trash/Recycling",
    "request_reason": "Repair Recycling Cart",
    "date_created": "2023-09-18T16:22:43.000",
    "date_modified": "2023-09-18T16:28:26.000",
    "request_status": "Pending",
    "responsible_agency": "Department of Sanitation",
    "final_address": "3835 N Teak Ave",
    "address_councildis": "C",
    "status": "Pending",
    "rowid": "1036303",
    "final_x": "3703080.11242",
    "final_y": "514912.951475",
    "longitude": "-90.00053854474038",
    "latitude": "29.909159226828525",
    "geocoded_column": {
      "latitude": "29.909159226828525",
      "longitude": "-90.00053854474038"
    }
  },
  {
    "service_request": "2023-1036302",
    "request_type": "Trash/Recycling",
    "request_reason": "Repair Trash Cart",
    "date_created": "2023-09-18T16:22:04.000",
    "date_modified": "2023-09-18T16:27:08.000",
    "request_status": "Pending",
    "responsible_agency": "Department of Sanitation",
    "final_address": "3835 N Teak Ave",
    "address_councildis": "C",
    "status": "Assigned to Contractor",
    "contractor": "Richards Disposal",
    "rowid": "1036302",
    "final_x": "3703080.11242",
    "final_y": "514912.951475",
    "longitude": "-90.00053854474038",
    "latitude": "29.909159226828525",
    "geocoded_column": {
      "latitude": "29.909159226828525",
      "longitude": "-90.00053854474038"
    }
  },
  {
    "service_request": "2023-1036301",
    "request_type": "Traffic Signals/Signs/Striping/Streetlights",
    "request_reason": "Street Light Outage/Malfunction",
    "date_created": "2023-09-18T16:21:37.000",
    "date_modified": "2023-09-18T16:26:18.000",
    "request_status": "Pending",
    "responsible_agency": "Department of Public Works",
    "final_address": "3835 N Teak Ave",
    "address_councildis": "C",
    "status": "Assigned to Contractor",
    "contractor": "Legacy Professional Services",
    "rowid": "1036301",
    "final_x": "3703080.11242",
    "final_y": "514912.951475",
    "longitude": "-90.00053854474038",
    "latitude": "29.909159226828525",
    "geocoded_column": {
      "latitude": "29.909159226828525",
      "longitude": "-90.00053854474038"
    }
  },
  {
    "service_request": "2023-1036300",
    "request_type": "Trash/Recycling",
    "request_reason": "Repair Trash Cart",
    "date_created": "2023-09-18T16:14:44.000",
    "date_modified": "2023-09-18T16:14:52.000",
    "request_status": "Pending",
    "responsible_agency": "Department of Sanitation",
    "final_address": "8641 Dinkins St",
    "address_councildis": "E",
    "status": "Assigned to Contractor",
    "contractor": "Waste Pro",
    "rowid": "1036300",
    "final_x": "3703980.46526",
    "final_y": "563097.180448",
    "longitude": "-89.99592186681",
    "latitude": "30.041619354416895",
    "geocoded_column": {
      "latitude": "30.041619354416895",
      "longitude": "-89.99592186681"
    }
  },
  {
    "service_request": "2023-1036299",
    "request_type": "Trash/Recycling",
    "request_reason": "Request a Large Item Pick Up",
    "date_created": "2023-09-18T16:12:19.000",
    "date_modified": "2023-09-18T16:13:36.000",
    "request_status": "Pending",
    "responsible_agency": "Department of Sanitation",
    "final_address": "13200 Dwyer Blvd",
    "address_councildis": "E",
    "status": "Assigned to Contractor",
    "contractor": "Waste Pro",
    "rowid": "1036299",
    "final_x": "3724377.48985",
    "final_y": "561303.82659",
    "longitude": "-89.93153004245288",
    "latitude": "30.036017988145748",
    "geocoded_column": {
      "latitude": "30.036017988145748",
      "longitude": "-89.93153004245288"
    }
  },
  {
    "service_request": "2023-1036298",
    "request_type": "Trash/Recycling",
    "request_reason": "Order Trash Cart",
    "date_created": "2023-09-18T16:11:47.000",
    "date_modified": "2023-09-18T16:11:48.000",
    "request_status": "Pending",
    "responsible_agency": "Department of Sanitation",
    "final_address": "7208 Chef Menteur Hwy",
    "address_councildis": "E",
    "status": "Assigned to Contractor",
    "contractor": "Waste Pro",
    "rowid": "1036298",
    "final_x": "3701523.54237",
    "final_y": "552063.014166",
    "longitude": "-90.00409112692951",
    "latitude": "30.011358274280084",
    "geocoded_column": {
      "latitude": "30.011358274280084",
      "longitude": "-90.00409112692951"
    }
  },
  {
    "service_request": "2023-1036297",
    "request_type": "Trash/Recycling",
    "request_reason": "Repair Trash Cart",
    "date_created": "2023-09-18T16:07:36.000",
    "date_modified": "2023-09-18T16:07:36.000",
    "request_status": "Pending",
    "responsible_agency": "Department of Sanitation",
    "final_address": "4420 Fontainebleau Drive",
    "status": "Assigned to Contractor",
    "rowid": "1036297",
    "longitude": "0.0",
    "latitude": "0.0",
    "geocoded_column": {
      "latitude": "0.0",
      "longitude": "0.0"
    }
  },
  {
    "service_request": "2023-1036296",
    "request_type": "Trash/Recycling",
    "request_reason": "MIssed Recycling Pick-Up",
    "date_created": "2023-09-18T16:06:10.000",
    "date_modified": "2023-09-18T16:06:10.000",
    "request_status": "Pending",
    "responsible_agency": "Department of Sanitation",
    "final_address": "536 Vallette St",
    "address_councildis": "C",
    "status": "Assigned to Contractor",
    "contractor": "Richards Disposal",
    "rowid": "1036296",
    "final_x": "3687566.83554",
    "final_y": "529636.007681",
    "longitude": "-90.04898016925921",
    "latitude": "29.950129752320933",
    "geocoded_column": {
      "latitude": "29.950129752320933",
      "longitude": "-90.04898016925921"
    }
  },
  {
    "service_request": "2023-1036295",
    "request_type": "Traffic Signals/Signs/Striping/Streetlights",
    "request_reason": "Additional signage",
    "date_created": "2023-09-18T16:04:38.000",
    "date_modified": "2023-09-18T16:04:38.000",
    "request_status": "Pending",
    "responsible_agency": "Department of Public Works",
    "final_address": "6120 Magnolia St",
    "address_councildis": "A",
    "status": "Pending",
    "rowid": "1036295",
    "final_x": "3666369.69044",
    "final_y": "525067.322173",
    "longitude": "-90.11606302982325",
    "latitude": "29.93820362548688",
    "geocoded_column": {
      "latitude": "29.93820362548688",
      "longitude": "-90.11606302982325"
    }
  },
  {
    "service_request": "2023-1036294",
    "request_type": "Mosquito, Termite & Rodent Control",
    "request_reason": "Non-Rodent Complaint (Mice, Possums, Snakes)",
    "date_created": "2023-09-18T16:04:08.000",
    "date_modified": "2023-09-18T16:04:08.000",
    "request_status": "Pending",
    "responsible_agency": "Mosquito, Termite & Rodent Control Board",
    "final_address": "3920 Cleveland Ave",
    "address_councildis": "A",
    "status": "Pending",
    "rowid": "1036294",
    "final_x": "3671352.3835",
    "final_y": "537565.454152",
    "longitude": "-90.09990743016348",
    "latitude": "29.972422867004134",
    "geocoded_column": {
      "latitude": "29.972422867004134",
      "longitude": "-90.09990743016348"
    }
  },
  {
    "service_request": "2023-1036293",
    "request_type": "Property Maintenance",
    "request_reason": "Property Maintenance",
    "date_created": "2023-09-18T16:01:52.000",
    "date_modified": "2023-09-18T16:01:52.000",
    "request_status": "Pending",
    "responsible_agency": "Department of Code Enforcement",
    "final_address": "3920 Cleveland Ave",
    "address_councildis": "A",
    "status": "Pending",
    "rowid": "1036293",
    "final_x": "3671352.3835",
    "final_y": "537565.454152",
    "longitude": "-90.09990743016348",
    "latitude": "29.972422867004134",
    "geocoded_column": {
      "latitude": "29.972422867004134",
      "longitude": "-90.09990743016348"
    }
  },
  {
    "service_request": "2023-1036292",
    "request_type": "Roads/Drainage",
    "request_reason": "Unpermitted work in ROW",
    "date_created": "2023-09-18T16:00:58.000",
    "date_modified": "2023-09-18T16:00:58.000",
    "request_status": "Pending",
    "responsible_agency": "Department of Public Works",
    "status": "Pending",
    "rowid": "1036292",
    "longitude": "0.0",
    "latitude": "0.0",
    "geocoded_column": {
      "latitude": "0.0",
      "longitude": "0.0"
    }
  },
  {
    "service_request": "2023-1036291",
    "request_type": "Trash/Recycling",
    "request_reason": "Missed Trash Pick-Up",
    "date_created": "2023-09-18T15:59:00.000",
    "date_modified": "2023-09-18T15:59:00.000",
    "request_status": "Pending",
    "responsible_agency": "Department of Sanitation",
    "final_address": "3408 Fourth St",
    "address_councildis": "B",
    "status": "Assigned to Contractor",
    "contractor": "Richards Disposal",
    "rowid": "1036291",
    "final_x": "3672579.18798",
    "final_y": "528092.178751",
    "longitude": "-90.09635593741949",
    "latitude": "29.946338147821386",
    "geocoded_column": {
      "latitude": "29.946338147821386",
      "longitude": "-90.09635593741949"
    }
  },
  {
    "service_request": "2023-1036290",
    "request_type": "Trash/Recycling",
    "request_reason": "MIssed Recycling Pick-Up",
    "date_created": "2023-09-18T15:55:38.000",
    "date_modified": "2023-09-18T15:55:39.000",
    "request_status": "Pending",
    "responsible_agency": "Department of Sanitation",
    "final_address": "7620 Freret St",
    "address_councildis": "A",
    "status": "Assigned to Contractor",
    "contractor": "Richards Disposal",
    "rowid": "1036290",
    "final_x": "3662656.53639",
    "final_y": "526746.596222",
    "longitude": "-90.12773007790707",
    "latitude": "29.94292903702424",
    "geocoded_column": {
      "latitude": "29.94292903702424",
      "longitude": "-90.12773007790707"
    }
  },
  {
    "service_request": "2023-1036289",
    "request_type": "Abandoned Vehicles",
    "request_reason": "Abandoned/Junk Vehicles",
    "date_created": "2023-09-18T15:52:16.000",
    "date_modified": "2023-09-18T15:52:16.000",
    "request_status": "Pending",
    "responsible_agency": "Department of Public Works",
    "final_address": "6700 BLK Fleur-de-lis Dr",
    "address_councildis": "A",
    "status": "Pending",
    "rowid": "1036289",
    "final_x": "3665495.53282",
    "final_y": "553170.884588",
    "longitude": "-90.11788167896849",
    "latitude": "30.015504526201486",
    "geocoded_column": {
      "latitude": "30.015504526201486",
      "longitude": "-90.11788167896849"
    }
  },
  {
    "service_request": "2023-1036288",
    "request_type": "Roads/Drainage",
    "request_reason": "Pothole",
    "date_created": "2023-09-18T15:51:39.000",
    "date_modified": "2023-09-18T15:51:39.000",
    "request_status": "Pending",
    "responsible_agency": "Department of Public Works",
    "final_address": "3700 BLK Orleans Ave",
    "address_councildis": "A",
    "status": "Pending",
    "rowid": "1036288",
    "final_x": "3673892.54555",
    "final_y": "539147.632778",
    "longitude": "-90.09183099996261",
    "latitude": "29.976697890813213",
    "geocoded_column": {
      "latitude": "29.976697890813213",
      "longitude": "-90.09183099996261"
    }
  },
  {
    "service_request": "2023-1036287",
    "request_type": "Parks & Parkways",
    "request_reason": "Request Tree Service (Right of Way/Public Property)",
    "date_created": "2023-09-18T15:51:10.000",
    "date_modified": "2023-09-18T15:51:11.000",
    "request_status": "Pending",
    "responsible_agency": "Department of Parks & Parkway",
    "final_address": "170 Broadway St",
    "address_councildis": "A",
    "status": "Pending",
    "rowid": "1036287",
    "final_x": "3661060.65946",
    "final_y": "522142.345274",
    "longitude": "-90.13292096610914",
    "latitude": "29.930314872470106",
    "geocoded_column": {
      "latitude": "29.930314872470106",
      "longitude": "-90.13292096610914"
    }
  },
  {
    "service_request": "2023-1036286",
    "request_type": "Traffic Signals/Signs/Striping/Streetlights",
    "request_reason": "Additional signage",
    "date_created": "2023-09-18T15:42:20.000",
    "date_modified": "2023-09-18T15:42:20.000",
    "request_status": "Pending",
    "responsible_agency": "Department of Public Works",
    "final_address": "TCHOUPITOULAS ST & NASHVILLE AVE",
    "address_councildis": "A",
    "status": "Pending",
    "rowid": "1036286",
    "final_x": "3665146.3",
    "final_y": "517267.68",
    "longitude": "-90.12018610984786",
    "latitude": "29.916792748343077",
    "geocoded_column": {
      "latitude": "29.916792748343077",
      "longitude": "-90.12018610984786"
    }
  },
  {
    "service_request": "2023-1036285",
    "request_type": "Trash/Recycling",
    "request_reason": "Repair Trash Cart",
    "date_created": "2023-09-18T15:36:31.000",
    "date_modified": "2023-09-18T15:36:32.000",
    "request_status": "Pending",
    "responsible_agency": "Department of Sanitation",
    "final_address": "8929 Apricot St",
    "address_councildis": "A",
    "status": "Assigned to Contractor",
    "contractor": "Richards Disposal",
    "rowid": "1036285",
    "final_x": "3663599.15834",
    "final_y": "534704.02535",
    "longitude": "-90.12448892840793",
    "latitude": "29.9647820858286",
    "geocoded_column": {
      "latitude": "29.9647820858286",
      "longitude": "-90.12448892840793"
    }
  },
  {
    "service_request": "2023-1036284",
    "request_type": "Roads/Drainage",
    "request_reason": "Pothole",
    "date_created": "2023-09-18T15:36:06.000",
    "date_modified": "2023-09-18T15:36:06.000",
    "request_status": "Pending",
    "responsible_agency": "Department of Public Works",
    "final_address": "4216 Chestnut St",
    "address_councildis": "B",
    "status": "Pending",
    "rowid": "1036284",
    "final_x": "3671574.31393",
    "final_y": "519539.203703",
    "longitude": "-90.09981939416457",
    "latitude": "29.922850019854593",
    "geocoded_column": {
      "latitude": "29.922850019854593",
      "longitude": "-90.09981939416457"
    }
  },
  {
    "service_request": "2023-1036283",
    "request_type": "Property Maintenance",
    "request_reason": "Property Maintenance",
    "date_created": "2023-09-18T15:33:38.000",
    "date_modified": "2023-09-18T15:33:38.000",
    "request_status": "Pending",
    "responsible_agency": "Department of Code Enforcement",
    "final_address": "735 Washington Ave",
    "address_councildis": "B",
    "status": "Pending",
    "rowid": "1036283",
    "final_x": "3677763.81627",
    "final_y": "519831.099448",
    "longitude": "-90.08027148113962",
    "latitude": "29.923467974233546",
    "geocoded_column": {
      "latitude": "29.923467974233546",
      "longitude": "-90.08027148113962"
    }
  },
  {
    "service_request": "2023-1036282",
    "request_type": "Trash/Recycling",
    "request_reason": "Repair Trash Cart",
    "date_created": "2023-09-18T15:32:04.000",
    "date_modified": "2023-09-18T15:32:21.000",
    "request_status": "Pending",
    "responsible_agency": "Department of Sanitation",
    "final_address": "2244 Easter Ln",
    "address_councildis": "C",
    "status": "Assigned to Contractor",
    "contractor": "Richards Disposal",
    "rowid": "1036282",
    "final_x": "3699271.48983",
    "final_y": "522828.339195",
    "longitude": "-90.01227112116628",
    "latitude": "29.93104510390818",
    "geocoded_column": {
      "latitude": "29.93104510390818",
      "longitude": "-90.01227112116628"
    }
  },
  {
    "service_request": "2023-1036281",
    "request_type": "Roads/Drainage",
    "request_reason": "Catch Basin - Clogged",
    "date_created": "2023-09-18T15:31:25.000",
    "date_modified": "2023-09-18T15:31:25.000",
    "request_status": "Pending",
    "responsible_agency": "Department of Public Works",
    "final_address": "1125 St Mary St",
    "address_councildis": "B",
    "status": "Pending",
    "rowid": "1036281",
    "final_x": "3679627.88693",
    "final_y": "522996.446651",
    "longitude": "-90.07427751582154",
    "latitude": "29.932115459558396",
    "geocoded_column": {
      "latitude": "29.932115459558396",
      "longitude": "-90.07427751582154"
    }
  },
  {
    "service_request": "2023-1036280",
    "request_type": "Roads/Drainage",
    "request_reason": "Pothole",
    "date_created": "2023-09-18T15:29:44.000",
    "date_modified": "2023-09-18T15:29:44.000",
    "request_status": "Pending",
    "responsible_agency": "Department of Public Works",
    "final_address": "1423 General Pershing St",
    "address_councildis": "B",
    "status": "Pending",
    "rowid": "1036280",
    "final_x": "3671330.69185",
    "final_y": "520571.244024",
    "longitude": "-90.1005533659415",
    "latitude": "29.925695010510914",
    "geocoded_column": {
      "latitude": "29.925695010510914",
      "longitude": "-90.1005533659415"
    }
  },
  {
    "service_request": "2023-1036279",
    "request_type": "Trash/Recycling",
    "request_reason": "Request a Large Item Pick Up",
    "date_created": "2023-09-18T15:29:09.000",
    "date_modified": "2023-09-18T15:29:09.000",
    "request_status": "Pending",
    "responsible_agency": "Department of Sanitation",
    "final_address": "4504 S Johnson St",
    "address_councildis": "B",
    "status": "Assigned to Contractor",
    "contractor": "Richards Disposal",
    "rowid": "1036279",
    "final_x": "3669754.41959",
    "final_y": "527122.895551",
    "longitude": "-90.10530754435898",
    "latitude": "29.943756481756097",
    "geocoded_column": {
      "latitude": "29.943756481756097",
      "longitude": "-90.10530754435898"
    }
  },
  {
    "service_request": "2023-1036278",
    "request_type": "Trash/Recycling",
    "request_reason": "Request a Large Item Pick Up",
    "date_created": "2023-09-18T15:28:58.000",
    "date_modified": "2023-09-18T15:28:59.000",
    "request_status": "Pending",
    "responsible_agency": "Department of Sanitation",
    "final_address": "3126 Fortin St",
    "address_councildis": "A",
    "status": "Assigned to Contractor",
    "contractor": "IV Waste",
    "rowid": "1036278",
    "final_x": "3676399.1627",
    "final_y": "540924.692043",
    "longitude": "-90.08385311550627",
    "latitude": "29.981509276708326",
    "geocoded_column": {
      "latitude": "29.981509276708326",
      "longitude": "-90.08385311550627"
    }
  },
  {
    "service_request": "2023-1036277",
    "request_type": "Roads/Drainage",
    "request_reason": "Pothole",
    "date_created": "2023-09-18T15:22:44.000",
    "date_modified": "2023-09-18T15:22:44.000",
    "request_status": "Pending",
    "responsible_agency": "Department of Public Works",
    "final_address": "1312 Milan St",
    "address_councildis": "B",
    "status": "Pending",
    "rowid": "1036277",
    "final_x": "3671625.82823",
    "final_y": "520286.919608",
    "longitude": "-90.09963137110304",
    "latitude": "29.92490447494246",
    "geocoded_column": {
      "latitude": "29.92490447494246",
      "longitude": "-90.09963137110304"
    }
  },
  {
    "service_request": "2023-1036276",
    "request_type": "Roads/Drainage",
    "request_reason": "Pothole",
    "date_created": "2023-09-18T15:21:07.000",
    "date_modified": "2023-09-18T15:21:07.000",
    "request_status": "Pending",
    "responsible_agency": "Department of Public Works",
    "final_address": "1576 Henry Clay Ave",
    "address_councildis": "A",
    "status": "Pending",
    "rowid": "1036276",
    "final_x": "3664947.16416",
    "final_y": "522750.836474",
    "longitude": "-90.12063149759432",
    "latitude": "29.931875502670692",
    "geocoded_column": {
      "latitude": "29.931875502670692",
      "longitude": "-90.12063149759432"
    }
  },
  {
    "service_request": "2023-1036275",
    "request_type": "Trash/Recycling",
    "request_reason": "Request a Large Item Pick Up",
    "date_created": "2023-09-18T15:16:47.000",
    "date_modified": "2023-09-18T15:16:47.000",
    "request_status": "Pending",
    "responsible_agency": "Department of Sanitation",
    "final_address": "4504 S Johnson St, New Orleans, Louisiana, 70125",
    "address_councildis": "B",
    "status": "Assigned to Contractor",
    "contractor": "Richards Disposal",
    "rowid": "1036275",
    "final_x": "3669754.41959",
    "final_y": "527122.895551",
    "longitude": "-90.10530754435898",
    "latitude": "29.943756481756097",
    "geocoded_column": {
      "latitude": "29.943756481756097",
      "longitude": "-90.10530754435898"
    }
  },
  {
    "service_request": "2023-1036274",
    "request_type": "Roads/Drainage",
    "request_reason": "Debris in Roadway",
    "date_created": "2023-09-18T15:16:22.000",
    "date_modified": "2023-09-18T15:16:23.000",
    "request_status": "Pending",
    "responsible_agency": "Department of Public Works",
    "final_address": "1012 Canal St",
    "address_councildis": "B",
    "status": "Pending",
    "rowid": "1036274",
    "final_x": "3680150.67752",
    "final_y": "531345.823874",
    "longitude": "-90.07233704741391",
    "latitude": "29.955057656985275",
    "geocoded_column": {
      "latitude": "29.955057656985275",
      "longitude": "-90.07233704741391"
    }
  },
  {
    "service_request": "2023-1036273",
    "request_type": "Roads/Drainage",
    "request_reason": "Pothole",
    "date_created": "2023-09-18T15:15:05.000",
    "date_modified": "2023-09-18T15:15:05.000",
    "request_status": "Pending",
    "responsible_agency": "Department of Public Works",
    "final_address": "1234 Henry Clay Ave",
    "address_councildis": "A",
    "status": "Pending",
    "rowid": "1036273",
    "final_x": "3664327.06445",
    "final_y": "521120.367609",
    "longitude": "-90.12264347982506",
    "latitude": "29.92741025864685",
    "geocoded_column": {
      "latitude": "29.92741025864685",
      "longitude": "-90.12264347982506"
    }
  },
  {
    "service_request": "2023-1036272",
    "request_type": "Trash/Recycling",
    "request_reason": "MIssed Recycling Pick-Up",
    "date_created": "2023-09-18T15:12:13.000",
    "date_modified": "2023-09-18T15:12:13.000",
    "request_status": "Pending",
    "responsible_agency": "Department of Sanitation",
    "final_address": "3520 Indiana St",
    "address_councildis": "C",
    "status": "Assigned to Contractor",
    "contractor": "Richards Disposal",
    "rowid": "1036272",
    "final_x": "3693823.38102",
    "final_y": "520530.526776",
    "longitude": "-90.02955253320269",
    "latitude": "29.924898488224432",
    "geocoded_column": {
      "latitude": "29.924898488224432",
      "longitude": "-90.02955253320269"
    }
  },
  {
    "service_request": "2023-1036271",
    "request_type": "Roads/Drainage",
    "request_reason": "Pothole",
    "date_created": "2023-09-18T15:09:59.000",
    "date_modified": "2023-09-18T15:09:59.000",
    "request_status": "Pending",
    "responsible_agency": "Department of Public Works",
    "final_address": "1421 Constantinople St",
    "address_councildis": "B",
    "status": "Pending",
    "rowid": "1036271",
    "final_x": "3672433.24257",
    "final_y": "520667.657465",
    "longitude": "-90.09706965638372",
    "latitude": "29.925927453713577",
    "geocoded_column": {
      "latitude": "29.925927453713577",
      "longitude": "-90.09706965638372"
    }
  },
  {
    "service_request": "2023-1036270",
    "request_type": "Trash/Recycling",
    "request_reason": "Request a Large Item Pick Up",
    "date_created": "2023-09-18T15:08:55.000",
    "date_modified": "2023-09-18T15:08:56.000",
    "request_status": "Pending",
    "responsible_agency": "Department of Sanitation",
    "final_address": "32 Warbler St",
    "address_councildis": "D",
    "status": "Assigned to Contractor",
    "contractor": "IV Waste",
    "rowid": "1036270",
    "final_x": "3673623.32424",
    "final_y": "556841.943258",
    "longitude": "-90.09207590817243",
    "latitude": "30.025359052634933",
    "geocoded_column": {
      "latitude": "30.025359052634933",
      "longitude": "-90.09207590817243"
    }
  },
  {
    "service_request": "2023-1036269",
    "request_type": "Roads/Drainage",
    "request_reason": "Catch Basin - Clogged",
    "date_created": "2023-09-18T15:08:52.000",
    "date_modified": "2023-09-18T15:17:47.000",
    "request_status": "Pending",
    "responsible_agency": "Department of Public Works",
    "final_address": "1900 Law St, New Orleans, Louisiana, 70119",
    "address_councildis": "D",
    "rowid": "1036269",
    "final_x": "3681339.61268",
    "final_y": "541569.752278",
    "longitude": "-90.06822640142143",
    "latitude": "29.983133909686796",
    "geocoded_column": {
      "latitude": "29.983133909686796",
      "longitude": "-90.06822640142143"
    }
  },
  {
    "service_request": "2023-1036268",
    "request_type": "Property Maintenance",
    "request_reason": "Property Maintenance",
    "date_created": "2023-09-18T15:04:49.000",
    "date_modified": "2023-09-18T15:04:49.000",
    "request_status": "Pending",
    "responsible_agency": "Department of Code Enforcement",
    "final_address": "2111 Delachaise St",
    "address_councildis": "B",
    "status": "Pending",
    "rowid": "1036268",
    "final_x": "3673165.26907",
    "final_y": "523159.385531",
    "longitude": "-90.09467383265893",
    "latitude": "29.932757165383748",
    "geocoded_column": {
      "latitude": "29.932757165383748",
      "longitude": "-90.09467383265893"
    }
  },
  {
    "service_request": "2023-1036267",
    "request_type": "Property Maintenance",
    "request_reason": "Property Maintenance",
    "date_created": "2023-09-18T15:02:49.000",
    "date_modified": "2023-09-18T15:02:49.000",
    "request_status": "Pending",
    "responsible_agency": "Department of Code Enforcement",
    "final_address": "3636 St Ferdinand St",
    "address_councildis": "D",
    "status": "Pending",
    "rowid": "1036267",
    "final_x": "3689904.83696",
    "final_y": "546567.724561",
    "longitude": "-90.04099505967355",
    "latitude": "29.996613727369088",
    "geocoded_column": {
      "latitude": "29.996613727369088",
      "longitude": "-90.04099505967355"
    }
  },
  {
    "service_request": "2023-1036266",
    "request_type": "Trash/Recycling",
    "request_reason": "MIssed Recycling Pick-Up",
    "date_created": "2023-09-18T15:00:30.000",
    "date_modified": "2023-09-18T15:00:31.000",
    "request_status": "Pending",
    "responsible_agency": "Department of Sanitation",
    "final_address": "437 Vallette St",
    "address_councildis": "C",
    "status": "Assigned to Contractor",
    "contractor": "Richards Disposal",
    "rowid": "1036266",
    "final_x": "3687504.30658",
    "final_y": "530044.813889",
    "longitude": "-90.04916313587036",
    "latitude": "29.95125575647938",
    "geocoded_column": {
      "latitude": "29.95125575647938",
      "longitude": "-90.04916313587036"
    }
  },
  {
    "service_request": "2023-1036265",
    "request_type": "Property Maintenance",
    "request_reason": "Property Maintenance",
    "date_created": "2023-09-18T14:59:24.000",
    "date_modified": "2023-09-18T14:59:24.000",
    "request_status": "Pending",
    "responsible_agency": "Department of Code Enforcement",
    "final_address": "2626 General Pershing St",
    "address_councildis": "B",
    "status": "Pending",
    "rowid": "1036265",
    "final_x": "3670833.49345",
    "final_y": "524642.453436",
    "longitude": "-90.10198476835136",
    "latitude": "29.936904227761612",
    "geocoded_column": {
      "latitude": "29.936904227761612",
      "longitude": "-90.10198476835136"
    }
  },
  {
    "service_request": "2023-1036264",
    "request_type": "Trash/Recycling",
    "request_reason": "Replace Trash Cart",
    "date_created": "2023-09-18T14:58:04.000",
    "date_modified": "2023-09-18T14:58:05.000",
    "request_status": "Pending",
    "responsible_agency": "Department of Sanitation",
    "final_address": "1626 S Norman C Francis Prkwy",
    "address_councildis": "B",
    "status": "Assigned to Contractor",
    "contractor": "Richards Disposal",
    "rowid": "1036264",
    "final_x": "3669483.83214",
    "final_y": "531082.233602",
    "longitude": "-90.10602796948552",
    "latitude": "29.95465133866619",
    "geocoded_column": {
      "latitude": "29.95465133866619",
      "longitude": "-90.10602796948552"
    }
  },
  {
    "service_request": "2023-1036263",
    "request_type": "Property Maintenance",
    "request_reason": "Property Maintenance",
    "date_created": "2023-09-18T14:56:52.000",
    "date_modified": "2023-09-18T14:56:52.000",
    "request_status": "Pending",
    "responsible_agency": "Department of Code Enforcement",
    "final_address": "3511 S Saratoga St",
    "address_councildis": "B",
    "status": "Pending",
    "rowid": "1036263",
    "final_x": "3673014.23668",
    "final_y": "523029.692091",
    "longitude": "-90.09515505507049",
    "latitude": "29.932405038818406",
    "geocoded_column": {
      "latitude": "29.932405038818406",
      "longitude": "-90.09515505507049"
    }
  },
  {
    "service_request": "2023-1036262",
    "request_type": "Roads/Drainage",
    "request_reason": "Catch Basin - Clogged",
    "date_created": "2023-09-18T14:54:19.000",
    "date_modified": "2023-09-18T14:54:19.000",
    "request_status": "Pending",
    "responsible_agency": "Department of Public Works",
    "final_address": "6071 Vicksburg St",
    "address_councildis": "A",
    "status": "Pending",
    "rowid": "1036262",
    "final_x": "3669011.78695",
    "final_y": "547806.034514",
    "longitude": "-90.10695331903784",
    "latitude": "30.00065003984893",
    "geocoded_column": {
      "latitude": "30.00065003984893",
      "longitude": "-90.10695331903784"
    }
  },
  {
    "service_request": "2023-1036261",
    "request_type": "Parks & Parkways",
    "request_reason": "Request Tree Service (Right of Way/Public Property)",
    "date_created": "2023-09-18T14:51:03.000",
    "date_modified": "2023-09-18T14:51:04.000",
    "request_status": "Pending",
    "responsible_agency": "Department of Parks & Parkway",
    "final_address": "2627 Banks St",
    "address_councildis": "B",
    "status": "Pending",
    "rowid": "1036261",
    "final_x": "3674896.59169",
    "final_y": "534022.542533",
    "longitude": "-90.08883570901338",
    "latitude": "29.962575679692623",
    "geocoded_column": {
      "latitude": "29.962575679692623",
      "longitude": "-90.08883570901338"
    }
  },
  {
    "service_request": "2023-1036260",
    "request_type": "Trash/Recycling",
    "request_reason": "Request a Large Item Pick Up",
    "date_created": "2023-09-18T14:50:44.000",
    "date_modified": "2023-09-18T14:50:44.000",
    "request_status": "Pending",
    "responsible_agency": "Department of Sanitation",
    "final_address": "5440 Grand Bayou Dr",
    "address_councildis": "E",
    "status": "Assigned to Contractor",
    "contractor": "Waste Pro",
    "rowid": "1036260",
    "final_x": "3725934.35929",
    "final_y": "563605.984865",
    "longitude": "-89.92652079138843",
    "latitude": "30.042295509262967",
    "geocoded_column": {
      "latitude": "30.042295509262967",
      "longitude": "-89.92652079138843"
    }
  },
  {
    "service_request": "2023-1036259",
    "request_type": "Trash/Recycling",
    "request_reason": "Request a Large Item Pick Up",
    "date_created": "2023-09-18T14:49:22.000",
    "date_modified": "2023-09-18T14:49:23.000",
    "request_status": "Pending",
    "responsible_agency": "Department of Sanitation",
    "final_address": "10 Palm Ter",
    "address_councildis": "B",
    "status": "Assigned to Contractor",
    "contractor": "Richards Disposal",
    "rowid": "1036259",
    "final_x": "3671773.60148",
    "final_y": "521238.328441",
    "longitude": "-90.09913254951194",
    "latitude": "29.927516168928225",
    "geocoded_column": {
      "latitude": "29.927516168928225",
      "longitude": "-90.09913254951194"
    }
  },
  {
    "service_request": "2023-1036258",
    "request_type": "Trash/Recycling",
    "request_reason": "Replace Trash Cart",
    "date_created": "2023-09-18T14:46:08.000",
    "date_modified": "2023-09-18T14:46:09.000",
    "request_status": "Pending",
    "responsible_agency": "Department of Sanitation",
    "final_address": "1680 Pace Blvd",
    "address_councildis": "C",
    "status": "Assigned to Contractor",
    "contractor": "Richards Disposal",
    "rowid": "1036258",
    "final_x": "3694440.74691",
    "final_y": "524734.236796",
    "longitude": "-90.02745248968654",
    "latitude": "29.93643792821887",
    "geocoded_column": {
      "latitude": "29.93643792821887",
      "longitude": "-90.02745248968654"
    }
  },
  {
    "service_request": "2023-1036257",
    "request_type": "Trash/Recycling",
    "request_reason": "Order Trash Cart",
    "date_created": "2023-09-18T14:45:40.000",
    "date_modified": "2023-09-18T14:45:40.000",
    "request_status": "Pending",
    "responsible_agency": "Department of Sanitation",
    "final_address": "900 Third St",
    "address_councildis": "B",
    "status": "Assigned to Contractor",
    "contractor": "Richards Disposal",
    "rowid": "1036257",
    "final_x": "3677920.26446",
    "final_y": "520578.465528",
    "longitude": "-90.07975182256729",
    "latitude": "29.92551828305721",
    "geocoded_column": {
      "latitude": "29.92551828305721",
      "longitude": "-90.07975182256729"
    }
  },
  {
    "service_request": "2023-1036256",
    "request_type": "Traffic Signals/Signs/Striping/Streetlights",
    "request_reason": "Road Surface Marking Maintenance-Parking Lane",
    "date_created": "2023-09-18T14:43:35.000",
    "date_modified": "2023-09-18T14:43:35.000",
    "request_status": "Pending",
    "responsible_agency": "Department of Public Works",
    "final_address": "1825 Gentilly Blvd",
    "address_councildis": "A",
    "status": "Pending",
    "rowid": "1036256",
    "final_x": "3678685.69147",
    "final_y": "542481.200589",
    "longitude": "-90.07657727685418",
    "latitude": "29.98572037741659",
    "geocoded_column": {
      "latitude": "29.98572037741659",
      "longitude": "-90.07657727685418"
    }
  },
  {
    "service_request": "2023-1036255",
    "request_type": "Trash/Recycling",
    "request_reason": "Order Trash Cart",
    "date_created": "2023-09-18T14:40:53.000",
    "date_modified": "2023-09-18T14:40:53.000",
    "request_status": "Pending",
    "responsible_agency": "Department of Sanitation",
    "final_address": "2366 Beck St",
    "address_councildis": "C",
    "status": "Assigned to Contractor",
    "contractor": "Richards Disposal",
    "rowid": "1036255",
    "final_x": "3700356.72861",
    "final_y": "521879.629306",
    "longitude": "-90.00887980769949",
    "latitude": "29.92840203135869",
    "geocoded_column": {
      "latitude": "29.92840203135869",
      "longitude": "-90.00887980769949"
    }
  },
  {
    "service_request": "2023-1036254",
    "request_type": "Trash/Recycling",
    "request_reason": "Illegal Dumping",
    "date_created": "2023-09-18T14:39:18.000",
    "date_modified": "2023-09-18T14:39:18.000",
    "request_status": "Pending",
    "responsible_agency": "Department of Sanitation",
    "final_address": "2439 Laharpe St",
    "address_councildis": "D",
    "status": "Pending",
    "rowid": "1036254",
    "final_x": "3679493.88335",
    "final_y": "539437.282186",
    "longitude": "-90.07413018210738",
    "latitude": "29.9773262617581",
    "geocoded_column": {
      "latitude": "29.9773262617581",
      "longitude": "-90.07413018210738"
    }
  },
  {
    "service_request": "2023-1036253",
    "request_type": "Traffic Signals/Signs/Striping/Streetlights",
    "request_reason": "Street Light Outage/Malfunction",
    "date_created": "2023-09-18T14:37:50.000",
    "date_modified": "2023-09-18T14:37:51.000",
    "request_status": "Pending",
    "responsible_agency": "Department of Public Works",
    "final_address": "47 Neron Pl",
    "address_councildis": "A",
    "status": "Assigned to Contractor",
    "contractor": "Legacy Professional Services",
    "rowid": "1036253",
    "final_x": "3665543.3945",
    "final_y": "530400.61741",
    "longitude": "-90.11849321681734",
    "latitude": "29.95289257971964",
    "geocoded_column": {
      "latitude": "29.95289257971964",
      "longitude": "-90.11849321681734"
    }
  },
  {
    "service_request": "2023-1036252",
    "request_type": "Trash/Recycling",
    "request_reason": "Order Trash Cart",
    "date_created": "2023-09-18T14:37:49.000",
    "date_modified": "2023-09-18T14:37:50.000",
    "request_status": "Pending",
    "responsible_agency": "Department of Sanitation",
    "final_address": "3117 Copernicus St",
    "address_councildis": "C",
    "status": "Assigned to Contractor",
    "contractor": "Richards Disposal",
    "rowid": "1036252",
    "final_x": "3695563.23645",
    "final_y": "524126.51206",
    "longitude": "-90.02393069131469",
    "latitude": "29.934731670666352",
    "geocoded_column": {
      "latitude": "29.934731670666352",
      "longitude": "-90.02393069131469"
    }
  },
  {
    "service_request": "2023-1036251",
    "request_type": "Property Maintenance",
    "request_reason": "Property Maintenance",
    "date_created": "2023-09-18T14:35:02.000",
    "date_modified": "2023-09-18T14:35:03.000",
    "request_status": "Pending",
    "responsible_agency": "Department of Code Enforcement",
    "final_address": "7610 Avalon Way",
    "address_councildis": "E",
    "status": "Pending",
    "rowid": "1036251",
    "final_x": "3709007.3235",
    "final_y": "564579.261985",
    "longitude": "-89.97997997552581",
    "latitude": "30.045532199645777",
    "geocoded_column": {
      "latitude": "30.045532199645777",
      "longitude": "-89.97997997552581"
    }
  },
  {
    "service_request": "2023-1036250",
    "request_type": "Traffic Signals/Signs/Striping/Streetlights",
    "request_reason": "Additional signage",
    "date_created": "2023-09-18T14:30:28.000",
    "date_modified": "2023-09-18T14:30:29.000",
    "request_status": "Pending",
    "responsible_agency": "Department of Public Works",
    "final_address": "BELFORT AVE & GENTILLY BLVD",
    "address_councildis": "D",
    "status": "Pending",
    "rowid": "1036250",
    "final_x": "3678790.9",
    "final_y": "542517.68",
    "longitude": "-90.07624370140638",
    "latitude": "29.985817509760505",
    "geocoded_column": {
      "latitude": "29.985817509760505",
      "longitude": "-90.07624370140638"
    }
  },
  {
    "service_request": "2023-1036249",
    "request_type": "Trash/Recycling",
    "request_reason": "Return Recycling Cart",
    "date_created": "2023-09-18T14:27:31.000",
    "date_modified": "2023-09-18T14:27:31.000",
    "request_status": "Pending",
    "responsible_agency": "Department of Sanitation",
    "final_address": "3429 Royal St",
    "address_councildis": "C",
    "status": "Pending",
    "rowid": "1036249",
    "final_x": "3690050.14492",
    "final_y": "534176.520453",
    "longitude": "-90.04097752340337",
    "latitude": "29.962537818132454",
    "geocoded_column": {
      "latitude": "29.962537818132454",
      "longitude": "-90.04097752340337"
    }
  },
  {
    "service_request": "2023-1036248",
    "request_type": "Trash/Recycling",
    "request_reason": "Request a Large Item Pick Up",
    "date_created": "2023-09-18T14:25:57.000",
    "date_modified": "2023-09-18T14:25:58.000",
    "request_status": "Pending",
    "responsible_agency": "Department of Sanitation",
    "final_address": "11641 W Barrington Dr",
    "address_councildis": "E",
    "status": "Assigned to Contractor",
    "contractor": "Waste Pro",
    "rowid": "1036248",
    "final_x": "3713692.57778",
    "final_y": "565382.519842",
    "longitude": "-89.96514211828716",
    "latitude": "30.04758784351589",
    "geocoded_column": {
      "latitude": "30.04758784351589",
      "longitude": "-89.96514211828716"
    }
  },
  {
    "service_request": "2023-1036247",
    "request_type": "Trash/Recycling",
    "request_reason": "Dead Animal Pick Up",
    "date_created": "2023-09-18T14:24:06.000",
    "date_modified": "2023-09-18T14:24:06.000",
    "request_status": "Pending",
    "responsible_agency": "Department of Sanitation",
    "final_address": "1815 Adams St",
    "address_councildis": "A",
    "status": "Assigned to Contractor",
    "contractor": "Richards Disposal",
    "rowid": "1036247",
    "final_x": "3664591.64116",
    "final_y": "529013.347776",
    "longitude": "-90.12154477081245",
    "latitude": "29.94910574867119",
    "geocoded_column": {
      "latitude": "29.94910574867119",
      "longitude": "-90.12154477081245"
    }
  },
  {
    "service_request": "2023-1036246",
    "request_type": "Abandoned Vehicles",
    "request_reason": "Abandoned/Junk Vehicles",
    "date_created": "2023-09-18T14:23:22.000",
    "date_modified": "2023-09-18T14:23:22.000",
    "request_status": "Pending",
    "responsible_agency": "Department of Public Works",
    "final_address": "CONSTANCE ST & MELPOMENE ST",
    "address_councildis": "B",
    "status": "Pending",
    "rowid": "1036246",
    "final_x": "3680817.2",
    "final_y": "524793.68",
    "longitude": "-90.07046044311826",
    "latitude": "29.93702127004489",
    "geocoded_column": {
      "latitude": "29.93702127004489",
      "longitude": "-90.07046044311826"
    }
  },
  {
    "service_request": "2023-1036245",
    "request_type": "Parks & Parkways",
    "request_reason": "Request Tree Service (Right of Way/Public Property)",
    "date_created": "2023-09-18T14:20:07.000",
    "date_modified": "2023-09-18T15:34:30.000",
    "case_close_date": "2023-09-18T10:34:30.000",
    "request_status": "Closed",
    "responsible_agency": "Department of Parks & Parkway",
    "final_address": "1238 Third St",
    "address_councildis": "B",
    "status": "Duplicate Request",
    "rowid": "1036245",
    "final_x": "3677139.57621",
    "final_y": "521698.769209",
    "longitude": "-90.08217760126199",
    "latitude": "29.928622215928",
    "geocoded_column": {
      "latitude": "29.928622215928",
      "longitude": "-90.08217760126199"
    }
  },
  {
    "service_request": "2023-1036244",
    "request_type": "Trash/Recycling",
    "request_reason": "Repair Trash Cart",
    "date_created": "2023-09-18T14:17:10.000",
    "date_modified": "2023-09-18T14:17:11.000",
    "request_status": "Pending",
    "responsible_agency": "Department of Sanitation",
    "final_address": "8811 Nelson St",
    "address_councildis": "A",
    "status": "Assigned to Contractor",
    "contractor": "Richards Disposal",
    "rowid": "1036244",
    "final_x": "3663226.59879",
    "final_y": "533613.264773",
    "longitude": "-90.12570175544538",
    "latitude": "29.961793653233208",
    "geocoded_column": {
      "latitude": "29.961793653233208",
      "longitude": "-90.12570175544538"
    }
  },
  {
    "service_request": "2023-1036242",
    "request_type": "Property Maintenance",
    "request_reason": "Property Maintenance",
    "date_created": "2023-09-18T14:15:54.000",
    "date_modified": "2023-09-18T14:15:54.000",
    "request_status": "Pending",
    "responsible_agency": "Department of Code Enforcement",
    "final_address": "700 BLK Huntlee Dr",
    "address_councildis": "C",
    "status": "Pending",
    "rowid": "1036242",
    "final_x": "3701775.28736",
    "final_y": "519824.296753",
    "longitude": "-90.00447700249269",
    "latitude": "29.922705414635434",
    "geocoded_column": {
      "latitude": "29.922705414635434",
      "longitude": "-90.00447700249269"
    }
  },
  {
    "service_request": "2023-1036241",
    "request_type": "Trash/Recycling",
    "request_reason": "Start Trash Service",
    "date_created": "2023-09-18T14:15:09.000",
    "date_modified": "2023-09-18T14:15:10.000",
    "request_status": "Pending",
    "responsible_agency": "Department of Sanitation",
    "final_address": "6006 Wilton Dr",
    "address_councildis": "D",
    "status": "Assigned to Contractor",
    "contractor": "IV Waste",
    "rowid": "1036241",
    "final_x": "3681666.41263",
    "final_y": "554723.343128",
    "longitude": "-90.06673495750324",
    "latitude": "30.01929165473597",
    "geocoded_column": {
      "latitude": "30.01929165473597",
      "longitude": "-90.06673495750324"
    }
  },
  {
    "service_request": "2023-1036240",
    "request_type": "Trash/Recycling",
    "request_reason": "Return Trash Cart",
    "date_created": "2023-09-18T14:14:19.000",
    "date_modified": "2023-09-18T14:14:20.000",
    "request_status": "Pending",
    "responsible_agency": "Department of Sanitation",
    "final_address": "856 Wilson Dr",
    "address_councildis": "A",
    "status": "Assigned to Contractor",
    "contractor": "Richards Disposal",
    "rowid": "1036240",
    "final_x": "3674102.72449",
    "final_y": "539647.193802",
    "longitude": "-90.09115008421188",
    "latitude": "29.978065249657107",
    "geocoded_column": {
      "latitude": "29.978065249657107",
      "longitude": "-90.09115008421188"
    }
  },
  {
    "service_request": "2023-1036239",
    "request_type": "Property Maintenance",
    "request_reason": "Property Maintenance",
    "date_created": "2023-09-18T14:14:05.000",
    "date_modified": "2023-09-18T14:14:05.000",
    "request_status": "Pending",
    "responsible_agency": "Department of Code Enforcement",
    "final_address": "709 Huntlee Dr",
    "address_councildis": "C",
    "status": "Pending",
    "rowid": "1036239",
    "final_x": "3701728.74538",
    "final_y": "519991.904632",
    "longitude": "-90.00461778091096",
    "latitude": "29.923167762652028",
    "geocoded_column": {
      "latitude": "29.923167762652028",
      "longitude": "-90.00461778091096"
    }
  },
  {
    "service_request": "2023-1036238",
    "request_type": "Trash/Recycling",
    "request_reason": "Stop Trash Service",
    "date_created": "2023-09-18T14:13:42.000",
    "date_modified": "2023-09-18T16:10:37.000",
    "case_close_date": "2023-09-18T11:10:37.000",
    "request_status": "Closed",
    "responsible_agency": "Department of Sanitation",
    "final_address": "6006 Wilton Dr",
    "address_councildis": "D",
    "status": "Invalid Request",
    "contractor": "IV Waste",
    "contractor_action": "duplicate",
    "rowid": "1036238",
    "final_x": "3681666.41263",
    "final_y": "554723.343128",
    "longitude": "-90.06673495750324",
    "latitude": "30.01929165473597",
    "geocoded_column": {
      "latitude": "30.01929165473597",
      "longitude": "-90.06673495750324"
    }
  },
  {
    "service_request": "2023-1036237",
    "request_type": "Property Maintenance",
    "request_reason": "Property Maintenance",
    "date_created": "2023-09-18T14:12:53.000",
    "date_modified": "2023-09-18T14:12:53.000",
    "request_status": "Pending",
    "responsible_agency": "Department of Code Enforcement",
    "final_address": "5913 N Prieur St",
    "address_councildis": "E",
    "status": "Pending",
    "rowid": "1036237",
    "final_x": "3700122.65277",
    "final_y": "536407.784903",
    "longitude": "-90.00908870209004",
    "latitude": "29.968356777400672",
    "geocoded_column": {
      "latitude": "29.968356777400672",
      "longitude": "-90.00908870209004"
    }
  },
  {
    "service_request": "2023-1036236",
    "request_type": "Property Maintenance",
    "request_reason": "Property Maintenance",
    "date_created": "2023-09-18T14:12:17.000",
    "date_modified": "2023-09-18T14:12:44.000",
    "request_status": "Pending",
    "responsible_agency": "Department of Code Enforcement",
    "final_address": "717 Huntlee Dr",
    "address_councildis": "C",
    "status": "Pending",
    "rowid": "1036236",
    "final_x": "3701724.49629",
    "final_y": "519879.66732",
    "longitude": "-90.0046353018508",
    "latitude": "29.92285928418246",
    "geocoded_column": {
      "latitude": "29.92285928418246",
      "longitude": "-90.0046353018508"
    }
  },
  {
    "service_request": "2023-1036235",
    "request_type": "Trash/Recycling",
    "request_reason": "Request a Large Item Pick Up",
    "date_created": "2023-09-18T14:09:34.000",
    "date_modified": "2023-09-18T14:09:34.000",
    "request_status": "Pending",
    "responsible_agency": "Department of Sanitation",
    "final_address": "7800 S Coronet Ct Apt D",
    "address_councildis": "E",
    "status": "Assigned to Contractor",
    "contractor": "Waste Pro",
    "rowid": "1036235",
    "final_x": "3702979.29028",
    "final_y": "557180.295387",
    "longitude": "-89.99930363038942",
    "latitude": "30.025382321245743",
    "geocoded_column": {
      "latitude": "30.025382321245743",
      "longitude": "-89.99930363038942"
    }
  },
  {
    "service_request": "2023-1036234",
    "request_type": "Trash/Recycling",
    "request_reason": "Order Recycling Cart",
    "date_created": "2023-09-18T14:08:00.000",
    "date_modified": "2023-09-18T14:08:01.000",
    "request_status": "Pending",
    "responsible_agency": "Department of Sanitation",
    "final_address": "4320 Coliseum St Apt A",
    "address_councildis": "B",
    "status": "Pending",
    "rowid": "1036234",
    "final_x": "3671190.12462",
    "final_y": "519785.144184",
    "longitude": "-90.10102378261954",
    "latitude": "29.923537644484384",
    "geocoded_column": {
      "latitude": "29.923537644484384",
      "longitude": "-90.10102378261954"
    }
  },
  {
    "service_request": "2023-1036233",
    "request_type": "Abandoned Vehicles",
    "request_reason": "Abandoned/Junk Vehicles",
    "date_created": "2023-09-18T14:01:12.000",
    "date_modified": "2023-09-18T14:02:03.000",
    "request_status": "Pending",
    "responsible_agency": "Department of Public Works",
    "final_address": "1916 Mandeville St",
    "address_councildis": "D",
    "status": "Pending",
    "rowid": "1036233",
    "final_x": "3685494.54396",
    "final_y": "539479.80033",
    "longitude": "-90.0551766492465",
    "latitude": "29.977260485980292",
    "geocoded_column": {
      "latitude": "29.977260485980292",
      "longitude": "-90.0551766492465"
    }
  },
  {
    "service_request": "2023-1036232",
    "request_type": "Trash/Recycling",
    "request_reason": "Illegal Dumping",
    "date_created": "2023-09-18T13:59:12.000",
    "date_modified": "2023-09-18T13:59:12.000",
    "request_status": "Pending",
    "responsible_agency": "Department of Sanitation",
    "final_address": "8900 BLK Quince St",
    "address_councildis": "A",
    "status": "Pending",
    "rowid": "1036232",
    "final_x": "3667385.55168",
    "final_y": "538784.420578",
    "longitude": "-90.11239440545704",
    "latitude": "29.975891432030217",
    "geocoded_column": {
      "latitude": "29.975891432030217",
      "longitude": "-90.11239440545704"
    }
  },
  {
    "service_request": "2023-1036231",
    "request_type": "Roads/Drainage",
    "request_reason": "Pothole",
    "date_created": "2023-09-18T13:58:51.000",
    "date_modified": "2023-09-18T13:58:51.000",
    "request_status": "Pending",
    "responsible_agency": "Department of Public Works",
    "final_address": "FRANKFORT ST & FRANKLIN AVE",
    "address_councildis": "D",
    "status": "Pending",
    "rowid": "1036231",
    "final_x": "3686293.7",
    "final_y": "557115.48",
    "longitude": "-90.05202981656129",
    "latitude": "30.025727690286928",
    "geocoded_column": {
      "latitude": "30.025727690286928",
      "longitude": "-90.05202981656129"
    }
  },
  {
    "service_request": "2023-1036230",
    "request_type": "Property Maintenance",
    "request_reason": "Property Maintenance",
    "date_created": "2023-09-18T13:57:23.000",
    "date_modified": "2023-09-18T13:57:23.000",
    "request_status": "Pending",
    "responsible_agency": "Department of Code Enforcement",
    "final_address": "4816 Majestic Oaks Dr",
    "address_councildis": "D",
    "status": "Pending",
    "rowid": "1036230",
    "final_x": "3697592.51555",
    "final_y": "554777.423512",
    "longitude": "-90.01641221196633",
    "latitude": "30.018946679689964",
    "geocoded_column": {
      "latitude": "30.018946679689964",
      "longitude": "-90.01641221196633"
    }
  },
  {
    "service_request": "2023-1036229",
    "request_type": "Abandoned Vehicles",
    "request_reason": "Abandoned/Junk Vehicles",
    "date_created": "2023-09-18T13:55:11.000",
    "date_modified": "2023-09-18T13:56:35.000",
    "request_status": "Pending",
    "responsible_agency": "Department of Public Works",
    "final_address": "1115 Treme St",
    "address_councildis": "C",
    "status": "Pending",
    "rowid": "1036229",
    "final_x": "3681756.78568",
    "final_y": "535096.081606",
    "longitude": "-90.0671347047233",
    "latitude": "29.965320887962434",
    "geocoded_column": {
      "latitude": "29.965320887962434",
      "longitude": "-90.0671347047233"
    }
  },
  {
    "service_request": "2023-1036228",
    "request_type": "Traffic Signals/Signs/Striping/Streetlights",
    "request_reason": "Street Light Outage/Malfunction",
    "date_created": "2023-09-18T13:55:10.000",
    "date_modified": "2023-09-18T13:55:11.000",
    "request_status": "Pending",
    "responsible_agency": "Department of Public Works",
    "final_address": "N DORGENOIS ST & NEW ORLEANS ST",
    "address_councildis": "D",
    "status": "Assigned to Contractor",
    "contractor": "Legacy Professional Services",
    "rowid": "1036228",
    "final_x": "3681994.6",
    "final_y": "541252.18",
    "longitude": "-90.06616870874959",
    "latitude": "29.982240796435047",
    "geocoded_column": {
      "latitude": "29.982240796435047",
      "longitude": "-90.06616870874959"
    }
  },
  {
    "service_request": "2023-1036227",
    "request_type": "Abandoned Vehicles",
    "request_reason": "Abandoned/Junk Vehicles",
    "date_created": "2023-09-18T13:55:09.000",
    "date_modified": "2023-09-18T13:55:09.000",
    "request_status": "Pending",
    "responsible_agency": "Department of Public Works",
    "final_address": "1019 Vallette St",
    "address_councildis": "C",
    "status": "Pending",
    "rowid": "1036227",
    "final_x": "3687402.96118",
    "final_y": "527797.254783",
    "longitude": "-90.04956264310515",
    "latitude": "29.94507885864932",
    "geocoded_column": {
      "latitude": "29.94507885864932",
      "longitude": "-90.04956264310515"
    }
  },
  {
    "service_request": "2023-1036226",
    "request_type": "Property Maintenance",
    "request_reason": "Property Maintenance",
    "date_created": "2023-09-18T13:52:33.000",
    "date_modified": "2023-09-18T13:54:08.000",
    "request_status": "Pending",
    "responsible_agency": "Department of Code Enforcement",
    "final_address": "10115 Boulevard Way",
    "address_councildis": "E",
    "status": "Pending",
    "rowid": "1036226",
    "final_x": "3708570.53515",
    "final_y": "564781.538978",
    "longitude": "-89.98135288555154",
    "latitude": "30.046102558140497",
    "geocoded_column": {
      "latitude": "30.046102558140497",
      "longitude": "-89.98135288555154"
    }
  },
  {
    "service_request": "2023-1036225",
    "request_type": "Abandoned Vehicles",
    "request_reason": "Abandoned/Junk Vehicles",
    "date_created": "2023-09-18T13:50:33.000",
    "date_modified": "2023-09-18T13:50:33.000",
    "request_status": "Pending",
    "responsible_agency": "Department of Public Works",
    "final_address": "8015 Lacombe St",
    "address_councildis": "E",
    "status": "Pending",
    "rowid": "1036225",
    "final_x": "3709000.89329",
    "final_y": "566443.245539",
    "longitude": "-89.97993071574949",
    "latitude": "30.05065761387577",
    "geocoded_column": {
      "latitude": "30.05065761387577",
      "longitude": "-89.97993071574949"
    }
  },
  {
    "service_request": "2023-1036224",
    "request_type": "Traffic Signals/Signs/Striping/Streetlights",
    "request_reason": "Traffic Signal Malfunctioning/Damaged",
    "date_created": "2023-09-18T13:47:39.000",
    "date_modified": "2023-09-18T13:47:39.000",
    "request_status": "Pending",
    "responsible_agency": "Department of Public Works",
    "final_address": "AIRLINE HWY & PALM ST",
    "address_councildis": "A",
    "status": "Pending",
    "rowid": "1036224",
    "final_x": "3664851.6",
    "final_y": "537228.48",
    "longitude": "-90.12044939856273",
    "latitude": "29.971687111152686",
    "geocoded_column": {
      "latitude": "29.971687111152686",
      "longitude": "-90.12044939856273"
    }
  },
  {
    "service_request": "2023-1036223",
    "request_type": "Trash/Recycling",
    "request_reason": "MIssed Recycling Pick-Up",
    "date_created": "2023-09-18T13:46:52.000",
    "date_modified": "2023-09-18T13:46:53.000",
    "request_status": "Pending",
    "responsible_agency": "Department of Sanitation",
    "final_address": "2923 Hudson St, New Orleans, Louisiana, 70114",
    "address_councildis": "C",
    "status": "Assigned to Contractor",
    "contractor": "Richards Disposal",
    "rowid": "1036223",
    "final_x": "3693997.31357",
    "final_y": "520299.51756",
    "longitude": "-90.02901178845543",
    "latitude": "29.92425784808203",
    "geocoded_column": {
      "latitude": "29.92425784808203",
      "longitude": "-90.02901178845543"
    }
  },
  {
    "service_request": "2023-1036222",
    "request_type": "Property Maintenance",
    "request_reason": "Property Maintenance",
    "date_created": "2023-09-18T13:46:20.000",
    "date_modified": "2023-09-18T13:46:20.000",
    "request_status": "Pending",
    "responsible_agency": "Department of Code Enforcement",
    "status": "Pending",
    "rowid": "1036222",
    "longitude": "0.0",
    "latitude": "0.0",
    "geocoded_column": {
      "latitude": "0.0",
      "longitude": "0.0"
    }
  },
  {
    "service_request": "2023-1036221",
    "request_type": "Trash/Recycling",
    "request_reason": "Order Recycling Cart",
    "date_created": "2023-09-18T13:41:15.000",
    "date_modified": "2023-09-18T13:41:15.000",
    "request_status": "Pending",
    "responsible_agency": "Department of Sanitation",
    "final_address": "4125 Marais St",
    "address_councildis": "D",
    "status": "Pending",
    "rowid": "1036221",
    "final_x": "3692385.81641",
    "final_y": "535609.659718",
    "longitude": "-90.03355048670355",
    "latitude": "29.966405805314118",
    "geocoded_column": {
      "latitude": "29.966405805314118",
      "longitude": "-90.03355048670355"
    }
  },
  {
    "service_request": "2023-1036220",
    "request_type": "Trash/Recycling",
    "request_reason": "Order Trash Cart",
    "date_created": "2023-09-18T13:40:14.000",
    "date_modified": "2023-09-18T13:40:15.000",
    "request_status": "Pending",
    "responsible_agency": "Department of Sanitation",
    "final_address": "4125 Marais St",
    "address_councildis": "D",
    "status": "Assigned to Contractor",
    "contractor": "IV Waste",
    "rowid": "1036220",
    "final_x": "3692385.81641",
    "final_y": "535609.659718",
    "longitude": "-90.03355048670355",
    "latitude": "29.966405805314118",
    "geocoded_column": {
      "latitude": "29.966405805314118",
      "longitude": "-90.03355048670355"
    }
  },
  {
    "service_request": "2023-1036219",
    "request_type": "Trash/Recycling",
    "request_reason": "Order Recycling Cart",
    "date_created": "2023-09-18T13:38:38.000",
    "date_modified": "2023-09-18T13:38:39.000",
    "request_status": "Pending",
    "responsible_agency": "Department of Sanitation",
    "final_address": "45 English Turn Dr",
    "address_councildis": "C",
    "status": "Pending",
    "rowid": "1036219",
    "final_x": "3721230.65234",
    "final_y": "513776.909234",
    "longitude": "-89.94329653451392",
    "latitude": "29.90544253046084",
    "geocoded_column": {
      "latitude": "29.90544253046084",
      "longitude": "-89.94329653451392"
    }
  },
  {
    "service_request": "2023-1036218",
    "request_type": "Trash/Recycling",
    "request_reason": "Replace Trash Cart",
    "date_created": "2023-09-18T13:38:07.000",
    "date_modified": "2023-09-18T13:38:08.000",
    "request_status": "Pending",
    "responsible_agency": "Department of Sanitation",
    "final_address": "2813 Orleans Ave",
    "address_councildis": "A",
    "status": "Assigned to Contractor",
    "contractor": "Richards Disposal",
    "rowid": "1036218",
    "final_x": "3676258.23637",
    "final_y": "537480.507272",
    "longitude": "-90.08441679567488",
    "latitude": "29.97204317491213",
    "geocoded_column": {
      "latitude": "29.97204317491213",
      "longitude": "-90.08441679567488"
    }
  },
  {
    "service_request": "2023-1036217",
    "request_type": "Trash/Recycling",
    "request_reason": "Request a Large Item Pick Up",
    "date_created": "2023-09-18T13:35:53.000",
    "date_modified": "2023-09-18T13:35:53.000",
    "request_status": "Pending",
    "responsible_agency": "Department of Sanitation",
    "final_address": "310 Huntlee Dr",
    "address_councildis": "C",
    "status": "Assigned to Contractor",
    "contractor": "Richards Disposal",
    "rowid": "1036217",
    "final_x": "3701984.30468",
    "final_y": "522556.674298",
    "longitude": "-90.00371713920508",
    "latitude": "29.93021184091118",
    "geocoded_column": {
      "latitude": "29.93021184091118",
      "longitude": "-90.00371713920508"
    }
  },
  {
    "service_request": "2023-1036216",
    "request_type": "Trash/Recycling",
    "request_reason": "Request a Large Item Pick Up",
    "date_created": "2023-09-18T13:35:05.000",
    "date_modified": "2023-09-18T13:35:06.000",
    "request_status": "Pending",
    "responsible_agency": "Department of Sanitation",
    "final_address": "4976 Spain St",
    "address_councildis": "D",
    "status": "Assigned to Contractor",
    "contractor": "IV Waste",
    "rowid": "1036216",
    "final_x": "3684856.97474",
    "final_y": "551390.815061",
    "longitude": "-90.05677119309495",
    "latitude": "30.010031062049592",
    "geocoded_column": {
      "latitude": "30.010031062049592",
      "longitude": "-90.05677119309495"
    }
  },
  {
    "service_request": "2023-1036215",
    "request_type": "Trash/Recycling",
    "request_reason": "Illegal Dumping",
    "date_created": "2023-09-18T13:31:39.000",
    "date_modified": "2023-09-18T13:33:45.000",
    "request_status": "Pending",
    "responsible_agency": "Department of Sanitation",
    "final_address": "7500 BLK Shubrick Ave",
    "address_councildis": "E",
    "status": "Pending",
    "rowid": "1036215",
    "final_x": "3706881.36638",
    "final_y": "563531.960322",
    "longitude": "-89.98673788528974",
    "latitude": "30.042721407905066",
    "geocoded_column": {
      "latitude": "30.042721407905066",
      "longitude": "-89.98673788528974"
    }
  },
  {
    "service_request": "2023-1036214",
    "request_type": "Trash/Recycling",
    "request_reason": "Missed Trash Pick-Up",
    "date_created": "2023-09-18T13:30:48.000",
    "date_modified": "2023-09-18T13:30:49.000",
    "request_status": "Pending",
    "responsible_agency": "Department of Sanitation",
    "final_address": "8500 BLK Palmetto St",
    "address_councildis": "A",
    "status": "Assigned to Contractor",
    "contractor": "Richards Disposal",
    "rowid": "1036214",
    "final_x": "3667011.78471",
    "final_y": "536294.574836",
    "longitude": "-90.11365857612957",
    "latitude": "29.969056132958368",
    "geocoded_column": {
      "latitude": "29.969056132958368",
      "longitude": "-90.11365857612957"
    }
  },
  {
    "service_request": "2023-1036213",
    "request_type": "Abandoned Vehicles",
    "request_reason": "Abandoned/Junk Vehicles",
    "date_created": "2023-09-18T13:30:04.000",
    "date_modified": "2023-09-18T13:30:04.000",
    "request_status": "Pending",
    "responsible_agency": "Department of Public Works",
    "final_address": "211 Adams St",
    "address_councildis": "A",
    "status": "Pending",
    "rowid": "1036213",
    "final_x": "3660794.96077",
    "final_y": "524842.370236",
    "longitude": "-90.1336705004095",
    "latitude": "29.937746743948534",
    "geocoded_column": {
      "latitude": "29.937746743948534",
      "longitude": "-90.1336705004095"
    }
  },
  {
    "service_request": "2023-1036212",
    "request_type": "Trash/Recycling",
    "request_reason": "Missed Trash Pick-Up",
    "date_created": "2023-09-18T13:29:22.000",
    "date_modified": "2023-09-18T13:29:23.000",
    "request_status": "Pending",
    "responsible_agency": "Department of Sanitation",
    "final_address": "4225 Tulane Ave",
    "address_councildis": "A",
    "status": "Assigned to Contractor",
    "contractor": "Richards Disposal",
    "rowid": "1036212",
    "final_x": "3668765.16673",
    "final_y": "536655.103303",
    "longitude": "-90.10810908286071",
    "latitude": "29.96999603063133",
    "geocoded_column": {
      "latitude": "29.96999603063133",
      "longitude": "-90.10810908286071"
    }
  },
  {
    "service_request": "2023-1036211",
    "request_type": "Property Maintenance",
    "request_reason": "Property Maintenance",
    "date_created": "2023-09-18T13:29:20.000",
    "date_modified": "2023-09-18T13:29:20.000",
    "request_status": "Pending",
    "responsible_agency": "Department of Code Enforcement",
    "final_address": "5239 Chestnut St",
    "address_councildis": "B",
    "status": "Pending",
    "rowid": "1036211",
    "final_x": "3667757.3042",
    "final_y": "519402.279735",
    "longitude": "-90.11187284346087",
    "latitude": "29.922585956424637",
    "geocoded_column": {
      "latitude": "29.922585956424637",
      "longitude": "-90.11187284346087"
    }
  },