[
  {
    "service_request": "2023-1045111",
    "request_type": "Trash/Recycling",
    "request_reason": "Illegal Dumping",
    "date_created": "2023-10-23T00:41:37.000",
    "date_modified": "2023-10-23T00:41:37.000",
    "request_status": "Pending",
    "responsible_agency": "Department of Sanitation",
    "final_address": "909 Barracks St",
    "address_councildis": "C",
    "status": "Pending",
    "rowid": "1045111",
    "final_x": "3683253.63797",
    "final_y": "534715.271622",
    "longitude": "-90.06242106306757",
    "latitude": "29.964228225103092",
    "geocoded_column": {
      "latitude": "29.964228225103092",
      "longitude": "-90.06242106306757"
    }
  },
  {
    "service_request": "2023-1045110",
    "request_type": "Traffic Signals/Signs/Striping/Streetlights",
    "request_reason": "Street Light Outage/Malfunction",
    "date_created": "2023-10-22T23:30:14.000",
    "date_modified": "2023-10-22T23:30:15.000",
    "request_status": "Pending",
    "responsible_agency": "Department of Public Works",
    "final_address": "330 Newton St",
    "address_councildis": "C",
    "status": "Assigned to Contractor",
    "contractor": "Legacy Professional Services",
    "rowid": "1045110",
    "final_x": "3686453.95266",
    "final_y": "527970.608319",
    "longitude": "-90.05255283301311",
    "latitude": "29.94558472359371",
    "geocoded_column": {
      "latitude": "29.94558472359371",
      "longitude": "-90.05255283301311"
    }
  },
  {
    "service_request": "2023-1045109",
    "request_type": "Traffic Signals/Signs/Striping/Streetlights",
    "request_reason": "Street Light Outage/Malfunction",
    "date_created": "2023-10-22T23:28:53.000",
    "date_modified": "2023-10-22T23:28:54.000",
    "request_status": "Pending",
    "responsible_agency": "Department of Public Works",
    "final_address": "330 Newton St",
    "address_councildis": "C",
    "status": "Assigned to Contractor",
    "contractor": "Legacy Professional Services",
    "rowid": "1045109",
    "final_x": "3686453.95266",
    "final_y": "527970.608319",
    "longitude": "-90.05255283301311",
    "latitude": "29.94558472359371",
    "geocoded_column": {
      "latitude": "29.94558472359371",
      "longitude": "-90.05255283301311"
    }
  },
  {
    "service_request": "2023-1045108",
    "request_type": "Roads/Drainage",
    "request_reason": "Street Flooding / Drainage",
    "date_created": "2023-10-22T23:13:43.000",
    "date_modified": "2023-10-22T23:13:43.000",
    "request_status": "Pending",
    "responsible_agency": "Department of Public Works",
    "final_address": "2603 Valence St",
    "address_councildis": "B",
    "status": "Pending",
    "rowid": "1045108",
    "final_x": "3669430.5771",
    "final_y": "524348.907836",
    "longitude": "-90.10642378388877",
    "latitude": "29.936138451633667",
    "geocoded_column": {
      "latitude": "29.936138451633667",
      "longitude": "-90.10642378388877"
    }
  },
  {
    "service_request": "2023-1045107",
    "request_type": "Trash/Recycling",
    "request_reason": "Request a Large Item Pick Up",
    "date_created": "2023-10-22T23:12:17.000",
    "date_modified": "2023-10-22T23:12:18.000",
    "request_status": "Pending",
    "responsible_agency": "Department of Sanitation",
    "final_address": "1015 N Broad St",
    "address_councildis": "A",
    "status": "Assigned to Contractor",
    "contractor": "Richards Disposal",
    "rowid": "1045107",
    "final_x": "3677412.77058",
    "final_y": "538027.154697",
    "longitude": "-90.08075171356579",
    "latitude": "29.973511616164796",
    "geocoded_column": {
      "latitude": "29.973511616164796",
      "longitude": "-90.08075171356579"
    }
  },
  {
    "service_request": "2023-1045106",
    "request_type": "Trash/Recycling",
    "request_reason": "Request a Large Item Pick Up",
    "date_created": "2023-10-22T23:07:55.000",
    "date_modified": "2023-10-22T23:07:56.000",
    "request_status": "Pending",
    "responsible_agency": "Department of Sanitation",
    "final_address": "1015 Broadway St",
    "address_councildis": "A",
    "status": "Assigned to Contractor",
    "contractor": "Richards Disposal",
    "rowid": "1045106",
    "final_x": "3663890.02899",
    "final_y": "525974.516413",
    "longitude": "-90.12386135530822",
    "latitude": "29.940770320618906",
    "geocoded_column": {
      "latitude": "29.940770320618906",
      "longitude": "-90.12386135530822"
    }
  },
  {
    "service_request": "2023-1045105",
    "request_type": "Traffic Signals/Signs/Striping/Streetlights",
    "request_reason": "Street Light Outage/Malfunction",
    "date_created": "2023-10-22T22:51:27.000",
    "date_modified": "2023-10-22T22:51:28.000",
    "request_status": "Pending",
    "responsible_agency": "Department of Public Works",
    "status": "Assigned to Contractor",
    "contractor": "Legacy Professional Services",
    "rowid": "1045105",
    "longitude": "0.0",
    "latitude": "0.0",
    "geocoded_column": {
      "latitude": "0.0",
      "longitude": "0.0"
    }
  },
  {
    "service_request": "2023-1045104",
    "request_type": "Traffic Signals/Signs/Striping/Streetlights",
    "request_reason": "Street Light Outage/Malfunction",
    "date_created": "2023-10-22T22:45:47.000",
    "date_modified": "2023-10-22T22:45:48.000",
    "request_status": "Pending",
    "responsible_agency": "Department of Public Works",
    "status": "Assigned to Contractor",
    "contractor": "Legacy Professional Services",
    "rowid": "1045104",
    "longitude": "0.0",
    "latitude": "0.0",
    "geocoded_column": {
      "latitude": "0.0",
      "longitude": "0.0"
    }
  },
  {
    "service_request": "2023-1045103",
    "request_type": "Traffic Signals/Signs/Striping/Streetlights",
    "request_reason": "Street Light Outage/Malfunction",
    "date_created": "2023-10-22T22:43:21.000",
    "date_modified": "2023-10-22T22:43:22.000",
    "request_status": "Pending",
    "responsible_agency": "Department of Public Works",
    "final_address": "214 Topaz St",
    "address_councildis": "D",
    "status": "Assigned to Contractor",
    "contractor": "Legacy Professional Services",
    "rowid": "1045103",
    "final_x": "3667261.50093",
    "final_y": "556309.656346",
    "longitude": "-90.1121963249345",
    "latitude": "30.02408341226659",
    "geocoded_column": {
      "latitude": "30.02408341226659",
      "longitude": "-90.1121963249345"
    }
  },
  {
    "service_request": "2023-1045102",
    "request_type": "Traffic Signals/Signs/Striping/Streetlights",
    "request_reason": "Street Light Outage/Malfunction",
    "date_created": "2023-10-22T22:36:44.000",
    "date_modified": "2023-10-22T22:36:45.000",
    "request_status": "Pending",
    "responsible_agency": "Department of Public Works",
    "final_address": "7241 Canal Blvd",
    "address_councildis": "D",
    "status": "Assigned to Contractor",
    "contractor": "Legacy Professional Services",
    "rowid": "1045102",
    "final_x": "3669335.24391",
    "final_y": "555119.040729",
    "longitude": "-90.10568397570684",
    "latitude": "30.020748713409656",
    "geocoded_column": {
      "latitude": "30.020748713409656",
      "longitude": "-90.10568397570684"
    }
  },
  {
    "service_request": "2023-1045101",
    "request_type": "Traffic Signals/Signs/Striping/Streetlights",
    "request_reason": "Street Light Outage/Malfunction",
    "date_created": "2023-10-22T22:29:44.000",
    "date_modified": "2023-10-22T22:29:45.000",
    "request_status": "Pending",
    "responsible_agency": "Department of Public Works",
    "final_address": "CANAL BLVD & ROBERT E LEE BLVD",
    "address_councildis": "A",
    "status": "Assigned to Contractor",
    "contractor": "Legacy Professional Services",
    "rowid": "1045101",
    "final_x": "3669092.6",
    "final_y": "554652.58",
    "longitude": "-90.10646644246677",
    "latitude": "30.0194732581145",
    "geocoded_column": {
      "latitude": "30.0194732581145",
      "longitude": "-90.10646644246677"
    }
  },
  {
    "service_request": "2023-1045100",
    "request_type": "Roads/Drainage",
    "request_reason": "Pothole",
    "date_created": "2023-10-22T21:56:38.000",
    "date_modified": "2023-10-22T21:56:38.000",
    "request_status": "Pending",
    "responsible_agency": "Department of Public Works",
    "final_address": "1502 Eleonore St",
    "address_councildis": "A",
    "status": "Pending",
    "rowid": "1045100",
    "final_x": "3665786.09434",
    "final_y": "521795.186042",
    "longitude": "-90.11801507263215",
    "latitude": "29.92922332626592",
    "geocoded_column": {
      "latitude": "29.92922332626592",
      "longitude": "-90.11801507263215"
    }
  },
  {
    "service_request": "2023-1045099",
    "request_type": "Trash/Recycling",
    "request_reason": "Replace Trash Cart",
    "date_created": "2023-10-22T21:54:36.000",
    "date_modified": "2023-10-22T21:54:37.000",
    "request_status": "Pending",
    "responsible_agency": "Department of Sanitation",
    "final_address": "3524 Bienville Ave",
    "address_councildis": "B",
    "status": "Assigned to Contractor",
    "contractor": "Richards Disposal",
    "rowid": "1045099",
    "final_x": "3673070.98363",
    "final_y": "537732.938696",
    "longitude": "-90.0944740603332",
    "latitude": "29.972832413097052",
    "geocoded_column": {
      "latitude": "29.972832413097052",
      "longitude": "-90.0944740603332"
    }
  },
  {
    "service_request": "2023-1045098",
    "request_type": "Trash/Recycling",
    "request_reason": "Repair Recycling Cart",
    "date_created": "2023-10-22T21:52:13.000",
    "date_modified": "2023-10-22T21:52:13.000",
    "request_status": "Pending",
    "responsible_agency": "Department of Sanitation",
    "status": "Pending",
    "rowid": "1045098",
    "longitude": "0.0",
    "latitude": "0.0",
    "geocoded_column": {
      "latitude": "0.0",
      "longitude": "0.0"
    }
  },
  {
    "service_request": "2023-1045097",
    "request_type": "Trash/Recycling",
    "request_reason": "Replace Trash Cart",
    "date_created": "2023-10-22T21:51:24.000",
    "date_modified": "2023-10-22T21:51:25.000",
    "request_status": "Pending",
    "responsible_agency": "Department of Sanitation",
    "status": "Assigned to Contractor",
    "rowid": "1045097",
    "longitude": "0.0",
    "latitude": "0.0",
    "geocoded_column": {
      "latitude": "0.0",
      "longitude": "0.0"
    }
  },
  {
    "service_request": "2023-1045096",
    "request_type": "Roads/Drainage",
    "request_reason": "Pothole",
    "date_created": "2023-10-22T21:34:39.000",
    "date_modified": "2023-10-22T21:34:39.000",
    "request_status": "Pending",
    "responsible_agency": "Department of Public Works",
    "final_address": "1302 Constantinople St",
    "address_councildis": "B",
    "status": "Pending",
    "rowid": "1045096",
    "final_x": "3672316.43828",
    "final_y": "520252.107512",
    "longitude": "-90.09745252227002",
    "latitude": "29.924788289127164",
    "geocoded_column": {
      "latitude": "29.924788289127164",
      "longitude": "-90.09745252227002"
    }
  },
  {
    "service_request": "2023-1045095",
    "request_type": "Roads/Drainage",
    "request_reason": "Street Subsidence (Sinking)",
    "date_created": "2023-10-22T21:26:02.000",
    "date_modified": "2023-10-22T21:26:02.000",
    "request_status": "Pending",
    "responsible_agency": "Department of Public Works",
    "final_address": "1300 General Taylor St",
    "address_councildis": "B",
    "status": "Pending",
    "rowid": "1045095",
    "final_x": "3672762.11304",
    "final_y": "520298.263352",
    "longitude": "-90.09604409876785",
    "latitude": "29.924901977789897",
    "geocoded_column": {
      "latitude": "29.924901977789897",
      "longitude": "-90.09604409876785"
    }
  },
  {
    "service_request": "2023-1045094",
    "request_type": "Property Maintenance",
    "request_reason": "Property Maintenance",
    "date_created": "2023-10-22T21:01:30.000",
    "date_modified": "2023-10-22T21:01:30.000",
    "request_status": "Pending",
    "responsible_agency": "Department of Code Enforcement",
    "final_address": "2715 Chartres St",
    "address_councildis": "C",
    "status": "Pending",
    "rowid": "1045094",
    "final_x": "3687140.15017",
    "final_y": "534536.234565",
    "longitude": "-90.05015414433042",
    "latitude": "29.96361683251162",
    "geocoded_column": {
      "latitude": "29.96361683251162",
      "longitude": "-90.05015414433042"
    }
  },
  {
    "service_request": "2023-1045093",
    "request_type": "Traffic Signals/Signs/Striping/Streetlights",
    "request_reason": "Street Light Outage/Malfunction",
    "date_created": "2023-10-22T20:54:15.000",
    "date_modified": "2023-10-22T20:54:16.000",
    "request_status": "Pending",
    "responsible_agency": "Department of Public Works",
    "final_address": "7620 Expedition Dr",
    "address_councildis": "E",
    "status": "Assigned to Contractor",
    "contractor": "Legacy Professional Services",
    "rowid": "1045093",
    "final_x": "3725915.3239",
    "final_y": "571264.32132",
    "longitude": "-89.92628374338888",
    "latitude": "30.063353363007153",
    "geocoded_column": {
      "latitude": "30.063353363007153",
      "longitude": "-89.92628374338888"
    }
  },
  {
    "service_request": "2023-1045092",
    "request_type": "Trash/Recycling",
    "request_reason": "Request a Large Item Pick Up",
    "date_created": "2023-10-22T19:55:06.000",
    "date_modified": "2023-10-22T19:55:06.000",
    "request_status": "Pending",
    "responsible_agency": "Department of Sanitation",
    "final_address": "14191 Knightway Dr",
    "address_councildis": "E",
    "status": "Assigned to Contractor",
    "contractor": "Waste Pro",
    "rowid": "1045092",
    "final_x": "3718990.19916",
    "final_y": "570759.215719",
    "longitude": "-89.9481934769734",
    "latitude": "30.06219653561932",
    "geocoded_column": {
      "latitude": "30.06219653561932",
      "longitude": "-89.9481934769734"
    }
  },
  {
    "service_request": "2023-1045091",
    "request_type": "Trash/Recycling",
    "request_reason": "Replace Recycling Cart",
    "date_created": "2023-10-22T19:33:36.000",
    "date_modified": "2023-10-22T19:33:36.000",
    "request_status": "Pending",
    "responsible_agency": "Department of Sanitation",
    "final_address": "4342 Van Ave",
    "address_councildis": "D",
    "status": "Pending",
    "rowid": "1045091",
    "final_x": "3679890.88469",
    "final_y": "548615.187667",
    "longitude": "-90.07255737648516",
    "latitude": "30.00255027408814",
    "geocoded_column": {
      "latitude": "30.00255027408814",
      "longitude": "-90.07255737648516"
    }
  },
  {
    "service_request": "2023-1045090",
    "request_type": "Trash/Recycling",
    "request_reason": "Request a Large Item Pick Up",
    "date_created": "2023-10-22T19:19:03.000",
    "date_modified": "2023-10-22T19:19:04.000",
    "request_status": "Pending",
    "responsible_agency": "Department of Sanitation",
    "final_address": "3867 Pauger St",
    "address_councildis": "D",
    "status": "Assigned to Contractor",
    "contractor": "IV Waste",
    "rowid": "1045090",
    "final_x": "3683224.93692",
    "final_y": "544888.311951",
    "longitude": "-90.06215530197854",
    "latitude": "29.992201406022783",
    "geocoded_column": {
      "latitude": "29.992201406022783",
      "longitude": "-90.06215530197854"
    }
  },
  {
    "service_request": "2023-1045089",
    "request_type": "Trash/Recycling",
    "request_reason": "Replace Trash Cart",
    "date_created": "2023-10-22T19:06:57.000",
    "date_modified": "2023-10-22T19:06:58.000",
    "request_status": "Pending",
    "responsible_agency": "Department of Sanitation",
    "final_address": "2525 N Derbigny St",
    "address_councildis": "D",
    "status": "Assigned to Contractor",
    "contractor": "IV Waste",
    "rowid": "1045089",
    "final_x": "3687233.21993",
    "final_y": "538743.844105",
    "longitude": "-90.04971139132506",
    "latitude": "29.97518342275045",
    "geocoded_column": {
      "latitude": "29.97518342275045",
      "longitude": "-90.04971139132506"
    }
  },
  {
    "service_request": "2023-1045088",
    "request_type": "Traffic Signals/Signs/Striping/Streetlights",
    "request_reason": "Street Light Outage/Malfunction",
    "date_created": "2023-10-22T18:58:19.000",
    "date_modified": "2023-10-22T18:58:20.000",
    "request_status": "Pending",
    "responsible_agency": "Department of Public Works",
    "final_address": "6954 General Haig St",
    "address_councildis": "A",
    "status": "Assigned to Contractor",
    "contractor": "Legacy Professional Services",
    "rowid": "1045088",
    "final_x": "3671001.86004",
    "final_y": "553417.312663",
    "longitude": "-90.10047579884402",
    "latitude": "30.016020364280113",
    "geocoded_column": {
      "latitude": "30.016020364280113",
      "longitude": "-90.10047579884402"
    }
  },
  {
    "service_request": "2023-1045087",
    "request_type": "Trash/Recycling",
    "request_reason": "Replace Trash Cart",
    "date_created": "2023-10-22T18:26:21.000",
    "date_modified": "2023-10-22T18:26:21.000",
    "request_status": "Pending",
    "responsible_agency": "Department of Sanitation",
    "final_address": "4843 Bonita Dr",
    "address_councildis": "E",
    "status": "Assigned to Contractor",
    "contractor": "Waste Pro",
    "rowid": "1045087",
    "final_x": "3704458.93534",
    "final_y": "555951.934233",
    "longitude": "-89.99467355264227",
    "latitude": "30.02195735372149",
    "geocoded_column": {
      "latitude": "30.02195735372149",
      "longitude": "-89.99467355264227"
    }
  },
  {
    "service_request": "2023-1045086",
    "request_type": "Trash/Recycling",
    "request_reason": "Request a Large Item Pick Up",
    "date_created": "2023-10-22T18:09:12.000",
    "date_modified": "2023-10-22T18:09:13.000",
    "request_status": "Pending",
    "responsible_agency": "Department of Sanitation",
    "final_address": "2425 Napoleon Ave",
    "address_councildis": "B",
    "status": "Assigned to Contractor",
    "contractor": "Richards Disposal",
    "rowid": "1045086",
    "final_x": "3670644.49857",
    "final_y": "523909.84294",
    "longitude": "-90.1026062788558",
    "latitude": "29.93489536855942",
    "geocoded_column": {
      "latitude": "29.93489536855942",
      "longitude": "-90.1026062788558"
    }
  },
  {
    "service_request": "2023-1045085",
    "request_type": "Trash/Recycling",
    "request_reason": "Order Trash Cart",
    "date_created": "2023-10-22T18:00:14.000",
    "date_modified": "2023-10-22T18:00:15.000",
    "request_status": "Pending",
    "responsible_agency": "Department of Sanitation",
    "final_address": "7717 Lacombe St",
    "address_councildis": "E",
    "status": "Assigned to Contractor",
    "contractor": "Waste Pro",
    "rowid": "1045085",
    "final_x": "3709461.05509",
    "final_y": "565698.16541",
    "longitude": "-89.9785041619079",
    "latitude": "30.048593991233375",
    "geocoded_column": {
      "latitude": "30.048593991233375",
      "longitude": "-89.9785041619079"
    }
  },
  {
    "service_request": "2023-1045083",
    "request_type": "Trash/Recycling",
    "request_reason": "Replace Trash Cart",
    "date_created": "2023-10-22T17:45:38.000",
    "date_modified": "2023-10-22T17:45:38.000",
    "request_status": "Pending",
    "responsible_agency": "Department of Sanitation",
    "final_address": "2940 Bruxelles St",
    "address_councildis": "D",
    "status": "Assigned to Contractor",
    "contractor": "IV Waste",
    "rowid": "1045083",
    "final_x": "3680232.04827",
    "final_y": "543290.525966",
    "longitude": "-90.07166481374723",
    "latitude": "29.987899012745824",
    "geocoded_column": {
      "latitude": "29.987899012745824",
      "longitude": "-90.07166481374723"
    }
  },
  {
    "service_request": "2023-1045082",
    "request_type": "Trash/Recycling",
    "request_reason": "Illegal Dumping",
    "date_created": "2023-10-22T16:42:36.000",
    "date_modified": "2023-10-22T16:42:36.000",
    "request_status": "Pending",
    "responsible_agency": "Department of Sanitation",
    "final_address": "2501 Gravier St",
    "address_councildis": "B",
    "status": "Pending",
    "rowid": "1045082",
    "final_x": "3674902.39278",
    "final_y": "532927.285124",
    "longitude": "-90.0888549540379",
    "latitude": "29.959563916310575",
    "geocoded_column": {
      "latitude": "29.959563916310575",
      "longitude": "-90.0888549540379"
    }
  },
  {
    "service_request": "2023-1045081",
    "request_type": "Trash/Recycling",
    "request_reason": "Order Recycling Cart",
    "date_created": "2023-10-22T16:36:44.000",
    "date_modified": "2023-10-22T16:36:44.000",
    "request_status": "Pending",
    "responsible_agency": "Department of Sanitation",
    "final_address": "4140 Davey St",
    "address_councildis": "D",
    "status": "Pending",
    "rowid": "1045081",
    "final_x": "3676122.1931",
    "final_y": "547275.469201",
    "longitude": "-90.08450929960932",
    "latitude": "29.998980002616253",
    "geocoded_column": {
      "latitude": "29.998980002616253",
      "longitude": "-90.08450929960932"
    }
  },
  {
    "service_request": "2023-1045080",
    "request_type": "Trash/Recycling",
    "request_reason": "Request a Large Item Pick Up",
    "date_created": "2023-10-22T16:35:42.000",
    "date_modified": "2023-10-22T16:35:43.000",
    "request_status": "Pending",
    "responsible_agency": "Department of Sanitation",
    "final_address": "5878 Argonne Blvd",
    "address_councildis": "A",
    "status": "Assigned to Contractor",
    "contractor": "IV Waste",
    "rowid": "1045080",
    "final_x": "3670018.67521",
    "final_y": "546412.726289",
    "longitude": "-90.10381971028173",
    "latitude": "29.996789255330327",
    "geocoded_column": {
      "latitude": "29.996789255330327",
      "longitude": "-90.10381971028173"
    }
  },
  {
    "service_request": "2023-1045079",
    "request_type": "Trash/Recycling",
    "request_reason": "Request a Large Item Pick Up",
    "date_created": "2023-10-22T16:31:05.000",
    "date_modified": "2023-10-22T16:31:06.000",
    "request_status": "Pending",
    "responsible_agency": "Department of Sanitation",
    "final_address": "523 S Cortez St",
    "address_councildis": "B",
    "status": "Assigned to Contractor",
    "contractor": "Richards Disposal",
    "rowid": "1045079",
    "final_x": "3670952.10299",
    "final_y": "536192.809671",
    "longitude": "-90.10121820401588",
    "latitude": "29.96866039778532",
    "geocoded_column": {
      "latitude": "29.96866039778532",
      "longitude": "-90.10121820401588"
    }
  },
  {
    "service_request": "2023-1045078",
    "request_type": "Trash/Recycling",
    "request_reason": "Order Trash Cart",
    "date_created": "2023-10-22T16:23:15.000",
    "date_modified": "2023-10-22T16:23:16.000",
    "request_status": "Pending",
    "responsible_agency": "Department of Sanitation",
    "final_address": "1725 Audubon St",
    "address_councildis": "A",
    "status": "Assigned to Contractor",
    "contractor": "Richards Disposal",
    "rowid": "1045078",
    "final_x": "3665545.87156",
    "final_y": "527945.816767",
    "longitude": "-90.11856756971358",
    "latitude": "29.946142600417208",
    "geocoded_column": {
      "latitude": "29.946142600417208",
      "longitude": "-90.11856756971358"
    }
  },
  {
    "service_request": "2023-1045077",
    "request_type": "Property Maintenance",
    "request_reason": "Property Maintenance",
    "date_created": "2023-10-22T16:20:28.000",
    "date_modified": "2023-10-22T16:20:28.000",
    "request_status": "Pending",
    "responsible_agency": "Department of Code Enforcement",
    "final_address": "2550 Ursulines Ave",
    "address_councildis": "D",
    "status": "Pending",
    "rowid": "1045077",
    "final_x": "3678076.69998",
    "final_y": "537716.914312",
    "longitude": "-90.07866561296773",
    "latitude": "29.97263858844416",
    "geocoded_column": {
      "latitude": "29.97263858844416",
      "longitude": "-90.07866561296773"
    }
  },
  {
    "service_request": "2023-1045076",
    "request_type": "Roads/Drainage",
    "request_reason": "Pothole",
    "date_created": "2023-10-22T16:19:20.000",
    "date_modified": "2023-10-22T16:19:20.000",
    "request_status": "Pending",
    "responsible_agency": "Department of Public Works",
    "final_address": "1501 Eleonore St",
    "address_councildis": "A",
    "status": "Pending",
    "rowid": "1045076",
    "final_x": "3665898.64717",
    "final_y": "521823.159802",
    "longitude": "-90.11765882655898",
    "latitude": "29.929296962278546",
    "geocoded_column": {
      "latitude": "29.929296962278546",
      "longitude": "-90.11765882655898"
    }
  },
  {
    "service_request": "2023-1045075",
    "request_type": "Trash/Recycling",
    "request_reason": "Order Recycling Cart",
    "date_created": "2023-10-22T16:12:09.000",
    "date_modified": "2023-10-22T16:12:09.000",
    "request_status": "Pending",
    "responsible_agency": "Department of Sanitation",
    "final_address": "4837 Wright Rd",
    "address_councildis": "E",
    "status": "Pending",
    "rowid": "1045075",
    "final_x": "3716742.67736",
    "final_y": "557417.869787",
    "longitude": "-89.95580484588316",
    "latitude": "30.025587778700288",
    "geocoded_column": {
      "latitude": "30.025587778700288",
      "longitude": "-89.95580484588316"
    }
  },
  {
    "service_request": "2023-1045074",
    "request_type": "Roads/Drainage",
    "request_reason": "Pothole",
    "date_created": "2023-10-22T16:01:25.000",
    "date_modified": "2023-10-22T16:01:25.000",
    "request_status": "Pending",
    "responsible_agency": "Department of Public Works",
    "final_address": "1579 Henry Clay Ave",
    "address_councildis": "A",
    "status": "Pending",
    "rowid": "1045074",
    "final_x": "3665125.97453",
    "final_y": "522693.49369",
    "longitude": "-90.12006892685164",
    "latitude": "29.931712623369517",
    "geocoded_column": {
      "latitude": "29.931712623369517",
      "longitude": "-90.12006892685164"
    }
  },
  {
    "service_request": "2023-1045073",
    "request_type": "Roads/Drainage",
    "request_reason": "Pothole",
    "date_created": "2023-10-22T15:53:17.000",
    "date_modified": "2023-10-22T15:53:17.000",
    "request_status": "Pending",
    "responsible_agency": "Department of Public Works",
    "final_address": "1234 Henry Clay Ave",
    "address_councildis": "A",
    "status": "Pending",
    "rowid": "1045073",
    "final_x": "3664327.06445",
    "final_y": "521120.367609",
    "longitude": "-90.12264347982506",
    "latitude": "29.92741025864685",
    "geocoded_column": {
      "latitude": "29.92741025864685",
      "longitude": "-90.12264347982506"
    }
  },
  {
    "service_request": "2023-1045072",
    "request_type": "Trash/Recycling",
    "request_reason": "Dead Animal Pick Up",
    "date_created": "2023-10-22T15:43:12.000",
    "date_modified": "2023-10-22T15:43:13.000",
    "request_status": "Pending",
    "responsible_agency": "Department of Sanitation",
    "final_address": "300 Delery St",
    "address_councildis": "E",
    "status": "Assigned to Contractor",
    "contractor": "Waste Pro",
    "rowid": "1045072",
    "final_x": "3699340.42237",
    "final_y": "530321.920834",
    "longitude": "-90.01178067358592",
    "latitude": "29.95164765260938",
    "geocoded_column": {
      "latitude": "29.95164765260938",
      "longitude": "-90.01178067358592"
    }
  },
  {
    "service_request": "2023-1045071",
    "request_type": "Roads/Drainage",
    "request_reason": "Pothole",
    "date_created": "2023-10-22T15:40:54.000",
    "date_modified": "2023-10-22T15:40:54.000",
    "request_status": "Pending",
    "responsible_agency": "Department of Public Works",
    "final_address": "4216 Chestnut St",
    "address_councildis": "B",
    "status": "Pending",
    "rowid": "1045071",
    "final_x": "3671574.31393",
    "final_y": "519539.203703",
    "longitude": "-90.09981939416457",
    "latitude": "29.922850019854593",
    "geocoded_column": {
      "latitude": "29.922850019854593",
      "longitude": "-90.09981939416457"
    }
  },
  {
    "service_request": "2023-1045070",
    "request_type": "Property Maintenance",
    "request_reason": "Property Maintenance",
    "date_created": "2023-10-22T15:37:54.000",
    "date_modified": "2023-10-22T15:37:54.000",
    "request_status": "Pending",
    "responsible_agency": "Department of Code Enforcement",
    "final_address": "1817 Dauphine St",
    "address_councildis": "C",
    "status": "Pending",
    "rowid": "1045070",
    "final_x": "3683850.00764",
    "final_y": "535157.989062",
    "longitude": "-90.06052225043676",
    "latitude": "29.965427343967743",
    "geocoded_column": {
      "latitude": "29.965427343967743",
      "longitude": "-90.06052225043676"
    }
  },
  {
    "service_request": "2023-1045069",
    "request_type": "Property Maintenance",
    "request_reason": "Property Maintenance",
    "date_created": "2023-10-22T15:37:37.000",
    "date_modified": "2023-10-22T15:37:37.000",
    "request_status": "Pending",
    "responsible_agency": "Department of Code Enforcement",
    "final_address": "1817 Dauphine St",
    "address_councildis": "C",
    "status": "Pending",
    "rowid": "1045069",
    "final_x": "3683850.00764",
    "final_y": "535157.989062",
    "longitude": "-90.06052225043676",
    "latitude": "29.965427343967743",
    "geocoded_column": {
      "latitude": "29.965427343967743",
      "longitude": "-90.06052225043676"
    }
  },
  {
    "service_request": "2023-1045068",
    "request_type": "Trash/Recycling",
    "request_reason": "Request a Large Item Pick Up",
    "date_created": "2023-10-22T15:35:42.000",
    "date_modified": "2023-10-22T15:35:43.000",
    "request_status": "Pending",
    "responsible_agency": "Department of Sanitation",
    "final_address": "4834 Charmes Ct",
    "address_councildis": "E",
    "status": "Assigned to Contractor",
    "contractor": "Waste Pro",
    "rowid": "1045068",
    "final_x": "3726279.86221",
    "final_y": "561381.348574",
    "longitude": "-89.92551526563872",
    "latitude": "30.036167011712863",
    "geocoded_column": {
      "latitude": "30.036167011712863",
      "longitude": "-89.92551526563872"
    }
  },
  {
    "service_request": "2023-1045067",
    "request_type": "Roads/Drainage",
    "request_reason": "Pothole",
    "date_created": "2023-10-22T15:30:48.000",
    "date_modified": "2023-10-22T15:30:48.000",
    "request_status": "Pending",
    "responsible_agency": "Department of Public Works",
    "final_address": "1312 Milan St",
    "address_councildis": "B",
    "status": "Pending",
    "rowid": "1045067",
    "final_x": "3671625.82823",
    "final_y": "520286.919608",
    "longitude": "-90.09963137110304",
    "latitude": "29.92490447494246",
    "geocoded_column": {
      "latitude": "29.92490447494246",
      "longitude": "-90.09963137110304"
    }
  },
  {
    "service_request": "2023-1045066",
    "request_type": "Traffic Signals/Signs/Striping/Streetlights",
    "request_reason": "Street Light Knocked Down/Leaning",
    "date_created": "2023-10-22T15:29:10.000",
    "date_modified": "2023-10-22T15:29:11.000",
    "request_status": "Pending",
    "responsible_agency": "Department of Public Works",
    "final_address": "1141 Royal St",
    "address_councildis": "C",
    "status": "Pending",
    "contractor": "Legacy Professional Services",
    "rowid": "1045066",
    "final_x": "3683610.023",
    "final_y": "533903.300677",
    "longitude": "-90.06132409522782",
    "latitude": "29.961984710340097",
    "geocoded_column": {
      "latitude": "29.961984710340097",
      "longitude": "-90.06132409522782"
    }
  },
  {
    "service_request": "2023-1045065",
    "request_type": "Roads/Drainage",
    "request_reason": "Pothole",
    "date_created": "2023-10-22T15:21:29.000",
    "date_modified": "2023-10-22T15:21:29.000",
    "request_status": "Pending",
    "responsible_agency": "Department of Public Works",
    "final_address": "1315 Peniston St",
    "address_councildis": "B",
    "status": "Pending",
    "rowid": "1045065",
    "final_x": "3673101.31451",
    "final_y": "520423.11276",
    "longitude": "-90.09496908964098",
    "latitude": "29.925235197927364",
    "geocoded_column": {
      "latitude": "29.925235197927364",
      "longitude": "-90.09496908964098"
    }
  },
  {
    "service_request": "2023-1045064",
    "request_type": "Roads/Drainage",
    "request_reason": "Pothole",
    "date_created": "2023-10-22T15:16:45.000",
    "date_modified": "2023-10-22T15:16:45.000",
    "request_status": "Pending",
    "responsible_agency": "Department of Public Works",
    "final_address": "1421 Constantinople St",
    "address_councildis": "B",
    "status": "Pending",
    "rowid": "1045064",
    "final_x": "3672433.24257",
    "final_y": "520667.657465",
    "longitude": "-90.09706965638372",
    "latitude": "29.925927453713577",
    "geocoded_column": {
      "latitude": "29.925927453713577",
      "longitude": "-90.09706965638372"
    }
  },
  {
    "service_request": "2023-1045063",
    "request_type": "Health Related Request",
    "request_reason": "Noise Ordinance Complaint",
    "date_created": "2023-10-22T15:07:05.000",
    "date_modified": "2023-10-22T15:07:05.000",
    "request_status": "Pending",
    "responsible_agency": "Health Department",
    "final_address": "7910 Earhart Blvd",
    "address_councildis": "B",
    "status": "Pending",
    "rowid": "1045063",
    "final_x": "3667005.87399",
    "final_y": "533034.124676",
    "longitude": "-90.11378683341556",
    "latitude": "29.960091146202156",
    "geocoded_column": {
      "latitude": "29.960091146202156",
      "longitude": "-90.11378683341556"
    }
  },
  {
    "service_request": "2023-1045062",
    "request_type": "Trash/Recycling",
    "request_reason": "Order Trash Cart",
    "date_created": "2023-10-22T14:51:57.000",
    "date_modified": "2023-10-22T14:51:57.000",
    "request_status": "Pending",
    "responsible_agency": "Department of Sanitation",
    "final_address": "2810 St Andrew St",
    "address_councildis": "B",
    "status": "Assigned to Contractor",
    "contractor": "Richards Disposal",
    "rowid": "1045062",
    "final_x": "3675371.33256",
    "final_y": "527443.706495",
    "longitude": "-90.08756240920526",
    "latitude": "29.94447188672847",
    "geocoded_column": {
      "latitude": "29.94447188672847",
      "longitude": "-90.08756240920526"
    }
  },
  {
    "service_request": "2023-1045061",
    "request_type": "Roads/Drainage",
    "request_reason": "Pothole",
    "date_created": "2023-10-22T14:38:02.000",
    "date_modified": "2023-10-22T14:38:02.000",
    "request_status": "Pending",
    "responsible_agency": "Department of Public Works",
    "final_address": "6025 Coliseum St",
    "address_councildis": "A",
    "status": "Pending",
    "rowid": "1045061",
    "final_x": "3664796.34074",
    "final_y": "520310.32268",
    "longitude": "-90.12118913565936",
    "latitude": "29.92516924769698",
    "geocoded_column": {
      "latitude": "29.92516924769698",
      "longitude": "-90.12118913565936"
    }
  },
  {
    "service_request": "2023-1045060",
    "request_type": "Trash/Recycling",
    "request_reason": "Request a Large Item Pick Up",
    "date_created": "2023-10-22T14:37:50.000",
    "date_modified": "2023-10-22T14:37:50.000",
    "request_status": "Pending",
    "responsible_agency": "Department of Sanitation",
    "final_address": "1613 Prytania St",
    "address_councildis": "B",
    "status": "Assigned to Contractor",
    "contractor": "Richards Disposal",
    "rowid": "1045060",
    "final_x": "3679370.2829",
    "final_y": "524921.37798",
    "longitude": "-90.07502401321526",
    "latitude": "29.937416166981176",
    "geocoded_column": {
      "latitude": "29.937416166981176",
      "longitude": "-90.07502401321526"
    }
  },
  {
    "service_request": "2023-1045059",
    "request_type": "Roads/Drainage",
    "request_reason": "Pothole",
    "date_created": "2023-10-22T14:31:03.000",
    "date_modified": "2023-10-22T14:31:03.000",
    "request_status": "Pending",
    "responsible_agency": "Department of Public Works",
    "final_address": "6215 Hurst St",
    "address_councildis": "A",
    "status": "Pending",
    "rowid": "1045059",
    "final_x": "3664668.32039",
    "final_y": "522243.373626",
    "longitude": "-90.12152872358996",
    "latitude": "29.93048825206563",
    "geocoded_column": {
      "latitude": "29.93048825206563",
      "longitude": "-90.12152872358996"
    }
  },
  {
    "service_request": "2023-1045058",
    "request_type": "Roads/Drainage",
    "request_reason": "Pothole",
    "date_created": "2023-10-22T14:20:21.000",
    "date_modified": "2023-10-22T14:20:21.000",
    "request_status": "Pending",
    "responsible_agency": "Department of Public Works",
    "final_address": "6028 Pitt St",
    "address_councildis": "A",
    "status": "Pending",
    "rowid": "1045058",
    "final_x": "3665031.61856",
    "final_y": "521153.923257",
    "longitude": "-90.12041824694218",
    "latitude": "29.927482037915954",
    "geocoded_column": {
      "latitude": "29.927482037915954",
      "longitude": "-90.12041824694218"
    }
  },
  {
    "service_request": "2023-1045057",
    "request_type": "Abandoned Vehicles",
    "request_reason": "Vehicle Blocking Your Driveway",
    "date_created": "2023-10-22T14:19:41.000",
    "date_modified": "2023-10-22T14:19:41.000",
    "request_status": "Pending",
    "responsible_agency": "Department of Public Works",
    "final_address": "2230 Calhoun St",
    "address_councildis": "A",
    "status": "Pending",
    "rowid": "1045057",
    "final_x": "3665853.97127",
    "final_y": "525377.764989",
    "longitude": "-90.1176808114741",
    "latitude": "29.939072298426908",
    "geocoded_column": {
      "latitude": "29.939072298426908",
      "longitude": "-90.1176808114741"
    }
  },
  {
    "service_request": "2023-1045056",
    "request_type": "Trash/Recycling",
    "request_reason": "Request a Large Item Pick Up",
    "date_created": "2023-10-22T14:16:39.000",
    "date_modified": "2023-10-22T14:16:40.000",
    "request_status": "Pending",
    "responsible_agency": "Department of Sanitation",
    "final_address": "1653 Paul Morphy St",
    "address_councildis": "D",
    "status": "Assigned to Contractor",
    "contractor": "IV Waste",
    "rowid": "1045056",
    "final_x": "3679041.41666",
    "final_y": "540768.284491",
    "longitude": "-90.07551307599347",
    "latitude": "29.980999721496755",
    "geocoded_column": {
      "latitude": "29.980999721496755",
      "longitude": "-90.07551307599347"
    }
  },
  {
    "service_request": "2023-1045055",
    "request_type": "Trash/Recycling",
    "request_reason": "Replace Recycling Cart",
    "date_created": "2023-10-22T14:07:45.000",
    "date_modified": "2023-10-22T14:07:45.000",
    "request_status": "Pending",
    "responsible_agency": "Department of Sanitation",
    "final_address": "1922 Broadway St",
    "address_councildis": "A",
    "status": "Pending",
    "rowid": "1045055",
    "final_x": "3665649.98727",
    "final_y": "528792.670656",
    "longitude": "-90.11821048445177",
    "latitude": "29.948468139645616",
    "geocoded_column": {
      "latitude": "29.948468139645616",
      "longitude": "-90.11821048445177"
    }
  },
  {
    "service_request": "2023-1045054",
    "request_type": "Health Related Request",
    "request_reason": "Noise Ordinance Complaint",
    "date_created": "2023-10-22T13:49:10.000",
    "date_modified": "2023-10-22T13:49:10.000",
    "request_status": "Pending",
    "responsible_agency": "Health Department",
    "status": "Pending",
    "rowid": "1045054",
    "longitude": "0.0",
    "latitude": "0.0",
    "geocoded_column": {
      "latitude": "0.0",
      "longitude": "0.0"
    }
  },
  {
    "service_request": "2023-1045053",
    "request_type": "Safety & Permits",
    "request_reason": "Safety & Permits Request (Cyber Incident Back Up)",
    "date_created": "2023-10-22T13:36:29.000",
    "date_modified": "2023-10-22T13:36:29.000",
    "request_status": "Pending",
    "responsible_agency": "Safety and Permits",
    "final_address": "717 St Peter St",
    "address_councildis": "C",
    "status": "Pending",
    "rowid": "1045053",
    "final_x": "3682423.30344",
    "final_y": "532561.71066",
    "longitude": "-90.0651184581779",
    "latitude": "29.95833196652291",
    "geocoded_column": {
      "latitude": "29.95833196652291",
      "longitude": "-90.0651184581779"
    }
  },
  {
    "service_request": "2023-1045052",
    "request_type": "Trash/Recycling",
    "request_reason": "Replace Trash Cart",
    "date_created": "2023-10-22T13:36:28.000",
    "date_modified": "2023-10-22T13:36:29.000",
    "request_status": "Pending",
    "responsible_agency": "Department of Sanitation",
    "final_address": "639 Seguin St",
    "address_councildis": "C",
    "status": "Assigned to Contractor",
    "contractor": "Richards Disposal",
    "rowid": "1045052",
    "final_x": "3686767.51996",
    "final_y": "529337.794689",
    "longitude": "-90.05151451188334",
    "latitude": "29.949334379484238",
    "geocoded_column": {
      "latitude": "29.949334379484238",
      "longitude": "-90.05151451188334"
    }
  },
  {
    "service_request": "2023-1045051",
    "request_type": "Utility Poles",
    "request_reason": "Utility Pole Leaning",
    "date_created": "2023-10-22T13:21:43.000",
    "date_modified": "2023-10-22T13:21:47.000",
    "request_status": "Pending",
    "responsible_agency": "Utility Company Collective",
    "final_address": "7201 Willow St",
    "address_councildis": "A",
    "status": "Pending",
    "rowid": "1045051",
    "final_x": "3664505.39636",
    "final_y": "527157.028287",
    "longitude": "-90.12187905309342",
    "latitude": "29.944003975042417",
    "geocoded_column": {
      "latitude": "29.944003975042417",
      "longitude": "-90.12187905309342"
    }
  },
  {
    "service_request": "2023-1045050",
    "request_type": "Abandoned Vehicles",
    "request_reason": "Abandoned/Junk Vehicles",
    "date_created": "2023-10-22T13:08:38.000",
    "date_modified": "2023-10-22T13:08:38.000",
    "request_status": "Pending",
    "responsible_agency": "Department of Public Works",
    "final_address": "3921 General Meyer Ave",
    "address_councildis": "C",
    "status": "Pending",
    "rowid": "1045050",
    "final_x": "3698647.31082",
    "final_y": "524826.64518",
    "longitude": "-90.01416893306495",
    "latitude": "29.936559527335092",
    "geocoded_column": {
      "latitude": "29.936559527335092",
      "longitude": "-90.01416893306495"
    }
  },
  {
    "service_request": "2023-1045049",
    "request_type": "Trash/Recycling",
    "request_reason": "Request a Large Item Pick Up",
    "date_created": "2023-10-22T12:35:48.000",
    "date_modified": "2023-10-22T12:35:49.000",
    "request_status": "Pending",
    "responsible_agency": "Department of Sanitation",
    "final_address": "127 Country Club Dr",
    "address_councildis": "A",
    "status": "Assigned to Contractor",
    "contractor": "IV Waste",
    "rowid": "1045049",
    "final_x": "3665593.68276",
    "final_y": "544415.725071",
    "longitude": "-90.1178650014143",
    "latitude": "29.991427998431163",
    "geocoded_column": {
      "latitude": "29.991427998431163",
      "longitude": "-90.1178650014143"
    }
  },
  {
    "service_request": "2023-1045048",
    "request_type": "Mosquito, Termite & Rodent Control",
    "request_reason": "Rodent Complaint (Rats)",
    "date_created": "2023-10-22T12:24:24.000",
    "date_modified": "2023-10-22T12:24:24.000",
    "request_status": "Pending",
    "responsible_agency": "Mosquito, Termite & Rodent Control Board",
    "final_address": "MILTON ST & REPUBLIC ST & HAVANA PL",
    "address_councildis": "D",
    "status": "Pending",
    "rowid": "1045048",
    "final_x": "3680406.81",
    "final_y": "546307.75",
    "longitude": "-90.07100780758377",
    "latitude": "29.996190022307445",
    "geocoded_column": {
      "latitude": "29.996190022307445",
      "longitude": "-90.07100780758377"
    }
  },
  {
    "service_request": "2023-1045047",
    "request_type": "Trash/Recycling",
    "request_reason": "Request a Large Item Pick Up",
    "date_created": "2023-10-22T12:21:22.000",
    "date_modified": "2023-10-22T12:21:22.000",
    "request_status": "Pending",
    "responsible_agency": "Department of Sanitation",
    "final_address": "4221 Van Ave",
    "address_councildis": "D",
    "status": "Assigned to Contractor",
    "contractor": "IV Waste",
    "rowid": "1045047",
    "final_x": "3680100.07803",
    "final_y": "547881.36533",
    "longitude": "-90.07192202841846",
    "latitude": "30.000526193528543",
    "geocoded_column": {
      "latitude": "30.000526193528543",
      "longitude": "-90.07192202841846"
    }
  },
  {
    "service_request": "2023-1045046",
    "request_type": "Property Maintenance",
    "request_reason": "Property Maintenance",
    "date_created": "2023-10-22T12:20:58.000",
    "date_modified": "2023-10-22T12:20:58.000",
    "request_status": "Pending",
    "responsible_agency": "Department of Code Enforcement",
    "final_address": "HAVANA PL & ST DENIS ST & NICK CONNOR DR",
    "address_councildis": "D",
    "status": "Pending",
    "rowid": "1045046",
    "final_x": "3680798.7",
    "final_y": "545975.58",
    "longitude": "-90.06978142681945",
    "latitude": "29.99526479574647",
    "geocoded_column": {
      "latitude": "29.99526479574647",
      "longitude": "-90.06978142681945"
    }
  },
  {
    "service_request": "2023-1045045",
    "request_type": "Abandoned Vehicles",
    "request_reason": "Abandoned/Junk Vehicles",
    "date_created": "2023-10-22T12:15:26.000",
    "date_modified": "2023-10-22T12:15:26.000",
    "request_status": "Pending",
    "responsible_agency": "Department of Public Works",
    "final_address": "7300 BLK Oak St",
    "address_councildis": "A",
    "status": "Pending",
    "rowid": "1045045",
    "final_x": "3663796.17467",
    "final_y": "526735.900712",
    "longitude": "-90.12413230359788",
    "latitude": "29.942866607892512",
    "geocoded_column": {
      "latitude": "29.942866607892512",
      "longitude": "-90.12413230359788"
    }
  },
  {
    "service_request": "2023-1045043",
    "request_type": "Health Related Request",
    "request_reason": "Noise Ordinance Complaint",
    "date_created": "2023-10-22T12:04:17.000",
    "date_modified": "2023-10-22T12:04:17.000",
    "request_status": "Pending",
    "responsible_agency": "Health Department",
    "final_address": "1129 Burgundy St",
    "address_councildis": "C",
    "status": "Pending",
    "rowid": "1045043",
    "final_x": "3682698.86965",
    "final_y": "534490.682501",
    "longitude": "-90.06418082868214",
    "latitude": "29.96362758974944",
    "geocoded_column": {
      "latitude": "29.96362758974944",
      "longitude": "-90.06418082868214"
    }
  },
  {
    "service_request": "2023-1045042",
    "request_type": "Trash/Recycling",
    "request_reason": "Request a Large Item Pick Up",
    "date_created": "2023-10-22T11:54:10.000",
    "date_modified": "2023-10-22T11:54:10.000",
    "request_status": "Pending",
    "responsible_agency": "Department of Sanitation",
    "final_address": "612 Robert St",
    "address_councildis": "B",
    "status": "Assigned to Contractor",
    "contractor": "Richards Disposal",
    "rowid": "1045042",
    "final_x": "3668574.74106",
    "final_y": "517672.394806",
    "longitude": "-90.10935084441377",
    "latitude": "29.917805332988827",
    "geocoded_column": {
      "latitude": "29.917805332988827",
      "longitude": "-90.10935084441377"
    }
  },
  {
    "service_request": "2023-1045041",
    "request_type": "Trash/Recycling",
    "request_reason": "Request a Large Item Pick Up",
    "date_created": "2023-10-22T11:49:52.000",
    "date_modified": "2023-10-22T11:49:53.000",
    "request_status": "Pending",
    "responsible_agency": "Department of Sanitation",
    "final_address": "622 Forstall St",
    "address_councildis": "E",
    "status": "Assigned to Contractor",
    "contractor": "Waste Pro",
    "rowid": "1045041",
    "final_x": "3695751.90979",
    "final_y": "532560.392004",
    "longitude": "-90.02303058450865",
    "latitude": "29.957915977812437",
    "geocoded_column": {
      "latitude": "29.957915977812437",
      "longitude": "-90.02303058450865"
    }
  },
  {
    "service_request": "2023-1045040",
    "request_type": "Trash/Recycling",
    "request_reason": "Request a Large Item Pick Up",
    "date_created": "2023-10-22T11:43:39.000",
    "date_modified": "2023-10-22T11:43:40.000",
    "request_status": "Pending",
    "responsible_agency": "Department of Sanitation",
    "final_address": "3022 Deers St",
    "address_councildis": "D",
    "status": "Assigned to Contractor",
    "contractor": "IV Waste",
    "rowid": "1045040",
    "final_x": "3687981.62895",
    "final_y": "544141.277518",
    "longitude": "-90.04715638258548",
    "latitude": "29.990001372854245",
    "geocoded_column": {
      "latitude": "29.990001372854245",
      "longitude": "-90.04715638258548"
    }
  },
  {
    "service_request": "2023-1045038",
    "request_type": "Trash/Recycling",
    "request_reason": "MIssed Recycling Pick-Up",
    "date_created": "2023-10-22T10:08:11.000",
    "date_modified": "2023-10-22T10:08:11.000",
    "request_status": "Pending",
    "responsible_agency": "Department of Sanitation",
    "final_address": "2611 Burdette St",
    "address_councildis": "A",
    "status": "Assigned to Contractor",
    "contractor": "Richards Disposal",
    "rowid": "1045038",
    "final_x": "3666375.4914",
    "final_y": "531424.583491",
    "longitude": "-90.11583145851121",
    "latitude": "29.95568386852713",
    "geocoded_column": {
      "latitude": "29.95568386852713",
      "longitude": "-90.11583145851121"
    }
  },
  {
    "service_request": "2023-1045037",
    "request_type": "Trash/Recycling",
    "request_reason": "Replace Trash Cart",
    "date_created": "2023-10-22T09:48:15.000",
    "date_modified": "2023-10-22T09:48:16.000",
    "request_status": "Pending",
    "responsible_agency": "Department of Sanitation",
    "status": "Assigned to Contractor",
    "rowid": "1045037",
    "longitude": "0.0",
    "latitude": "0.0",
    "geocoded_column": {
      "latitude": "0.0",
      "longitude": "0.0"
    }
  },
  {
    "service_request": "2023-1045036",
    "request_type": "Traffic Signals/Signs/Striping/Streetlights",
    "request_reason": "Striping/Road Surface Markings",
    "date_created": "2023-10-22T09:42:28.000",
    "date_modified": "2023-10-22T09:42:28.000",
    "request_status": "Pending",
    "responsible_agency": "Department of Public Works",
    "final_address": "1000 S Broad St",
    "address_councildis": "B",
    "status": "Pending",
    "rowid": "1045036",
    "final_x": "3672894.50145",
    "final_y": "531384.605763",
    "longitude": "-90.09524805831131",
    "latitude": "29.95538187153782",
    "geocoded_column": {
      "latitude": "29.95538187153782",
      "longitude": "-90.09524805831131"
    }
  },
  {
    "service_request": "2023-1045035",
    "request_type": "Trash/Recycling",
    "request_reason": "MIssed Recycling Pick-Up",
    "date_created": "2023-10-22T08:42:23.000",
    "date_modified": "2023-10-22T08:42:24.000",
    "request_status": "Pending",
    "responsible_agency": "Department of Sanitation",
    "final_address": "2127 Piety St",
    "address_councildis": "D",
    "status": "Assigned to Contractor",
    "contractor": "IV Waste",
    "rowid": "1045035",
    "final_x": "3690858.77244",
    "final_y": "539749.009802",
    "longitude": "-90.0382251028675",
    "latitude": "29.9778350959377",
    "geocoded_column": {
      "latitude": "29.9778350959377",
      "longitude": "-90.0382251028675"
    }
  },
  {
    "service_request": "2023-1045034",
    "request_type": "Trash/Recycling",
    "request_reason": "Request a Large Item Pick Up",
    "date_created": "2023-10-22T08:40:49.000",
    "date_modified": "2023-10-22T08:40:49.000",
    "request_status": "Pending",
    "responsible_agency": "Department of Sanitation",
    "final_address": "6350 Orleans Ave",
    "address_councildis": "A",
    "status": "Assigned to Contractor",
    "contractor": "IV Waste",
    "rowid": "1045034",
    "final_x": "3671036.26779",
    "final_y": "549439.609811",
    "longitude": "-90.10050230450494",
    "latitude": "30.005082066826528",
    "geocoded_column": {
      "latitude": "30.005082066826528",
      "longitude": "-90.10050230450494"
    }
  },
  {
    "service_request": "2023-1045033",
    "request_type": "Trash/Recycling",
    "request_reason": "Request a Large Item Pick Up",
    "date_created": "2023-10-22T08:31:32.000",
    "date_modified": "2023-10-22T08:31:33.000",
    "request_status": "Pending",
    "responsible_agency": "Department of Sanitation",
    "final_address": "2322 St Thomas St",
    "address_councildis": "B",
    "status": "Assigned to Contractor",
    "contractor": "Richards Disposal",
    "rowid": "1045033",
    "final_x": "3679498.76802",
    "final_y": "520241.783608",
    "longitude": "-90.07478064741272",
    "latitude": "29.92454493833812",
    "geocoded_column": {
      "latitude": "29.92454493833812",
      "longitude": "-90.07478064741272"
    }
  },
  {
    "service_request": "2023-1045032",
    "request_type": "Traffic Signals/Signs/Striping/Streetlights",
    "request_reason": "Road Surface Marking Maintenance-Parking Lane",
    "date_created": "2023-10-22T07:05:02.000",
    "date_modified": "2023-10-22T07:05:02.000",
    "request_status": "Pending",
    "responsible_agency": "Department of Public Works",
    "final_address": "333 St Charles Ave",
    "address_councildis": "B",
    "status": "Pending",
    "rowid": "1045032",
    "final_x": "3680784.35733",
    "final_y": "529767.341121",
    "longitude": "-90.07039106084208",
    "latitude": "29.950698171749757",
    "geocoded_column": {
      "latitude": "29.950698171749757",
      "longitude": "-90.07039106084208"
    }
  },
  {
    "service_request": "2023-1045031",
    "request_type": "Roads/Drainage",
    "request_reason": "Catch Basin - Broken/Damage",
    "date_created": "2023-10-22T00:53:58.000",
    "date_modified": "2023-10-22T00:53:58.000",
    "request_status": "Pending",
    "responsible_agency": "Department of Public Works",
    "final_address": "6040 Charlotte Dr",
    "address_councildis": "D",
    "status": "Pending",
    "rowid": "1045031",
    "final_x": "3679805.17371",
    "final_y": "554806.842776",
    "longitude": "-90.07261293536949",
    "latitude": "30.019577687830925",
    "geocoded_column": {
      "latitude": "30.019577687830925",
      "longitude": "-90.07261293536949"
    }
  },
  {
    "service_request": "2023-1045028",
    "request_type": "Roads/Drainage",
    "request_reason": "Pothole",
    "date_created": "2023-10-21T23:16:03.000",
    "date_modified": "2023-10-21T23:16:03.000",
    "request_status": "Pending",
    "responsible_agency": "Department of Public Works",
    "final_address": "1234 Henry Clay Ave",
    "address_councildis": "A",
    "status": "Pending",
    "rowid": "1045028",
    "final_x": "3664327.06445",
    "final_y": "521120.367609",
    "longitude": "-90.12264347982506",
    "latitude": "29.92741025864685",
    "geocoded_column": {
      "latitude": "29.92741025864685",
      "longitude": "-90.12264347982506"
    }
  },
  {
    "service_request": "2023-1045027",
    "request_type": "Trash/Recycling",
    "request_reason": "Missed Trash Pick-Up",
    "date_created": "2023-10-21T23:01:52.000",
    "date_modified": "2023-10-21T23:01:53.000",
    "request_status": "Pending",
    "responsible_agency": "Department of Sanitation",
    "final_address": "1200 BLK Nashville Ave",
    "address_councildis": "A",
    "status": "Assigned to Contractor",
    "contractor": "Richards Disposal",
    "rowid": "1045027",
    "final_x": "3665858.42842",
    "final_y": "520498.930575",
    "longitude": "-90.11783013502436",
    "latitude": "29.925656923383183",
    "geocoded_column": {
      "latitude": "29.925656923383183",
      "longitude": "-90.11783013502436"
    }
  },
  {
    "service_request": "2023-1045025",
    "request_type": "Safety & Permits",
    "request_reason": "Licenses & Permits",
    "date_created": "2023-10-21T22:51:35.000",
    "date_modified": "2023-10-21T22:51:35.000",
    "request_status": "Pending",
    "responsible_agency": "Safety and Permits",
    "final_address": "4523 Magazine St",
    "address_councildis": "B",
    "status": "Pending",
    "rowid": "1045025",
    "final_x": "3670459.91399",
    "final_y": "518764.599223",
    "longitude": "-90.10336337284775",
    "latitude": "29.920753043460966",
    "geocoded_column": {
      "latitude": "29.920753043460966",
      "longitude": "-90.10336337284775"
    }
  },
  {
    "service_request": "2023-1045024",
    "request_type": "Roads/Drainage",
    "request_reason": "Pothole",
    "date_created": "2023-10-21T22:48:43.000",
    "date_modified": "2023-10-21T22:48:43.000",
    "request_status": "Pending",
    "responsible_agency": "Department of Public Works",
    "final_address": "1420 Valence St",
    "address_councildis": "B",
    "status": "Pending",
    "rowid": "1045024",
    "final_x": "3669700.59668",
    "final_y": "520355.41356",
    "longitude": "-90.10570639693285",
    "latitude": "29.925149667961925",
    "geocoded_column": {
      "latitude": "29.925149667961925",
      "longitude": "-90.10570639693285"
    }
  },
  {
    "service_request": "2023-1045023",
    "request_type": "Abandoned Vehicles",
    "request_reason": "Vehicle Blocking Your Driveway",
    "date_created": "2023-10-21T22:10:05.000",
    "date_modified": "2023-10-21T22:10:05.000",
    "request_status": "Pending",
    "responsible_agency": "Department of Public Works",
    "final_address": "925 N Rocheblave St",
    "address_councildis": "D",
    "status": "Pending",
    "rowid": "1045023",
    "final_x": "3678065.74197",
    "final_y": "537098.459144",
    "longitude": "-90.07872160642901",
    "latitude": "29.970938378519467",
    "geocoded_column": {
      "latitude": "29.970938378519467",
      "longitude": "-90.07872160642901"
    }
  },
  {
    "service_request": "2023-1045022",
    "request_type": "Trash/Recycling",
    "request_reason": "Missed Trash Pick-Up",
    "date_created": "2023-10-21T22:09:36.000",
    "date_modified": "2023-10-21T22:09:37.000",
    "request_status": "Pending",
    "responsible_agency": "Department of Sanitation",
    "final_address": "5530 Perrier St",
    "address_councildis": "A",
    "status": "Assigned to Contractor",
    "contractor": "Richards Disposal",
    "rowid": "1045022",
    "final_x": "3666467.45588",
    "final_y": "520160.4334",
    "longitude": "-90.1159189659462",
    "latitude": "29.924708384502342",
    "geocoded_column": {
      "latitude": "29.924708384502342",
      "longitude": "-90.1159189659462"
    }
  },
  {
    "service_request": "2023-1045021",
    "request_type": "Abandoned Vehicles",
    "request_reason": "Vehicle Blocking Your Driveway",
    "date_created": "2023-10-21T21:54:20.000",
    "date_modified": "2023-10-21T21:54:20.000",
    "request_status": "Pending",
    "responsible_agency": "Department of Public Works",
    "final_address": "925 N Rocheblave St",
    "address_councildis": "D",
    "status": "Pending",
    "rowid": "1045021",
    "final_x": "3678065.74197",
    "final_y": "537098.459144",
    "longitude": "-90.07872160642901",
    "latitude": "29.970938378519467",
    "geocoded_column": {
      "latitude": "29.970938378519467",
      "longitude": "-90.07872160642901"
    }
  },
  {
    "service_request": "2023-1045020",
    "request_type": "Roads/Drainage",
    "request_reason": "Pothole",
    "date_created": "2023-10-21T21:25:31.000",
    "date_modified": "2023-10-21T21:25:31.000",
    "request_status": "Pending",
    "responsible_agency": "Department of Public Works",
    "final_address": "1200 BLK Amelia St",
    "address_councildis": "B",
    "status": "Pending",
    "rowid": "1045020",
    "final_x": "3673521.46558",
    "final_y": "519660.816109",
    "longitude": "-90.09366883741032",
    "latitude": "29.923126634409968",
    "geocoded_column": {
      "latitude": "29.923126634409968",
      "longitude": "-90.09366883741032"
    }
  },
  {
    "service_request": "2023-1045019",
    "request_type": "Traffic Signals/Signs/Striping/Streetlights",
    "request_reason": "Street Light Outage/Malfunction",
    "date_created": "2023-10-21T21:14:56.000",
    "date_modified": "2023-10-21T21:14:57.000",
    "request_status": "Pending",
    "responsible_agency": "Department of Public Works",
    "final_address": "1925 N Dorgenois St",
    "address_councildis": "D",
    "status": "Assigned to Contractor",
    "contractor": "Legacy Professional Services",
    "rowid": "1045019",
    "final_x": "3681397.14082",
    "final_y": "541238.04974",
    "longitude": "-90.06805626699622",
    "latitude": "29.982220097116144",
    "geocoded_column": {
      "latitude": "29.982220097116144",
      "longitude": "-90.06805626699622"
    }
  },
  {
    "service_request": "2023-1045018",
    "request_type": "Roads/Drainage",
    "request_reason": "Pothole",
    "date_created": "2023-10-21T21:11:52.000",
    "date_modified": "2023-10-21T21:11:52.000",
    "request_status": "Pending",
    "responsible_agency": "Department of Public Works",
    "final_address": "1312 Milan St",
    "address_councildis": "B",
    "status": "Pending",
    "rowid": "1045018",
    "final_x": "3671625.82823",
    "final_y": "520286.919608",
    "longitude": "-90.09963137110304",
    "latitude": "29.92490447494246",
    "geocoded_column": {
      "latitude": "29.92490447494246",
      "longitude": "-90.09963137110304"
    }
  },
  {
    "service_request": "2023-1045016",
    "request_type": "Property Maintenance",
    "request_reason": "Property Maintenance",
    "date_created": "2023-10-21T20:20:23.000",
    "date_modified": "2023-10-21T20:20:23.000",
    "request_status": "Pending",
    "responsible_agency": "Department of Code Enforcement",
    "final_address": "5900 BLK Marshal Foch St",
    "address_councildis": "A",
    "status": "Pending",
    "rowid": "1045016",
    "final_x": "3669791.04293",
    "final_y": "546825.537042",
    "longitude": "-90.1045248058977",
    "latitude": "29.99793105616967",
    "geocoded_column": {
      "latitude": "29.99793105616967",
      "longitude": "-90.1045248058977"
    }
  },
  {
    "service_request": "2023-1045015",
    "request_type": "Traffic Signals/Signs/Striping/Streetlights",
    "request_reason": "Street Light Outage/Malfunction",
    "date_created": "2023-10-21T19:46:00.000",
    "date_modified": "2023-10-21T19:46:01.000",
    "request_status": "Pending",
    "responsible_agency": "Department of Public Works",
    "final_address": "DAUPHINE ST & GALLIER ST",
    "address_councildis": "C",
    "status": "Assigned to Contractor",
    "contractor": "Legacy Professional Services",
    "rowid": "1045015",
    "final_x": "3690181.4",
    "final_y": "534494.78",
    "longitude": "-90.0405517002611",
    "latitude": "29.9634088495161",
    "geocoded_column": {
      "latitude": "29.9634088495161",
      "longitude": "-90.0405517002611"
    }
  },
  {
    "service_request": "2023-1045014",
    "request_type": "Mosquito, Termite & Rodent Control",
    "request_reason": "Mosquito Complaint",
    "date_created": "2023-10-21T19:29:20.000",
    "date_modified": "2023-10-21T19:29:20.000",
    "request_status": "Pending",
    "responsible_agency": "Mosquito, Termite & Rodent Control Board",
    "final_address": "3925 Tall Pines Dr",
    "address_councildis": "C",
    "status": "Pending",
    "rowid": "1045014",
    "final_x": "3704698.85143",
    "final_y": "512971.343665",
    "longitude": "-89.99550111085217",
    "latitude": "29.903768596455386",
    "geocoded_column": {
      "latitude": "29.903768596455386",
      "longitude": "-89.99550111085217"
    }
  },
  {
    "service_request": "2023-1045013",
    "request_type": "Trash/Recycling",
    "request_reason": "Replace Trash Cart",
    "date_created": "2023-10-21T19:21:46.000",
    "date_modified": "2023-10-21T19:21:47.000",
    "request_status": "Pending",
    "responsible_agency": "Department of Sanitation",
    "status": "Assigned to Contractor",
    "rowid": "1045013",
    "longitude": "0.0",
    "latitude": "0.0",
    "geocoded_column": {
      "latitude": "0.0",
      "longitude": "0.0"
    }
  },
  {
    "service_request": "2023-1045012",
    "request_type": "Property Maintenance",
    "request_reason": "Property Maintenance",
    "date_created": "2023-10-21T19:08:19.000",
    "date_modified": "2023-10-21T19:08:19.000",
    "request_status": "Pending",
    "responsible_agency": "Department of Code Enforcement",
    "final_address": "1500 Lesseps St",
    "address_councildis": "D",
    "status": "Pending",
    "rowid": "1045012",
    "final_x": "3693010.07145",
    "final_y": "536630.012295",
    "longitude": "-90.03154249887861",
    "latitude": "29.969191928370936",
    "geocoded_column": {
      "latitude": "29.969191928370936",
      "longitude": "-90.03154249887861"
    }
  },
  {
    "service_request": "2023-1045011",
    "request_type": "Mosquito, Termite & Rodent Control",
    "request_reason": "Rodent Complaint (Rats)",
    "date_created": "2023-10-21T18:58:03.000",
    "date_modified": "2023-10-21T18:58:03.000",
    "request_status": "Pending",
    "responsible_agency": "Mosquito, Termite & Rodent Control Board",
    "final_address": "1722 Ursulines Ave",
    "address_councildis": "D",
    "status": "Pending",
    "rowid": "1045011",
    "final_x": "3680429.51515",
    "final_y": "535885.058823",
    "longitude": "-90.0712987161353",
    "latitude": "29.96753056724245",
    "geocoded_column": {
      "latitude": "29.96753056724245",
      "longitude": "-90.0712987161353"
    }
  },
  {
    "service_request": "2023-1045010",
    "request_type": "Roads/Drainage",
    "request_reason": "Pothole",
    "date_created": "2023-10-21T18:49:13.000",
    "date_modified": "2023-10-21T18:49:13.000",
    "request_status": "Pending",
    "responsible_agency": "Department of Public Works",
    "final_address": "921 General Pershing St",
    "address_councildis": "B",
    "status": "Pending",
    "rowid": "1045010",
    "final_x": "3671476.38983",
    "final_y": "519022.369143",
    "longitude": "-90.10014606090029",
    "latitude": "29.921431787677196",
    "geocoded_column": {
      "latitude": "29.921431787677196",
      "longitude": "-90.10014606090029"
    }
  },
  {
    "service_request": "2023-1045009",
    "request_type": "Trash/Recycling",
    "request_reason": "Repair Recycling Cart",
    "date_created": "2023-10-21T18:41:41.000",
    "date_modified": "2023-10-21T18:41:41.000",
    "request_status": "Pending",
    "responsible_agency": "Department of Sanitation",
    "final_address": "3628 Third St",
    "address_councildis": "B",
    "status": "Pending",
    "rowid": "1045009",
    "final_x": "3672391.98727",
    "final_y": "528935.078976",
    "longitude": "-90.09691827980195",
    "latitude": "29.94866140201792",
    "geocoded_column": {
      "latitude": "29.94866140201792",
      "longitude": "-90.09691827980195"
    }
  },
  {
    "service_request": "2023-1045007",
    "request_type": "Trash/Recycling",
    "request_reason": "Missed Trash Pick-Up",
    "date_created": "2023-10-21T18:26:30.000",
    "date_modified": "2023-10-21T18:26:30.000",
    "request_status": "Pending",
    "responsible_agency": "Department of Sanitation",
    "final_address": "4600 BLK Conti St",
    "address_councildis": "A",
    "status": "Assigned to Contractor",
    "contractor": "Richards Disposal",
    "rowid": "1045007",
    "final_x": "3669969.745",
    "final_y": "540661.938149",
    "longitude": "-90.10416915353538",
    "latitude": "29.980978003106543",
    "geocoded_column": {
      "latitude": "29.980978003106543",
      "longitude": "-90.10416915353538"
    }
  },
  {
    "service_request": "2023-1045006",
    "request_type": "Trash/Recycling",
    "request_reason": "Illegal Dumping",
    "date_created": "2023-10-21T18:24:52.000",
    "date_modified": "2023-10-21T18:24:52.000",
    "request_status": "Pending",
    "responsible_agency": "Department of Sanitation",
    "final_address": "4600 BLK Conti St",
    "address_councildis": "A",
    "status": "Pending",
    "rowid": "1045006",
    "final_x": "3669969.745",
    "final_y": "540661.938149",
    "longitude": "-90.10416915353538",
    "latitude": "29.980978003106543",
    "geocoded_column": {
      "latitude": "29.980978003106543",
      "longitude": "-90.10416915353538"
    }
  },
  {
    "service_request": "2023-1045005",
    "request_type": "Trash/Recycling",
    "request_reason": "Replace Trash Cart",
    "date_created": "2023-10-21T18:06:23.000",
    "date_modified": "2023-10-21T18:06:24.000",
    "request_status": "Pending",
    "responsible_agency": "Department of Sanitation",
    "final_address": "3628 Third St",
    "address_councildis": "B",
    "status": "Assigned to Contractor",
    "contractor": "Richards Disposal",
    "rowid": "1045005",
    "final_x": "3672391.98727",
    "final_y": "528935.078976",
    "longitude": "-90.09691827980195",
    "latitude": "29.94866140201792",
    "geocoded_column": {
      "latitude": "29.94866140201792",
      "longitude": "-90.09691827980195"
    }
  },
  {
    "service_request": "2023-1045004",
    "request_type": "Safety & Permits",
    "request_reason": "Safety & Permits Request (Cyber Incident Back Up)",
    "date_created": "2023-10-21T17:08:12.000",
    "date_modified": "2023-10-21T17:08:12.000",
    "request_status": "Pending",
    "responsible_agency": "Safety and Permits",
    "final_address": "1135 Decatur St",
    "address_councildis": "C",
    "status": "Pending",
    "rowid": "1045004",
    "final_x": "3684203.83746",
    "final_y": "533403.752772",
    "longitude": "-90.05946646141463",
    "latitude": "29.960592986138046",
    "geocoded_column": {
      "latitude": "29.960592986138046",
      "longitude": "-90.05946646141463"
    }
  },
  {
    "service_request": "2023-1045003",
    "request_type": "Trash/Recycling",
    "request_reason": "Illegal Dumping",
    "date_created": "2023-10-21T16:50:37.000",
    "date_modified": "2023-10-21T16:50:37.000",
    "request_status": "Pending",
    "responsible_agency": "Department of Sanitation",
    "final_address": "1619 S Liberty St",
    "address_councildis": "B",
    "status": "Pending",
    "rowid": "1045003",
    "final_x": "3676673.81403",
    "final_y": "526562.668158",
    "longitude": "-90.08348043486053",
    "latitude": "29.942010320855633",
    "geocoded_column": {
      "latitude": "29.942010320855633",
      "longitude": "-90.08348043486053"
    }
  },
  {
    "service_request": "2023-1045002",
    "request_type": "Property Maintenance",
    "request_reason": "Property Maintenance",
    "date_created": "2023-10-21T16:24:00.000",
    "date_modified": "2023-10-21T16:24:00.000",
    "request_status": "Pending",
    "responsible_agency": "Department of Code Enforcement",
    "final_address": "1720 N Dupre St",
    "address_councildis": "D",
    "status": "Pending",
    "rowid": "1045002",
    "final_x": "3679070.01243",
    "final_y": "541281.585868",
    "longitude": "-90.07540495949293",
    "latitude": "29.98241025881277",
    "geocoded_column": {
      "latitude": "29.98241025881277",
      "longitude": "-90.07540495949293"
    }
  },
  {
    "service_request": "2023-1045001",
    "request_type": "Trash/Recycling",
    "request_reason": "Request a Large Item Pick Up",
    "date_created": "2023-10-21T16:02:49.000",
    "date_modified": "2023-10-21T16:02:50.000",
    "request_status": "Pending",
    "responsible_agency": "Department of Sanitation",
    "final_address": "3520 Annunciation St",
    "address_councildis": "B",
    "status": "Assigned to Contractor",
    "contractor": "Richards Disposal",
    "rowid": "1045001",
    "final_x": "3674648.58913",
    "final_y": "518255.65887",
    "longitude": "-90.0901590594647",
    "latitude": "29.919229324612324",
    "geocoded_column": {
      "latitude": "29.919229324612324",
      "longitude": "-90.0901590594647"
    }
  },
  {
    "service_request": "2023-1044999",
    "request_type": "Roads/Drainage",
    "request_reason": "Pothole",
    "date_created": "2023-10-21T15:46:03.000",
    "date_modified": "2023-10-21T15:46:03.000",
    "request_status": "Pending",
    "responsible_agency": "Department of Public Works",
    "final_address": "1317 Milan St",
    "address_councildis": "B",
    "status": "Pending",
    "rowid": "1044999",
    "final_x": "3671700.96097",
    "final_y": "520272.658936",
    "longitude": "-90.09939468590763",
    "latitude": "29.9248630381211",
    "geocoded_column": {
      "latitude": "29.9248630381211",
      "longitude": "-90.09939468590763"
    }
  },
  {
    "service_request": "2023-1044998",
    "request_type": "Property Maintenance",
    "request_reason": "Property Maintenance",
    "date_created": "2023-10-21T15:40:41.000",
    "date_modified": "2023-10-21T15:40:41.000",
    "request_status": "Pending",
    "responsible_agency": "Department of Code Enforcement",
    "final_address": "2225 Odin St, New Orleans, Louisiana, 70122",
    "address_councildis": "D",
    "status": "Pending",
    "rowid": "1044998",
    "final_x": "3683890.64847",
    "final_y": "553097.592023",
    "longitude": "-90.05976423324837",
    "latitude": "30.014753643325204",
    "geocoded_column": {
      "latitude": "30.014753643325204",
      "longitude": "-90.05976423324837"
    }
  },
  {
    "service_request": "2023-1044997",
    "request_type": "Trash/Recycling",
    "request_reason": "Request a Large Item Pick Up",
    "date_created": "2023-10-21T15:27:24.000",
    "date_modified": "2023-10-21T15:27:25.000",
    "request_status": "Pending",
    "responsible_agency": "Department of Sanitation",
    "final_address": "7637 Tricia Ct",
    "address_councildis": "E",
    "status": "Assigned to Contractor",
    "contractor": "Waste Pro",
    "rowid": "1044997",
    "final_x": "3717727.86815",
    "final_y": "571159.18788",
    "longitude": "-89.95216844155685",
    "latitude": "30.06333818976537",
    "geocoded_column": {
      "latitude": "30.06333818976537",
      "longitude": "-89.95216844155685"
    }
  },
  {
    "service_request": "2023-1044996",
    "request_type": "Roads/Drainage",
    "request_reason": "Pothole",
    "date_created": "2023-10-21T15:20:25.000",
    "date_modified": "2023-10-21T15:20:25.000",
    "request_status": "Pending",
    "responsible_agency": "Department of Public Works",
    "final_address": "1512 General Pershing St",
    "address_councildis": "B",
    "status": "Pending",
    "rowid": "1044996",
    "final_x": "3671215.61991",
    "final_y": "520705.571577",
    "longitude": "-90.10091205336771",
    "latitude": "29.92606777202637",
    "geocoded_column": {
      "latitude": "29.92606777202637",
      "longitude": "-90.10091205336771"
    }
  },
  {
    "service_request": "2023-1044995",
    "request_type": "Safety & Permits",
    "request_reason": "Construction permit",
    "date_created": "2023-10-21T15:11:50.000",
    "date_modified": "2023-10-21T15:11:50.000",
    "request_status": "Pending",
    "responsible_agency": "Department of Code Enforcement",
    "final_address": "2215 St Thomas St",
    "address_councildis": "B",
    "status": "Pending",
    "rowid": "1044995",
    "final_x": "3679825.15976",
    "final_y": "520563.503288",
    "longitude": "-90.07373917576756",
    "latitude": "29.925419700901404",
    "geocoded_column": {
      "latitude": "29.925419700901404",
      "longitude": "-90.07373917576756"
    }
  },
  {
    "service_request": "2023-1044994",
    "request_type": "Trash/Recycling",
    "request_reason": "Replace Trash Cart",
    "date_created": "2023-10-21T15:09:47.000",
    "date_modified": "2023-10-21T15:09:48.000",
    "request_status": "Pending",
    "responsible_agency": "Department of Sanitation",
    "final_address": "1429 General Ogden St",
    "address_councildis": "A",
    "status": "Assigned to Contractor",
    "contractor": "Richards Disposal",
    "rowid": "1044994",
    "final_x": "3660535.81965",
    "final_y": "530954.481538",
    "longitude": "-90.1342867090966",
    "latitude": "29.95456056120541",
    "geocoded_column": {
      "latitude": "29.95456056120541",
      "longitude": "-90.1342867090966"
    }
  },
  {
    "service_request": "2023-1044993",
    "request_type": "Trash/Recycling",
    "request_reason": "Missed Trash Pick-Up",
    "date_created": "2023-10-21T15:05:38.000",
    "date_modified": "2023-10-21T15:05:38.000",
    "request_status": "Pending",
    "responsible_agency": "Department of Sanitation",
    "final_address": "4168 Bienville Ave",
    "address_councildis": "A",
    "status": "Assigned to Contractor",
    "contractor": "Richards Disposal",
    "rowid": "1044993",
    "final_x": "3671101.96711",
    "final_y": "539243.38049",
    "longitude": "-90.1006412824638",
    "latitude": "29.977044006798113",
    "geocoded_column": {
      "latitude": "29.977044006798113",
      "longitude": "-90.1006412824638"
    }
  },
  {
    "service_request": "2023-1044992",
    "request_type": "Trash/Recycling",
    "request_reason": "Missed Trash Pick-Up",
    "date_created": "2023-10-21T15:01:43.000",
    "date_modified": "2023-10-21T15:01:44.000",
    "request_status": "Pending",
    "responsible_agency": "Department of Sanitation",
    "final_address": "6220 Douglass St",
    "address_councildis": "E",
    "status": "Assigned to Contractor",
    "contractor": "Waste Pro",
    "rowid": "1044992",
    "final_x": "3699167.61917",
    "final_y": "531014.146242",
    "longitude": "-90.01230110053719",
    "latitude": "29.953556507065066",
    "geocoded_column": {
      "latitude": "29.953556507065066",
      "longitude": "-90.01230110053719"
    }
  },
  {
    "service_request": "2023-1044991",
    "request_type": "Trash/Recycling",
    "request_reason": "Missed Trash Pick-Up",
    "date_created": "2023-10-21T14:58:22.000",
    "date_modified": "2023-10-21T14:58:23.000",
    "request_status": "Pending",
    "responsible_agency": "Department of Sanitation",
    "final_address": "1119 France St",
    "address_councildis": "C",
    "status": "Assigned to Contractor",
    "contractor": "IV Waste",
    "rowid": "1044991",
    "final_x": "3692478.40854",
    "final_y": "535399.46951",
    "longitude": "-90.03326561451942",
    "latitude": "29.9658249680005",
    "geocoded_column": {
      "latitude": "29.9658249680005",
      "longitude": "-90.03326561451942"
    }
  },
  {
    "service_request": "2023-1044990",
    "request_type": "Roads/Drainage",
    "request_reason": "Pothole",
    "date_created": "2023-10-21T14:48:33.000",
    "date_modified": "2023-10-21T14:48:33.000",
    "request_status": "Pending",
    "responsible_agency": "Department of Public Works",
    "final_address": "6025 Coliseum St",
    "address_councildis": "A",
    "status": "Pending",
    "rowid": "1044990",
    "final_x": "3664796.34074",
    "final_y": "520310.32268",
    "longitude": "-90.12118913565936",
    "latitude": "29.92516924769698",
    "geocoded_column": {
      "latitude": "29.92516924769698",
      "longitude": "-90.12118913565936"
    }
  },
  {
    "service_request": "2023-1044989",
    "request_type": "Trash/Recycling",
    "request_reason": "Replace Trash Cart",
    "date_created": "2023-10-21T14:35:08.000",
    "date_modified": "2023-10-21T14:35:09.000",
    "request_status": "Pending",
    "responsible_agency": "Department of Sanitation",
    "final_address": "3225 cherry street",
    "address_councildis": "A",
    "status": "Assigned to Contractor",
    "contractor": "Richards Disposal",
    "rowid": "1044989",
    "final_x": "3663806.12845",
    "final_y": "536622.753479",
    "longitude": "-90.12377136566627",
    "latitude": "29.97005195096284",
    "geocoded_column": {
      "latitude": "29.97005195096284",
      "longitude": "-90.12377136566627"
    }
  },
  {
    "service_request": "2023-1044988",
    "request_type": "Trash/Recycling",
    "request_reason": "Repair Trash Cart",
    "date_created": "2023-10-21T14:33:20.000",
    "date_modified": "2023-10-21T14:33:20.000",
    "request_status": "Pending",
    "responsible_agency": "Department of Sanitation",
    "final_address": "3225 cerry st ",
    "status": "Assigned to Contractor",
    "rowid": "1044988",
    "longitude": "0.0",
    "latitude": "0.0",
    "geocoded_column": {
      "latitude": "0.0",
      "longitude": "0.0"
    }
  },
  {
    "service_request": "2023-1044987",
    "request_type": "Trash/Recycling",
    "request_reason": "Replace Trash Cart",
    "date_created": "2023-10-21T14:28:14.000",
    "date_modified": "2023-10-21T14:28:14.000",
    "request_status": "Pending",
    "responsible_agency": "Department of Sanitation",
    "final_address": "3225 Cherry St",
    "address_councildis": "A",
    "status": "Assigned to Contractor",
    "contractor": "Richards Disposal",
    "rowid": "1044987",
    "final_x": "3663806.12845",
    "final_y": "536622.753479",
    "longitude": "-90.12377136566627",
    "latitude": "29.97005195096284",
    "geocoded_column": {
      "latitude": "29.97005195096284",
      "longitude": "-90.12377136566627"
    }
  },
  {
    "service_request": "2023-1044986",
    "request_type": "Trash/Recycling",
    "request_reason": "Request a Large Item Pick Up",
    "date_created": "2023-10-21T14:18:20.000",
    "date_modified": "2023-10-21T14:18:21.000",
    "request_status": "Pending",
    "responsible_agency": "Department of Sanitation",
    "final_address": "3034 Cleveland Ave",
    "address_councildis": "B",
    "status": "Assigned to Contractor",
    "contractor": "Richards Disposal",
    "rowid": "1044986",
    "final_x": "3673837.22414",
    "final_y": "535677.338119",
    "longitude": "-90.09212444746322",
    "latitude": "29.967157405454756",
    "geocoded_column": {
      "latitude": "29.967157405454756",
      "longitude": "-90.09212444746322"
    }
  },
  {
    "service_request": "2023-1044985",
    "request_type": "Trash/Recycling",
    "request_reason": "Request a Large Item Pick Up",
    "date_created": "2023-10-21T13:58:48.000",
    "date_modified": "2023-10-21T13:58:48.000",
    "request_status": "Pending",
    "responsible_agency": "Department of Sanitation",
    "final_address": "2228 Annunciation St",
    "address_councildis": "B",
    "status": "Assigned to Contractor",
    "contractor": "Richards Disposal",
    "rowid": "1044985",
    "final_x": "3679336.25736",
    "final_y": "521026.825465",
    "longitude": "-90.07526643020485",
    "latitude": "29.926708454424453",
    "geocoded_column": {
      "latitude": "29.926708454424453",
      "longitude": "-90.07526643020485"
    }
  },
  {
    "service_request": "2023-1044984",
    "request_type": "Trash/Recycling",
    "request_reason": "Request a Large Item Pick Up",
    "date_created": "2023-10-21T13:51:01.000",
    "date_modified": "2023-10-21T13:51:02.000",
    "request_status": "Pending",
    "responsible_agency": "Department of Sanitation",
    "final_address": "7301 Beaconfield Dr",
    "address_councildis": "E",
    "status": "Assigned to Contractor",
    "contractor": "Waste Pro",
    "rowid": "1044984",
    "final_x": "3713636.2428",
    "final_y": "565725.624163",
    "longitude": "-89.9653072195555",
    "latitude": "30.048533090492494",
    "geocoded_column": {
      "latitude": "30.048533090492494",
      "longitude": "-89.9653072195555"
    }
  },
  {
    "service_request": "2023-1044983",
    "request_type": "Roads/Drainage",
    "request_reason": "Accessibility Ramps, Curbs and Sidewalk Repair",
    "date_created": "2023-10-21T13:32:04.000",
    "date_modified": "2023-10-21T13:32:04.000",
    "request_status": "Pending",
    "responsible_agency": "Department of Public Works",
    "final_address": "1200 BLK Allen Toussaint Blvd",
    "address_councildis": "D",
    "status": "Pending",
    "rowid": "1044983",
    "final_x": "3676557.74724",
    "final_y": "555165.669968",
    "longitude": "-90.0828613627465",
    "latitude": "30.020662177829024",
    "geocoded_column": {
      "latitude": "30.020662177829024",
      "longitude": "-90.0828613627465"
    }
  },
  {
    "service_request": "2023-1044982",
    "request_type": "Trash/Recycling",
    "request_reason": "Request a Large Item Pick Up",
    "date_created": "2023-10-21T13:29:55.000",
    "date_modified": "2023-10-21T13:29:56.000",
    "request_status": "Pending",
    "responsible_agency": "Department of Sanitation",
    "final_address": "420 St Maurice Ave",
    "address_councildis": "E",
    "status": "Assigned to Contractor",
    "contractor": "Waste Pro",
    "rowid": "1044982",
    "final_x": "3698871.06903",
    "final_y": "530996.142786",
    "longitude": "-90.01323813011061",
    "latitude": "29.95351640141486",
    "geocoded_column": {
      "latitude": "29.95351640141486",
      "longitude": "-90.01323813011061"
    }
  },
  {
    "service_request": "2023-1044981",
    "request_type": "Health Related Request",
    "request_reason": "Noise Ordinance Complaint",
    "date_created": "2023-10-21T13:29:52.000",
    "date_modified": "2023-10-21T13:29:52.000",
    "request_status": "Pending",
    "responsible_agency": "Health Department",
    "final_address": "7910 Earhart Blvd",
    "address_councildis": "B",
    "status": "Pending",
    "rowid": "1044981",
    "final_x": "3667005.87399",
    "final_y": "533034.124676",
    "longitude": "-90.11378683341556",
    "latitude": "29.960091146202156",
    "geocoded_column": {
      "latitude": "29.960091146202156",
      "longitude": "-90.11378683341556"
    }
  },
  {
    "service_request": "2023-1044980",
    "request_type": "Trash/Recycling",
    "request_reason": "Request a Large Item Pick Up",
    "date_created": "2023-10-21T13:22:25.000",
    "date_modified": "2023-10-21T13:22:26.000",
    "request_status": "Pending",
    "responsible_agency": "Department of Sanitation",
    "final_address": "7929 Freret St",
    "address_councildis": "A",
    "status": "Assigned to Contractor",
    "contractor": "Richards Disposal",
    "rowid": "1044980",
    "final_x": "3661926.85114",
    "final_y": "527522.518655",
    "longitude": "-90.13000815603785",
    "latitude": "29.9450836666227",
    "geocoded_column": {
      "latitude": "29.9450836666227",
      "longitude": "-90.13000815603785"
    }
  },
  {
    "service_request": "2023-1044979",
    "request_type": "Trash/Recycling",
    "request_reason": "Replace Recycling Cart",
    "date_created": "2023-10-21T13:19:47.000",
    "date_modified": "2023-10-21T13:19:47.000",
    "request_status": "Pending",
    "responsible_agency": "Department of Sanitation",
    "final_address": "1630 S Lopez St",
    "address_councildis": "B",
    "status": "Pending",
    "rowid": "1044979",
    "final_x": "3670032.85703",
    "final_y": "530639.19085",
    "longitude": "-90.10430936167344",
    "latitude": "29.953416935823984",
    "geocoded_column": {
      "latitude": "29.953416935823984",
      "longitude": "-90.10430936167344"
    }
  },
  {
    "service_request": "2023-1044978",
    "request_type": "Trash/Recycling",
    "request_reason": "MIssed Recycling Pick-Up",
    "date_created": "2023-10-21T13:11:39.000",
    "date_modified": "2023-10-21T13:11:40.000",
    "request_status": "Pending",
    "responsible_agency": "Department of Sanitation",
    "final_address": "4300 BLK Eden St",
    "address_councildis": "B",
    "status": "Assigned to Contractor",
    "contractor": "Richards Disposal",
    "rowid": "1044978",
    "final_x": "3670086.25887",
    "final_y": "530552.721819",
    "longitude": "-90.10414366987703",
    "latitude": "29.953177599343636",
    "geocoded_column": {
      "latitude": "29.953177599343636",
      "longitude": "-90.10414366987703"
    }
  },
  {
    "service_request": "2023-1044977",
    "request_type": "Roads/Drainage",
    "request_reason": "Pothole",
    "date_created": "2023-10-21T13:08:22.000",
    "date_modified": "2023-10-21T13:08:22.000",
    "request_status": "Pending",
    "responsible_agency": "Department of Public Works",
    "final_address": "6125 Camp St",
    "address_councildis": "A",
    "status": "Pending",
    "rowid": "1044977",
    "final_x": "3664070.79085",
    "final_y": "519883.983224",
    "longitude": "-90.12349368511263",
    "latitude": "29.924018032566316",
    "geocoded_column": {
      "latitude": "29.924018032566316",
      "longitude": "-90.12349368511263"
    }
  },
  {
    "service_request": "2023-1044975",
    "request_type": "Roads/Drainage",
    "request_reason": "Pothole",
    "date_created": "2023-10-21T13:05:35.000",
    "date_modified": "2023-10-21T13:05:35.000",
    "request_status": "Pending",
    "responsible_agency": "Department of Public Works",
    "final_address": "5823 Perrier St",
    "address_councildis": "A",
    "status": "Pending",
    "rowid": "1044975",
    "final_x": "3665601.07367",
    "final_y": "520421.208184",
    "longitude": "-90.11864512991228",
    "latitude": "29.92545071542357",
    "geocoded_column": {
      "latitude": "29.92545071542357",
      "longitude": "-90.11864512991228"
    }
  },
  {
    "service_request": "2023-1044974",
    "request_type": "Trash/Recycling",
    "request_reason": "Missed Trash Pick-Up",
    "date_created": "2023-10-21T12:19:24.000",
    "date_modified": "2023-10-21T12:19:24.000",
    "request_status": "Pending",
    "responsible_agency": "Department of Sanitation",
    "final_address": "2200 Almonaster Ave, New Orleans, Louisiana, 70117",
    "address_councildis": "D",
    "status": "Assigned to Contractor",
    "contractor": "IV Waste",
    "rowid": "1044974",
    "final_x": "3688075.14748",
    "final_y": "540657.944139",
    "longitude": "-90.04698450475946",
    "latitude": "29.9804205608054",
    "geocoded_column": {
      "latitude": "29.9804205608054",
      "longitude": "-90.04698450475946"
    }
  },
  {
    "service_request": "2023-1044973",
    "request_type": "Traffic Signals/Signs/Striping/Streetlights",
    "request_reason": "Street Light Outage/Malfunction",
    "date_created": "2023-10-21T12:16:12.000",
    "date_modified": "2023-10-21T12:16:13.000",
    "request_status": "Pending",
    "responsible_agency": "Department of Public Works",
    "final_address": "5690 Eastover Dr",
    "address_councildis": "E",
    "status": "Assigned to Contractor",
    "contractor": "Legacy Professional Services",
    "rowid": "1044973",
    "final_x": "3719519.67557",
    "final_y": "562639.938592",
    "longitude": "-89.94683036868318",
    "latitude": "30.039854266670755",
    "geocoded_column": {
      "latitude": "30.039854266670755",
      "longitude": "-89.94683036868318"
    }
  },
  {
    "service_request": "2023-1044972",
    "request_type": "Trash/Recycling",
    "request_reason": "MIssed Recycling Pick-Up",
    "date_created": "2023-10-21T12:03:28.000",
    "date_modified": "2023-10-21T12:03:29.000",
    "request_status": "Pending",
    "responsible_agency": "Department of Sanitation",
    "final_address": "3539 Audubon Ct",
    "address_councildis": "B",
    "status": "Assigned to Contractor",
    "contractor": "Richards Disposal",
    "rowid": "1044972",
    "final_x": "3669188.28916",
    "final_y": "533353.494916",
    "longitude": "-90.10688441971249",
    "latitude": "29.960905259073453",
    "geocoded_column": {
      "latitude": "29.960905259073453",
      "longitude": "-90.10688441971249"
    }
  },
  {
    "service_request": "2023-1044971",
    "request_type": "Trash/Recycling",
    "request_reason": "Illegal Dumping",
    "date_created": "2023-10-21T10:57:17.000",
    "date_modified": "2023-10-21T10:57:17.000",
    "request_status": "Pending",
    "responsible_agency": "Department of Sanitation",
    "final_address": "5210 Revel St",
    "address_councildis": "E",
    "status": "Pending",
    "rowid": "1044971",
    "final_x": "3725052.2208",
    "final_y": "562482.280159",
    "longitude": "-89.92935216486518",
    "latitude": "30.039235535967588",
    "geocoded_column": {
      "latitude": "30.039235535967588",
      "longitude": "-89.92935216486518"
    }
  },
  {
    "service_request": "2023-1044970",
    "request_type": "Trash/Recycling",
    "request_reason": "Request a Large Item Pick Up",
    "date_created": "2023-10-21T10:42:10.000",
    "date_modified": "2023-10-21T10:42:10.000",
    "request_status": "Pending",
    "responsible_agency": "Department of Sanitation",
    "final_address": "1315 St Andrew St",
    "address_councildis": "B",
    "status": "Assigned to Contractor",
    "contractor": "Richards Disposal",
    "rowid": "1044970",
    "final_x": "3678976.02146",
    "final_y": "523267.033787",
    "longitude": "-90.07632601935202",
    "latitude": "29.93287916439355",
    "geocoded_column": {
      "latitude": "29.93287916439355",
      "longitude": "-90.07632601935202"
    }
  },
  {
    "service_request": "2023-1044969",
    "request_type": "Trash/Recycling",
    "request_reason": "Replace Trash Cart",
    "date_created": "2023-10-21T10:36:35.000",
    "date_modified": "2023-10-21T10:36:36.000",
    "request_status": "Pending",
    "responsible_agency": "Department of Sanitation",
    "final_address": "920 Amelia St",
    "address_councildis": "B",
    "status": "Assigned to Contractor",
    "contractor": "Richards Disposal",
    "rowid": "1044969",
    "final_x": "3673747.4898",
    "final_y": "518566.644599",
    "longitude": "-90.09299275186649",
    "latitude": "29.920111287305563",
    "geocoded_column": {
      "latitude": "29.920111287305563",
      "longitude": "-90.09299275186649"
    }
  },
  {
    "service_request": "2023-1044968",
    "request_type": "Property Maintenance",
    "request_reason": "Property Maintenance",
    "date_created": "2023-10-21T10:32:45.000",
    "date_modified": "2023-10-21T10:32:45.000",
    "request_status": "Pending",
    "responsible_agency": "Department of Code Enforcement",
    "final_address": "2628 Almonaster Ave",
    "address_councildis": "D",
    "status": "Pending",
    "rowid": "1044968",
    "final_x": "3688460.57846",
    "final_y": "542375.304717",
    "longitude": "-90.0457061985007",
    "latitude": "29.985130788273224",
    "geocoded_column": {
      "latitude": "29.985130788273224",
      "longitude": "-90.0457061985007"
    }
  },
  {
    "service_request": "2023-1044967",
    "request_type": "Mosquito, Termite & Rodent Control",
    "request_reason": "Mosquito Complaint",
    "date_created": "2023-10-21T10:30:38.000",
    "date_modified": "2023-10-21T10:30:38.000",
    "request_status": "Pending",
    "responsible_agency": "Mosquito, Termite & Rodent Control Board",
    "final_address": "2628 Almonaster Ave",
    "address_councildis": "D",
    "status": "Pending",
    "rowid": "1044967",
    "final_x": "3688460.57846",
    "final_y": "542375.304717",
    "longitude": "-90.0457061985007",
    "latitude": "29.985130788273224",
    "geocoded_column": {
      "latitude": "29.985130788273224",
      "longitude": "-90.0457061985007"
    }
  },
  {
    "service_request": "2023-1044964",
    "request_type": "Trash/Recycling",
    "request_reason": "Missed Trash Pick-Up",
    "date_created": "2023-10-21T10:10:05.000",
    "date_modified": "2023-10-21T10:10:06.000",
    "request_status": "Pending",
    "responsible_agency": "Department of Sanitation",
    "final_address": "8731 Grant St",
    "address_councildis": "E",
    "status": "Assigned to Contractor",
    "contractor": "Waste Pro",
    "rowid": "1044964",
    "final_x": "3707861.32702",
    "final_y": "554502.563928",
    "longitude": "-89.9839768920327",
    "latitude": "30.017862413300456",
    "geocoded_column": {
      "latitude": "30.017862413300456",
      "longitude": "-89.9839768920327"
    }
  },
  {
    "service_request": "2023-1044963",
    "request_type": "Mayor's Request",
    "request_reason": "Requests to the Mayor",
    "date_created": "2023-10-21T10:09:31.000",
    "date_modified": "2023-10-21T10:09:31.000",
    "request_status": "Pending",
    "responsible_agency": "Executive Office of the Mayor",
    "final_address": "8036 Sandpiper Dr",
    "address_councildis": "E",
    "status": "Pending",
    "rowid": "1044963",
    "final_x": "3715016.14789",
    "final_y": "570783.957287",
    "longitude": "-89.96075445187027",
    "latitude": "30.062396056784475",
    "geocoded_column": {
      "latitude": "30.062396056784475",
      "longitude": "-89.96075445187027"
    }
  },
  {
    "service_request": "2023-1044962",
    "request_type": "Property Maintenance",
    "request_reason": "Property Maintenance",
    "date_created": "2023-10-21T09:57:18.000",
    "date_modified": "2023-10-21T09:57:18.000",
    "request_status": "Pending",
    "responsible_agency": "Department of Code Enforcement",
    "final_address": "7801 Bass St",
    "address_councildis": "E",
    "status": "Pending",
    "rowid": "1044962",
    "final_x": "3720082.01599",
    "final_y": "573745.982698",
    "longitude": "-89.9446278446755",
    "latitude": "30.070372553100313",
    "geocoded_column": {
      "latitude": "30.070372553100313",
      "longitude": "-89.9446278446755"
    }
  },
  {
    "service_request": "2023-1044961",
    "request_type": "Mosquito, Termite & Rodent Control",
    "request_reason": "Rodent Complaint (Rats)",
    "date_created": "2023-10-21T09:50:08.000",
    "date_modified": "2023-10-21T09:50:08.000",
    "request_status": "Pending",
    "responsible_agency": "Mosquito, Termite & Rodent Control Board",
    "final_address": "7801 Bass St",
    "address_councildis": "E",
    "status": "Pending",
    "rowid": "1044961",
    "final_x": "3720082.01599",
    "final_y": "573745.982698",
    "longitude": "-89.9446278446755",
    "latitude": "30.070372553100313",
    "geocoded_column": {
      "latitude": "30.070372553100313",
      "longitude": "-89.9446278446755"
    }
  },
  {
    "service_request": "2023-1044960",
    "request_type": "Roads/Drainage",
    "request_reason": "Road Shoulder Repair",
    "date_created": "2023-10-21T09:43:32.000",
    "date_modified": "2023-10-21T09:43:32.000",
    "request_status": "Pending",
    "responsible_agency": "Department of Public Works",
    "final_address": "307 S Olympia St",
    "address_councildis": "A",
    "status": "Pending",
    "rowid": "1044960",
    "final_x": "3668829.3099",
    "final_y": "538940.521994",
    "longitude": "-90.10782931795029",
    "latitude": "29.976278279126632",
    "geocoded_column": {
      "latitude": "29.976278279126632",
      "longitude": "-90.10782931795029"
    }
  },
  {
    "service_request": "2023-1044959",
    "request_type": "Traffic Signals/Signs/Striping/Streetlights",
    "request_reason": "Street Light Outage/Malfunction",
    "date_created": "2023-10-21T09:32:43.000",
    "date_modified": "2023-10-21T09:32:44.000",
    "request_status": "Pending",
    "responsible_agency": "Department of Public Works",
    "final_address": "307 S Olympia St",
    "address_councildis": "A",
    "status": "Assigned to Contractor",
    "contractor": "Legacy Professional Services",
    "rowid": "1044959",
    "final_x": "3668829.3099",
    "final_y": "538940.521994",
    "longitude": "-90.10782931795029",
    "latitude": "29.976278279126632",
    "geocoded_column": {
      "latitude": "29.976278279126632",
      "longitude": "-90.10782931795029"
    }
  },