[
  {
    "service_request": "2024-1093259",
    "request_type": "Roads/Drainage",
    "request_reason": "Pothole",
    "date_created": "2024-05-14T23:44:38.000",
    "date_modified": "2024-05-14T23:44:38.000",
    "request_status": "Pending",
    "responsible_agency": "Department of Public Works",
    "final_address": "CONSTANCE ST & LAFAYETTE ST",
    "address_councildis": "B",
    "status": "Pending",
    "rowid": "1093259",
    "final_x": "3681611.0",
    "final_y": "528686.08",
    "longitude": "-90.06781865475025",
    "latitude": "29.94769998908786",
    "geocoded_column": {
      "latitude": "29.94769998908786",
      "longitude": "-90.06781865475025"
    }
  },
  {
    "service_request": "2024-1093257",
    "request_type": "Roads/Drainage",
    "request_reason": "Street Subsidence (Sinking)",
    "date_created": "2024-05-14T23:03:09.000",
    "date_modified": "2024-05-14T23:03:09.000",
    "request_status": "Pending",
    "responsible_agency": "Department of Public Works",
    "final_address": "2100 BLK Saint Bernard Ave",
    "address_councildis": "D",
    "status": "Pending",
    "rowid": "1093257",
    "final_x": "3681189.06442",
    "final_y": "539700.54309",
    "longitude": "-90.06876706658488",
    "latitude": "29.977998805769435",
    "geocoded_column": {
      "latitude": "29.977998805769435",
      "longitude": "-90.06876706658488"
    }
  },
  {
    "service_request": "2024-1093256",
    "request_type": "Parks & Parkways",
    "request_reason": "Request Grass Cutting Service (City Owned Property)",
    "date_created": "2024-05-14T22:39:52.000",
    "date_modified": "2024-05-14T22:39:52.000",
    "request_status": "Pending",
    "responsible_agency": "Department of Parks & Parkway",
    "final_address": "7618 Briarwood Dr",
    "address_councildis": "E",
    "status": "Pending",
    "rowid": "1093256",
    "final_x": "3717544.46328",
    "final_y": "570771.709799",
    "longitude": "-89.95276294500813",
    "latitude": "30.06227886379369",
    "geocoded_column": {
      "latitude": "30.06227886379369",
      "longitude": "-89.95276294500813"
    }
  },
  {
    "service_request": "2024-1093255",
    "request_type": "Trash/Recycling",
    "request_reason": "Missed Trash Pick-Up",
    "date_created": "2024-05-14T21:18:05.000",
    "date_modified": "2024-05-14T21:18:06.000",
    "request_status": "Pending",
    "responsible_agency": "Department of Sanitation",
    "final_address": "7720 Spruce St",
    "address_councildis": "A",
    "status": "Assigned to Contractor",
    "contractor": "IV Waste",
    "rowid": "1093255",
    "final_x": "3664775.48429",
    "final_y": "529563.764545",
    "longitude": "-90.12094590667361",
    "latitude": "29.950613869573143",
    "geocoded_column": {
      "latitude": "29.950613869573143",
      "longitude": "-90.12094590667361"
    }
  },
  {
    "service_request": "2024-1093254",
    "request_type": "Property Maintenance",
    "request_reason": "Property Maintenance",
    "date_created": "2024-05-14T21:13:17.000",
    "date_modified": "2024-05-14T21:13:17.000",
    "request_status": "Pending",
    "responsible_agency": "Department of Code Enforcement",
    "final_address": "5516 Montegut Dr",
    "address_councildis": "D",
    "status": "Pending",
    "rowid": "1093254",
    "final_x": "3689551.75241",
    "final_y": "553557.566615",
    "longitude": "-90.04186156141911",
    "latitude": "30.01584417679437",
    "geocoded_column": {
      "latitude": "30.01584417679437",
      "longitude": "-90.04186156141911"
    }
  },
  {
    "service_request": "2024-1093253",
    "request_type": "Traffic Signals/Signs/Striping/Streetlights",
    "request_reason": "Street Light Outage/Malfunction",
    "date_created": "2024-05-14T21:05:57.000",
    "date_modified": "2024-05-14T21:05:58.000",
    "request_status": "Pending",
    "responsible_agency": "Department of Public Works",
    "final_address": "3635 Gentilly Blvd",
    "address_councildis": "D",
    "status": "Assigned to Contractor",
    "contractor": "Legacy Professional Services",
    "rowid": "1093253",
    "final_x": "3686434.00687",
    "final_y": "548942.794451",
    "longitude": "-90.05187527751514",
    "latitude": "30.003251492346145",
    "geocoded_column": {
      "latitude": "30.003251492346145",
      "longitude": "-90.05187527751514"
    }
  },
  {
    "service_request": "2024-1093252",
    "request_type": "Trash/Recycling",
    "request_reason": "Request a Large Item Pick Up",
    "date_created": "2024-05-14T21:05:04.000",
    "date_modified": "2024-05-14T21:05:05.000",
    "request_status": "Pending",
    "responsible_agency": "Department of Sanitation",
    "final_address": "1875 Lauradale Dr",
    "address_councildis": "C",
    "status": "Assigned to Contractor",
    "contractor": "Richards Disposal",
    "rowid": "1093252",
    "final_x": "3692678.73027",
    "final_y": "524126.295932",
    "longitude": "-90.0330369984253",
    "latitude": "29.934821397179363",
    "geocoded_column": {
      "latitude": "29.934821397179363",
      "longitude": "-90.0330369984253"
    }
  },
  {
    "service_request": "2024-1093251",
    "request_type": "Property Maintenance",
    "request_reason": "Property Maintenance",
    "date_created": "2024-05-14T21:02:54.000",
    "date_modified": "2024-05-14T21:02:54.000",
    "request_status": "Pending",
    "responsible_agency": "Department of Code Enforcement",
    "final_address": "3151 Mansfield Ave",
    "address_councildis": "C",
    "status": "Pending",
    "rowid": "1093251",
    "final_x": "3709052.01278",
    "final_y": "518604.194103",
    "longitude": "-89.98155292168204",
    "latitude": "29.91911651023944",
    "geocoded_column": {
      "latitude": "29.91911651023944",
      "longitude": "-89.98155292168204"
    }
  },
  {
    "service_request": "2024-1093250",
    "request_type": "Abandoned Vehicles",
    "request_reason": "Abandoned/Junk Vehicles",
    "date_created": "2024-05-14T20:59:13.000",
    "date_modified": "2024-05-14T20:59:13.000",
    "request_status": "Pending",
    "responsible_agency": "Department of Public Works",
    "final_address": "3151 Mansfield Ave",
    "address_councildis": "C",
    "status": "Pending",
    "rowid": "1093250",
    "final_x": "3709052.01278",
    "final_y": "518604.194103",
    "longitude": "-89.98155292168204",
    "latitude": "29.91911651023944",
    "geocoded_column": {
      "latitude": "29.91911651023944",
      "longitude": "-89.98155292168204"
    }
  },
  {
    "service_request": "2024-1093249",
    "request_type": "Trash/Recycling",
    "request_reason": "MIssed Recycling Pick-Up",
    "date_created": "2024-05-14T20:50:39.000",
    "date_modified": "2024-05-14T20:50:40.000",
    "request_status": "Pending",
    "responsible_agency": "Department of Sanitation",
    "final_address": "7925 Marquis St",
    "address_councildis": "E",
    "status": "Assigned to Contractor",
    "contractor": "Waste Pro",
    "rowid": "1093249",
    "final_x": "3710637.00357",
    "final_y": "567249.237732",
    "longitude": "-89.97472938402724",
    "latitude": "30.052820528541442",
    "geocoded_column": {
      "latitude": "30.052820528541442",
      "longitude": "-89.97472938402724"
    }
  },
  {
    "service_request": "2024-1093248",
    "request_type": "Trash/Recycling",
    "request_reason": "Request a Large Item Pick Up",
    "date_created": "2024-05-14T20:44:30.000",
    "date_modified": "2024-05-14T20:44:31.000",
    "request_status": "Pending",
    "responsible_agency": "Department of Sanitation",
    "final_address": "4321 Trieste St",
    "address_councildis": "E",
    "status": "Assigned to Contractor",
    "contractor": "Waste Pro",
    "rowid": "1093248",
    "final_x": "3760220.06697",
    "final_y": "573504.147946",
    "longitude": "-89.81775378901686",
    "latitude": "30.06830896010249",
    "geocoded_column": {
      "latitude": "30.06830896010249",
      "longitude": "-89.81775378901686"
    }
  },
  {
    "service_request": "2024-1093247",
    "request_type": "Trash/Recycling",
    "request_reason": "Request a Large Item Pick Up",
    "date_created": "2024-05-14T20:42:39.000",
    "date_modified": "2024-05-14T20:42:40.000",
    "request_status": "Pending",
    "responsible_agency": "Department of Sanitation",
    "final_address": "1218 Lowerline St",
    "address_councildis": "A",
    "status": "Assigned to Contractor",
    "contractor": "IV Waste",
    "rowid": "1093247",
    "final_x": "3663766.47143",
    "final_y": "527027.592638",
    "longitude": "-90.12421636629581",
    "latitude": "29.943669529232682",
    "geocoded_column": {
      "latitude": "29.943669529232682",
      "longitude": "-90.12421636629581"
    }
  },
  {
    "service_request": "2024-1093246",
    "request_type": "Trash/Recycling",
    "request_reason": "Request a Large Item Pick Up",
    "date_created": "2024-05-14T20:42:08.000",
    "date_modified": "2024-05-14T20:42:09.000",
    "request_status": "Pending",
    "responsible_agency": "Department of Sanitation",
    "final_address": "4321 Trieste St",
    "address_councildis": "E",
    "status": "Assigned to Contractor",
    "contractor": "Waste Pro",
    "rowid": "1093246",
    "final_x": "3760220.06697",
    "final_y": "573504.147946",
    "longitude": "-89.81775378901686",
    "latitude": "30.06830896010249",
    "geocoded_column": {
      "latitude": "30.06830896010249",
      "longitude": "-89.81775378901686"
    }
  },
  {
    "service_request": "2024-1093245",
    "request_type": "Trash/Recycling",
    "request_reason": "Request a Large Item Pick Up",
    "date_created": "2024-05-14T20:40:12.000",
    "date_modified": "2024-05-14T20:40:13.000",
    "request_status": "Pending",
    "responsible_agency": "Department of Sanitation",
    "final_address": "2900 BLK Kabel Dr",
    "address_councildis": "C",
    "status": "Assigned to Contractor",
    "contractor": "Richards Disposal",
    "rowid": "1093245",
    "final_x": "3700618.04427",
    "final_y": "519868.772058",
    "longitude": "-90.00812831122819",
    "latitude": "29.92286455848899",
    "geocoded_column": {
      "latitude": "29.92286455848899",
      "longitude": "-90.00812831122819"
    }
  },
  {
    "service_request": "2024-1093244",
    "request_type": "Traffic Signals/Signs/Striping/Streetlights",
    "request_reason": "Street Light Outage/Malfunction",
    "date_created": "2024-05-14T20:27:02.000",
    "date_modified": "2024-05-14T20:27:03.000",
    "request_status": "Pending",
    "responsible_agency": "Department of Public Works",
    "final_address": "2908 Annunciation St",
    "address_councildis": "B",
    "status": "Assigned to Contractor",
    "contractor": "Legacy Professional Services",
    "rowid": "1093244",
    "final_x": "3677169.18696",
    "final_y": "519540.395895",
    "longitude": "-90.0821585251264",
    "latitude": "29.92268650046469",
    "geocoded_column": {
      "latitude": "29.92268650046469",
      "longitude": "-90.0821585251264"
    }
  },
  {
    "service_request": "2024-1093243",
    "request_type": "Abandoned Vehicles",
    "request_reason": "Vehicle Blocking Your Driveway",
    "date_created": "2024-05-14T20:25:31.000",
    "date_modified": "2024-05-14T20:25:31.000",
    "request_status": "Pending",
    "responsible_agency": "Department of Public Works",
    "final_address": "2536 St Ann St",
    "address_councildis": "D",
    "status": "Pending",
    "rowid": "1093243",
    "final_x": "3677470.81902",
    "final_y": "536750.094536",
    "longitude": "-90.08061247861748",
    "latitude": "29.9699983926152",
    "geocoded_column": {
      "latitude": "29.9699983926152",
      "longitude": "-90.08061247861748"
    }
  },
  {
    "service_request": "2024-1093242",
    "request_type": "Trash/Recycling",
    "request_reason": "Request a Large Item Pick Up",
    "date_created": "2024-05-14T20:19:44.000",
    "date_modified": "2024-05-14T20:19:45.000",
    "request_status": "Pending",
    "responsible_agency": "Department of Sanitation",
    "final_address": "2230 Broadway St",
    "address_councildis": "A",
    "status": "Assigned to Contractor",
    "contractor": "IV Waste",
    "rowid": "1093242",
    "final_x": "3666236.18849",
    "final_y": "529694.845761",
    "longitude": "-90.11632934069942",
    "latitude": "29.950931722358888",
    "geocoded_column": {
      "latitude": "29.950931722358888",
      "longitude": "-90.11632934069942"
    }
  },
  {
    "service_request": "2024-1093239",
    "request_type": "Trash/Recycling",
    "request_reason": "Request a Large Item Pick Up",
    "date_created": "2024-05-14T20:00:16.000",
    "date_modified": "2024-05-14T20:00:17.000",
    "request_status": "Pending",
    "responsible_agency": "Department of Sanitation",
    "final_address": "1533 N Rocheblave St, New Orleans, Louisiana, 70119",
    "address_councildis": "D",
    "status": "Assigned to Contractor",
    "contractor": "IV Waste",
    "rowid": "1093239",
    "final_x": "3679642.01058",
    "final_y": "539177.586634",
    "longitude": "-90.07367136416686",
    "latitude": "29.97660771205682",
    "geocoded_column": {
      "latitude": "29.97660771205682",
      "longitude": "-90.07367136416686"
    }
  },
  {
    "service_request": "2024-1093238",
    "request_type": "Trash/Recycling",
    "request_reason": "Replace Trash Cart",
    "date_created": "2024-05-14T19:59:43.000",
    "date_modified": "2024-05-14T19:59:44.000",
    "request_status": "Pending",
    "responsible_agency": "Department of Sanitation",
    "final_address": "6762 Lake Willow Dr",
    "address_councildis": "E",
    "status": "Assigned to Contractor",
    "contractor": "Waste Pro",
    "rowid": "1093238",
    "final_x": "3703784.60785",
    "final_y": "559143.470428",
    "longitude": "-89.99668660188658",
    "latitude": "30.030754485754827",
    "geocoded_column": {
      "latitude": "30.030754485754827",
      "longitude": "-89.99668660188658"
    }
  },
  {
    "service_request": "2024-1093236",
    "request_type": "Trash/Recycling",
    "request_reason": "Repair Recycling Cart",
    "date_created": "2024-05-14T19:45:39.000",
    "date_modified": "2024-05-14T19:45:39.000",
    "request_status": "Pending",
    "responsible_agency": "Department of Sanitation",
    "final_address": "2456 Mendez St",
    "address_councildis": "D",
    "status": "Pending",
    "rowid": "1093236",
    "final_x": "3685635.40534",
    "final_y": "553520.065687",
    "longitude": "-90.05423675637127",
    "latitude": "30.015861853184962",
    "geocoded_column": {
      "latitude": "30.015861853184962",
      "longitude": "-90.05423675637127"
    }
  },
  {
    "service_request": "2024-1093235",
    "request_type": "Trash/Recycling",
    "request_reason": "Replace Trash Cart",
    "date_created": "2024-05-14T19:35:02.000",
    "date_modified": "2024-05-14T19:35:03.000",
    "request_status": "Pending",
    "responsible_agency": "Department of Sanitation",
    "final_address": "520 Bellecastle St",
    "address_councildis": "B",
    "status": "Assigned to Contractor",
    "contractor": "IV Waste",
    "rowid": "1093235",
    "final_x": "3667609.11175",
    "final_y": "517385.746741",
    "longitude": "-90.11240845424493",
    "latitude": "29.917045467854788",
    "geocoded_column": {
      "latitude": "29.917045467854788",
      "longitude": "-90.11240845424493"
    }
  },
  {
    "service_request": "2024-1093234",
    "request_type": "Roads/Drainage",
    "request_reason": "Pothole",
    "date_created": "2024-05-14T19:21:18.000",
    "date_modified": "2024-05-14T19:21:18.000",
    "request_status": "Pending",
    "responsible_agency": "Department of Public Works",
    "final_address": "3400 BLK Danneel St",
    "address_councildis": "B",
    "status": "Pending",
    "rowid": "1093234",
    "final_x": "3673433.90441",
    "final_y": "522785.026724",
    "longitude": "-90.09383855492008",
    "latitude": "29.931719812171327",
    "geocoded_column": {
      "latitude": "29.931719812171327",
      "longitude": "-90.09383855492008"
    }
  },
  {
    "service_request": "2024-1093233",
    "request_type": "Trash/Recycling",
    "request_reason": "Request a Large Item Pick Up",
    "date_created": "2024-05-14T19:20:59.000",
    "date_modified": "2024-05-14T19:21:00.000",
    "request_status": "Pending",
    "responsible_agency": "Department of Sanitation",
    "final_address": "4675 Camelot Dr",
    "address_councildis": "E",
    "status": "Assigned to Contractor",
    "contractor": "Waste Pro",
    "rowid": "1093233",
    "final_x": "3708478.01259",
    "final_y": "555284.136729",
    "longitude": "-89.98199929797269",
    "latitude": "30.019991452219248",
    "geocoded_column": {
      "latitude": "30.019991452219248",
      "longitude": "-89.98199929797269"
    }
  },
  {
    "service_request": "2024-1093232",
    "request_type": "Trash/Recycling",
    "request_reason": "Replace Trash Cart",
    "date_created": "2024-05-14T19:19:57.000",
    "date_modified": "2024-05-14T19:19:58.000",
    "request_status": "Pending",
    "responsible_agency": "Department of Sanitation",
    "final_address": "3765 Silver Maple Ct",
    "address_councildis": "C",
    "status": "Assigned to Contractor",
    "contractor": "Richards Disposal",
    "rowid": "1093232",
    "final_x": "3703610.40542",
    "final_y": "512796.348145",
    "longitude": "-89.9989426564032",
    "latitude": "29.90332231672918",
    "geocoded_column": {
      "latitude": "29.90332231672918",
      "longitude": "-89.9989426564032"
    }
  },
  {
    "service_request": "2024-1093231",
    "request_type": "Trash/Recycling",
    "request_reason": "Request a Large Item Pick Up",
    "date_created": "2024-05-14T19:07:39.000",
    "date_modified": "2024-05-14T19:07:40.000",
    "request_status": "Pending",
    "responsible_agency": "Department of Sanitation",
    "final_address": "4000 Constance St",
    "address_councildis": "B",
    "status": "Assigned to Contractor",
    "contractor": "IV Waste",
    "rowid": "1093231",
    "final_x": "3672526.53006",
    "final_y": "518524.538359",
    "longitude": "-90.09684817851132",
    "latitude": "29.92003179335413",
    "geocoded_column": {
      "latitude": "29.92003179335413",
      "longitude": "-90.09684817851132"
    }
  },
  {
    "service_request": "2024-1093230",
    "request_type": "Property Maintenance",
    "request_reason": "Property Maintenance",
    "date_created": "2024-05-14T18:59:55.000",
    "date_modified": "2024-05-14T18:59:55.000",
    "request_status": "Pending",
    "responsible_agency": "Department of Code Enforcement",
    "final_address": "8700 BLK Pritchard Pl",
    "address_councildis": "A",
    "status": "Pending",
    "rowid": "1093230",
    "final_x": "3664360.1883",
    "final_y": "534431.095296",
    "longitude": "-90.12209474649097",
    "latitude": "29.96400951952471",
    "geocoded_column": {
      "latitude": "29.96400951952471",
      "longitude": "-90.12209474649097"
    }
  },
  {
    "service_request": "2024-1093229",
    "request_type": "Trash/Recycling",
    "request_reason": "Request a Large Item Pick Up",
    "date_created": "2024-05-14T18:58:16.000",
    "date_modified": "2024-05-14T18:58:17.000",
    "request_status": "Pending",
    "responsible_agency": "Department of Sanitation",
    "final_address": "2738 Verbena St",
    "address_councildis": "D",
    "status": "Assigned to Contractor",
    "contractor": "IV Waste",
    "rowid": "1093229",
    "final_x": "3688055.61763",
    "final_y": "547847.569106",
    "longitude": "-90.04679122545298",
    "latitude": "30.000190054967074",
    "geocoded_column": {
      "latitude": "30.000190054967074",
      "longitude": "-90.04679122545298"
    }
  },
  {
    "service_request": "2024-1093228",
    "request_type": "Trash/Recycling",
    "request_reason": "Replace Trash Cart",
    "date_created": "2024-05-14T18:37:46.000",
    "date_modified": "2024-05-14T18:37:47.000",
    "request_status": "Pending",
    "responsible_agency": "Department of Sanitation",
    "final_address": "7700 Haney Dr",
    "address_councildis": "E",
    "status": "Assigned to Contractor",
    "contractor": "Waste Pro",
    "rowid": "1093228",
    "final_x": "3712422.09272",
    "final_y": "567466.575716",
    "longitude": "-89.96907909312188",
    "latitude": "30.053359801676162",
    "geocoded_column": {
      "latitude": "30.053359801676162",
      "longitude": "-89.96907909312188"
    }
  },
  {
    "service_request": "2024-1093227",
    "request_type": "Trash/Recycling",
    "request_reason": "Replace Trash Cart",
    "date_created": "2024-05-14T18:35:09.000",
    "date_modified": "2024-05-14T18:35:09.000",
    "request_status": "Pending",
    "responsible_agency": "Department of Sanitation",
    "final_address": "7700 Haney Dr",
    "address_councildis": "E",
    "status": "Assigned to Contractor",
    "contractor": "Waste Pro",
    "rowid": "1093227",
    "final_x": "3712422.09272",
    "final_y": "567466.575716",
    "longitude": "-89.96907909312188",
    "latitude": "30.053359801676162",
    "geocoded_column": {
      "latitude": "30.053359801676162",
      "longitude": "-89.96907909312188"
    }
  },
  {
    "service_request": "2024-1093226",
    "request_type": "Abandoned Vehicles",
    "request_reason": "Abandoned/Junk Vehicles",
    "date_created": "2024-05-14T18:34:21.000",
    "date_modified": "2024-05-14T18:34:21.000",
    "request_status": "Pending",
    "responsible_agency": "Department of Public Works",
    "final_address": "2225 Cambronne St",
    "address_councildis": "A",
    "status": "Pending",
    "rowid": "1093226",
    "final_x": "3663704.04698",
    "final_y": "531823.598019",
    "longitude": "-90.12425367785113",
    "latitude": "29.956858808256893",
    "geocoded_column": {
      "latitude": "29.956858808256893",
      "longitude": "-90.12425367785113"
    }
  },
  {
    "service_request": "2024-1093225",
    "request_type": "Parks & Parkways",
    "request_reason": "Request Tree Service (Right of Way/Public Property)",
    "date_created": "2024-05-14T18:22:16.000",
    "date_modified": "2024-05-14T18:22:16.000",
    "request_status": "Pending",
    "responsible_agency": "Department of Parks & Parkway",
    "final_address": "2900 Camp St",
    "address_councildis": "B",
    "status": "Pending",
    "rowid": "1093225",
    "final_x": "3676412.39675",
    "final_y": "520802.427897",
    "longitude": "-90.08450399476811",
    "latitude": "29.92617938090954",
    "geocoded_column": {
      "latitude": "29.92617938090954",
      "longitude": "-90.08450399476811"
    }
  },
  {
    "service_request": "2024-1093224",
    "request_type": "Parks & Parkways",
    "request_reason": "Request Tree Service (Right of Way/Public Property)",
    "date_created": "2024-05-14T18:20:23.000",
    "date_modified": "2024-05-14T18:20:23.000",
    "request_status": "Pending",
    "responsible_agency": "Department of Parks & Parkway",
    "final_address": "2900 Camp St",
    "address_councildis": "B",
    "status": "Pending",
    "rowid": "1093224",
    "final_x": "3676412.39675",
    "final_y": "520802.427897",
    "longitude": "-90.08450399476811",
    "latitude": "29.92617938090954",
    "geocoded_column": {
      "latitude": "29.92617938090954",
      "longitude": "-90.08450399476811"
    }
  },
  {
    "service_request": "2024-1093223",
    "request_type": "Trash/Recycling",
    "request_reason": "Order Trash Cart",
    "date_created": "2024-05-14T18:20:11.000",
    "date_modified": "2024-05-14T18:20:12.000",
    "request_status": "Pending",
    "responsible_agency": "Department of Sanitation",
    "final_address": "8502 Pritchard Pl",
    "address_councildis": "A",
    "status": "Assigned to Contractor",
    "contractor": "IV Waste",
    "rowid": "1093223",
    "final_x": "3664953.65037",
    "final_y": "533842.774597",
    "longitude": "-90.12024030824577",
    "latitude": "29.962374567954047",
    "geocoded_column": {
      "latitude": "29.962374567954047",
      "longitude": "-90.12024030824577"
    }
  },
  {
    "service_request": "2024-1093222",
    "request_type": "Abandoned Vehicles",
    "request_reason": "Abandoned/Junk Vehicles",
    "date_created": "2024-05-14T18:15:59.000",
    "date_modified": "2024-05-14T18:15:59.000",
    "request_status": "Pending",
    "responsible_agency": "Department of Public Works",
    "final_address": "629 S Gayoso St",
    "address_councildis": "B",
    "status": "Pending",
    "rowid": "1093222",
    "final_x": "3672826.78004",
    "final_y": "534054.018501",
    "longitude": "-90.09537083121475",
    "latitude": "29.962723878770436",
    "geocoded_column": {
      "latitude": "29.962723878770436",
      "longitude": "-90.09537083121475"
    }
  },
  {
    "service_request": "2024-1093221",
    "request_type": "Property Maintenance",
    "request_reason": "Property Maintenance",
    "date_created": "2024-05-14T18:02:38.000",
    "date_modified": "2024-05-14T18:02:38.000",
    "request_status": "Pending",
    "responsible_agency": "Department of Code Enforcement",
    "final_address": "5800 BLK Saint Claude Ave",
    "address_councildis": "E",
    "status": "Pending",
    "rowid": "1093221",
    "final_x": "3698764.23432",
    "final_y": "533574.223322",
    "longitude": "-90.01348169980157",
    "latitude": "29.960608592998856",
    "geocoded_column": {
      "latitude": "29.960608592998856",
      "longitude": "-90.01348169980157"
    }
  },
  {
    "service_request": "2024-1093220",
    "request_type": "Trash/Recycling",
    "request_reason": "Start Trash Service",
    "date_created": "2024-05-14T17:56:02.000",
    "date_modified": "2024-05-14T17:56:03.000",
    "request_status": "Pending",
    "responsible_agency": "Department of Sanitation",
    "final_address": "7747 Downman Rd",
    "address_councildis": "D",
    "status": "Assigned to Contractor",
    "contractor": "Waste Pro",
    "rowid": "1093220",
    "final_x": "3694518.57091",
    "final_y": "559031.6511",
    "longitude": "-90.02597138502458",
    "latitude": "30.030740977682246",
    "geocoded_column": {
      "latitude": "30.030740977682246",
      "longitude": "-90.02597138502458"
    }
  },
  {
    "service_request": "2024-1093219",
    "request_type": "Property Maintenance",
    "request_reason": "Property Maintenance",
    "date_created": "2024-05-14T17:53:22.000",
    "date_modified": "2024-05-14T17:53:22.000",
    "request_status": "Pending",
    "responsible_agency": "Department of Code Enforcement",
    "final_address": "5800 BLK Saint Claude Ave",
    "address_councildis": "E",
    "status": "Pending",
    "rowid": "1093219",
    "final_x": "3698764.23432",
    "final_y": "533574.223322",
    "longitude": "-90.01348169980157",
    "latitude": "29.960608592998856",
    "geocoded_column": {
      "latitude": "29.960608592998856",
      "longitude": "-90.01348169980157"
    }
  },
  {
    "service_request": "2024-1093218",
    "request_type": "Property Maintenance",
    "request_reason": "Property Maintenance",
    "date_created": "2024-05-14T17:51:44.000",
    "date_modified": "2024-05-14T17:51:44.000",
    "request_status": "Pending",
    "responsible_agency": "Department of Code Enforcement",
    "final_address": "5800 BLK Saint Claude Ave",
    "address_councildis": "E",
    "status": "Pending",
    "rowid": "1093218",
    "final_x": "3698764.23432",
    "final_y": "533574.223322",
    "longitude": "-90.01348169980157",
    "latitude": "29.960608592998856",
    "geocoded_column": {
      "latitude": "29.960608592998856",
      "longitude": "-90.01348169980157"
    }
  },
  {
    "service_request": "2024-1093217",
    "request_type": "Trash/Recycling",
    "request_reason": "Missed Trash Pick-Up",
    "date_created": "2024-05-14T17:49:46.000",
    "date_modified": "2024-05-14T17:49:47.000",
    "request_status": "Pending",
    "responsible_agency": "Department of Sanitation",
    "final_address": "1525 Aline St",
    "address_councildis": "B",
    "status": "Assigned to Contractor",
    "contractor": "IV Waste",
    "rowid": "1093217",
    "final_x": "3673918.5972",
    "final_y": "521084.039097",
    "longitude": "-90.09236658799759",
    "latitude": "29.927028220068124",
    "geocoded_column": {
      "latitude": "29.927028220068124",
      "longitude": "-90.09236658799759"
    }
  },
  {
    "service_request": "2024-1093216",
    "request_type": "Abandoned Vehicles",
    "request_reason": "Abandoned/Junk Vehicles",
    "date_created": "2024-05-14T17:38:39.000",
    "date_modified": "2024-05-14T17:38:39.000",
    "request_status": "Pending",
    "responsible_agency": "Department of Public Works",
    "final_address": "CANNES ST & DWYER BLVD",
    "address_councildis": "E",
    "status": "Pending",
    "rowid": "1093216",
    "final_x": "3726837.3",
    "final_y": "562342.98",
    "longitude": "-89.9237162957623",
    "latitude": "30.038792256989172",
    "geocoded_column": {
      "latitude": "30.038792256989172",
      "longitude": "-89.9237162957623"
    }
  },
  {
    "service_request": "2024-1093215",
    "request_type": "Trash/Recycling",
    "request_reason": "Replace Recycling Cart",
    "date_created": "2024-05-14T17:37:45.000",
    "date_modified": "2024-05-14T17:37:45.000",
    "request_status": "Pending",
    "responsible_agency": "Department of Sanitation",
    "final_address": "850 Chapelle St",
    "address_councildis": "A",
    "status": "Pending",
    "rowid": "1093215",
    "final_x": "3670046.4978",
    "final_y": "552498.83599",
    "longitude": "-90.1035254741546",
    "latitude": "30.013523107751382",
    "geocoded_column": {
      "latitude": "30.013523107751382",
      "longitude": "-90.1035254741546"
    }
  },
  {
    "service_request": "2024-1093214",
    "request_type": "Abandoned Vehicles",
    "request_reason": "Abandoned/Junk Vehicles",
    "date_created": "2024-05-14T17:30:59.000",
    "date_modified": "2024-05-14T17:30:59.000",
    "request_status": "Pending",
    "responsible_agency": "Department of Public Works",
    "final_address": "SPAIN ST & URQUHART ST",
    "address_councildis": "C",
    "status": "Pending",
    "rowid": "1093214",
    "final_x": "3686074.7",
    "final_y": "537128.38",
    "longitude": "-90.05342728434005",
    "latitude": "29.970777096355654",
    "geocoded_column": {
      "latitude": "29.970777096355654",
      "longitude": "-90.05342728434005"
    }
  },
  {
    "service_request": "2024-1093213",
    "request_type": "Trash/Recycling",
    "request_reason": "Replace Trash Cart",
    "date_created": "2024-05-14T17:29:10.000",
    "date_modified": "2024-05-14T17:29:11.000",
    "request_status": "Pending",
    "responsible_agency": "Department of Sanitation",
    "final_address": "2225 Jena St",
    "address_councildis": "B",
    "status": "Assigned to Contractor",
    "contractor": "IV Waste",
    "rowid": "1093213",
    "final_x": "3670270.12967",
    "final_y": "523194.272699",
    "longitude": "-90.10381240048979",
    "latitude": "29.932938831839646",
    "geocoded_column": {
      "latitude": "29.932938831839646",
      "longitude": "-90.10381240048979"
    }
  },
  {
    "service_request": "2024-1093212",
    "request_type": "Trash/Recycling",
    "request_reason": "Request a Large Item Pick Up",
    "date_created": "2024-05-14T17:23:18.000",
    "date_modified": "2024-05-14T17:23:19.000",
    "request_status": "Pending",
    "responsible_agency": "Department of Sanitation",
    "final_address": "70 Cypress Grove Ct Unit 32",
    "address_councildis": "C",
    "status": "Assigned to Contractor",
    "contractor": "Richards Disposal",
    "rowid": "1093212",
    "final_x": "3705180.94865",
    "final_y": "511823.267376",
    "longitude": "-89.99402197348269",
    "latitude": "29.900596291227604",
    "geocoded_column": {
      "latitude": "29.900596291227604",
      "longitude": "-89.99402197348269"
    }
  },
  {
    "service_request": "2024-1093211",
    "request_type": "Trash/Recycling",
    "request_reason": "Order Recycling Cart",
    "date_created": "2024-05-14T17:21:36.000",
    "date_modified": "2024-05-14T17:21:36.000",
    "request_status": "Pending",
    "responsible_agency": "Department of Sanitation",
    "final_address": "3048 Burgundy St",
    "address_councildis": "C",
    "status": "Pending",
    "rowid": "1093211",
    "final_x": "3688614.07375",
    "final_y": "535228.334342",
    "longitude": "-90.04547509444299",
    "latitude": "29.96547439787721",
    "geocoded_column": {
      "latitude": "29.96547439787721",
      "longitude": "-90.04547509444299"
    }
  },
  {
    "service_request": "2024-1093210",
    "request_type": "Abandoned Vehicles",
    "request_reason": "Abandoned/Junk Vehicles",
    "date_created": "2024-05-14T17:20:43.000",
    "date_modified": "2024-05-14T17:20:43.000",
    "request_status": "Pending",
    "responsible_agency": "Department of Public Works",
    "final_address": "3035 Milan St",
    "address_councildis": "B",
    "status": "Pending",
    "rowid": "1093210",
    "final_x": "3671093.90318",
    "final_y": "526286.571006",
    "longitude": "-90.10110682045908",
    "latitude": "29.941417320497855",
    "geocoded_column": {
      "latitude": "29.941417320497855",
      "longitude": "-90.10110682045908"
    }
  },
  {
    "service_request": "2024-1093209",
    "request_type": "Trash/Recycling",
    "request_reason": "Illegal Dumping",
    "date_created": "2024-05-14T17:03:22.000",
    "date_modified": "2024-05-14T17:03:23.000",
    "request_status": "Pending",
    "responsible_agency": "Department of Sanitation",
    "final_address": "I 10 E & MICHOUD BLVD EXIT",
    "address_councildis": "E",
    "status": "Pending",
    "rowid": "1093209",
    "final_x": "3726117.0",
    "final_y": "574846.58",
    "longitude": "-89.92550711631998",
    "latitude": "30.07319623322261",
    "geocoded_column": {
      "latitude": "30.07319623322261",
      "longitude": "-89.92550711631998"
    }
  },
  {
    "service_request": "2024-1093208",
    "request_type": "Traffic Signals/Signs/Striping/Streetlights",
    "request_reason": "Street Light Outage/Malfunction",
    "date_created": "2024-05-14T17:00:23.000",
    "date_modified": "2024-05-14T17:00:24.000",
    "request_status": "Pending",
    "responsible_agency": "Department of Public Works",
    "final_address": "MICHOUD BLVD & W CAVELIER DR",
    "address_councildis": "E",
    "status": "Assigned to Contractor",
    "contractor": "Legacy Professional Services",
    "rowid": "1093208",
    "final_x": "3724678.8",
    "final_y": "569370.08",
    "longitude": "-89.93026572775324",
    "latitude": "30.05818669137776",
    "geocoded_column": {
      "latitude": "30.05818669137776",
      "longitude": "-89.93026572775324"
    }
  },
  {
    "service_request": "2024-1093207",
    "request_type": "Trash/Recycling",
    "request_reason": "Illegal Dumping",
    "date_created": "2024-05-14T16:58:44.000",
    "date_modified": "2024-05-14T16:58:44.000",
    "request_status": "Pending",
    "responsible_agency": "Department of Sanitation",
    "final_address": "PRENTISS AVE & PIETY DR",
    "address_councildis": "D",
    "status": "Pending",
    "rowid": "1093207",
    "final_x": "3690587.0",
    "final_y": "554176.48",
    "longitude": "-90.03856855936904",
    "latitude": "30.017513834486945",
    "geocoded_column": {
      "latitude": "30.017513834486945",
      "longitude": "-90.03856855936904"
    }
  },
  {
    "service_request": "2024-1093205",
    "request_type": "Abandoned Vehicles",
    "request_reason": "Abandoned/Junk Vehicles",
    "date_created": "2024-05-14T16:45:50.000",
    "date_modified": "2024-05-14T16:45:51.000",
    "request_status": "Pending",
    "responsible_agency": "Department of Public Works",
    "final_address": "6202 Warrington Dr",
    "address_councildis": "D",
    "status": "Pending",
    "rowid": "1093205",
    "final_x": "3680785.19739",
    "final_y": "555597.856025",
    "longitude": "-90.0694888192446",
    "latitude": "30.021723000195372",
    "geocoded_column": {
      "latitude": "30.021723000195372",
      "longitude": "-90.0694888192446"
    }
  },
  {
    "service_request": "2024-1093204",
    "request_type": "Trash/Recycling",
    "request_reason": "Request a Large Item Pick Up",
    "date_created": "2024-05-14T16:38:33.000",
    "date_modified": "2024-05-14T16:38:34.000",
    "request_status": "Pending",
    "responsible_agency": "Department of Sanitation",
    "final_address": "New Orleans,LA",
    "status": "Assigned to Contractor",
    "rowid": "1093204",
    "longitude": "0.0",
    "latitude": "0.0",
    "geocoded_column": {
      "latitude": "0.0",
      "longitude": "0.0"
    }
  },
  {
    "service_request": "2024-1093203",
    "request_type": "Trash/Recycling",
    "request_reason": "Request a Large Item Pick Up",
    "date_created": "2024-05-14T16:35:56.000",
    "date_modified": "2024-05-14T16:35:57.000",
    "request_status": "Pending",
    "responsible_agency": "Department of Sanitation",
    "final_address": "5323 Wingate Dr",
    "address_councildis": "D",
    "status": "Assigned to Contractor",
    "contractor": "IV Waste",
    "rowid": "1093203",
    "final_x": "3681433.20482",
    "final_y": "552751.190038",
    "longitude": "-90.06754065092794",
    "latitude": "30.01387603771307",
    "geocoded_column": {
      "latitude": "30.01387603771307",
      "longitude": "-90.06754065092794"
    }
  },
  {
    "service_request": "2024-1093202",
    "request_type": "Trash/Recycling",
    "request_reason": "Request a Large Item Pick Up",
    "date_created": "2024-05-14T16:31:56.000",
    "date_modified": "2024-05-14T16:31:56.000",
    "request_status": "Pending",
    "responsible_agency": "Department of Sanitation",
    "final_address": "10138 Airwood St",
    "address_councildis": "E",
    "status": "Assigned to Contractor",
    "contractor": "Waste Pro",
    "rowid": "1093202",
    "final_x": "3713139.27787",
    "final_y": "556100.94409",
    "longitude": "-89.96724057078872",
    "latitude": "30.022085374517353",
    "geocoded_column": {
      "latitude": "30.022085374517353",
      "longitude": "-89.96724057078872"
    }
  },
  {
    "service_request": "2024-1093200",
    "request_type": "Trash/Recycling",
    "request_reason": "Repair Trash Cart",
    "date_created": "2024-05-14T16:28:02.000",
    "date_modified": "2024-05-14T16:28:03.000",
    "request_status": "Pending",
    "responsible_agency": "Department of Sanitation",
    "final_address": "4933 Treves St",
    "address_councildis": "E",
    "status": "Assigned to Contractor",
    "contractor": "Waste Pro",
    "rowid": "1093200",
    "final_x": "3729923.28947",
    "final_y": "562922.762784",
    "longitude": "-89.91394117458275",
    "latitude": "30.04028167041241",
    "geocoded_column": {
      "latitude": "30.04028167041241",
      "longitude": "-89.91394117458275"
    }
  },
  {
    "service_request": "2024-1093198",
    "request_type": "Traffic Signals/Signs/Striping/Streetlights",
    "request_reason": "Street Light Outage/Malfunction",
    "date_created": "2024-05-14T16:26:00.000",
    "date_modified": "2024-05-14T16:26:01.000",
    "request_status": "Pending",
    "responsible_agency": "Department of Public Works",
    "final_address": "8328 Edinburgh St",
    "address_councildis": "A",
    "status": "Assigned to Contractor",
    "contractor": "Legacy Professional Services",
    "rowid": "1093198",
    "final_x": "3666762.59444",
    "final_y": "535019.733382",
    "longitude": "-90.1144883646441",
    "latitude": "29.9655580326953",
    "geocoded_column": {
      "latitude": "29.9655580326953",
      "longitude": "-90.1144883646441"
    }
  },
  {
    "service_request": "2024-1093197",
    "request_type": "Mosquito, Termite & Rodent Control",
    "request_reason": "Non-Rodent Complaint (Mice, Possums, Snakes)",
    "date_created": "2024-05-14T16:23:11.000",
    "date_modified": "2024-05-14T16:23:11.000",
    "request_status": "Pending",
    "responsible_agency": "Mosquito, Termite & Rodent Control Board",
    "final_address": "5126 Prytania St",
    "address_councildis": "B",
    "status": "Pending",
    "rowid": "1093197",
    "final_x": "3668145.76301",
    "final_y": "520081.683768",
    "longitude": "-90.11062374594772",
    "latitude": "29.924442710637937",
    "geocoded_column": {
      "latitude": "29.924442710637937",
      "longitude": "-90.11062374594772"
    }
  },
  {
    "service_request": "2024-1093196",
    "request_type": "Trash/Recycling",
    "request_reason": "Replace Trash Cart",
    "date_created": "2024-05-14T16:16:09.000",
    "date_modified": "2024-05-14T16:16:10.000",
    "request_status": "Pending",
    "responsible_agency": "Department of Sanitation",
    "final_address": "2528 Martin Luther King, Jr. Blvd",
    "address_councildis": "B",
    "status": "Assigned to Contractor",
    "contractor": "IV Waste",
    "rowid": "1093196",
    "final_x": "3676159.96494",
    "final_y": "527366.951039",
    "longitude": "-90.08507510489954",
    "latitude": "29.944237235092423",
    "geocoded_column": {
      "latitude": "29.944237235092423",
      "longitude": "-90.08507510489954"
    }
  },
  {
    "service_request": "2024-1093195",
    "request_type": "Trash/Recycling",
    "request_reason": "MIssed Recycling Pick-Up",
    "date_created": "2024-05-14T16:10:17.000",
    "date_modified": "2024-05-14T16:10:18.000",
    "request_status": "Pending",
    "responsible_agency": "Department of Sanitation",
    "final_address": "119 Ringold St",
    "address_councildis": "A",
    "status": "Assigned to Contractor",
    "contractor": "IV Waste",
    "rowid": "1093195",
    "final_x": "3666792.43565",
    "final_y": "548581.657939",
    "longitude": "-90.11393835410577",
    "latitude": "30.002847863155292",
    "geocoded_column": {
      "latitude": "30.002847863155292",
      "longitude": "-90.11393835410577"
    }
  },
  {
    "service_request": "2024-1093194",
    "request_type": "Trash/Recycling",
    "request_reason": "Illegal Dumping",
    "date_created": "2024-05-14T16:07:17.000",
    "date_modified": "2024-05-14T16:07:18.000",
    "request_status": "Pending",
    "responsible_agency": "Department of Sanitation",
    "final_address": "4807 St Claude Ave",
    "address_councildis": "E",
    "status": "Pending",
    "rowid": "1093194",
    "final_x": "3695153.97546",
    "final_y": "534632.945286",
    "longitude": "-90.02484394726747",
    "latitude": "29.96363355565473",
    "geocoded_column": {
      "latitude": "29.96363355565473",
      "longitude": "-90.02484394726747"
    }
  },
  {
    "service_request": "2024-1093193",
    "request_type": "Healthy Homes",
    "request_reason": "Healthy Homes",
    "date_created": "2024-05-14T16:06:57.000",
    "date_modified": "2024-05-14T16:06:57.000",
    "request_status": "Pending",
    "responsible_agency": "Department of Code Enforcement",
    "final_address": "2004 Josephine St",
    "address_councildis": "B",
    "status": "Pending",
    "rowid": "1093193",
    "final_x": "3676875.98421",
    "final_y": "525230.265597",
    "longitude": "-90.08288804715093",
    "latitude": "29.93834058761797",
    "geocoded_column": {
      "latitude": "29.93834058761797",
      "longitude": "-90.08288804715093"
    }
  },
  {
    "service_request": "2024-1093192",
    "request_type": "Healthy Homes",
    "request_reason": "Healthy Homes",
    "date_created": "2024-05-14T16:04:50.000",
    "date_modified": "2024-05-14T16:04:50.000",
    "request_status": "Pending",
    "responsible_agency": "Department of Code Enforcement",
    "final_address": "2006 Josephine St",
    "address_councildis": "B",
    "status": "Pending",
    "rowid": "1093192",
    "final_x": "3676867.51681",
    "final_y": "525239.792317",
    "longitude": "-90.0829144513562",
    "latitude": "29.938367037043424",
    "geocoded_column": {
      "latitude": "29.938367037043424",
      "longitude": "-90.0829144513562"
    }
  },
  {
    "service_request": "2024-1093191",
    "request_type": "Trash/Recycling",
    "request_reason": "Order Trash Cart",
    "date_created": "2024-05-14T16:04:36.000",
    "date_modified": "2024-05-14T16:04:37.000",
    "request_status": "Pending",
    "responsible_agency": "Department of Sanitation",
    "final_address": "1007 Pelican St, New Orleans, Louisiana, 70114",
    "status": "Assigned to Contractor",
    "rowid": "1093191",
    "longitude": "0.0",
    "latitude": "0.0",
    "geocoded_column": {
      "latitude": "0.0",
      "longitude": "0.0"
    }
  },
  {
    "service_request": "2024-1093190",
    "request_type": "Roads/Drainage",
    "request_reason": "Catch Basin - Clogged",
    "date_created": "2024-05-14T16:04:14.000",
    "date_modified": "2024-05-14T16:04:14.000",
    "request_status": "Pending",
    "responsible_agency": "Department of Public Works",
    "final_address": "3331 Carondelet St Ste B",
    "address_councildis": "B",
    "status": "Pending",
    "rowid": "1093190",
    "final_x": "3674155.18804",
    "final_y": "522000.609274",
    "longitude": "-90.09158837579506",
    "latitude": "29.929541444439707",
    "geocoded_column": {
      "latitude": "29.929541444439707",
      "longitude": "-90.09158837579506"
    }
  },
  {
    "service_request": "2024-1093189",
    "request_type": "Roads/Drainage",
    "request_reason": "Catch Basin - Clogged",
    "date_created": "2024-05-14T16:02:28.000",
    "date_modified": "2024-05-14T16:02:28.000",
    "request_status": "Pending",
    "responsible_agency": "Department of Public Works",
    "final_address": "CHIPPEWA ST & WASHINGTON AVE",
    "address_councildis": "B",
    "status": "Pending",
    "rowid": "1093189",
    "final_x": "3677887.1",
    "final_y": "519571.98",
    "longitude": "-90.07989126778891",
    "latitude": "29.922751772047153",
    "geocoded_column": {
      "latitude": "29.922751772047153",
      "longitude": "-90.07989126778891"
    }
  },
  {
    "service_request": "2024-1093188",
    "request_type": "Trash/Recycling",
    "request_reason": "Repair Trash Cart",
    "date_created": "2024-05-14T16:00:34.000",
    "date_modified": "2024-05-14T16:00:35.000",
    "request_status": "Pending",
    "responsible_agency": "Department of Sanitation",
    "final_address": "232 18Th St",
    "address_councildis": "A",
    "status": "Assigned to Contractor",
    "contractor": "IV Waste",
    "rowid": "1093188",
    "final_x": "3665430.50804",
    "final_y": "548659.633491",
    "longitude": "-90.11823827798266",
    "latitude": "30.003102050816846",
    "geocoded_column": {
      "latitude": "30.003102050816846",
      "longitude": "-90.11823827798266"
    }
  },
  {
    "service_request": "2024-1093187",
    "request_type": "Parks & Parkways",
    "request_reason": "Request Tree Service (Right of Way/Public Property)",
    "date_created": "2024-05-14T15:59:13.000",
    "date_modified": "2024-05-14T16:01:40.000",
    "request_status": "Pending",
    "responsible_agency": "Department of Parks & Parkway",
    "final_address": "3311 Magellan St",
    "address_councildis": "C",
    "status": "Pending",
    "rowid": "1093187",
    "final_x": "3696398.06339",
    "final_y": "524662.37798",
    "longitude": "-90.0212757996357",
    "latitude": "29.936178859432054",
    "geocoded_column": {
      "latitude": "29.936178859432054",
      "longitude": "-90.0212757996357"
    }
  },
  {
    "service_request": "2024-1093186",
    "request_type": "Roads/Drainage",
    "request_reason": "Street Flooding / Drainage",
    "date_created": "2024-05-14T15:58:39.000",
    "date_modified": "2024-05-14T15:58:39.000",
    "request_status": "Pending",
    "responsible_agency": "Department of Public Works",
    "final_address": "1641 Louisiana Ave",
    "address_councildis": "B",
    "status": "Pending",
    "rowid": "1093186",
    "final_x": "3674144.72206",
    "final_y": "521863.14553",
    "longitude": "-90.09162611759518",
    "latitude": "29.92916377544229",
    "geocoded_column": {
      "latitude": "29.92916377544229",
      "longitude": "-90.09162611759518"
    }
  },
  {
    "service_request": "2024-1093185",
    "request_type": "Trash/Recycling",
    "request_reason": "Repair Trash Cart",
    "date_created": "2024-05-14T15:57:51.000",
    "date_modified": "2024-05-14T15:57:52.000",
    "request_status": "Pending",
    "responsible_agency": "Department of Sanitation",
    "final_address": "5832 Tullis Dr",
    "address_councildis": "C",
    "status": "Assigned to Contractor",
    "contractor": "Richards Disposal",
    "rowid": "1093185",
    "final_x": "3705503.89329",
    "final_y": "513152.557234",
    "longitude": "-89.99295372627378",
    "latitude": "29.904241002374754",
    "geocoded_column": {
      "latitude": "29.904241002374754",
      "longitude": "-89.99295372627378"
    }
  },
  {
    "service_request": "2024-1093184",
    "request_type": "Abandoned Vehicles",
    "request_reason": "Abandoned/Junk Vehicles",
    "date_created": "2024-05-14T15:56:02.000",
    "date_modified": "2024-05-14T15:56:03.000",
    "request_status": "Pending",
    "responsible_agency": "Department of Public Works",
    "final_address": "1600 BLK Alvar St",
    "address_councildis": "D",
    "status": "Pending",
    "rowid": "1093184",
    "final_x": "3692002.61727",
    "final_y": "537438.477404",
    "longitude": "-90.03469516395923",
    "latitude": "29.971446354665456",
    "geocoded_column": {
      "latitude": "29.971446354665456",
      "longitude": "-90.03469516395923"
    }
  },
  {
    "service_request": "2024-1093183",
    "request_type": "Roads/Drainage",
    "request_reason": "Catch Basin - Clogged",
    "date_created": "2024-05-14T15:46:56.000",
    "date_modified": "2024-05-14T15:46:56.000",
    "request_status": "Pending",
    "responsible_agency": "Department of Public Works",
    "final_address": "7190 Downman Rd",
    "address_councildis": "D",
    "status": "Pending",
    "rowid": "1093183",
    "final_x": "3695014.91939",
    "final_y": "556942.596762",
    "longitude": "-90.02447832640824",
    "latitude": "30.024981292301845",
    "geocoded_column": {
      "latitude": "30.024981292301845",
      "longitude": "-90.02447832640824"
    }
  },
  {
    "service_request": "2024-1093182",
    "request_type": "Trash/Recycling",
    "request_reason": "Request a Large Item Pick Up",
    "date_created": "2024-05-14T15:46:43.000",
    "date_modified": "2024-05-14T15:46:43.000",
    "request_status": "Pending",
    "responsible_agency": "Department of Sanitation",
    "final_address": "7339 Ebbtide Dr",
    "address_councildis": "E",
    "status": "Assigned to Contractor",
    "contractor": "Waste Pro",
    "rowid": "1093182",
    "final_x": "3702561.30769",
    "final_y": "560733.155166",
    "longitude": "-90.0004937978969",
    "latitude": "30.03516468028098",
    "geocoded_column": {
      "latitude": "30.03516468028098",
      "longitude": "-90.0004937978969"
    }
  },
  {
    "service_request": "2024-1093181",
    "request_type": "Trash/Recycling",
    "request_reason": "Missed Trash Pick-Up",
    "date_created": "2024-05-14T15:46:29.000",
    "date_modified": "2024-05-14T15:46:30.000",
    "request_status": "Pending",
    "responsible_agency": "Department of Sanitation",
    "final_address": "10830 Yardley Rd",
    "address_councildis": "E",
    "status": "Assigned to Contractor",
    "contractor": "Waste Pro",
    "rowid": "1093181",
    "final_x": "3711679.83922",
    "final_y": "563455.312096",
    "longitude": "-89.97157581507152",
    "latitude": "30.042354727067966",
    "geocoded_column": {
      "latitude": "30.042354727067966",
      "longitude": "-89.97157581507152"
    }
  },
  {
    "service_request": "2024-1093180",
    "request_type": "Trash/Recycling",
    "request_reason": "Illegal Dumping",
    "date_created": "2024-05-14T15:45:10.000",
    "date_modified": "2024-05-14T15:45:11.000",
    "request_status": "Pending",
    "responsible_agency": "Department of Sanitation",
    "final_address": "1801 Iberville St",
    "address_councildis": "B",
    "status": "Pending",
    "rowid": "1093180",
    "final_x": "3678298.68846",
    "final_y": "533511.949316",
    "longitude": "-90.07811001037194",
    "latitude": "29.96106968234191",
    "geocoded_column": {
      "latitude": "29.96106968234191",
      "longitude": "-90.07811001037194"
    }
  },
  {
    "service_request": "2024-1093179",
    "request_type": "Traffic Signals/Signs/Striping/Streetlights",
    "request_reason": "Street Light Outage/Malfunction",
    "date_created": "2024-05-14T15:42:59.000",
    "date_modified": "2024-05-14T15:43:00.000",
    "request_status": "Pending",
    "responsible_agency": "Department of Public Works",
    "final_address": "3675 Paul St",
    "address_councildis": "C",
    "status": "Assigned to Contractor",
    "contractor": "Legacy Professional Services",
    "rowid": "1093179",
    "final_x": "3714468.88555",
    "final_y": "517903.669366",
    "longitude": "-89.96448122677947",
    "latitude": "29.917013488166422",
    "geocoded_column": {
      "latitude": "29.917013488166422",
      "longitude": "-89.96448122677947"
    }
  },
  {
    "service_request": "2024-1093178",
    "request_type": "Trash/Recycling",
    "request_reason": "Request a Large Item Pick Up",
    "date_created": "2024-05-14T15:42:36.000",
    "date_modified": "2024-05-14T15:42:37.000",
    "request_status": "Pending",
    "responsible_agency": "Department of Sanitation",
    "final_address": "1316 Pleasant St",
    "address_councildis": "B",
    "status": "Assigned to Contractor",
    "contractor": "IV Waste",
    "rowid": "1093178",
    "final_x": "3675088.60712",
    "final_y": "520662.595961",
    "longitude": "-90.08868761803672",
    "latitude": "29.92583449340742",
    "geocoded_column": {
      "latitude": "29.92583449340742",
      "longitude": "-90.08868761803672"
    }
  },
  {
    "service_request": "2024-1093177",
    "request_type": "Healthy Homes",
    "request_reason": "Healthy Homes",
    "date_created": "2024-05-14T15:40:27.000",
    "date_modified": "2024-05-14T15:40:27.000",
    "request_status": "Pending",
    "responsible_agency": "Department of Code Enforcement",
    "final_address": "927 Fats Domino Ave",
    "address_councildis": "E",
    "status": "Pending",
    "rowid": "1093177",
    "final_x": "3697927.68138",
    "final_y": "533186.190852",
    "longitude": "-90.01613743846853",
    "latitude": "29.959568110431164",
    "geocoded_column": {
      "latitude": "29.959568110431164",
      "longitude": "-90.01613743846853"
    }
  },
  {
    "service_request": "2024-1093176",
    "request_type": "Mosquito, Termite & Rodent Control",
    "request_reason": "Rodent Complaint (Rats)",
    "date_created": "2024-05-14T15:40:12.000",
    "date_modified": "2024-05-14T15:40:13.000",
    "request_status": "Pending",
    "responsible_agency": "Mosquito, Termite & Rodent Control Board",
    "final_address": "1015 Esplanade Ave",
    "address_councildis": "C",
    "status": "Pending",
    "rowid": "1093176",
    "final_x": "3683113.34594",
    "final_y": "535212.507718",
    "longitude": "-90.0628466826078",
    "latitude": "29.965599731145804",
    "geocoded_column": {
      "latitude": "29.965599731145804",
      "longitude": "-90.0628466826078"
    }
  },
  {
    "service_request": "2024-1093175",
    "request_type": "Trash/Recycling",
    "request_reason": "Request a Large Item Pick Up",
    "date_created": "2024-05-14T15:37:53.000",
    "date_modified": "2024-05-14T15:37:54.000",
    "request_status": "Pending",
    "responsible_agency": "Department of Sanitation",
    "final_address": "3144 Chippewa St",
    "address_councildis": "B",
    "status": "Assigned to Contractor",
    "contractor": "IV Waste",
    "rowid": "1093175",
    "final_x": "3676629.07118",
    "final_y": "518695.171191",
    "longitude": "-90.0838925497487",
    "latitude": "29.920378610756586",
    "geocoded_column": {
      "latitude": "29.920378610756586",
      "longitude": "-90.0838925497487"
    }
  },
  {
    "service_request": "2024-1093174",
    "request_type": "Roads/Drainage",
    "request_reason": "Catch Basin - Clogged",
    "date_created": "2024-05-14T15:33:04.000",
    "date_modified": "2024-05-14T15:33:05.000",
    "request_status": "Pending",
    "responsible_agency": "Department of Public Works",
    "final_address": "7023 West End Blvd",
    "address_councildis": "A",
    "status": "Pending",
    "rowid": "1093174",
    "final_x": "3666889.29543",
    "final_y": "554367.809368",
    "longitude": "-90.11343775289085",
    "latitude": "30.018754922378566",
    "geocoded_column": {
      "latitude": "30.018754922378566",
      "longitude": "-90.11343775289085"
    }
  },
  {
    "service_request": "2024-1093173",
    "request_type": "Trash/Recycling",
    "request_reason": "Repair Trash Cart",
    "date_created": "2024-05-14T15:30:53.000",
    "date_modified": "2024-05-14T15:30:54.000",
    "request_status": "Pending",
    "responsible_agency": "Department of Sanitation",
    "final_address": "1016 N Lopez St",
    "address_councildis": "A",
    "status": "Assigned to Contractor",
    "contractor": "IV Waste",
    "rowid": "1093173",
    "final_x": "3676090.15534",
    "final_y": "539067.900682",
    "longitude": "-90.0848930021389",
    "latitude": "29.976413000371675",
    "geocoded_column": {
      "latitude": "29.976413000371675",
      "longitude": "-90.0848930021389"
    }
  },
  {
    "service_request": "2024-1093172",
    "request_type": "Roads/Drainage",
    "request_reason": "Street Flooding / Drainage",
    "date_created": "2024-05-14T15:26:22.000",
    "date_modified": "2024-05-14T15:26:22.000",
    "request_status": "Pending",
    "responsible_agency": "Department of Public Works",
    "final_address": "1241 Frenchmen St",
    "address_councildis": "C",
    "status": "Pending",
    "rowid": "1093172",
    "final_x": "3684586.30018",
    "final_y": "536967.742152",
    "longitude": "-90.05813347295022",
    "latitude": "29.97038102842954",
    "geocoded_column": {
      "latitude": "29.97038102842954",
      "longitude": "-90.05813347295022"
    }
  },
  {
    "service_request": "2024-1093171",
    "request_type": "Mosquito, Termite & Rodent Control",
    "request_reason": "Rodent Complaint (Rats)",
    "date_created": "2024-05-14T15:24:00.000",
    "date_modified": "2024-05-14T15:24:01.000",
    "request_status": "Pending",
    "responsible_agency": "Mosquito, Termite & Rodent Control Board",
    "final_address": "2113 Clara St",
    "address_councildis": "B",
    "status": "Pending",
    "rowid": "1093171",
    "final_x": "3675194.25569",
    "final_y": "527268.334847",
    "longitude": "-90.08812751026697",
    "latitude": "29.943994964969768",
    "geocoded_column": {
      "latitude": "29.943994964969768",
      "longitude": "-90.08812751026697"
    }
  },
  {
    "service_request": "2024-1093170",
    "request_type": "Traffic Signals/Signs/Striping/Streetlights",
    "request_reason": "Street Light Outage/Malfunction",
    "date_created": "2024-05-14T15:22:10.000",
    "date_modified": "2024-05-14T15:22:11.000",
    "request_status": "Pending",
    "responsible_agency": "Department of Public Works",
    "final_address": "MONTICELLO AVE & APRICOT ST",
    "address_councildis": "A",
    "status": "Assigned to Contractor",
    "contractor": "Legacy Professional Services",
    "rowid": "1093170",
    "final_x": "3662448.7",
    "final_y": "535705.28",
    "longitude": "-90.12808875942216",
    "latitude": "29.96756853100463",
    "geocoded_column": {
      "latitude": "29.96756853100463",
      "longitude": "-90.12808875942216"
    }
  },
  {
    "service_request": "2024-1093169",
    "request_type": "Trash/Recycling",
    "request_reason": "Request a Large Item Pick Up",
    "date_created": "2024-05-14T15:20:52.000",
    "date_modified": "2024-05-14T15:20:53.000",
    "request_status": "Pending",
    "responsible_agency": "Department of Sanitation",
    "final_address": "303 Audubon St",
    "address_councildis": "A",
    "status": "Assigned to Contractor",
    "contractor": "IV Waste",
    "rowid": "1093169",
    "final_x": "3661595.50214",
    "final_y": "522051.552314",
    "longitude": "-90.1312355496734",
    "latitude": "29.930049802594002",
    "geocoded_column": {
      "latitude": "29.930049802594002",
      "longitude": "-90.1312355496734"
    }
  },
  {
    "service_request": "2024-1093168",
    "request_type": "Roads/Drainage",
    "request_reason": "Pothole",
    "date_created": "2024-05-14T15:19:02.000",
    "date_modified": "2024-05-14T15:19:03.000",
    "request_status": "Pending",
    "responsible_agency": "Department of Public Works",
    "final_address": "N ROCHEBLAVE ST & BARTHOLOMEW ST",
    "address_councildis": "D",
    "status": "Pending",
    "rowid": "1093168",
    "final_x": "3693021.7",
    "final_y": "540202.78",
    "longitude": "-90.03137757214527",
    "latitude": "29.97901540386858",
    "geocoded_column": {
      "latitude": "29.97901540386858",
      "longitude": "-90.03137757214527"
    }
  },
  {
    "service_request": "2024-1093167",
    "request_type": "Traffic Signals/Signs/Striping/Streetlights",
    "request_reason": "Traffic Signal Malfunctioning/Damaged",
    "date_created": "2024-05-14T15:17:22.000",
    "date_modified": "2024-05-14T15:17:23.000",
    "request_status": "Pending",
    "responsible_agency": "Department of Public Works",
    "final_address": "MELPOMENE AVE & CAMP ST & MELPOMENE ST",
    "address_councildis": "B",
    "status": "Pending",
    "rowid": "1093167",
    "final_x": "3680073.3",
    "final_y": "524988.98",
    "longitude": "-90.07280219318034",
    "latitude": "29.937580803402827",
    "geocoded_column": {
      "latitude": "29.937580803402827",
      "longitude": "-90.07280219318034"
    }
  },
  {
    "service_request": "2024-1093165",
    "request_type": "Trash/Recycling",
    "request_reason": "Repair Trash Cart",
    "date_created": "2024-05-14T15:15:33.000",
    "date_modified": "2024-05-14T15:15:34.000",
    "request_status": "Pending",
    "responsible_agency": "Department of Sanitation",
    "final_address": "3904 General Ogden St",
    "address_councildis": "A",
    "status": "Assigned to Contractor",
    "contractor": "IV Waste",
    "rowid": "1093165",
    "final_x": "3666357.73191",
    "final_y": "537460.439624",
    "longitude": "-90.11568500167736",
    "latitude": "29.97228100027437",
    "geocoded_column": {
      "latitude": "29.97228100027437",
      "longitude": "-90.11568500167736"
    }
  },
  {
    "service_request": "2024-1093164",
    "request_type": "Property Maintenance",
    "request_reason": "Property Maintenance",
    "date_created": "2024-05-14T15:09:50.000",
    "date_modified": "2024-05-14T15:42:48.000",
    "case_close_date": "2024-05-14T10:42:48.000",
    "request_status": "Closed",
    "responsible_agency": "Department of Code Enforcement",
    "final_address": "2413 Laharpe St",
    "address_councildis": "D",
    "status": "Referred to Code Enforcement",
    "rowid": "1093164",
    "final_x": "3679631.82587",
    "final_y": "539312.87905",
    "longitude": "-90.07369883331405",
    "latitude": "29.97698002726511",
    "geocoded_column": {
      "latitude": "29.97698002726511",
      "longitude": "-90.07369883331405"
    }
  },
  {
    "service_request": "2024-1093163",
    "request_type": "Property Maintenance",
    "request_reason": "Property Maintenance",
    "date_created": "2024-05-14T15:05:28.000",
    "date_modified": "2024-05-14T15:23:54.000",
    "case_close_date": "2024-05-14T10:23:54.000",
    "request_status": "Closed",
    "responsible_agency": "Department of Code Enforcement",
    "final_address": "4933 Feliciana Dr",
    "address_councildis": "D",
    "status": "Referred to Code Enforcement",
    "rowid": "1093163",
    "final_x": "3690093.90153",
    "final_y": "551651.393429",
    "longitude": "-90.04021658699979",
    "latitude": "30.010586092687767",
    "geocoded_column": {
      "latitude": "30.010586092687767",
      "longitude": "-90.04021658699979"
    }
  },
  {
    "service_request": "2024-1093162",
    "request_type": "Safety & Permits",
    "request_reason": "Safety & Permits Request (Cyber Incident Back Up)",
    "date_created": "2024-05-14T15:05:26.000",
    "date_modified": "2024-05-14T15:05:26.000",
    "request_status": "Pending",
    "responsible_agency": "Safety and Permits",
    "final_address": "2723 N Roman St",
    "address_councildis": "D",
    "status": "Pending",
    "rowid": "1093162",
    "final_x": "3688301.57615",
    "final_y": "538996.941642",
    "longitude": "-90.04632827258423",
    "latitude": "29.97584640005778",
    "geocoded_column": {
      "latitude": "29.97584640005778",
      "longitude": "-90.04632827258423"
    }
  },
  {
    "service_request": "2024-1093161",
    "request_type": "Trash/Recycling",
    "request_reason": "Return Trash Cart",
    "date_created": "2024-05-14T15:04:57.000",
    "date_modified": "2024-05-14T15:04:58.000",
    "request_status": "Pending",
    "responsible_agency": "Department of Sanitation",
    "final_address": "3031 Esplanade Ave",
    "address_councildis": "A",
    "status": "Assigned to Contractor",
    "contractor": "IV Waste",
    "rowid": "1093161",
    "final_x": "3676662.3044",
    "final_y": "540231.380619",
    "longitude": "-90.08304588554994",
    "latitude": "29.979595016881337",
    "geocoded_column": {
      "latitude": "29.979595016881337",
      "longitude": "-90.08304588554994"
    }
  },
  {
    "service_request": "2024-1093160",
    "request_type": "Property Maintenance",
    "request_reason": "Property Maintenance",
    "date_created": "2024-05-14T15:00:13.000",
    "date_modified": "2024-05-14T15:33:23.000",
    "case_close_date": "2024-05-14T10:33:23.000",
    "request_status": "Closed",
    "responsible_agency": "Department of Code Enforcement",
    "final_address": "3200 Homer St",
    "address_councildis": "C",
    "status": "Referred to Code Enforcement",
    "rowid": "1093160",
    "final_x": "3696120.59184",
    "final_y": "528247.759168",
    "longitude": "-90.02202224347008",
    "latitude": "29.94604615011761",
    "geocoded_column": {
      "latitude": "29.94604615011761",
      "longitude": "-90.02202224347008"
    }
  },
  {
    "service_request": "2024-1093159",
    "request_type": "Trash/Recycling",
    "request_reason": "Replace Trash Cart",
    "date_created": "2024-05-14T14:58:35.000",
    "date_modified": "2024-05-14T14:58:36.000",
    "request_status": "Pending",
    "responsible_agency": "Department of Sanitation",
    "final_address": "2719 General Pershing St",
    "address_councildis": "B",
    "status": "Assigned to Contractor",
    "contractor": "IV Waste",
    "rowid": "1093159",
    "final_x": "3670887.56238",
    "final_y": "524946.022013",
    "longitude": "-90.10180376898649",
    "latitude": "29.937737345370355",
    "geocoded_column": {
      "latitude": "29.937737345370355",
      "longitude": "-90.10180376898649"
    }
  },
  {
    "service_request": "2024-1093158",
    "request_type": "Trash/Recycling",
    "request_reason": "Request a Large Item Pick Up",
    "date_created": "2024-05-14T14:57:52.000",
    "date_modified": "2024-05-14T14:57:53.000",
    "request_status": "Pending",
    "responsible_agency": "Department of Sanitation",
    "final_address": "3327 General Taylor St A",
    "address_councildis": "B",
    "status": "Assigned to Contractor",
    "contractor": "IV Waste",
    "rowid": "1093158",
    "final_x": "3671262.54452",
    "final_y": "527227.480831",
    "longitude": "-90.1005424250798",
    "latitude": "29.943999528221568",
    "geocoded_column": {
      "latitude": "29.943999528221568",
      "longitude": "-90.1005424250798"
    }
  },
  {
    "service_request": "2024-1093157",
    "request_type": "Trash/Recycling",
    "request_reason": "Replace Trash Cart",
    "date_created": "2024-05-14T14:57:40.000",
    "date_modified": "2024-05-14T14:57:41.000",
    "request_status": "Pending",
    "responsible_agency": "Department of Sanitation",
    "final_address": "4235 Magazine St",
    "address_councildis": "B",
    "status": "Assigned to Contractor",
    "contractor": "IV Waste",
    "rowid": "1093157",
    "final_x": "3671522.44014",
    "final_y": "518884.311671",
    "longitude": "-90.10000539049325",
    "latitude": "29.921050810720413",
    "geocoded_column": {
      "latitude": "29.921050810720413",
      "longitude": "-90.10000539049325"
    }
  },
  {
    "service_request": "2024-1093156",
    "request_type": "Abandoned Vehicles",
    "request_reason": "Abandoned/Junk Vehicles",
    "date_created": "2024-05-14T14:57:34.000",
    "date_modified": "2024-05-14T14:58:44.000",
    "request_status": "Pending",
    "responsible_agency": "Department of Public Works",
    "final_address": "1502 Clouet St",
    "address_councildis": "D",
    "status": "Pending",
    "rowid": "1093156",
    "final_x": "3689358.431",
    "final_y": "537541.678408",
    "longitude": "-90.04304219066367",
    "latitude": "29.97181225745095",
    "geocoded_column": {
      "latitude": "29.97181225745095",
      "longitude": "-90.04304219066367"
    }
  },
  {
    "service_request": "2024-1093155",
    "request_type": "Trash/Recycling",
    "request_reason": "Repair Trash Cart",
    "date_created": "2024-05-14T14:53:51.000",
    "date_modified": "2024-05-14T14:53:52.000",
    "request_status": "Pending",
    "responsible_agency": "Department of Sanitation",
    "final_address": "14570 Tilbury Rd",
    "address_councildis": "E",
    "status": "Assigned to Contractor",
    "contractor": "Waste Pro",
    "rowid": "1093155",
    "final_x": "3721068.79692",
    "final_y": "573203.276201",
    "longitude": "-89.94152923571404",
    "latitude": "30.068847419543708",
    "geocoded_column": {
      "latitude": "30.068847419543708",
      "longitude": "-89.94152923571404"
    }
  },
  {
    "service_request": "2024-1093154",
    "request_type": "Trash/Recycling",
    "request_reason": "Request a Large Item Pick Up",
    "date_created": "2024-05-14T14:53:02.000",
    "date_modified": "2024-05-14T14:53:03.000",
    "request_status": "Pending",
    "responsible_agency": "Department of Sanitation",
    "final_address": "7820 Windward Ct",
    "address_councildis": "E",
    "status": "Assigned to Contractor",
    "contractor": "Waste Pro",
    "rowid": "1093154",
    "final_x": "3715286.58424",
    "final_y": "570071.487591",
    "longitude": "-89.95992659934839",
    "latitude": "30.060428149895078",
    "geocoded_column": {
      "latitude": "30.060428149895078",
      "longitude": "-89.95992659934839"
    }
  },
  {
    "service_request": "2024-1093153",
    "request_type": "Trash/Recycling",
    "request_reason": "Repair Recycling Cart",
    "date_created": "2024-05-14T14:50:41.000",
    "date_modified": "2024-05-14T14:50:42.000",
    "request_status": "Pending",
    "responsible_agency": "Department of Sanitation",
    "final_address": "537 Bermuda St",
    "address_councildis": "C",
    "status": "Pending",
    "rowid": "1093153",
    "final_x": "3686871.47318",
    "final_y": "529921.575937",
    "longitude": "-90.05116566049773",
    "latitude": "29.950936380539915",
    "geocoded_column": {
      "latitude": "29.950936380539915",
      "longitude": "-90.05116566049773"
    }
  },
  {
    "service_request": "2024-1093152",
    "request_type": "Traffic Signals/Signs/Striping/Streetlights",
    "request_reason": "Traffic Sign Missing/Damaged",
    "date_created": "2024-05-14T14:49:47.000",
    "date_modified": "2024-05-14T14:49:48.000",
    "request_status": "Pending",
    "responsible_agency": "Department of Public Works",
    "final_address": "N GALVEZ ST & ST MAURICE AVE",
    "address_councildis": "E",
    "status": "Pending",
    "rowid": "1093152",
    "final_x": "3701274.3",
    "final_y": "536730.68",
    "longitude": "-90.00543995380661",
    "latitude": "29.969207975392052",
    "geocoded_column": {
      "latitude": "29.969207975392052",
      "longitude": "-90.00543995380661"
    }
  },
  {
    "service_request": "2024-1093151",
    "request_type": "Abandoned Vehicles",
    "request_reason": "Abandoned/Junk Vehicles",
    "date_created": "2024-05-14T14:49:18.000",
    "date_modified": "2024-05-14T14:51:27.000",
    "request_status": "Pending",
    "responsible_agency": "Department of Public Works",
    "final_address": "5700 BLK Canal Blvd",
    "address_councildis": "A",
    "status": "Pending",
    "rowid": "1093151",
    "final_x": "3668275.5978",
    "final_y": "545707.11277",
    "longitude": "-90.1093498275567",
    "latitude": "29.994900374385754",
    "geocoded_column": {
      "latitude": "29.994900374385754",
      "longitude": "-90.1093498275567"
    }
  },
  {
    "service_request": "2024-1093150",
    "request_type": "Trash/Recycling",
    "request_reason": "Order Trash Cart",
    "date_created": "2024-05-14T14:47:55.000",
    "date_modified": "2024-05-14T14:47:56.000",
    "request_status": "Pending",
    "responsible_agency": "Department of Sanitation",
    "final_address": "10200 Chevy Chase Dr",
    "address_councildis": "E",
    "status": "Assigned to Contractor",
    "contractor": "Waste Pro",
    "rowid": "1093150",
    "final_x": "3710041.57201",
    "final_y": "563105.18288",
    "longitude": "-89.97676642956132",
    "latitude": "30.04144544441078",
    "geocoded_column": {
      "latitude": "30.04144544441078",
      "longitude": "-89.97676642956132"
    }
  },
  {
    "service_request": "2024-1093149",
    "request_type": "Trash/Recycling",
    "request_reason": "Illegal Dumping",
    "date_created": "2024-05-14T14:46:12.000",
    "date_modified": "2024-05-14T14:46:12.000",
    "request_status": "Pending",
    "responsible_agency": "Department of Sanitation",
    "final_address": "2800 BLK N Claiborne Ave",
    "address_councildis": "D",
    "status": "Pending",
    "rowid": "1093149",
    "final_x": "3688333.70794",
    "final_y": "538182.723291",
    "longitude": "-90.04625567654317",
    "latitude": "29.973606594105608",
    "geocoded_column": {
      "latitude": "29.973606594105608",
      "longitude": "-90.04625567654317"
    }
  },
  {
    "service_request": "2024-1093148",
    "request_type": "Trash/Recycling",
    "request_reason": "Illegal Dumping",
    "date_created": "2024-05-14T14:45:50.000",
    "date_modified": "2024-05-14T14:45:50.000",
    "request_status": "Pending",
    "responsible_agency": "Department of Sanitation",
    "final_address": "2800 BLK N Viller St",
    "address_councildis": "C",
    "status": "Pending",
    "rowid": "1093148",
    "final_x": "3688152.92123",
    "final_y": "537388.297714",
    "longitude": "-90.0468548070071",
    "latitude": "29.971427785384126",
    "geocoded_column": {
      "latitude": "29.971427785384126",
      "longitude": "-90.0468548070071"
    }
  },
  {
    "service_request": "2024-1093147",
    "request_type": "Trash/Recycling",
    "request_reason": "Request a Large Item Pick Up",
    "date_created": "2024-05-14T14:44:59.000",
    "date_modified": "2024-05-14T14:45:00.000",
    "request_status": "Pending",
    "responsible_agency": "Department of Sanitation",
    "final_address": "2704 Soniat St",
    "address_councildis": "B",
    "status": "Assigned to Contractor",
    "contractor": "IV Waste",
    "rowid": "1093147",
    "final_x": "3668517.15054",
    "final_y": "525383.145021",
    "longitude": "-90.10927262577508",
    "latitude": "29.939009132840326",
    "geocoded_column": {
      "latitude": "29.939009132840326",
      "longitude": "-90.10927262577508"
    }
  },
  {
    "service_request": "2024-1093146",
    "request_type": "Trash/Recycling",
    "request_reason": "Illegal Dumping",
    "date_created": "2024-05-14T14:44:37.000",
    "date_modified": "2024-05-14T14:44:38.000",
    "request_status": "Pending",
    "responsible_agency": "Department of Sanitation",
    "final_address": "2800 BLK N Robertson St",
    "address_councildis": "C",
    "status": "Pending",
    "rowid": "1093146",
    "final_x": "3688238.07788",
    "final_y": "537772.939662",
    "longitude": "-90.04657222928527",
    "latitude": "29.972482786478018",
    "geocoded_column": {
      "latitude": "29.972482786478018",
      "longitude": "-90.04657222928527"
    }
  },
  {
    "service_request": "2024-1093145",
    "request_type": "Roads/Drainage",
    "request_reason": "Pothole",
    "date_created": "2024-05-14T14:41:25.000",
    "date_modified": "2024-05-14T14:41:25.000",
    "request_status": "Pending",
    "responsible_agency": "Department of Public Works",
    "final_address": "600 BLK Constance St",
    "address_councildis": "B",
    "status": "Pending",
    "rowid": "1093145",
    "final_x": "3681569.24247",
    "final_y": "528493.193457",
    "longitude": "-90.067957225121",
    "latitude": "29.947170883965494",
    "geocoded_column": {
      "latitude": "29.947170883965494",
      "longitude": "-90.067957225121"
    }
  },
  {
    "service_request": "2024-1093144",
    "request_type": "Trash/Recycling",
    "request_reason": "Request a Large Item Pick Up",
    "date_created": "2024-05-14T14:41:18.000",
    "date_modified": "2024-05-14T14:41:19.000",
    "request_status": "Pending",
    "responsible_agency": "Department of Sanitation",
    "final_address": "4225 N Johnson St",
    "address_councildis": "D",
    "status": "Assigned to Contractor",
    "contractor": "IV Waste",
    "rowid": "1093144",
    "final_x": "3693435.41494",
    "final_y": "538525.614729",
    "longitude": "-90.0301311530569",
    "latitude": "29.974390866937274",
    "geocoded_column": {
      "latitude": "29.974390866937274",
      "longitude": "-90.0301311530569"
    }
  },
  {
    "service_request": "2024-1093143",
    "request_type": "Trash/Recycling",
    "request_reason": "Illegal Dumping",
    "date_created": "2024-05-14T14:40:16.000",
    "date_modified": "2024-05-14T14:40:16.000",
    "request_status": "Pending",
    "responsible_agency": "Department of Sanitation",
    "final_address": "5800 BLK Tullis Dr",
    "address_councildis": "C",
    "status": "Pending",
    "rowid": "1093143",
    "final_x": "3705788.10381",
    "final_y": "513196.21224",
    "longitude": "-89.99205514717478",
    "latitude": "29.904351894017385",
    "geocoded_column": {
      "latitude": "29.904351894017385",
      "longitude": "-89.99205514717478"
    }
  },
  {
    "service_request": "2024-1093142",
    "request_type": "Trash/Recycling",
    "request_reason": "Illegal Dumping",
    "date_created": "2024-05-14T14:39:59.000",
    "date_modified": "2024-05-14T14:40:00.000",
    "request_status": "Pending",
    "responsible_agency": "Department of Sanitation",
    "final_address": "5700 BLK Tullis Dr",
    "address_councildis": "C",
    "status": "Pending",
    "rowid": "1093142",
    "final_x": "3705423.68918",
    "final_y": "512872.666956",
    "longitude": "-89.99321718094669",
    "latitude": "29.903473979084463",
    "geocoded_column": {
      "latitude": "29.903473979084463",
      "longitude": "-89.99321718094669"
    }
  },
  {
    "service_request": "2024-1093141",
    "request_type": "Traffic Signals/Signs/Striping/Streetlights",
    "request_reason": "Traffic Signal Malfunctioning/Damaged",
    "date_created": "2024-05-14T14:39:43.000",
    "date_modified": "2024-05-14T14:39:44.000",
    "request_status": "Pending",
    "responsible_agency": "Department of Public Works",
    "final_address": "DIXON ST & S CARROLLTON AVE",
    "address_councildis": "A",
    "status": "Pending",
    "rowid": "1093141",
    "final_x": "3668460.8",
    "final_y": "535443.28",
    "longitude": "-90.10911119468042",
    "latitude": "29.966672865841474",
    "geocoded_column": {
      "latitude": "29.966672865841474",
      "longitude": "-90.10911119468042"
    }
  },
  {
    "service_request": "2024-1093140",
    "request_type": "Trash/Recycling",
    "request_reason": "Dead Animal Pick Up",
    "date_created": "2024-05-14T14:36:22.000",
    "date_modified": "2024-05-14T14:36:23.000",
    "request_status": "Pending",
    "responsible_agency": "Department of Sanitation",
    "final_address": "L B LANDRY AVE & WALL BLVD",
    "address_councildis": "C",
    "status": "Assigned to Contractor",
    "contractor": "Richards Disposal",
    "rowid": "1093140",
    "final_x": "3690025.6",
    "final_y": "524005.28",
    "longitude": "-90.04141717294856",
    "latitude": "29.93457116369369",
    "geocoded_column": {
      "latitude": "29.93457116369369",
      "longitude": "-90.04141717294856"
    }
  },
  {
    "service_request": "2024-1093139",
    "request_type": "Traffic Signals/Signs/Striping/Streetlights",
    "request_reason": "Traffic Sign Missing/Damaged",
    "date_created": "2024-05-14T14:31:51.000",
    "date_modified": "2024-05-14T14:31:51.000",
    "request_status": "Pending",
    "responsible_agency": "Department of Public Works",
    "final_address": "TOLEDANO ST & LOYOLA AVE",
    "address_councildis": "B",
    "status": "Pending",
    "rowid": "1093139",
    "final_x": "3673719.4",
    "final_y": "523668.88",
    "longitude": "-90.09290707037438",
    "latitude": "29.93414162722122",
    "geocoded_column": {
      "latitude": "29.93414162722122",
      "longitude": "-90.09290707037438"
    }
  },
  {
    "service_request": "2024-1093138",
    "request_type": "Trash/Recycling",
    "request_reason": "Request a Large Item Pick Up",
    "date_created": "2024-05-14T14:30:54.000",
    "date_modified": "2024-05-14T14:30:55.000",
    "request_status": "Pending",
    "responsible_agency": "Department of Sanitation",
    "final_address": "6029 El Dorado St",
    "address_councildis": "E",
    "status": "Assigned to Contractor",
    "contractor": "Waste Pro",
    "rowid": "1093138",
    "final_x": "3699286.16829",
    "final_y": "533188.392516",
    "longitude": "-90.01184759748186",
    "latitude": "29.959531154503864",
    "geocoded_column": {
      "latitude": "29.959531154503864",
      "longitude": "-90.01184759748186"
    }
  },
  {
    "service_request": "2024-1093137",
    "request_type": "Roads/Drainage",
    "request_reason": "Pothole",
    "date_created": "2024-05-14T14:30:46.000",
    "date_modified": "2024-05-14T14:30:46.000",
    "request_status": "Pending",
    "responsible_agency": "Department of Public Works",
    "final_address": "600 BLK Constance St",
    "address_councildis": "B",
    "status": "Pending",
    "rowid": "1093137",
    "final_x": "3681569.24247",
    "final_y": "528493.193457",
    "longitude": "-90.067957225121",
    "latitude": "29.947170883965494",
    "geocoded_column": {
      "latitude": "29.947170883965494",
      "longitude": "-90.067957225121"
    }
  },
  {
    "service_request": "2024-1093136",
    "request_type": "Trash/Recycling",
    "request_reason": "Repair Trash Cart",
    "date_created": "2024-05-14T14:30:35.000",
    "date_modified": "2024-05-14T14:30:36.000",
    "request_status": "Pending",
    "responsible_agency": "Department of Sanitation",
    "final_address": "554 Abalon Ct",
    "address_councildis": "C",
    "status": "Assigned to Contractor",
    "contractor": "Richards Disposal",
    "rowid": "1093136",
    "final_x": "3688965.81084",
    "final_y": "530550.468226",
    "longitude": "-90.04453048349035",
    "latitude": "29.952601013163665",
    "geocoded_column": {
      "latitude": "29.952601013163665",
      "longitude": "-90.04453048349035"
    }
  },
  {
    "service_request": "2024-1093135",
    "request_type": "Traffic Signals/Signs/Striping/Streetlights",
    "request_reason": "Street Light Outage/Malfunction",
    "date_created": "2024-05-14T14:29:41.000",
    "date_modified": "2024-05-14T14:29:43.000",
    "request_status": "Pending",
    "responsible_agency": "Department of Public Works",
    "final_address": "6119 Catina St",
    "address_councildis": "A",
    "status": "Assigned to Contractor",
    "contractor": "Legacy Professional Services",
    "rowid": "1093135",
    "final_x": "3666881.83629",
    "final_y": "548181.09077",
    "longitude": "-90.11366939381315",
    "latitude": "30.001743825700352",
    "geocoded_column": {
      "latitude": "30.001743825700352",
      "longitude": "-90.11366939381315"
    }
  },
  {
    "service_request": "2024-1093134",
    "request_type": "Trash/Recycling",
    "request_reason": "Replace Trash Cart",
    "date_created": "2024-05-14T14:24:26.000",
    "date_modified": "2024-05-14T14:24:27.000",
    "request_status": "Pending",
    "responsible_agency": "Department of Sanitation",
    "final_address": "129 Mary Jane Ln",
    "address_councildis": "E",
    "status": "Assigned to Contractor",
    "contractor": "Waste Pro",
    "rowid": "1093134",
    "final_x": "3718190.47961",
    "final_y": "571625.616936",
    "longitude": "-89.95068832792865",
    "latitude": "30.064605334357978",
    "geocoded_column": {
      "latitude": "30.064605334357978",
      "longitude": "-89.95068832792865"
    }
  },
  {
    "service_request": "2024-1093132",
    "request_type": "Trash/Recycling",
    "request_reason": "Missed Trash Pick-Up",
    "date_created": "2024-05-14T14:22:13.000",
    "date_modified": "2024-05-14T14:35:05.000",
    "case_close_date": "2024-05-14T09:35:05.000",
    "request_status": "Closed",
    "responsible_agency": "Department of Sanitation",
    "final_address": "1342 Spain St",
    "address_councildis": "C",
    "status": "Invalid Request",
    "contractor": "IV Waste",
    "contractor_action": "Invalid",
    "rowid": "1093132",
    "final_x": "3686020.28201",
    "final_y": "537464.916744",
    "longitude": "-90.05358727243568",
    "latitude": "29.971704126207488",
    "geocoded_column": {
      "latitude": "29.971704126207488",
      "longitude": "-90.05358727243568"
    }
  },
  {
    "service_request": "2024-1093131",
    "request_type": "Property Maintenance",
    "request_reason": "Property Maintenance",
    "date_created": "2024-05-14T14:20:58.000",
    "date_modified": "2024-05-14T14:42:43.000",
    "case_close_date": "2024-05-14T09:42:43.000",
    "request_status": "Closed",
    "responsible_agency": "Department of Code Enforcement",
    "final_address": "2013 Dumaine St",
    "address_councildis": "D",
    "status": "Referred to Code Enforcement",
    "rowid": "1093131",
    "final_x": "3679275.46517",
    "final_y": "535941.554887",
    "longitude": "-90.0749412704264",
    "latitude": "29.967720811895013",
    "geocoded_column": {
      "latitude": "29.967720811895013",
      "longitude": "-90.0749412704264"
    }
  },
  {
    "service_request": "2024-1093130",
    "request_type": "Trash/Recycling",
    "request_reason": "Request a Large Item Pick Up",
    "date_created": "2024-05-14T14:18:42.000",
    "date_modified": "2024-05-14T15:46:36.000",
    "request_status": "Pending",
    "responsible_agency": "Department of Sanitation",
    "final_address": "1315 Fern St",
    "address_councildis": "A",
    "status": "Assigned to Contractor",
    "contractor": "IV Waste",
    "rowid": "1093130",
    "final_x": "3662888.99162",
    "final_y": "528176.285376",
    "longitude": "-90.12694863298958",
    "latitude": "29.94685349773006",
    "geocoded_column": {
      "latitude": "29.94685349773006",
      "longitude": "-90.12694863298958"
    }
  },
  {
    "service_request": "2024-1093129",
    "request_type": "Trash/Recycling",
    "request_reason": "Request a Large Item Pick Up",
    "date_created": "2024-05-14T14:17:56.000",
    "date_modified": "2024-05-14T14:17:57.000",
    "request_status": "Pending",
    "responsible_agency": "Department of Sanitation",
    "final_address": "3316 Johnny Jackson Jr Blvd",
    "address_councildis": "D",
    "status": "Assigned to Contractor",
    "contractor": "IV Waste",
    "rowid": "1093129",
    "final_x": "3691730.41308",
    "final_y": "544718.016463",
    "longitude": "-90.03529438610262",
    "latitude": "29.99147096090832",
    "geocoded_column": {
      "latitude": "29.99147096090832",
      "longitude": "-90.03529438610262"
    }
  },
  {
    "service_request": "2024-1093128",
    "request_type": "Trash/Recycling",
    "request_reason": "Request a Large Item Pick Up",
    "date_created": "2024-05-14T14:14:41.000",
    "date_modified": "2024-05-14T14:14:41.000",
    "request_status": "Pending",
    "responsible_agency": "Department of Sanitation",
    "final_address": "5764 Wildair Dr",
    "address_councildis": "D",
    "status": "Assigned to Contractor",
    "contractor": "IV Waste",
    "rowid": "1093128",
    "final_x": "3681471.94844",
    "final_y": "554468.630616",
    "longitude": "-90.0673582895973",
    "latitude": "30.018597197455822",
    "geocoded_column": {
      "latitude": "30.018597197455822",
      "longitude": "-90.0673582895973"
    }
  },
  {
    "service_request": "2024-1093127",
    "request_type": "Trash/Recycling",
    "request_reason": "Repair Trash Cart",
    "date_created": "2024-05-14T14:13:28.000",
    "date_modified": "2024-05-14T14:13:29.000",
    "request_status": "Pending",
    "responsible_agency": "Department of Sanitation",
    "final_address": "1218 Pine St",
    "address_councildis": "A",
    "status": "Assigned to Contractor",
    "contractor": "IV Waste",
    "rowid": "1093127",
    "final_x": "3663997.08813",
    "final_y": "526834.351166",
    "longitude": "-90.12349468672195",
    "latitude": "29.94313148366234",
    "geocoded_column": {
      "latitude": "29.94313148366234",
      "longitude": "-90.12349468672195"
    }
  },
  {
    "service_request": "2024-1093126",
    "request_type": "Trash/Recycling",
    "request_reason": "Missed Trash Pick-Up",
    "date_created": "2024-05-14T14:12:57.000",
    "date_modified": "2024-05-14T14:18:37.000",
    "request_status": "Pending",
    "responsible_agency": "Department of Sanitation",
    "final_address": "10920 Wales St",
    "address_councildis": "E",
    "status": "Assigned to Contractor",
    "contractor": "Waste Pro",
    "rowid": "1093126",
    "final_x": "3709901.36549",
    "final_y": "566452.964259",
    "longitude": "-89.97708429877027",
    "latitude": "30.050655061133057",
    "geocoded_column": {
      "latitude": "30.050655061133057",
      "longitude": "-89.97708429877027"
    }
  },
  {
    "service_request": "2024-1093125",
    "request_type": "Trash/Recycling",
    "request_reason": "Order Recycling Cart",
    "date_created": "2024-05-14T14:10:46.000",
    "date_modified": "2024-05-14T14:10:46.000",
    "request_status": "Pending",
    "responsible_agency": "Department of Sanitation",
    "final_address": "137 22Nd St",
    "address_councildis": "A",
    "status": "Pending",
    "rowid": "1093125",
    "final_x": "3665911.04704",
    "final_y": "549335.292819",
    "longitude": "-90.11669751476268",
    "latitude": "30.004945859799744",
    "geocoded_column": {
      "latitude": "30.004945859799744",
      "longitude": "-90.11669751476268"
    }
  },
  {
    "service_request": "2024-1093124",
    "request_type": "Abandoned Vehicles",
    "request_reason": "Abandoned/Junk Vehicles",
    "date_created": "2024-05-14T14:08:20.000",
    "date_modified": "2024-05-14T14:08:20.000",
    "request_status": "Pending",
    "responsible_agency": "Department of Public Works",
    "final_address": "8423 Nelson St",
    "address_councildis": "A",
    "status": "Pending",
    "rowid": "1093124",
    "final_x": "3664224.06196",
    "final_y": "532710.968324",
    "longitude": "-90.12258202036006",
    "latitude": "29.959283689310965",
    "geocoded_column": {
      "latitude": "29.959283689310965",
      "longitude": "-90.12258202036006"
    }
  },
  {
    "service_request": "2024-1093122",
    "request_type": "Roads/Drainage",
    "request_reason": "Catch Basin - Clogged",
    "date_created": "2024-05-14T14:05:46.000",
    "date_modified": "2024-05-14T14:05:47.000",
    "request_status": "Pending",
    "responsible_agency": "Department of Public Works",
    "final_address": "2209 Foucher St",
    "address_councildis": "B",
    "status": "Pending",
    "rowid": "1093122",
    "final_x": "3672801.27688",
    "final_y": "523402.254715",
    "longitude": "-90.09581464866558",
    "latitude": "29.933435791392895",
    "geocoded_column": {
      "latitude": "29.933435791392895",
      "longitude": "-90.09581464866558"
    }
  },
  {
    "service_request": "2024-1093121",
    "request_type": "Trash/Recycling",
    "request_reason": "Request a Large Item Pick Up",
    "date_created": "2024-05-14T14:05:10.000",
    "date_modified": "2024-05-14T14:05:11.000",
    "request_status": "Pending",
    "responsible_agency": "Department of Sanitation",
    "final_address": "1736 Congress St",
    "address_councildis": "D",
    "status": "Assigned to Contractor",
    "contractor": "IV Waste",
    "rowid": "1093121",
    "final_x": "3691305.05161",
    "final_y": "538114.291209",
    "longitude": "-90.03687402036758",
    "latitude": "29.973326323333282",
    "geocoded_column": {
      "latitude": "29.973326323333282",
      "longitude": "-90.03687402036758"
    }
  },
  {
    "service_request": "2024-1093120",
    "request_type": "Trash/Recycling",
    "request_reason": "Request a Large Item Pick Up",
    "date_created": "2024-05-14T14:02:02.000",
    "date_modified": "2024-05-14T14:02:03.000",
    "request_status": "Pending",
    "responsible_agency": "Department of Sanitation",
    "final_address": "7410 Maple St",
    "address_councildis": "A",
    "status": "Assigned to Contractor",
    "contractor": "IV Waste",
    "rowid": "1093120",
    "final_x": "3662786.42131",
    "final_y": "525674.200509",
    "longitude": "-90.12735563291128",
    "latitude": "29.939976532044156",
    "geocoded_column": {
      "latitude": "29.939976532044156",
      "longitude": "-90.12735563291128"
    }
  },
  {
    "service_request": "2024-1093119",
    "request_type": "Traffic Signals/Signs/Striping/Streetlights",
    "request_reason": "Traffic Signal Malfunctioning/Damaged",
    "date_created": "2024-05-14T13:59:50.000",
    "date_modified": "2024-05-14T13:59:50.000",
    "request_status": "Pending",
    "responsible_agency": "Department of Public Works",
    "final_address": "HOWARD AVE & LOYOLA AVE",
    "address_councildis": "B",
    "status": "Pending",
    "rowid": "1093119",
    "final_x": "3678726.75",
    "final_y": "528082.41",
    "longitude": "-90.07694626669412",
    "latitude": "29.94612737303218",
    "geocoded_column": {
      "latitude": "29.94612737303218",
      "longitude": "-90.07694626669412"
    }
  },
  {
    "service_request": "2024-1093118",
    "request_type": "Trash/Recycling",
    "request_reason": "Request a Large Item Pick Up",
    "date_created": "2024-05-14T13:59:27.000",
    "date_modified": "2024-05-14T13:59:28.000",
    "request_status": "Pending",
    "responsible_agency": "Department of Sanitation",
    "final_address": "1713 Mandeville St",
    "address_councildis": "D",
    "status": "Assigned to Contractor",
    "contractor": "IV Waste",
    "rowid": "1093118",
    "final_x": "3685622.52591",
    "final_y": "538706.870345",
    "longitude": "-90.05479967959644",
    "latitude": "29.97513127351562",
    "geocoded_column": {
      "latitude": "29.97513127351562",
      "longitude": "-90.05479967959644"
    }
  },
  {
    "service_request": "2024-1093117",
    "request_type": "Traffic Signals/Signs/Striping/Streetlights",
    "request_reason": "Street Light Outage/Malfunction",
    "date_created": "2024-05-14T13:59:07.000",
    "date_modified": "2024-05-14T13:59:08.000",
    "request_status": "Pending",
    "responsible_agency": "Department of Public Works",
    "final_address": "14273 Sai Gon Dr",
    "address_councildis": "E",
    "status": "Assigned to Contractor",
    "contractor": "Legacy Professional Services",
    "rowid": "1093117",
    "final_x": "3729550.40646",
    "final_y": "563026.685216",
    "longitude": "-89.91511552196212",
    "latitude": "30.04058010899961",
    "geocoded_column": {
      "latitude": "30.04058010899961",
      "longitude": "-89.91511552196212"
    }
  },
  {
    "service_request": "2024-1093116",
    "request_type": "Abandoned Vehicles",
    "request_reason": "Abandoned/Junk Vehicles",
    "date_created": "2024-05-14T13:59:05.000",
    "date_modified": "2024-05-14T13:59:06.000",
    "request_status": "Pending",
    "responsible_agency": "Department of Public Works",
    "final_address": "PRYTANIA ST & CALHOUN ST",
    "address_councildis": "A",
    "status": "Pending",
    "rowid": "1093116",
    "final_x": "3664111.6",
    "final_y": "521296.98",
    "longitude": "-90.12331776312186",
    "latitude": "29.927902145298088",
    "geocoded_column": {
      "latitude": "29.927902145298088",
      "longitude": "-90.12331776312186"
    }
  },
  {
    "service_request": "2024-1093115",
    "request_type": "Trash/Recycling",
    "request_reason": "Order Recycling Cart",
    "date_created": "2024-05-14T13:58:15.000",
    "date_modified": "2024-05-14T13:58:15.000",
    "request_status": "Pending",
    "responsible_agency": "Department of Sanitation",
    "final_address": "2226 S Lopez St",
    "address_councildis": "A",
    "status": "Pending",
    "rowid": "1093115",
    "final_x": "3669039.50996",
    "final_y": "528986.917376",
    "longitude": "-90.10750175214972",
    "latitude": "29.948902983559847",
    "geocoded_column": {
      "latitude": "29.948902983559847",
      "longitude": "-90.10750175214972"
    }
  },
  {
    "service_request": "2024-1093114",
    "request_type": "Trash/Recycling",
    "request_reason": "Repair Trash Cart",
    "date_created": "2024-05-14T13:56:53.000",
    "date_modified": "2024-05-14T13:56:54.000",
    "request_status": "Pending",
    "responsible_agency": "Department of Sanitation",
    "final_address": "3335 Hyman Pl",
    "address_councildis": "C",
    "status": "Assigned to Contractor",
    "contractor": "Richards Disposal",
    "rowid": "1093114",
    "final_x": "3700909.12676",
    "final_y": "518848.439863",
    "longitude": "-90.00724675842619",
    "latitude": "29.92004973518389",
    "geocoded_column": {
      "latitude": "29.92004973518389",
      "longitude": "-90.00724675842619"
    }
  },
  {
    "service_request": "2024-1093113",
    "request_type": "Abandoned Vehicles",
    "request_reason": "Abandoned/Junk Vehicles",
    "date_created": "2024-05-14T13:56:39.000",
    "date_modified": "2024-05-14T13:56:39.000",
    "request_status": "Pending",
    "responsible_agency": "Department of Public Works",
    "final_address": "2200 BLK Eads St",
    "address_councildis": "D",
    "status": "Pending",
    "rowid": "1093113",
    "final_x": "3687938.74745",
    "final_y": "540802.42376",
    "longitude": "-90.04741019222634",
    "latitude": "29.980822038284156",
    "geocoded_column": {
      "latitude": "29.980822038284156",
      "longitude": "-90.04741019222634"
    }
  },
  {
    "service_request": "2024-1093112",
    "request_type": "Trash/Recycling",
    "request_reason": "Request a Large Item Pick Up",
    "date_created": "2024-05-14T13:53:30.000",
    "date_modified": "2024-05-14T13:53:31.000",
    "request_status": "Pending",
    "responsible_agency": "Department of Sanitation",
    "final_address": "13201 St Helena Pl",
    "address_councildis": "E",
    "status": "Assigned to Contractor",
    "contractor": "Waste Pro",
    "rowid": "1093112",
    "final_x": "3726484.96102",
    "final_y": "564278.639777",
    "longitude": "-89.92475456939349",
    "latitude": "30.044126431606085",
    "geocoded_column": {
      "latitude": "30.044126431606085",
      "longitude": "-89.92475456939349"
    }
  },