[
  {
    "service_request": "2024-1072432",
    "request_type": "Abandoned Vehicles",
    "request_reason": "Abandoned/Junk Vehicles",
    "date_created": "2024-03-04T22:31:07.000",
    "date_modified": "2024-03-04T22:31:07.000",
    "request_status": "Pending",
    "responsible_agency": "Department of Public Works",
    "final_address": "VIRGINIA MARIE ST & PARIS AVE",
    "address_councildis": "D",
    "status": "Pending",
    "rowid": "1072432",
    "final_x": "3679373.7",
    "final_y": "548813.48",
    "longitude": "-90.07418434602602",
    "latitude": "30.003111144367747",
    "geocoded_column": {
      "latitude": "30.003111144367747",
      "longitude": "-90.07418434602602"
    }
  },
  {
    "service_request": "2024-1072431",
    "request_type": "Property Maintenance",
    "request_reason": "Property Maintenance",
    "date_created": "2024-03-04T22:20:59.000",
    "date_modified": "2024-03-04T22:20:59.000",
    "request_status": "Pending",
    "responsible_agency": "Department of Code Enforcement",
    "final_address": "1034 Vallette St",
    "address_councildis": "C",
    "status": "Pending",
    "rowid": "1072431",
    "final_x": "3687480.81782",
    "final_y": "527675.717567",
    "longitude": "-90.04932112617962",
    "latitude": "29.94474227391787",
    "geocoded_column": {
      "latitude": "29.94474227391787",
      "longitude": "-90.04932112617962"
    }
  },
  {
    "service_request": "2024-1072430",
    "request_type": "Roads/Drainage",
    "request_reason": "Pothole",
    "date_created": "2024-03-04T22:07:19.000",
    "date_modified": "2024-03-04T22:07:19.000",
    "request_status": "Pending",
    "responsible_agency": "Department of Public Works",
    "final_address": "5823 Perrier St",
    "address_councildis": "A",
    "status": "Pending",
    "rowid": "1072430",
    "final_x": "3665601.07367",
    "final_y": "520421.208184",
    "longitude": "-90.11864512991228",
    "latitude": "29.92545071542357",
    "geocoded_column": {
      "latitude": "29.92545071542357",
      "longitude": "-90.11864512991228"
    }
  },
  {
    "service_request": "2024-1072429",
    "request_type": "Trash/Recycling",
    "request_reason": "Request a Large Item Pick Up",
    "date_created": "2024-03-04T21:33:37.000",
    "date_modified": "2024-03-04T21:33:38.000",
    "request_status": "Pending",
    "responsible_agency": "Department of Sanitation",
    "final_address": "6556 Harbourview Dr, New Orleans, Louisiana, 70126",
    "address_councildis": "E",
    "status": "Assigned to Contractor",
    "contractor": "Waste Pro",
    "rowid": "1072429",
    "final_x": "3698810.15421",
    "final_y": "555903.606489",
    "longitude": "-90.01252390789719",
    "latitude": "30.022004718655783",
    "geocoded_column": {
      "latitude": "30.022004718655783",
      "longitude": "-90.01252390789719"
    }
  },
  {
    "service_request": "2024-1072428",
    "request_type": "Roads/Drainage",
    "request_reason": "Road Shoulder Repair",
    "date_created": "2024-03-04T21:32:22.000",
    "date_modified": "2024-03-04T21:32:22.000",
    "request_status": "Pending",
    "responsible_agency": "Department of Public Works",
    "final_address": "4422 S Miro St",
    "address_councildis": "B",
    "status": "Pending",
    "rowid": "1072428",
    "final_x": "3669872.42785",
    "final_y": "527745.146431",
    "longitude": "-90.10491389754071",
    "latitude": "29.945463991112028",
    "geocoded_column": {
      "latitude": "29.945463991112028",
      "longitude": "-90.10491389754071"
    }
  },
  {
    "service_request": "2024-1072427",
    "request_type": "Roads/Drainage",
    "request_reason": "Catch Basin - Clogged",
    "date_created": "2024-03-04T21:25:37.000",
    "date_modified": "2024-03-04T21:25:37.000",
    "request_status": "Pending",
    "responsible_agency": "Department of Public Works",
    "final_address": "6018 St Anthony Ave",
    "address_councildis": "D",
    "status": "Pending",
    "rowid": "1072427",
    "final_x": "3681905.93359",
    "final_y": "554879.336472",
    "longitude": "-90.06597270180228",
    "latitude": "30.019713297178537",
    "geocoded_column": {
      "latitude": "30.019713297178537",
      "longitude": "-90.06597270180228"
    }
  },
  {
    "service_request": "2024-1072426",
    "request_type": "Roads/Drainage",
    "request_reason": "Pothole",
    "date_created": "2024-03-04T21:24:34.000",
    "date_modified": "2024-03-04T21:24:34.000",
    "request_status": "Pending",
    "responsible_agency": "Department of Public Works",
    "final_address": "4422 S Miro St",
    "address_councildis": "B",
    "status": "Pending",
    "rowid": "1072426",
    "final_x": "3669872.42785",
    "final_y": "527745.146431",
    "longitude": "-90.10491389754071",
    "latitude": "29.945463991112028",
    "geocoded_column": {
      "latitude": "29.945463991112028",
      "longitude": "-90.10491389754071"
    }
  },
  {
    "service_request": "2024-1072425",
    "request_type": "Roads/Drainage",
    "request_reason": "Catch Basin - Broken/Damage",
    "date_created": "2024-03-04T21:24:29.000",
    "date_modified": "2024-03-04T21:24:29.000",
    "request_status": "Pending",
    "responsible_agency": "Department of Public Works",
    "final_address": "2833 Joseph St",
    "address_councildis": "A",
    "status": "Pending",
    "rowid": "1072425",
    "final_x": "3667847.60045",
    "final_y": "526480.26227",
    "longitude": "-90.11134954274574",
    "latitude": "29.942045501993793",
    "geocoded_column": {
      "latitude": "29.942045501993793",
      "longitude": "-90.11134954274574"
    }
  },
  {
    "service_request": "2024-1072424",
    "request_type": "Roads/Drainage",
    "request_reason": "Road Shoulder Repair",
    "date_created": "2024-03-04T21:21:05.000",
    "date_modified": "2024-03-04T21:21:05.000",
    "request_status": "Pending",
    "responsible_agency": "Department of Public Works",
    "final_address": "4422 S Miro St",
    "address_councildis": "B",
    "status": "Pending",
    "rowid": "1072424",
    "final_x": "3669872.42785",
    "final_y": "527745.146431",
    "longitude": "-90.10491389754071",
    "latitude": "29.945463991112028",
    "geocoded_column": {
      "latitude": "29.945463991112028",
      "longitude": "-90.10491389754071"
    }
  },
  {
    "service_request": "2024-1072423",
    "request_type": "Roads/Drainage",
    "request_reason": "Catch Basin - Broken/Damage",
    "date_created": "2024-03-04T21:17:28.000",
    "date_modified": "2024-03-04T21:17:28.000",
    "request_status": "Pending",
    "responsible_agency": "Department of Public Works",
    "final_address": "4422 S Miro St",
    "address_councildis": "B",
    "status": "Pending",
    "rowid": "1072423",
    "final_x": "3669872.42785",
    "final_y": "527745.146431",
    "longitude": "-90.10491389754071",
    "latitude": "29.945463991112028",
    "geocoded_column": {
      "latitude": "29.945463991112028",
      "longitude": "-90.10491389754071"
    }
  },
  {
    "service_request": "2024-1072422",
    "request_type": "Roads/Drainage",
    "request_reason": "Street Flooding / Drainage",
    "date_created": "2024-03-04T21:05:43.000",
    "date_modified": "2024-03-04T21:05:43.000",
    "request_status": "Pending",
    "responsible_agency": "Department of Public Works",
    "final_address": "758 Germain St",
    "address_councildis": "A",
    "status": "Pending",
    "rowid": "1072422",
    "final_x": "3669150.01505",
    "final_y": "547798.36885",
    "longitude": "-90.10651690485705",
    "latitude": "30.00062489327157",
    "geocoded_column": {
      "latitude": "30.00062489327157",
      "longitude": "-90.10651690485705"
    }
  },
  {
    "service_request": "2024-1072421",
    "request_type": "Trash/Recycling",
    "request_reason": "Request a Large Item Pick Up",
    "date_created": "2024-03-04T21:02:13.000",
    "date_modified": "2024-03-04T21:02:14.000",
    "request_status": "Pending",
    "responsible_agency": "Department of Sanitation",
    "final_address": "7911 Pebble Dr",
    "address_councildis": "E",
    "status": "Assigned to Contractor",
    "contractor": "Waste Pro",
    "rowid": "1072421",
    "final_x": "3714564.47883",
    "final_y": "569874.71575",
    "longitude": "-89.96221656542068",
    "latitude": "30.059910887085007",
    "geocoded_column": {
      "latitude": "30.059910887085007",
      "longitude": "-89.96221656542068"
    }
  },
  {
    "service_request": "2024-1072420",
    "request_type": "Trash/Recycling",
    "request_reason": "Replace Trash Cart",
    "date_created": "2024-03-04T20:56:30.000",
    "date_modified": "2024-03-04T20:56:31.000",
    "request_status": "Pending",
    "responsible_agency": "Department of Sanitation",
    "final_address": "338 Elmira Ave",
    "address_councildis": "C",
    "status": "Assigned to Contractor",
    "contractor": "Richards Disposal",
    "rowid": "1072420",
    "final_x": "3688272.96521",
    "final_y": "530431.684802",
    "longitude": "-90.04672238239118",
    "latitude": "29.952295809200677",
    "geocoded_column": {
      "latitude": "29.952295809200677",
      "longitude": "-90.04672238239118"
    }
  },
  {
    "service_request": "2024-1072419",
    "request_type": "Roads/Drainage",
    "request_reason": "Street Flooding / Drainage",
    "date_created": "2024-03-04T20:48:51.000",
    "date_modified": "2024-03-04T20:48:51.000",
    "request_status": "Pending",
    "responsible_agency": "Department of Public Works",
    "final_address": "821 Tchoupitoulas St",
    "address_councildis": "B",
    "status": "Pending",
    "rowid": "1072419",
    "final_x": "3681533.2982",
    "final_y": "527566.030911",
    "longitude": "-90.06810303881952",
    "latitude": "29.9446225894028",
    "geocoded_column": {
      "latitude": "29.9446225894028",
      "longitude": "-90.06810303881952"
    }
  },
  {
    "service_request": "2024-1072418",
    "request_type": "Trash/Recycling",
    "request_reason": "Replace Trash Cart",
    "date_created": "2024-03-04T20:48:45.000",
    "date_modified": "2024-03-04T20:48:46.000",
    "request_status": "Pending",
    "responsible_agency": "Department of Sanitation",
    "final_address": "221 S Hennessey St",
    "address_councildis": "A",
    "status": "Assigned to Contractor",
    "contractor": "Richards Disposal",
    "rowid": "1072418",
    "final_x": "3669900.09806",
    "final_y": "538490.274569",
    "longitude": "-90.10446269142155",
    "latitude": "29.975008717165426",
    "geocoded_column": {
      "latitude": "29.975008717165426",
      "longitude": "-90.10446269142155"
    }
  },
  {
    "service_request": "2024-1072417",
    "request_type": "Roads/Drainage",
    "request_reason": "Catch Basin - Clogged",
    "date_created": "2024-03-04T20:47:48.000",
    "date_modified": "2024-03-04T20:47:48.000",
    "request_status": "Pending",
    "responsible_agency": "Department of Public Works",
    "final_address": "5804 Tullis Dr",
    "address_councildis": "C",
    "status": "Pending",
    "rowid": "1072417",
    "final_x": "3705426.22366",
    "final_y": "513033.601969",
    "longitude": "-89.99320324190622",
    "latitude": "29.90391641399251",
    "geocoded_column": {
      "latitude": "29.90391641399251",
      "longitude": "-89.99320324190622"
    }
  },
  {
    "service_request": "2024-1072416",
    "request_type": "Roads/Drainage",
    "request_reason": "Catch Basin - Clogged",
    "date_created": "2024-03-04T20:46:13.000",
    "date_modified": "2024-03-04T20:46:13.000",
    "request_status": "Pending",
    "responsible_agency": "Department of Public Works",
    "final_address": "5804 Tullis Dr",
    "address_councildis": "C",
    "status": "Pending",
    "rowid": "1072416",
    "final_x": "3705426.22366",
    "final_y": "513033.601969",
    "longitude": "-89.99320324190622",
    "latitude": "29.90391641399251",
    "geocoded_column": {
      "latitude": "29.90391641399251",
      "longitude": "-89.99320324190622"
    }
  },
  {
    "service_request": "2024-1072415",
    "request_type": "Trash/Recycling",
    "request_reason": "Damaged Caused By Contractor",
    "date_created": "2024-03-04T20:19:57.000",
    "date_modified": "2024-03-04T20:19:57.000",
    "request_status": "Pending",
    "responsible_agency": "Department of Sanitation",
    "final_address": "2611 Palmyra St",
    "address_councildis": "B",
    "status": "Assigned to Contractor",
    "contractor": "Richards Disposal",
    "rowid": "1072415",
    "final_x": "3675256.9691",
    "final_y": "534222.639941",
    "longitude": "-90.08769081566376",
    "latitude": "29.96311511292509",
    "geocoded_column": {
      "latitude": "29.96311511292509",
      "longitude": "-90.08769081566376"
    }
  },
  {
    "service_request": "2024-1072414",
    "request_type": "Trash/Recycling",
    "request_reason": "Damaged Caused By Contractor",
    "date_created": "2024-03-04T20:16:42.000",
    "date_modified": "2024-03-04T20:16:42.000",
    "request_status": "Pending",
    "responsible_agency": "Department of Sanitation",
    "final_address": "2611 Palmyra St",
    "address_councildis": "B",
    "status": "Assigned to Contractor",
    "contractor": "Richards Disposal",
    "rowid": "1072414",
    "final_x": "3675256.9691",
    "final_y": "534222.639941",
    "longitude": "-90.08769081566376",
    "latitude": "29.96311511292509",
    "geocoded_column": {
      "latitude": "29.96311511292509",
      "longitude": "-90.08769081566376"
    }
  },
  {
    "service_request": "2024-1072413",
    "request_type": "Roads/Drainage",
    "request_reason": "Pothole",
    "date_created": "2024-03-04T20:06:04.000",
    "date_modified": "2024-03-04T20:06:04.000",
    "request_status": "Pending",
    "responsible_agency": "Department of Public Works",
    "final_address": "6215 Hurst St",
    "address_councildis": "A",
    "status": "Pending",
    "rowid": "1072413",
    "final_x": "3664668.32039",
    "final_y": "522243.373626",
    "longitude": "-90.12152872358996",
    "latitude": "29.93048825206563",
    "geocoded_column": {
      "latitude": "29.93048825206563",
      "longitude": "-90.12152872358996"
    }
  },
  {
    "service_request": "2024-1072412",
    "request_type": "Roads/Drainage",
    "request_reason": "Pothole",
    "date_created": "2024-03-04T20:03:40.000",
    "date_modified": "2024-03-04T20:03:40.000",
    "request_status": "Pending",
    "responsible_agency": "Department of Public Works",
    "final_address": "1521 Webster St",
    "address_councildis": "A",
    "status": "Pending",
    "rowid": "1072412",
    "final_x": "3665172.71917",
    "final_y": "522143.293626",
    "longitude": "-90.11993975188861",
    "latitude": "29.93019838632039",
    "geocoded_column": {
      "latitude": "29.93019838632039",
      "longitude": "-90.11993975188861"
    }
  },
  {
    "service_request": "2024-1072411",
    "request_type": "Roads/Drainage",
    "request_reason": "Catch Basin - Clogged",
    "date_created": "2024-03-04T19:29:28.000",
    "date_modified": "2024-03-04T19:29:28.000",
    "request_status": "Pending",
    "responsible_agency": "Department of Public Works",
    "final_address": "1310 Frankfort St",
    "address_councildis": "D",
    "status": "Pending",
    "rowid": "1072411",
    "final_x": "3677224.54446",
    "final_y": "555738.027353",
    "longitude": "-90.08073471041706",
    "latitude": "30.022215927533274",
    "geocoded_column": {
      "latitude": "30.022215927533274",
      "longitude": "-90.08073471041706"
    }
  },
  {
    "service_request": "2024-1072410",
    "request_type": "Trash/Recycling",
    "request_reason": "Replace Trash Cart",
    "date_created": "2024-03-04T19:17:42.000",
    "date_modified": "2024-03-04T19:17:42.000",
    "request_status": "Pending",
    "responsible_agency": "Department of Sanitation",
    "final_address": "5911 Winchester Park Dr",
    "address_councildis": "E",
    "status": "Assigned to Contractor",
    "contractor": "Waste Pro",
    "rowid": "1072410",
    "final_x": "3714941.76319",
    "final_y": "562663.922272",
    "longitude": "-89.96129692597374",
    "latitude": "30.0400717302063",
    "geocoded_column": {
      "latitude": "30.0400717302063",
      "longitude": "-89.96129692597374"
    }
  },
  {
    "service_request": "2024-1072409",
    "request_type": "Trash/Recycling",
    "request_reason": "Repair Trash Cart",
    "date_created": "2024-03-04T19:16:35.000",
    "date_modified": "2024-03-04T19:16:36.000",
    "request_status": "Pending",
    "responsible_agency": "Department of Sanitation",
    "final_address": "363 Opal St",
    "address_councildis": "D",
    "status": "Assigned to Contractor",
    "contractor": "IV Waste",
    "rowid": "1072409",
    "final_x": "3667823.45805",
    "final_y": "555214.678233",
    "longitude": "-90.11045756567736",
    "latitude": "30.02105613248447",
    "geocoded_column": {
      "latitude": "30.02105613248447",
      "longitude": "-90.11045756567736"
    }
  },
  {
    "service_request": "2024-1072408",
    "request_type": "Roads/Drainage",
    "request_reason": "Catch Basin - Clogged",
    "date_created": "2024-03-04T19:13:27.000",
    "date_modified": "2024-03-04T19:13:27.000",
    "request_status": "Pending",
    "responsible_agency": "Department of Public Works",
    "final_address": "2506 Acacia St",
    "address_councildis": "D",
    "status": "Pending",
    "rowid": "1072408",
    "final_x": "3686478.04828",
    "final_y": "546252.729808",
    "longitude": "-90.05183118906517",
    "latitude": "29.995853431253412",
    "geocoded_column": {
      "latitude": "29.995853431253412",
      "longitude": "-90.05183118906517"
    }
  },
  {
    "service_request": "2024-1072407",
    "request_type": "Traffic Signals/Signs/Striping/Streetlights",
    "request_reason": "Street Light Outage/Malfunction",
    "date_created": "2024-03-04T18:51:26.000",
    "date_modified": "2024-03-04T18:51:26.000",
    "request_status": "Pending",
    "responsible_agency": "Department of Public Works",
    "final_address": "7230 Sardonyx St",
    "address_councildis": "D",
    "status": "Assigned to Contractor",
    "contractor": "Legacy Professional Services",
    "rowid": "1072407",
    "final_x": "3669493.15822",
    "final_y": "555335.654873",
    "longitude": "-90.10517767540836",
    "latitude": "30.021339672142325",
    "geocoded_column": {
      "latitude": "30.021339672142325",
      "longitude": "-90.10517767540836"
    }
  },
  {
    "service_request": "2024-1072406",
    "request_type": "Roads/Drainage",
    "request_reason": "Street Flooding / Drainage",
    "date_created": "2024-03-04T18:47:47.000",
    "date_modified": "2024-03-04T18:47:47.000",
    "request_status": "Pending",
    "responsible_agency": "Department of Public Works",
    "final_address": "6330 Magazine St",
    "address_councildis": "A",
    "status": "Pending",
    "rowid": "1072406",
    "final_x": "3663203.50087",
    "final_y": "519792.653112",
    "longitude": "-90.12623446110443",
    "latitude": "29.923792054468365",
    "geocoded_column": {
      "latitude": "29.923792054468365",
      "longitude": "-90.12623446110443"
    }
  },
  {
    "service_request": "2024-1072405",
    "request_type": "Trash/Recycling",
    "request_reason": "Order Recycling Cart",
    "date_created": "2024-03-04T18:46:18.000",
    "date_modified": "2024-03-04T18:46:18.000",
    "request_status": "Pending",
    "responsible_agency": "Department of Sanitation",
    "final_address": "7231 Ridgefield Dr",
    "address_councildis": "E",
    "status": "Pending",
    "rowid": "1072405",
    "final_x": "3718839.14834",
    "final_y": "570456.635559",
    "longitude": "-89.94868250354513",
    "latitude": "30.061369586278303",
    "geocoded_column": {
      "latitude": "30.061369586278303",
      "longitude": "-89.94868250354513"
    }
  },
  {
    "service_request": "2024-1072404",
    "request_type": "Trash/Recycling",
    "request_reason": "Replace Trash Cart",
    "date_created": "2024-03-04T18:45:34.000",
    "date_modified": "2024-03-04T18:45:35.000",
    "request_status": "Pending",
    "responsible_agency": "Department of Sanitation",
    "final_address": "7231 Ridgefield Dr",
    "address_councildis": "E",
    "status": "Assigned to Contractor",
    "contractor": "Waste Pro",
    "rowid": "1072404",
    "final_x": "3718839.14834",
    "final_y": "570456.635559",
    "longitude": "-89.94868250354513",
    "latitude": "30.061369586278303",
    "geocoded_column": {
      "latitude": "30.061369586278303",
      "longitude": "-89.94868250354513"
    }
  },
  {
    "service_request": "2024-1072403",
    "request_type": "Trash/Recycling",
    "request_reason": "Request a Large Item Pick Up",
    "date_created": "2024-03-04T18:44:24.000",
    "date_modified": "2024-03-04T18:44:25.000",
    "request_status": "Pending",
    "responsible_agency": "Department of Sanitation",
    "final_address": "7231 Ridgefield Dr",
    "address_councildis": "E",
    "status": "Assigned to Contractor",
    "contractor": "Waste Pro",
    "rowid": "1072403",
    "final_x": "3718839.14834",
    "final_y": "570456.635559",
    "longitude": "-89.94868250354513",
    "latitude": "30.061369586278303",
    "geocoded_column": {
      "latitude": "30.061369586278303",
      "longitude": "-89.94868250354513"
    }
  },
  {
    "service_request": "2024-1072402",
    "request_type": "Roads/Drainage",
    "request_reason": "Catch Basin - Clogged",
    "date_created": "2024-03-04T18:43:18.000",
    "date_modified": "2024-03-04T18:43:18.000",
    "request_status": "Pending",
    "responsible_agency": "Department of Public Works",
    "final_address": "262 Hillary St",
    "address_councildis": "A",
    "status": "Pending",
    "rowid": "1072402",
    "final_x": "3661106.89709",
    "final_y": "524807.891132",
    "longitude": "-90.13268682832036",
    "latitude": "29.937642953491448",
    "geocoded_column": {
      "latitude": "29.937642953491448",
      "longitude": "-90.13268682832036"
    }
  },
  {
    "service_request": "2024-1072401",
    "request_type": "Roads/Drainage",
    "request_reason": "Catch Basin - Clogged",
    "date_created": "2024-03-04T18:27:20.000",
    "date_modified": "2024-03-04T18:27:20.000",
    "request_status": "Pending",
    "responsible_agency": "Department of Public Works",
    "final_address": "1037 Port St",
    "address_councildis": "C",
    "status": "Pending",
    "rowid": "1072401",
    "final_x": "3687415.72175",
    "final_y": "536244.234695",
    "longitude": "-90.04922347445135",
    "latitude": "29.968304749919216",
    "geocoded_column": {
      "latitude": "29.968304749919216",
      "longitude": "-90.04922347445135"
    }
  },
  {
    "service_request": "2024-1072400",
    "request_type": "Roads/Drainage",
    "request_reason": "Street Flooding / Drainage",
    "date_created": "2024-03-04T18:16:20.000",
    "date_modified": "2024-03-04T18:16:20.000",
    "request_status": "Pending",
    "responsible_agency": "Department of Public Works",
    "final_address": "3000 Chippewa St",
    "address_councildis": "B",
    "status": "Pending",
    "rowid": "1072400",
    "final_x": "3677180.2733",
    "final_y": "519068.614519",
    "longitude": "-90.08213979145734",
    "latitude": "29.921388921264676",
    "geocoded_column": {
      "latitude": "29.921388921264676",
      "longitude": "-90.08213979145734"
    }
  },
  {
    "service_request": "2024-1072399",
    "request_type": "Roads/Drainage",
    "request_reason": "Catch Basin - Clogged",
    "date_created": "2024-03-04T17:59:17.000",
    "date_modified": "2024-03-04T17:59:17.000",
    "request_status": "Pending",
    "responsible_agency": "Department of Public Works",
    "final_address": "938 Louisiana Ave",
    "address_councildis": "B",
    "status": "Pending",
    "rowid": "1072399",
    "final_x": "3675137.31925",
    "final_y": "519223.746615",
    "longitude": "-90.08858318908483",
    "latitude": "29.921876666144048",
    "geocoded_column": {
      "latitude": "29.921876666144048",
      "longitude": "-90.08858318908483"
    }
  },
  {
    "service_request": "2024-1072398",
    "request_type": "Property Maintenance",
    "request_reason": "Property Maintenance",
    "date_created": "2024-03-04T17:59:04.000",
    "date_modified": "2024-03-04T17:59:04.000",
    "request_status": "Pending",
    "responsible_agency": "Department of Code Enforcement",
    "final_address": "3365 Belfort St",
    "address_councildis": "A",
    "status": "Pending",
    "rowid": "1072398",
    "final_x": "3677023.03394",
    "final_y": "542610.182733",
    "longitude": "-90.08182449489911",
    "latitude": "29.986125071382386",
    "geocoded_column": {
      "latitude": "29.986125071382386",
      "longitude": "-90.08182449489911"
    }
  },
  {
    "service_request": "2024-1072397",
    "request_type": "Roads/Drainage",
    "request_reason": "Street Flooding / Drainage",
    "date_created": "2024-03-04T17:56:14.000",
    "date_modified": "2024-03-04T17:56:14.000",
    "request_status": "Pending",
    "responsible_agency": "Department of Public Works",
    "final_address": "1414 Euterpe St",
    "address_councildis": "B",
    "status": "Pending",
    "rowid": "1072397",
    "final_x": "3679601.08706",
    "final_y": "524524.895868",
    "longitude": "-90.07430910251854",
    "latitude": "29.936319000922012",
    "geocoded_column": {
      "latitude": "29.936319000922012",
      "longitude": "-90.07430910251854"
    }
  },
  {
    "service_request": "2024-1072396",
    "request_type": "Roads/Drainage",
    "request_reason": "Catch Basin - Clogged",
    "date_created": "2024-03-04T17:54:16.000",
    "date_modified": "2024-03-04T17:54:16.000",
    "request_status": "Pending",
    "responsible_agency": "Department of Public Works",
    "final_address": "6130 Shetland Dr",
    "address_councildis": "C",
    "status": "Pending",
    "rowid": "1072396",
    "final_x": "3705432.81163",
    "final_y": "520143.560312",
    "longitude": "-89.99291995683419",
    "latitude": "29.923466138786033",
    "geocoded_column": {
      "latitude": "29.923466138786033",
      "longitude": "-89.99291995683419"
    }
  },
  {
    "service_request": "2024-1072395",
    "request_type": "Roads/Drainage",
    "request_reason": "Street Flooding / Drainage",
    "date_created": "2024-03-04T17:44:57.000",
    "date_modified": "2024-03-04T17:44:57.000",
    "request_status": "Pending",
    "responsible_agency": "Department of Public Works",
    "final_address": "1351 Tennessee St",
    "address_councildis": "E",
    "status": "Pending",
    "rowid": "1072395",
    "final_x": "3696075.35242",
    "final_y": "535400.052486",
    "longitude": "-90.02190662342059",
    "latitude": "29.96571386505037",
    "geocoded_column": {
      "latitude": "29.96571386505037",
      "longitude": "-90.02190662342059"
    }
  },
  {
    "service_request": "2024-1072394",
    "request_type": "Roads/Drainage",
    "request_reason": "Catch Basin - Clogged",
    "date_created": "2024-03-04T17:39:24.000",
    "date_modified": "2024-03-04T17:39:24.000",
    "request_status": "Pending",
    "responsible_agency": "Department of Public Works",
    "final_address": "400 Delaronde St",
    "address_councildis": "C",
    "status": "Pending",
    "rowid": "1072394",
    "final_x": "3686585.17743",
    "final_y": "531047.213826",
    "longitude": "-90.05202989227968",
    "latitude": "29.954040305181042",
    "geocoded_column": {
      "latitude": "29.954040305181042",
      "longitude": "-90.05202989227968"
    }
  },
  {
    "service_request": "2024-1072393",
    "request_type": "Roads/Drainage",
    "request_reason": "Catch Basin - Clogged",
    "date_created": "2024-03-04T17:32:43.000",
    "date_modified": "2024-03-04T17:32:43.000",
    "request_status": "Pending",
    "responsible_agency": "Department of Public Works",
    "final_address": "1129 Felicity St",
    "address_councildis": "B",
    "status": "Pending",
    "rowid": "1072393",
    "final_x": "3679795.16763",
    "final_y": "523284.015419",
    "longitude": "-90.07373944792091",
    "latitude": "29.93290112383798",
    "geocoded_column": {
      "latitude": "29.93290112383798",
      "longitude": "-90.07373944792091"
    }
  },
  {
    "service_request": "2024-1072392",
    "request_type": "Roads/Drainage",
    "request_reason": "Pothole",
    "date_created": "2024-03-04T17:30:29.000",
    "date_modified": "2024-03-04T17:30:29.000",
    "request_status": "Pending",
    "responsible_agency": "Department of Public Works",
    "final_address": "4216 Chestnut St",
    "address_councildis": "B",
    "status": "Pending",
    "rowid": "1072392",
    "final_x": "3671574.31393",
    "final_y": "519539.203703",
    "longitude": "-90.09981939416457",
    "latitude": "29.922850019854593",
    "geocoded_column": {
      "latitude": "29.922850019854593",
      "longitude": "-90.09981939416457"
    }
  },
  {
    "service_request": "2024-1072391",
    "request_type": "Roads/Drainage",
    "request_reason": "Ditch Issue",
    "date_created": "2024-03-04T17:27:44.000",
    "date_modified": "2024-03-04T17:27:44.000",
    "request_status": "Pending",
    "responsible_agency": "Department of Public Works",
    "final_address": "1521 Richland Rd",
    "address_councildis": "C",
    "status": "Pending",
    "rowid": "1072391",
    "final_x": "3697856.14691",
    "final_y": "525564.373757",
    "longitude": "-90.0166398923209",
    "latitude": "29.93861304671705",
    "geocoded_column": {
      "latitude": "29.93861304671705",
      "longitude": "-90.0166398923209"
    }
  },
  {
    "service_request": "2024-1072390",
    "request_type": "Roads/Drainage",
    "request_reason": "Catch Basin - Broken/Damage",
    "date_created": "2024-03-04T17:21:49.000",
    "date_modified": "2024-03-04T17:21:49.000",
    "request_status": "Pending",
    "responsible_agency": "Department of Public Works",
    "final_address": "415 S White St",
    "address_councildis": "B",
    "status": "Pending",
    "rowid": "1072390",
    "final_x": "3673990.91374",
    "final_y": "534409.835077",
    "longitude": "-90.09168246841519",
    "latitude": "29.963667620292068",
    "geocoded_column": {
      "latitude": "29.963667620292068",
      "longitude": "-90.09168246841519"
    }
  },
  {
    "service_request": "2024-1072389",
    "request_type": "Roads/Drainage",
    "request_reason": "Catch Basin - Clogged",
    "date_created": "2024-03-04T17:16:45.000",
    "date_modified": "2024-03-04T17:16:45.000",
    "request_status": "Pending",
    "responsible_agency": "Department of Public Works",
    "final_address": "7907 Fig St",
    "address_councildis": "B",
    "status": "Pending",
    "rowid": "1072389",
    "final_x": "3666867.48634",
    "final_y": "532716.5609",
    "longitude": "-90.11423450263712",
    "latitude": "29.95922199942853",
    "geocoded_column": {
      "latitude": "29.95922199942853",
      "longitude": "-90.11423450263712"
    }
  },
  {
    "service_request": "2024-1072388",
    "request_type": "Roads/Drainage",
    "request_reason": "Street Flooding / Drainage",
    "date_created": "2024-03-04T17:14:11.000",
    "date_modified": "2024-03-04T17:14:11.000",
    "request_status": "Pending",
    "responsible_agency": "Department of Public Works",
    "final_address": "1144 Melpomene St",
    "address_councildis": "B",
    "status": "Pending",
    "rowid": "1072388",
    "final_x": "3680131.77967",
    "final_y": "524932.408444",
    "longitude": "-90.07261953369235",
    "latitude": "29.937423481282675",
    "geocoded_column": {
      "latitude": "29.937423481282675",
      "longitude": "-90.07261953369235"
    }
  },
  {
    "service_request": "2024-1072387",
    "request_type": "Roads/Drainage",
    "request_reason": "Road Shoulder Repair",
    "date_created": "2024-03-04T17:14:06.000",
    "date_modified": "2024-03-04T17:14:06.000",
    "request_status": "Pending",
    "responsible_agency": "Department of Public Works",
    "final_address": "7907 Fig St",
    "address_councildis": "B",
    "status": "Pending",
    "rowid": "1072387",
    "final_x": "3666867.48634",
    "final_y": "532716.5609",
    "longitude": "-90.11423450263712",
    "latitude": "29.95922199942853",
    "geocoded_column": {
      "latitude": "29.95922199942853",
      "longitude": "-90.11423450263712"
    }
  },
  {
    "service_request": "2024-1072386",
    "request_type": "Roads/Drainage",
    "request_reason": "Street Flooding / Drainage",
    "date_created": "2024-03-04T17:10:29.000",
    "date_modified": "2024-03-04T17:10:29.000",
    "request_status": "Pending",
    "responsible_agency": "Department of Public Works",
    "final_address": "237 S Solomon St",
    "address_councildis": "A",
    "status": "Pending",
    "rowid": "1072386",
    "final_x": "3670112.28391",
    "final_y": "538174.774601",
    "longitude": "-90.10380324413991",
    "latitude": "29.974134939759843",
    "geocoded_column": {
      "latitude": "29.974134939759843",
      "longitude": "-90.10380324413991"
    }
  },
  {
    "service_request": "2024-1072385",
    "request_type": "Roads/Drainage",
    "request_reason": "Man hole cover issue",
    "date_created": "2024-03-04T17:10:03.000",
    "date_modified": "2024-03-04T17:10:03.000",
    "request_status": "Pending",
    "responsible_agency": "Department of Public Works",
    "final_address": "0 BLK Saint Claude Ct",
    "address_councildis": "E",
    "status": "Pending",
    "rowid": "1072385",
    "final_x": "3697482.96917",
    "final_y": "533663.47544",
    "longitude": "-90.01752442169504",
    "latitude": "29.9608945230418",
    "geocoded_column": {
      "latitude": "29.9608945230418",
      "longitude": "-90.01752442169504"
    }
  },
  {
    "service_request": "2024-1072384",
    "request_type": "Traffic Signals/Signs/Striping/Streetlights",
    "request_reason": "Traffic Signal Malfunctioning/Damaged",
    "date_created": "2024-03-04T17:09:27.000",
    "date_modified": "2024-03-04T17:09:27.000",
    "request_status": "Pending",
    "responsible_agency": "Department of Public Works",
    "final_address": "1000 BLK L. B. Landry Ave",
    "address_councildis": "C",
    "status": "Pending",
    "rowid": "1072384",
    "final_x": "3690132.96484",
    "final_y": "527664.599314",
    "longitude": "-90.04094792720348",
    "latitude": "29.94462971721497",
    "geocoded_column": {
      "latitude": "29.94462971721497",
      "longitude": "-90.04094792720348"
    }
  },
  {
    "service_request": "2024-1072383",
    "request_type": "Roads/Drainage",
    "request_reason": "Catch Basin - Clogged",
    "date_created": "2024-03-04T17:08:48.000",
    "date_modified": "2024-03-04T17:08:48.000",
    "request_status": "Pending",
    "responsible_agency": "Department of Public Works",
    "final_address": "1334 Webster St",
    "address_councildis": "A",
    "status": "Pending",
    "rowid": "1072383",
    "final_x": "3664767.56442",
    "final_y": "521309.891897",
    "longitude": "-90.12124659621084",
    "latitude": "29.927918585551943",
    "geocoded_column": {
      "latitude": "29.927918585551943",
      "longitude": "-90.12124659621084"
    }
  },
  {
    "service_request": "2024-1072382",
    "request_type": "Roads/Drainage",
    "request_reason": "Street Flooding / Drainage",
    "date_created": "2024-03-04T17:07:54.000",
    "date_modified": "2024-03-04T17:07:54.000",
    "request_status": "Pending",
    "responsible_agency": "Department of Public Works",
    "final_address": "6322 Annunciation St",
    "address_councildis": "A",
    "status": "Pending",
    "rowid": "1072382",
    "final_x": "3662747.02067",
    "final_y": "518436.343606",
    "longitude": "-90.12772045766836",
    "latitude": "29.920075840539106",
    "geocoded_column": {
      "latitude": "29.920075840539106",
      "longitude": "-90.12772045766836"
    }
  },
  {
    "service_request": "2024-1072381",
    "request_type": "Traffic Signals/Signs/Striping/Streetlights",
    "request_reason": "Road Surface Marking Maintenance-Traffic Control",
    "date_created": "2024-03-04T17:04:36.000",
    "date_modified": "2024-03-04T17:04:36.000",
    "request_status": "Pending",
    "responsible_agency": "Department of Public Works",
    "final_address": "1845 Gentilly Blvd",
    "address_councildis": "A",
    "status": "Pending",
    "rowid": "1072381",
    "final_x": "3678743.8779",
    "final_y": "542726.945677",
    "longitude": "-90.07638497461441",
    "latitude": "29.986394335749132",
    "geocoded_column": {
      "latitude": "29.986394335749132",
      "longitude": "-90.07638497461441"
    }
  },
  {
    "service_request": "2024-1072380",
    "request_type": "Roads/Drainage",
    "request_reason": "Street Flooding / Drainage",
    "date_created": "2024-03-04T17:03:34.000",
    "date_modified": "2024-03-04T17:03:34.000",
    "request_status": "Pending",
    "responsible_agency": "Department of Public Works",
    "final_address": "533 Third St",
    "address_councildis": "B",
    "status": "Pending",
    "rowid": "1072380",
    "final_x": "3678707.83106",
    "final_y": "519546.092471",
    "longitude": "-90.07730144004744",
    "latitude": "29.922655877572755",
    "geocoded_column": {
      "latitude": "29.922655877572755",
      "longitude": "-90.07730144004744"
    }
  },
  {
    "service_request": "2024-1072379",
    "request_type": "Roads/Drainage",
    "request_reason": "Street Flooding / Drainage",
    "date_created": "2024-03-04T16:59:54.000",
    "date_modified": "2024-03-04T16:59:54.000",
    "request_status": "Pending",
    "responsible_agency": "Department of Public Works",
    "final_address": "1334 Henry Clay Ave",
    "address_councildis": "A",
    "status": "Pending",
    "rowid": "1072379",
    "final_x": "3664463.52551",
    "final_y": "521447.226105",
    "longitude": "-90.12220179822322",
    "latitude": "29.928305051290806",
    "geocoded_column": {
      "latitude": "29.928305051290806",
      "longitude": "-90.12220179822322"
    }
  },
  {
    "service_request": "2024-1072378",
    "request_type": "Roads/Drainage",
    "request_reason": "Street Flooding / Drainage",
    "date_created": "2024-03-04T16:57:21.000",
    "date_modified": "2024-03-04T16:57:21.000",
    "request_status": "Pending",
    "responsible_agency": "Department of Public Works",
    "final_address": "1205 St Charles Ave",
    "address_councildis": "B",
    "status": "Pending",
    "rowid": "1072378",
    "final_x": "3679654.76706",
    "final_y": "526356.192382",
    "longitude": "-90.07407609579455",
    "latitude": "29.94135283774421",
    "geocoded_column": {
      "latitude": "29.94135283774421",
      "longitude": "-90.07407609579455"
    }
  },
  {
    "service_request": "2024-1072377",
    "request_type": "Roads/Drainage",
    "request_reason": "Catch Basin - Clogged",
    "date_created": "2024-03-04T16:56:52.000",
    "date_modified": "2024-03-04T16:56:52.000",
    "request_status": "Pending",
    "responsible_agency": "Department of Public Works",
    "final_address": "1529 Washington Ave",
    "address_councildis": "B",
    "status": "Pending",
    "rowid": "1072377",
    "final_x": "3676183.61697",
    "final_y": "522366.381562",
    "longitude": "-90.08517240932856",
    "latitude": "29.93048660000922",
    "geocoded_column": {
      "latitude": "29.93048660000922",
      "longitude": "-90.08517240932856"
    }
  },
  {
    "service_request": "2024-1072376",
    "request_type": "Roads/Drainage",
    "request_reason": "Street Flooding / Drainage",
    "date_created": "2024-03-04T16:55:43.000",
    "date_modified": "2024-03-04T16:55:43.000",
    "request_status": "Pending",
    "responsible_agency": "Department of Public Works",
    "final_address": "7809 Belfast St",
    "address_councildis": "A",
    "status": "Pending",
    "rowid": "1072376",
    "final_x": "3666394.26554",
    "final_y": "531690.781315",
    "longitude": "-90.11576324441425",
    "latitude": "29.956415277000694",
    "geocoded_column": {
      "latitude": "29.956415277000694",
      "longitude": "-90.11576324441425"
    }
  },
  {
    "service_request": "2024-1072375",
    "request_type": "Traffic Signals/Signs/Striping/Streetlights",
    "request_reason": "Street Light Outage/Malfunction",
    "date_created": "2024-03-04T16:48:10.000",
    "date_modified": "2024-03-04T16:48:10.000",
    "request_status": "Pending",
    "responsible_agency": "Department of Public Works",
    "final_address": "3419 Cecil St",
    "address_councildis": "A",
    "status": "Assigned to Contractor",
    "contractor": "Legacy Professional Services",
    "rowid": "1072375",
    "final_x": "3663409.90061",
    "final_y": "537859.402505",
    "longitude": "-90.12498151357289",
    "latitude": "29.973463821768803",
    "geocoded_column": {
      "latitude": "29.973463821768803",
      "longitude": "-90.12498151357289"
    }
  },
  {
    "service_request": "2024-1072374",
    "request_type": "Roads/Drainage",
    "request_reason": "Catch Basin - Clogged",
    "date_created": "2024-03-04T16:47:40.000",
    "date_modified": "2024-03-04T16:47:40.000",
    "request_status": "Pending",
    "responsible_agency": "Department of Public Works",
    "final_address": "436 S Gayoso St",
    "address_councildis": "B",
    "status": "Pending",
    "rowid": "1072374",
    "final_x": "3673433.09844",
    "final_y": "534604.912517",
    "longitude": "-90.09343732954409",
    "latitude": "29.964220626513818",
    "geocoded_column": {
      "latitude": "29.964220626513818",
      "longitude": "-90.09343732954409"
    }
  },
  {
    "service_request": "2024-1072373",
    "request_type": "Trash/Recycling",
    "request_reason": "Request a Large Item Pick Up",
    "date_created": "2024-03-04T16:45:43.000",
    "date_modified": "2024-03-04T16:45:43.000",
    "request_status": "Pending",
    "responsible_agency": "Department of Sanitation",
    "final_address": "18 Crane St",
    "address_councildis": "D",
    "status": "Assigned to Contractor",
    "contractor": "IV Waste",
    "rowid": "1072373",
    "final_x": "3673288.82964",
    "final_y": "554712.659544",
    "longitude": "-90.09320568217507",
    "latitude": "30.019514247600625",
    "geocoded_column": {
      "latitude": "30.019514247600625",
      "longitude": "-90.09320568217507"
    }
  },
  {
    "service_request": "2024-1072372",
    "request_type": "Roads/Drainage",
    "request_reason": "Catch Basin - Broken/Damage",
    "date_created": "2024-03-04T16:43:27.000",
    "date_modified": "2024-03-04T16:43:27.000",
    "request_status": "Pending",
    "responsible_agency": "Department of Public Works",
    "final_address": "1935 Valence St",
    "address_councildis": "B",
    "status": "Pending",
    "rowid": "1072372",
    "final_x": "3669656.69108",
    "final_y": "522110.792122",
    "longitude": "-90.10578563023937",
    "latitude": "29.929977692493143",
    "geocoded_column": {
      "latitude": "29.929977692493143",
      "longitude": "-90.10578563023937"
    }
  },
  {
    "service_request": "2024-1072371",
    "request_type": "Trash/Recycling",
    "request_reason": "Missed Trash Pick-Up",
    "date_created": "2024-03-04T16:41:54.000",
    "date_modified": "2024-03-04T16:41:55.000",
    "request_status": "Pending",
    "responsible_agency": "Department of Sanitation",
    "final_address": "7221 Mayo Rd",
    "address_councildis": "E",
    "status": "Assigned to Contractor",
    "contractor": "Waste Pro",
    "rowid": "1072371",
    "final_x": "3701352.9034",
    "final_y": "559598.880413",
    "longitude": "-90.0043540996898",
    "latitude": "30.032084459262208",
    "geocoded_column": {
      "latitude": "30.032084459262208",
      "longitude": "-90.0043540996898"
    }
  },
  {
    "service_request": "2024-1072370",
    "request_type": "Trash/Recycling",
    "request_reason": "Replace Trash Cart",
    "date_created": "2024-03-04T16:39:21.000",
    "date_modified": "2024-03-04T16:39:22.000",
    "request_status": "Pending",
    "responsible_agency": "Department of Sanitation",
    "final_address": "2262 N Prieur St",
    "address_councildis": "D",
    "status": "Assigned to Contractor",
    "contractor": "IV Waste",
    "rowid": "1072370",
    "final_x": "3685417.42997",
    "final_y": "539269.617482",
    "longitude": "-90.05542760347623",
    "latitude": "29.976684921872284",
    "geocoded_column": {
      "latitude": "29.976684921872284",
      "longitude": "-90.05542760347623"
    }
  },
  {
    "service_request": "2024-1072369",
    "request_type": "Trash/Recycling",
    "request_reason": "Missed Trash Pick-Up",
    "date_created": "2024-03-04T16:37:03.000",
    "date_modified": "2024-03-04T16:37:04.000",
    "request_status": "Pending",
    "responsible_agency": "Department of Sanitation",
    "final_address": "7721 Spruce St",
    "address_councildis": "A",
    "status": "Assigned to Contractor",
    "contractor": "Richards Disposal",
    "rowid": "1072369",
    "final_x": "3664802.64589",
    "final_y": "529635.172225",
    "longitude": "-90.12085775814072",
    "latitude": "29.950809427330256",
    "geocoded_column": {
      "latitude": "29.950809427330256",
      "longitude": "-90.12085775814072"
    }
  },
  {
    "service_request": "2024-1072368",
    "request_type": "Roads/Drainage",
    "request_reason": "Pothole",
    "date_created": "2024-03-04T16:28:25.000",
    "date_modified": "2024-03-04T16:28:25.000",
    "request_status": "Pending",
    "responsible_agency": "Department of Public Works",
    "final_address": "329 Pelican Ave",
    "address_councildis": "C",
    "status": "Pending",
    "rowid": "1072368",
    "final_x": "3686413.57097",
    "final_y": "530370.620738",
    "longitude": "-90.05259563377882",
    "latitude": "29.9521851811127",
    "geocoded_column": {
      "latitude": "29.9521851811127",
      "longitude": "-90.05259563377882"
    }
  },
  {
    "service_request": "2024-1072367",
    "request_type": "Abandoned Vehicles",
    "request_reason": "Abandoned/Junk Vehicles",
    "date_created": "2024-03-04T16:21:56.000",
    "date_modified": "2024-03-04T16:23:56.000",
    "request_status": "Pending",
    "responsible_agency": "Department of Public Works",
    "final_address": "2547 Agriculture St",
    "address_councildis": "D",
    "rowid": "1072367",
    "final_x": "3687089.4854",
    "final_y": "543545.413902",
    "longitude": "-90.04999549851873",
    "latitude": "29.98839046578288",
    "geocoded_column": {
      "latitude": "29.98839046578288",
      "longitude": "-90.04999549851873"
    }
  },
  {
    "service_request": "2024-1072366",
    "request_type": "Abandoned Vehicles",
    "request_reason": "Abandoned/Junk Vehicles",
    "date_created": "2024-03-04T16:20:58.000",
    "date_modified": "2024-03-04T16:20:58.000",
    "request_status": "Pending",
    "responsible_agency": "Department of Public Works",
    "final_address": "3155 N Villere St",
    "address_councildis": "C",
    "status": "Pending",
    "rowid": "1072366",
    "final_x": "3689754.18921",
    "final_y": "537024.44884",
    "longitude": "-90.04181074015555",
    "latitude": "29.97037779852177",
    "geocoded_column": {
      "latitude": "29.97037779852177",
      "longitude": "-90.04181074015555"
    }
  },
  {
    "service_request": "2024-1072365",
    "request_type": "Abandoned Vehicles",
    "request_reason": "Abandoned/Junk Vehicles",
    "date_created": "2024-03-04T16:18:32.000",
    "date_modified": "2024-03-04T16:18:32.000",
    "request_status": "Pending",
    "responsible_agency": "Department of Public Works",
    "final_address": "1440 Desire St",
    "address_councildis": "C",
    "status": "Pending",
    "rowid": "1072365",
    "final_x": "3690503.00476",
    "final_y": "537140.763784",
    "longitude": "-90.0394417578629",
    "latitude": "29.97067439473559",
    "geocoded_column": {
      "latitude": "29.97067439473559",
      "longitude": "-90.0394417578629"
    }
  },
  {
    "service_request": "2024-1072364",
    "request_type": "Abandoned Vehicles",
    "request_reason": "Abandoned/Junk Vehicles",
    "date_created": "2024-03-04T16:16:01.000",
    "date_modified": "2024-03-04T16:16:01.000",
    "request_status": "Pending",
    "responsible_agency": "Department of Public Works",
    "final_address": "1413 Piety St",
    "address_councildis": "C",
    "status": "Pending",
    "rowid": "1072364",
    "final_x": "3690174.551",
    "final_y": "537012.122632",
    "longitude": "-90.04048363470818",
    "latitude": "29.970330871053754",
    "geocoded_column": {
      "latitude": "29.970330871053754",
      "longitude": "-90.04048363470818"
    }
  },
  {
    "service_request": "2024-1072363",
    "request_type": "Trash/Recycling",
    "request_reason": "Missed Trash Pick-Up",
    "date_created": "2024-03-04T16:15:25.000",
    "date_modified": "2024-03-04T16:15:26.000",
    "request_status": "Pending",
    "responsible_agency": "Department of Sanitation",
    "final_address": "2522 Robert St, New Orleans, Louisiana, 70115",
    "address_councildis": "B",
    "status": "Assigned to Contractor",
    "contractor": "Richards Disposal",
    "rowid": "1072363",
    "final_x": "3668786.22932",
    "final_y": "524798.268092",
    "longitude": "-90.10844284875186",
    "latitude": "29.937393003080626",
    "geocoded_column": {
      "latitude": "29.937393003080626",
      "longitude": "-90.10844284875186"
    }
  },
  {
    "service_request": "2024-1072362",
    "request_type": "Trash/Recycling",
    "request_reason": "Dead Animal Pick Up",
    "date_created": "2024-03-04T16:12:25.000",
    "date_modified": "2024-03-04T16:12:25.000",
    "request_status": "Pending",
    "responsible_agency": "Department of Sanitation",
    "final_address": "2610 Marr Ave",
    "address_councildis": "C",
    "status": "Assigned to Contractor",
    "contractor": "Richards Disposal",
    "rowid": "1072362",
    "final_x": "3691476.30569",
    "final_y": "520929.061497",
    "longitude": "-90.03694721913324",
    "latitude": "29.926067548447207",
    "geocoded_column": {
      "latitude": "29.926067548447207",
      "longitude": "-90.03694721913324"
    }
  },
  {
    "service_request": "2024-1072361",
    "request_type": "Abandoned Vehicles",
    "request_reason": "Abandoned/Junk Vehicles",
    "date_created": "2024-03-04T16:09:44.000",
    "date_modified": "2024-03-04T16:09:44.000",
    "request_status": "Pending",
    "responsible_agency": "Department of Public Works",
    "final_address": "1413 Piety St",
    "address_councildis": "C",
    "status": "Pending",
    "rowid": "1072361",
    "final_x": "3690174.551",
    "final_y": "537012.122632",
    "longitude": "-90.04048363470818",
    "latitude": "29.970330871053754",
    "geocoded_column": {
      "latitude": "29.970330871053754",
      "longitude": "-90.04048363470818"
    }
  },
  {
    "service_request": "2024-1072360",
    "request_type": "Abandoned Vehicles",
    "request_reason": "Abandoned/Junk Vehicles",
    "date_created": "2024-03-04T16:09:24.000",
    "date_modified": "2024-03-04T16:09:24.000",
    "request_status": "Pending",
    "responsible_agency": "Department of Public Works",
    "final_address": "6103 Franklin Ave",
    "address_councildis": "D",
    "status": "Pending",
    "rowid": "1072360",
    "final_x": "3686473.08604",
    "final_y": "555604.545625",
    "longitude": "-90.05151639151265",
    "latitude": "30.021567665037995",
    "geocoded_column": {
      "latitude": "30.021567665037995",
      "longitude": "-90.05151639151265"
    }
  },
  {
    "service_request": "2024-1072359",
    "request_type": "Traffic Signals/Signs/Striping/Streetlights",
    "request_reason": "Street Light Outage/Malfunction",
    "date_created": "2024-03-04T16:05:43.000",
    "date_modified": "2024-03-04T16:05:44.000",
    "request_status": "Pending",
    "responsible_agency": "Department of Public Works",
    "final_address": "1427 St Mary St",
    "address_councildis": "B",
    "status": "Assigned to Contractor",
    "contractor": "Legacy Professional Services",
    "rowid": "1072359",
    "final_x": "3678984.6484",
    "final_y": "523767.974395",
    "longitude": "-90.07628143555137",
    "latitude": "29.934256326135813",
    "geocoded_column": {
      "latitude": "29.934256326135813",
      "longitude": "-90.07628143555137"
    }
  },
  {
    "service_request": "2024-1072358",
    "request_type": "Abandoned Vehicles",
    "request_reason": "Abandoned/Junk Vehicles",
    "date_created": "2024-03-04T16:04:46.000",
    "date_modified": "2024-03-04T16:04:46.000",
    "request_status": "Pending",
    "responsible_agency": "Department of Public Works",
    "final_address": "1432 Louisa St",
    "address_councildis": "C",
    "status": "Pending",
    "rowid": "1072358",
    "final_x": "3689883.83017",
    "final_y": "537248.531208",
    "longitude": "-90.04139334189423",
    "latitude": "29.970989927608912",
    "geocoded_column": {
      "latitude": "29.970989927608912",
      "longitude": "-90.04139334189423"
    }
  },
  {
    "service_request": "2024-1072357",
    "request_type": "Roads/Drainage",
    "request_reason": "Catch Basin - Clogged",
    "date_created": "2024-03-04T16:02:48.000",
    "date_modified": "2024-03-04T16:02:48.000",
    "request_status": "Pending",
    "responsible_agency": "Department of Public Works",
    "final_address": "6065 Magazine St",
    "address_councildis": "A",
    "status": "Pending",
    "rowid": "1072357",
    "final_x": "3664206.7961",
    "final_y": "519444.139447",
    "longitude": "-90.12307902784971",
    "latitude": "29.92280465059745",
    "geocoded_column": {
      "latitude": "29.92280465059745",
      "longitude": "-90.12307902784971"
    }
  },
  {
    "service_request": "2024-1072356",
    "request_type": "Roads/Drainage",
    "request_reason": "Catch Basin - Clogged",
    "date_created": "2024-03-04T16:02:29.000",
    "date_modified": "2024-03-04T16:02:29.000",
    "request_status": "Pending",
    "responsible_agency": "Department of Public Works",
    "final_address": "6065 Magazine St",
    "address_councildis": "A",
    "status": "Pending",
    "rowid": "1072356",
    "final_x": "3664206.7961",
    "final_y": "519444.139447",
    "longitude": "-90.12307902784971",
    "latitude": "29.92280465059745",
    "geocoded_column": {
      "latitude": "29.92280465059745",
      "longitude": "-90.12307902784971"
    }
  },
  {
    "service_request": "2024-1072355",
    "request_type": "Traffic Signals/Signs/Striping/Streetlights",
    "request_reason": "Traffic Signal Malfunctioning/Damaged",
    "date_created": "2024-03-04T16:01:52.000",
    "date_modified": "2024-03-04T16:01:52.000",
    "request_status": "Pending",
    "responsible_agency": "Department of Public Works",
    "final_address": "5005 Magazine St",
    "address_councildis": "B",
    "status": "Pending",
    "rowid": "1072355",
    "final_x": "3668551.25274",
    "final_y": "518642.795063",
    "longitude": "-90.109392266338",
    "latitude": "29.920474317846136",
    "geocoded_column": {
      "latitude": "29.920474317846136",
      "longitude": "-90.109392266338"
    }
  },
  {
    "service_request": "2024-1072354",
    "request_type": "Trash/Recycling",
    "request_reason": "Missed Trash Pick-Up",
    "date_created": "2024-03-04T15:59:37.000",
    "date_modified": "2024-03-04T15:59:37.000",
    "request_status": "Pending",
    "responsible_agency": "Department of Sanitation",
    "final_address": "3116 Erato St",
    "address_councildis": "B",
    "status": "Assigned to Contractor",
    "contractor": "Richards Disposal",
    "rowid": "1072354",
    "final_x": "3674967.11419",
    "final_y": "528879.972864",
    "longitude": "-90.08878939254114",
    "latitude": "29.94843322274252",
    "geocoded_column": {
      "latitude": "29.94843322274252",
      "longitude": "-90.08878939254114"
    }
  },
  {
    "service_request": "2024-1072353",
    "request_type": "Trash/Recycling",
    "request_reason": "Request a Large Item Pick Up",
    "date_created": "2024-03-04T15:58:47.000",
    "date_modified": "2024-03-04T15:58:48.000",
    "request_status": "Pending",
    "responsible_agency": "Department of Sanitation",
    "final_address": "7619 Oak St",
    "address_councildis": "A",
    "status": "Assigned to Contractor",
    "contractor": "Richards Disposal",
    "rowid": "1072353",
    "final_x": "3663211.76653",
    "final_y": "527292.183615",
    "longitude": "-90.12595892290929",
    "latitude": "29.94441315299879",
    "geocoded_column": {
      "latitude": "29.94441315299879",
      "longitude": "-90.12595892290929"
    }
  },
  {
    "service_request": "2024-1072352",
    "request_type": "Trash/Recycling",
    "request_reason": "Request a Large Item Pick Up",
    "date_created": "2024-03-04T15:57:51.000",
    "date_modified": "2024-03-04T15:57:51.000",
    "request_status": "Pending",
    "responsible_agency": "Department of Sanitation",
    "final_address": "1125 Adams St",
    "address_councildis": "A",
    "status": "Assigned to Contractor",
    "contractor": "Richards Disposal",
    "rowid": "1072352",
    "final_x": "3662998.35571",
    "final_y": "527249.999999",
    "longitude": "-90.12663412843888",
    "latitude": "29.944303343042236",
    "geocoded_column": {
      "latitude": "29.944303343042236",
      "longitude": "-90.12663412843888"
    }
  },
  {
    "service_request": "2024-1072351",
    "request_type": "Trash/Recycling",
    "request_reason": "Repair Trash Cart",
    "date_created": "2024-03-04T15:57:18.000",
    "date_modified": "2024-03-04T15:57:19.000",
    "request_status": "Pending",
    "responsible_agency": "Department of Sanitation",
    "final_address": "4634 Cardenas Dr",
    "address_councildis": "E",
    "status": "Assigned to Contractor",
    "contractor": "Waste Pro",
    "rowid": "1072351",
    "final_x": "3713669.5909",
    "final_y": "555787.044185",
    "longitude": "-89.9655767726711",
    "latitude": "30.021204878401424",
    "geocoded_column": {
      "latitude": "30.021204878401424",
      "longitude": "-89.9655767726711"
    }
  },
  {
    "service_request": "2024-1072350",
    "request_type": "Traffic Signals/Signs/Striping/Streetlights",
    "request_reason": "Street Light Outage/Malfunction",
    "date_created": "2024-03-04T15:57:14.000",
    "date_modified": "2024-03-04T15:57:15.000",
    "request_status": "Pending",
    "responsible_agency": "Department of Public Works",
    "final_address": "6660 Curran Rd",
    "address_councildis": "E",
    "status": "Assigned to Contractor",
    "contractor": "Legacy Professional Services",
    "rowid": "1072350",
    "final_x": "3697741.30992",
    "final_y": "559861.733789",
    "longitude": "-90.01575735346528",
    "latitude": "30.032921887471993",
    "geocoded_column": {
      "latitude": "30.032921887471993",
      "longitude": "-90.01575735346528"
    }
  },
  {
    "service_request": "2024-1072349",
    "request_type": "Trash/Recycling",
    "request_reason": "Request a Large Item Pick Up",
    "date_created": "2024-03-04T15:51:35.000",
    "date_modified": "2024-03-04T15:51:36.000",
    "request_status": "Pending",
    "responsible_agency": "Department of Sanitation",
    "final_address": "4834 Dale St",
    "address_councildis": "E",
    "status": "Assigned to Contractor",
    "contractor": "Waste Pro",
    "rowid": "1072349",
    "final_x": "3699347.45956",
    "final_y": "554976.000472",
    "longitude": "-90.01085999832395",
    "latitude": "30.019437114849616",
    "geocoded_column": {
      "latitude": "30.019437114849616",
      "longitude": "-90.01085999832395"
    }
  },
  {
    "service_request": "2024-1072348",
    "request_type": "Trash/Recycling",
    "request_reason": "Repair Trash Cart",
    "date_created": "2024-03-04T15:50:26.000",
    "date_modified": "2024-03-04T15:50:27.000",
    "request_status": "Pending",
    "responsible_agency": "Department of Sanitation",
    "final_address": "5242 Revel St",
    "address_councildis": "E",
    "status": "Assigned to Contractor",
    "contractor": "Waste Pro",
    "rowid": "1072348",
    "final_x": "3725035.09228",
    "final_y": "562747.269152",
    "longitude": "-89.9293960345029",
    "latitude": "30.039964723379747",
    "geocoded_column": {
      "latitude": "30.039964723379747",
      "longitude": "-89.9293960345029"
    }
  },
  {
    "service_request": "2024-1072347",
    "request_type": "Trash/Recycling",
    "request_reason": "Request a Large Item Pick Up",
    "date_created": "2024-03-04T15:45:54.000",
    "date_modified": "2024-03-04T15:45:54.000",
    "request_status": "Pending",
    "responsible_agency": "Department of Sanitation",
    "final_address": "7925 Danube Rd",
    "address_councildis": "E",
    "status": "Assigned to Contractor",
    "contractor": "Waste Pro",
    "rowid": "1072347",
    "final_x": "3699107.39114",
    "final_y": "561162.620318",
    "longitude": "-90.01139301126035",
    "latitude": "30.036455559216094",
    "geocoded_column": {
      "latitude": "30.036455559216094",
      "longitude": "-90.01139301126035"
    }
  },
  {
    "service_request": "2024-1072346",
    "request_type": "Trash/Recycling",
    "request_reason": "Request a Large Item Pick Up",
    "date_created": "2024-03-04T15:44:31.000",
    "date_modified": "2024-03-04T15:44:32.000",
    "request_status": "Pending",
    "responsible_agency": "Department of Sanitation",
    "final_address": "8020 Gus St",
    "address_councildis": "E",
    "status": "Assigned to Contractor",
    "contractor": "Waste Pro",
    "rowid": "1072346",
    "final_x": "3703327.99025",
    "final_y": "563117.44816",
    "longitude": "-89.99798316550617",
    "latitude": "30.04169600653229",
    "geocoded_column": {
      "latitude": "30.04169600653229",
      "longitude": "-89.99798316550617"
    }
  },
  {
    "service_request": "2024-1072344",
    "request_type": "Traffic Signals/Signs/Striping/Streetlights",
    "request_reason": "Traffic Sign Missing/Damaged",
    "date_created": "2024-03-04T15:41:54.000",
    "date_modified": "2024-03-04T15:41:54.000",
    "request_status": "Pending",
    "responsible_agency": "Department of Public Works",
    "final_address": "DUFOSSAT ST & PRYTANIA ST",
    "address_councildis": "B",
    "status": "Pending",
    "rowid": "1072344",
    "final_x": "3668093.7",
    "final_y": "520164.38",
    "longitude": "-90.11078530639742",
    "latitude": "29.92467162659313",
    "geocoded_column": {
      "latitude": "29.92467162659313",
      "longitude": "-90.11078530639742"
    }
  },
  {
    "service_request": "2024-1072343",
    "request_type": "Roads/Drainage",
    "request_reason": "Catch Basin - Broken/Damage",
    "date_created": "2024-03-04T15:39:57.000",
    "date_modified": "2024-03-04T15:39:57.000",
    "request_status": "Pending",
    "responsible_agency": "Department of Public Works",
    "final_address": "1731 N Rampart St",
    "address_councildis": "C",
    "status": "Pending",
    "rowid": "1072343",
    "final_x": "3683427.06473",
    "final_y": "535845.258183",
    "longitude": "-90.06183379927654",
    "latitude": "29.967330008364662",
    "geocoded_column": {
      "latitude": "29.967330008364662",
      "longitude": "-90.06183379927654"
    }
  },
  {
    "service_request": "2024-1072342",
    "request_type": "Traffic Signals/Signs/Striping/Streetlights",
    "request_reason": "Request for Stop Sign",
    "date_created": "2024-03-04T15:39:49.000",
    "date_modified": "2024-03-04T15:39:50.000",
    "request_status": "Pending",
    "responsible_agency": "Department of Public Works",
    "final_address": "MAJESTIC OAKS DR & DREUX AVE",
    "address_councildis": "D",
    "status": "Pending",
    "rowid": "1072342",
    "final_x": "3697769.1",
    "final_y": "553994.08",
    "longitude": "-90.01588272806416",
    "latitude": "30.016787200002423",
    "geocoded_column": {
      "latitude": "30.016787200002423",
      "longitude": "-90.01588272806416"
    }
  },
  {
    "service_request": "2024-1072341",
    "request_type": "Roads/Drainage",
    "request_reason": "Ditch Issue",
    "date_created": "2024-03-04T15:36:23.000",
    "date_modified": "2024-03-04T15:36:24.000",
    "request_status": "Pending",
    "responsible_agency": "Department of Public Works",
    "final_address": "3146 N Prieur St",
    "address_councildis": "D",
    "status": "Pending",
    "rowid": "1072341",
    "final_x": "3690116.44988",
    "final_y": "538870.999433",
    "longitude": "-90.04060089271252",
    "latitude": "29.975443928184326",
    "geocoded_column": {
      "latitude": "29.975443928184326",
      "longitude": "-90.04060089271252"
    }
  },
  {
    "service_request": "2024-1072340",
    "request_type": "Roads/Drainage",
    "request_reason": "Street Subsidence (Sinking)",
    "date_created": "2024-03-04T15:33:45.000",
    "date_modified": "2024-03-04T15:33:46.000",
    "request_status": "Pending",
    "responsible_agency": "Department of Public Works",
    "final_address": "1731 N Rampart St",
    "address_councildis": "C",
    "status": "Pending",
    "rowid": "1072340",
    "final_x": "3683427.06473",
    "final_y": "535845.258183",
    "longitude": "-90.06183379927654",
    "latitude": "29.967330008364662",
    "geocoded_column": {
      "latitude": "29.967330008364662",
      "longitude": "-90.06183379927654"
    }
  },
  {
    "service_request": "2024-1072339",
    "request_type": "Trash/Recycling",
    "request_reason": "Replace Recycling Cart",
    "date_created": "2024-03-04T15:30:17.000",
    "date_modified": "2024-03-04T15:30:18.000",
    "request_status": "Pending",
    "responsible_agency": "Department of Sanitation",
    "final_address": "5851 N Claiborne Ave",
    "address_councildis": "E",
    "status": "Pending",
    "contractor": "Waste Pro",
    "rowid": "1072339",
    "final_x": "3699276.93015",
    "final_y": "535480.300422",
    "longitude": "-90.01179329878045",
    "latitude": "29.965833375834382",
    "geocoded_column": {
      "latitude": "29.965833375834382",
      "longitude": "-90.01179329878045"
    }
  },
  {
    "service_request": "2024-1072338",
    "request_type": "Abandoned Vehicles",
    "request_reason": "Abandoned/Junk Vehicles",
    "date_created": "2024-03-04T15:28:40.000",
    "date_modified": "2024-03-04T15:28:40.000",
    "request_status": "Pending",
    "responsible_agency": "Department of Public Works",
    "final_address": "3226 Pauger St",
    "address_councildis": "D",
    "status": "Pending",
    "rowid": "1072338",
    "final_x": "3683407.3837",
    "final_y": "541607.109516",
    "longitude": "-90.06169401523688",
    "latitude": "29.983173692442474",
    "geocoded_column": {
      "latitude": "29.983173692442474",
      "longitude": "-90.06169401523688"
    }
  },
  {
    "service_request": "2024-1072337",
    "request_type": "Trash/Recycling",
    "request_reason": "Replace Trash Cart",
    "date_created": "2024-03-04T15:27:35.000",
    "date_modified": "2024-03-04T15:27:36.000",
    "request_status": "Pending",
    "responsible_agency": "Department of Sanitation",
    "final_address": "5851 N Claiborne Ave",
    "address_councildis": "E",
    "status": "Assigned to Contractor",
    "contractor": "Waste Pro",
    "rowid": "1072337",
    "final_x": "3699276.93015",
    "final_y": "535480.300422",
    "longitude": "-90.01179329878045",
    "latitude": "29.965833375834382",
    "geocoded_column": {
      "latitude": "29.965833375834382",
      "longitude": "-90.01179329878045"
    }
  },
  {
    "service_request": "2024-1072336",
    "request_type": "Property Maintenance",
    "request_reason": "Property Maintenance",
    "date_created": "2024-03-04T15:26:48.000",
    "date_modified": "2024-03-04T15:26:49.000",
    "request_status": "Pending",
    "responsible_agency": "Department of Code Enforcement",
    "final_address": "2535 Mendez St",
    "address_councildis": "D",
    "status": "Pending",
    "rowid": "1072336",
    "final_x": "3686322.54914",
    "final_y": "553663.273687",
    "longitude": "-90.05206063560767",
    "latitude": "30.016234513362157",
    "geocoded_column": {
      "latitude": "30.016234513362157",
      "longitude": "-90.05206063560767"
    }
  },
  {
    "service_request": "2024-1072335",
    "request_type": "Abandoned Vehicles",
    "request_reason": "Abandoned/Junk Vehicles",
    "date_created": "2024-03-04T15:26:29.000",
    "date_modified": "2024-03-04T15:27:47.000",
    "request_status": "Pending",
    "responsible_agency": "Department of Public Works",
    "final_address": "1208 Hillary St",
    "address_councildis": "A",
    "status": "Pending",
    "rowid": "1072335",
    "final_x": "3663335.54336",
    "final_y": "527266.528319",
    "longitude": "-90.1255689756006",
    "latitude": "29.94433902233611",
    "geocoded_column": {
      "latitude": "29.94433902233611",
      "longitude": "-90.1255689756006"
    }
  },
  {
    "service_request": "2024-1072334",
    "request_type": "Trash/Recycling",
    "request_reason": "Request a Large Item Pick Up",
    "date_created": "2024-03-04T15:22:16.000",
    "date_modified": "2024-03-04T15:22:16.000",
    "request_status": "Pending",
    "responsible_agency": "Department of Sanitation",
    "final_address": "5623 Painters St",
    "address_councildis": "D",
    "status": "Assigned to Contractor",
    "contractor": "IV Waste",
    "rowid": "1072334",
    "final_x": "3686216.78742",
    "final_y": "553797.027479",
    "longitude": "-90.05239007138893",
    "latitude": "30.01660553842899",
    "geocoded_column": {
      "latitude": "30.01660553842899",
      "longitude": "-90.05239007138893"
    }
  },
  {
    "service_request": "2024-1072333",
    "request_type": "Utility Poles",
    "request_reason": "Utility Pole Leaning",
    "date_created": "2024-03-04T15:20:00.000",
    "date_modified": "2024-03-04T15:20:20.000",
    "request_status": "Pending",
    "responsible_agency": "Utility Company Collective",
    "final_address": "4500 Freret St",
    "address_councildis": "B",
    "status": "Pending",
    "rowid": "1072333",
    "final_x": "3670098.31937",
    "final_y": "523965.61222",
    "longitude": "-90.1043286764345",
    "latitude": "29.93506483554321",
    "geocoded_column": {
      "latitude": "29.93506483554321",
      "longitude": "-90.1043286764345"
    }
  },
  {
    "service_request": "2024-1072332",
    "request_type": "Abandoned Vehicles",
    "request_reason": "Abandoned/Junk Vehicles",
    "date_created": "2024-03-04T15:19:31.000",
    "date_modified": "2024-03-04T15:22:53.000",
    "request_status": "Pending",
    "responsible_agency": "Department of Public Works",
    "final_address": "3525 Meadow Park Ln",
    "address_councildis": "C",
    "status": "Pending",
    "rowid": "1072332",
    "final_x": "3704034.14065",
    "final_y": "511488.533744",
    "longitude": "-89.99765347521787",
    "latitude": "29.899712695066057",
    "geocoded_column": {
      "latitude": "29.899712695066057",
      "longitude": "-89.99765347521787"
    }
  },
  {
    "service_request": "2024-1072331",
    "request_type": "Trash/Recycling",
    "request_reason": "Illegal Dumping",
    "date_created": "2024-03-04T15:19:21.000",
    "date_modified": "2024-03-04T15:19:21.000",
    "request_status": "Pending",
    "responsible_agency": "Department of Sanitation",
    "final_address": "ST ANN ST & N DERBIGNY ST",
    "address_councildis": "D",
    "status": "Pending",
    "rowid": "1072331",
    "final_x": "3679642.9",
    "final_y": "535185.18",
    "longitude": "-90.07380715799495",
    "latitude": "29.965629938817976",
    "geocoded_column": {
      "latitude": "29.965629938817976",
      "longitude": "-90.07380715799495"
    }
  },
  {
    "service_request": "2024-1072330",
    "request_type": "Trash/Recycling",
    "request_reason": "Repair Trash Cart",
    "date_created": "2024-03-04T15:18:01.000",
    "date_modified": "2024-03-04T15:18:02.000",
    "request_status": "Pending",
    "responsible_agency": "Department of Sanitation",
    "final_address": "1620 Bordeaux St",
    "address_councildis": "B",
    "status": "Assigned to Contractor",
    "contractor": "Richards Disposal",
    "rowid": "1072330",
    "final_x": "3669322.72103",
    "final_y": "520936.318457",
    "longitude": "-90.10687960555161",
    "latitude": "29.92675809822399",
    "geocoded_column": {
      "latitude": "29.92675809822399",
      "longitude": "-90.10687960555161"
    }
  },
  {
    "service_request": "2024-1072329",
    "request_type": "Trash/Recycling",
    "request_reason": "Request a Large Item Pick Up",
    "date_created": "2024-03-04T15:17:24.000",
    "date_modified": "2024-03-04T15:17:25.000",
    "request_status": "Pending",
    "responsible_agency": "Department of Sanitation",
    "final_address": "5505 Coliseum St",
    "address_councildis": "A",
    "status": "Assigned to Contractor",
    "contractor": "Richards Disposal",
    "rowid": "1072329",
    "final_x": "3666609.6786",
    "final_y": "519943.666104",
    "longitude": "-90.11547728731415",
    "latitude": "29.92410818708775",
    "geocoded_column": {
      "latitude": "29.92410818708775",
      "longitude": "-90.11547728731415"
    }
  },
  {
    "service_request": "2024-1072328",
    "request_type": "Trash/Recycling",
    "request_reason": "Repair Trash Cart",
    "date_created": "2024-03-04T15:16:16.000",
    "date_modified": "2024-03-04T15:16:16.000",
    "request_status": "Pending",
    "responsible_agency": "Department of Sanitation",
    "final_address": "6001 Warrington Dr",
    "address_councildis": "D",
    "status": "Assigned to Contractor",
    "contractor": "IV Waste",
    "rowid": "1072328",
    "final_x": "3680818.20239",
    "final_y": "554604.03356",
    "longitude": "-90.06941917020482",
    "latitude": "30.01898935028039",
    "geocoded_column": {
      "latitude": "30.01898935028039",
      "longitude": "-90.06941917020482"
    }
  },
  {
    "service_request": "2024-1072327",
    "request_type": "Trash/Recycling",
    "request_reason": "Repair Trash Cart",
    "date_created": "2024-03-04T15:15:47.000",
    "date_modified": "2024-03-04T15:15:47.000",
    "request_status": "Pending",
    "responsible_agency": "Department of Sanitation",
    "final_address": "4229 Eagle St",
    "address_councildis": "A",
    "status": "Assigned to Contractor",
    "contractor": "Richards Disposal",
    "rowid": "1072327",
    "final_x": "3667525.25082",
    "final_y": "538096.557961",
    "longitude": "-90.11197635062157",
    "latitude": "29.973995946660246",
    "geocoded_column": {
      "latitude": "29.973995946660246",
      "longitude": "-90.11197635062157"
    }
  },
  {
    "service_request": "2024-1072326",
    "request_type": "Roads/Drainage",
    "request_reason": "Pothole",
    "date_created": "2024-03-04T15:10:08.000",
    "date_modified": "2024-03-04T15:10:08.000",
    "request_status": "Pending",
    "responsible_agency": "Department of Public Works",
    "final_address": "1312 Milan St",
    "address_councildis": "B",
    "status": "Pending",
    "rowid": "1072326",
    "final_x": "3671625.82823",
    "final_y": "520286.919608",
    "longitude": "-90.09963137110304",
    "latitude": "29.92490447494246",
    "geocoded_column": {
      "latitude": "29.92490447494246",
      "longitude": "-90.09963137110304"
    }
  },
  {
    "service_request": "2024-1072325",
    "request_type": "Trash/Recycling",
    "request_reason": "Request a Large Item Pick Up",
    "date_created": "2024-03-04T15:08:28.000",
    "date_modified": "2024-03-04T15:12:02.000",
    "request_status": "Pending",
    "responsible_agency": "Department of Sanitation",
    "final_address": "4667 Gabriel Dr",
    "address_councildis": "E",
    "status": "Assigned to Contractor",
    "contractor": "Waste Pro",
    "rowid": "1072325",
    "final_x": "3708993.91953",
    "final_y": "555295.024217",
    "longitude": "-89.98036880519642",
    "latitude": "30.02000464894663",
    "geocoded_column": {
      "latitude": "30.02000464894663",
      "longitude": "-89.98036880519642"
    }
  },
  {
    "service_request": "2024-1072324",
    "request_type": "Trash/Recycling",
    "request_reason": "Replace Trash Cart",
    "date_created": "2024-03-04T15:04:52.000",
    "date_modified": "2024-03-04T15:04:53.000",
    "request_status": "Pending",
    "responsible_agency": "Department of Sanitation",
    "final_address": "2061 Wagner St",
    "address_councildis": "C",
    "status": "Assigned to Contractor",
    "contractor": "Richards Disposal",
    "rowid": "1072324",
    "final_x": "3690230.01513",
    "final_y": "522951.449595",
    "longitude": "-90.04080936913611",
    "latitude": "29.93166714750659",
    "geocoded_column": {
      "latitude": "29.93166714750659",
      "longitude": "-90.04080936913611"
    }
  },
  {
    "service_request": "2024-1072323",
    "request_type": "Trash/Recycling",
    "request_reason": "Repair Trash Cart",
    "date_created": "2024-03-04T15:02:32.000",
    "date_modified": "2024-03-04T15:02:33.000",
    "request_status": "Pending",
    "responsible_agency": "Department of Sanitation",
    "final_address": "7600 Bullard Ave",
    "address_councildis": "E",
    "status": "Assigned to Contractor",
    "contractor": "Waste Pro",
    "rowid": "1072323",
    "final_x": "3713150.5724",
    "final_y": "567214.285412",
    "longitude": "-89.96678609349951",
    "latitude": "30.05264223771682",
    "geocoded_column": {
      "latitude": "30.05264223771682",
      "longitude": "-89.96678609349951"
    }
  },
  {
    "service_request": "2024-1072321",
    "request_type": "Traffic Signals/Signs/Striping/Streetlights",
    "request_reason": "Street Light Outage/Malfunction",
    "date_created": "2024-03-04T15:01:10.000",
    "date_modified": "2024-03-04T15:01:11.000",
    "request_status": "Pending",
    "responsible_agency": "Department of Public Works",
    "final_address": "8600 BLK Oleander St",
    "address_councildis": "A",
    "status": "Assigned to Contractor",
    "contractor": "Legacy Professional Services",
    "rowid": "1072321",
    "final_x": "3665329.98426",
    "final_y": "534970.735292",
    "longitude": "-90.11901414636121",
    "latitude": "29.96546512804646",
    "geocoded_column": {
      "latitude": "29.96546512804646",
      "longitude": "-90.11901414636121"
    }
  },
  {
    "service_request": "2024-1072320",
    "request_type": "Trash/Recycling",
    "request_reason": "Request a Large Item Pick Up",
    "date_created": "2024-03-04T15:00:40.000",
    "date_modified": "2024-03-04T15:00:40.000",
    "request_status": "Pending",
    "responsible_agency": "Department of Sanitation",
    "final_address": "4667 Gabriel Dr",
    "address_councildis": "E",
    "status": "Assigned to Contractor",
    "contractor": "Waste Pro",
    "rowid": "1072320",
    "final_x": "3708993.91953",
    "final_y": "555295.024217",
    "longitude": "-89.98036880519642",
    "latitude": "30.02000464894663",
    "geocoded_column": {
      "latitude": "30.02000464894663",
      "longitude": "-89.98036880519642"
    }
  },
  {
    "service_request": "2024-1072318",
    "request_type": "Trash/Recycling",
    "request_reason": "Replace Trash Cart",
    "date_created": "2024-03-04T15:00:07.000",
    "date_modified": "2024-03-04T15:00:08.000",
    "request_status": "Pending",
    "responsible_agency": "Department of Sanitation",
    "final_address": "1127 Alvar St",
    "address_councildis": "C",
    "status": "Assigned to Contractor",
    "contractor": "IV Waste",
    "rowid": "1072318",
    "final_x": "3691597.35318",
    "final_y": "535659.250247",
    "longitude": "-90.0360386593323",
    "latitude": "29.966566730966836",
    "geocoded_column": {
      "latitude": "29.966566730966836",
      "longitude": "-90.0360386593323"
    }
  },
  {
    "service_request": "2024-1072317",
    "request_type": "Roads/Drainage",
    "request_reason": "Catch Basin - Clogged",
    "date_created": "2024-03-04T14:58:37.000",
    "date_modified": "2024-03-04T14:58:37.000",
    "request_status": "Pending",
    "responsible_agency": "Department of Public Works",
    "final_address": "460 Broadway St",
    "address_councildis": "A",
    "status": "Pending",
    "rowid": "1072317",
    "final_x": "3662283.02215",
    "final_y": "523790.631227",
    "longitude": "-90.12900744948499",
    "latitude": "29.934811871544206",
    "geocoded_column": {
      "latitude": "29.934811871544206",
      "longitude": "-90.12900744948499"
    }
  },
  {
    "service_request": "2024-1072316",
    "request_type": "Trash/Recycling",
    "request_reason": "Request a Large Item Pick Up",
    "date_created": "2024-03-04T14:58:20.000",
    "date_modified": "2024-03-04T14:59:13.000",
    "request_status": "Pending",
    "responsible_agency": "Department of Sanitation",
    "final_address": "6604 Bellaire Dr",
    "address_councildis": "A",
    "status": "Assigned to Contractor",
    "contractor": "IV Waste",
    "rowid": "1072316",
    "final_x": "3664491.30394",
    "final_y": "552109.139862",
    "longitude": "-90.12109008431882",
    "latitude": "30.01261435076074",
    "geocoded_column": {
      "latitude": "30.01261435076074",
      "longitude": "-90.12109008431882"
    }
  },
  {
    "service_request": "2024-1072315",
    "request_type": "Property Maintenance",
    "request_reason": "Property Maintenance",
    "date_created": "2024-03-04T14:58:11.000",
    "date_modified": "2024-03-04T14:58:11.000",
    "request_status": "Pending",
    "responsible_agency": "Department of Code Enforcement",
    "final_address": "1328 Barracks St",
    "address_councildis": "C",
    "status": "Pending",
    "rowid": "1072315",
    "final_x": "3681918.81045",
    "final_y": "535674.568647",
    "longitude": "-90.06660284319018",
    "latitude": "29.966906604501933",
    "geocoded_column": {
      "latitude": "29.966906604501933",
      "longitude": "-90.06660284319018"
    }
  },
  {
    "service_request": "2024-1072314",
    "request_type": "Trash/Recycling",
    "request_reason": "Replace Trash Cart",
    "date_created": "2024-03-04T14:54:12.000",
    "date_modified": "2024-03-04T14:54:12.000",
    "request_status": "Pending",
    "responsible_agency": "Department of Sanitation",
    "final_address": "920 Hagan Ave, New Orleans, Louisiana, 70119",
    "status": "Assigned to Contractor",
    "rowid": "1072314",
    "longitude": "0.0",
    "latitude": "0.0",
    "geocoded_column": {
      "latitude": "0.0",
      "longitude": "0.0"
    }
  },
  {
    "service_request": "2024-1072313",
    "request_type": "Traffic Signals/Signs/Striping/Streetlights",
    "request_reason": "Street Light Outage/Malfunction",
    "date_created": "2024-03-04T14:44:45.000",
    "date_modified": "2024-03-04T14:44:45.000",
    "request_status": "Pending",
    "responsible_agency": "Department of Public Works",
    "final_address": "1927 Pine St",
    "address_councildis": "A",
    "status": "Assigned to Contractor",
    "contractor": "Legacy Professional Services",
    "rowid": "1072313",
    "final_x": "3665451.36877",
    "final_y": "528853.357952",
    "longitude": "-90.11883557758783",
    "latitude": "29.9486408001641",
    "geocoded_column": {
      "latitude": "29.9486408001641",
      "longitude": "-90.11883557758783"
    }
  },
  {
    "service_request": "2024-1072312",
    "request_type": "Trash/Recycling",
    "request_reason": "Request a Large Item Pick Up",
    "date_created": "2024-03-04T14:42:24.000",
    "date_modified": "2024-03-04T14:42:25.000",
    "request_status": "Pending",
    "responsible_agency": "Department of Sanitation",
    "final_address": "7435 Alabama St",
    "address_councildis": "D",
    "status": "Assigned to Contractor",
    "contractor": "Waste Pro",
    "rowid": "1072312",
    "final_x": "3695108.3272",
    "final_y": "558103.789019",
    "longitude": "-90.02414125156525",
    "latitude": "30.02817119561065",
    "geocoded_column": {
      "latitude": "30.02817119561065",
      "longitude": "-90.02414125156525"
    }
  },
  {
    "service_request": "2024-1072311",
    "request_type": "Trash/Recycling",
    "request_reason": "Return Trash Cart",
    "date_created": "2024-03-04T14:39:22.000",
    "date_modified": "2024-03-04T14:40:21.000",
    "request_status": "Pending",
    "responsible_agency": "Department of Sanitation",
    "final_address": "3814 Magazine St",
    "address_councildis": "B",
    "status": "Assigned to Contractor",
    "contractor": "Richards Disposal",
    "rowid": "1072311",
    "final_x": "3673269.55995",
    "final_y": "518977.806711",
    "longitude": "-90.09448731815917",
    "latitude": "29.92125606846172",
    "geocoded_column": {
      "latitude": "29.92125606846172",
      "longitude": "-90.09448731815917"
    }
  },
  {
    "service_request": "2024-1072310",
    "request_type": "Trash/Recycling",
    "request_reason": "Order Trash Cart",
    "date_created": "2024-03-04T14:38:57.000",
    "date_modified": "2024-03-04T14:38:58.000",
    "request_status": "Pending",
    "responsible_agency": "Department of Sanitation",
    "final_address": "7200 Washington Ave",
    "address_councildis": "B",
    "status": "Assigned to Contractor",
    "contractor": "Richards Disposal",
    "rowid": "1072310",
    "final_x": "3669185.84788",
    "final_y": "533948.138565",
    "longitude": "-90.10687202990108",
    "latitude": "29.962540403929733",
    "geocoded_column": {
      "latitude": "29.962540403929733",
      "longitude": "-90.10687202990108"
    }
  },
  {
    "service_request": "2024-1072309",
    "request_type": "Trash/Recycling",
    "request_reason": "Request a Large Item Pick Up",
    "date_created": "2024-03-04T14:38:07.000",
    "date_modified": "2024-03-04T14:38:08.000",
    "request_status": "Pending",
    "responsible_agency": "Department of Sanitation",
    "final_address": "4213 St Charles Ave",
    "address_councildis": "B",
    "status": "Assigned to Contractor",
    "contractor": "Richards Disposal",
    "rowid": "1072309",
    "final_x": "3671476.17467",
    "final_y": "521030.618105",
    "longitude": "-90.10007851233753",
    "latitude": "29.926953837615688",
    "geocoded_column": {
      "latitude": "29.926953837615688",
      "longitude": "-90.10007851233753"
    }
  },
  {
    "service_request": "2024-1072307",
    "request_type": "Abandoned Vehicles",
    "request_reason": "Vehicle Blocking Your Driveway",
    "date_created": "2024-03-04T14:29:25.000",
    "date_modified": "2024-03-04T14:29:25.000",
    "request_status": "Pending",
    "responsible_agency": "Department of Public Works",
    "final_address": "2253 N Galvez St",
    "address_councildis": "D",
    "status": "Pending",
    "rowid": "1072307",
    "final_x": "3685272.46914",
    "final_y": "540065.952459",
    "longitude": "-90.05585739387944",
    "latitude": "29.978879008066535",
    "geocoded_column": {
      "latitude": "29.978879008066535",
      "longitude": "-90.05585739387944"
    }
  },
  {
    "service_request": "2024-1072306",
    "request_type": "Trash/Recycling",
    "request_reason": "Replace Trash Cart",
    "date_created": "2024-03-04T14:26:37.000",
    "date_modified": "2024-03-04T14:26:38.000",
    "request_status": "Pending",
    "responsible_agency": "Department of Sanitation",
    "final_address": "2110 St Nick Dr",
    "address_councildis": "C",
    "status": "Assigned to Contractor",
    "contractor": "Richards Disposal",
    "rowid": "1072306",
    "final_x": "3700027.34909",
    "final_y": "523336.319675",
    "longitude": "-90.00986646770983",
    "latitude": "29.9324178909641",
    "geocoded_column": {
      "latitude": "29.9324178909641",
      "longitude": "-90.00986646770983"
    }
  },
  {
    "service_request": "2024-1072305",
    "request_type": "Trash/Recycling",
    "request_reason": "Replace Trash Cart",
    "date_created": "2024-03-04T14:21:34.000",
    "date_modified": "2024-03-04T14:21:34.000",
    "request_status": "Pending",
    "responsible_agency": "Department of Sanitation",
    "final_address": "3525 Red Oak Ct",
    "address_councildis": "C",
    "status": "Assigned to Contractor",
    "contractor": "Richards Disposal",
    "rowid": "1072305",
    "final_x": "3703385.97962",
    "final_y": "513531.26053",
    "longitude": "-89.99962394015704",
    "latitude": "29.90535026089742",
    "geocoded_column": {
      "latitude": "29.90535026089742",
      "longitude": "-89.99962394015704"
    }
  },
  {
    "service_request": "2024-1072304",
    "request_type": "Abandoned Vehicles",
    "request_reason": "Abandoned/Junk Vehicles",
    "date_created": "2024-03-04T14:21:25.000",
    "date_modified": "2024-03-04T14:21:25.000",
    "request_status": "Pending",
    "responsible_agency": "Department of Public Works",
    "final_address": "2253 N Galvez St",
    "address_councildis": "D",
    "status": "Pending",
    "rowid": "1072304",
    "final_x": "3685272.46914",
    "final_y": "540065.952459",
    "longitude": "-90.05585739387944",
    "latitude": "29.978879008066535",
    "geocoded_column": {
      "latitude": "29.978879008066535",
      "longitude": "-90.05585739387944"
    }
  },
  {
    "service_request": "2024-1072303",
    "request_type": "Trash/Recycling",
    "request_reason": "Missed Trash Pick-Up",
    "date_created": "2024-03-04T14:21:14.000",
    "date_modified": "2024-03-04T14:45:40.000",
    "case_close_date": "2024-03-04T08:45:40.000",
    "request_status": "Closed",
    "responsible_agency": "Department of Sanitation",
    "final_address": "1033 Jourdan Ave, New Orleans, Louisiana, 70117",
    "address_councildis": "E",
    "status": "Invalid Request",
    "contractor": "Waste Pro",
    "contractor_action": "Invalid Request",
    "rowid": "1072303",
    "final_x": "3695029.5224",
    "final_y": "534303.476229",
    "longitude": "-90.02524883280513",
    "latitude": "29.96273153942836",
    "geocoded_column": {
      "latitude": "29.96273153942836",
      "longitude": "-90.02524883280513"
    }
  },
  {
    "service_request": "2024-1072302",
    "request_type": "Trash/Recycling",
    "request_reason": "Order Trash Cart",
    "date_created": "2024-03-04T14:18:50.000",
    "date_modified": "2024-03-04T14:18:51.000",
    "request_status": "Pending",
    "responsible_agency": "Department of Sanitation",
    "final_address": "4574 Dodt Ave",
    "address_councildis": "E",
    "status": "Assigned to Contractor",
    "contractor": "Waste Pro",
    "rowid": "1072302",
    "final_x": "3705451.35607",
    "final_y": "554336.955224",
    "longitude": "-89.99159753580818",
    "latitude": "30.0174848678181",
    "geocoded_column": {
      "latitude": "30.0174848678181",
      "longitude": "-89.99159753580818"
    }
  },
  {
    "service_request": "2024-1072301",
    "request_type": "Trash/Recycling",
    "request_reason": "Replace Trash Cart",
    "date_created": "2024-03-04T14:18:00.000",
    "date_modified": "2024-03-04T14:18:01.000",
    "request_status": "Pending",
    "responsible_agency": "Department of Sanitation",
    "final_address": "420 S St Patrick St",
    "address_councildis": "A",
    "status": "Assigned to Contractor",
    "contractor": "Richards Disposal",
    "rowid": "1072301",
    "final_x": "3668308.85441",
    "final_y": "538711.515273",
    "longitude": "-90.10948080178234",
    "latitude": "29.975663883068",
    "geocoded_column": {
      "latitude": "29.975663883068",
      "longitude": "-90.10948080178234"
    }
  },
  {
    "service_request": "2024-1072300",
    "request_type": "Trash/Recycling",
    "request_reason": "Request a Large Item Pick Up",
    "date_created": "2024-03-04T14:13:25.000",
    "date_modified": "2024-03-04T14:13:25.000",
    "request_status": "Pending",
    "responsible_agency": "Department of Sanitation",
    "final_address": "7231 Bullard Ave",
    "address_councildis": "E",
    "status": "Assigned to Contractor",
    "contractor": "Waste Pro",
    "rowid": "1072300",
    "final_x": "3714229.70514",
    "final_y": "566038.006179",
    "longitude": "-89.9634197475214",
    "latitude": "30.04937251843217",
    "geocoded_column": {
      "latitude": "30.04937251843217",
      "longitude": "-89.9634197475214"
    }
  },
  {
    "service_request": "2024-1072299",
    "request_type": "Trash/Recycling",
    "request_reason": "Request a Large Item Pick Up",
    "date_created": "2024-03-04T14:10:22.000",
    "date_modified": "2024-03-04T14:10:23.000",
    "request_status": "Pending",
    "responsible_agency": "Department of Sanitation",
    "final_address": "1852 Chippewa St, New Orleans, Louisiana, 70130",
    "status": "Assigned to Contractor",
    "rowid": "1072299",
    "longitude": "0.0",
    "latitude": "0.0",
    "geocoded_column": {
      "latitude": "0.0",
      "longitude": "0.0"
    }
  },
  {
    "service_request": "2024-1072298",
    "request_type": "Trash/Recycling",
    "request_reason": "Request a Large Item Pick Up",
    "date_created": "2024-03-04T14:08:18.000",
    "date_modified": "2024-03-04T14:08:19.000",
    "request_status": "Pending",
    "responsible_agency": "Department of Sanitation",
    "final_address": "125 20Th St",
    "address_councildis": "A",
    "status": "Assigned to Contractor",
    "contractor": "IV Waste",
    "rowid": "1072298",
    "final_x": "3665957.89991",
    "final_y": "549049.956755",
    "longitude": "-90.11655906874422",
    "latitude": "30.004159916418892",
    "geocoded_column": {
      "latitude": "30.004159916418892",
      "longitude": "-90.11655906874422"
    }
  },
  {
    "service_request": "2024-1072297",
    "request_type": "Trash/Recycling",
    "request_reason": "Replace Trash Cart",
    "date_created": "2024-03-04T14:06:29.000",
    "date_modified": "2024-03-04T14:06:29.000",
    "request_status": "Pending",
    "responsible_agency": "Department of Sanitation",
    "final_address": "829 N Lopez St",
    "address_councildis": "A",
    "status": "Assigned to Contractor",
    "contractor": "Richards Disposal",
    "rowid": "1072297",
    "final_x": "3675535.05064",
    "final_y": "538580.663369",
    "longitude": "-90.08666293486168",
    "latitude": "29.975089882926152",
    "geocoded_column": {
      "latitude": "29.975089882926152",
      "longitude": "-90.08666293486168"
    }
  },
  {
    "service_request": "2024-1072296",
    "request_type": "Trash/Recycling",
    "request_reason": "Missed Trash Pick-Up",
    "date_created": "2024-03-04T14:05:32.000",
    "date_modified": "2024-03-04T14:05:32.000",
    "request_status": "Pending",
    "responsible_agency": "Department of Sanitation",
    "final_address": "2623 Orleans Ave",
    "address_councildis": "D",
    "status": "Assigned to Contractor",
    "contractor": "Richards Disposal",
    "rowid": "1072296",
    "final_x": "3677094.72904",
    "final_y": "536858.073928",
    "longitude": "-90.08179648405114",
    "latitude": "29.970306599529806",
    "geocoded_column": {
      "latitude": "29.970306599529806",
      "longitude": "-90.08179648405114"
    }
  },
  {
    "service_request": "2024-1072295",
    "request_type": "Trash/Recycling",
    "request_reason": "Missed Trash Pick-Up",
    "date_created": "2024-03-04T14:04:09.000",
    "date_modified": "2024-03-04T14:42:23.000",
    "case_close_date": "2024-03-04T08:42:23.000",
    "request_status": "Closed",
    "responsible_agency": "Department of Sanitation",
    "final_address": "2221 St Claude Ave",
    "address_councildis": "C",
    "status": "Assigned to Contractor",
    "contractor": "IV Waste",
    "contractor_action": "Completed",
    "rowid": "1072295",
    "final_x": "3685258.17301",
    "final_y": "536426.533703",
    "longitude": "-90.05603068082551",
    "latitude": "29.968872316460953",
    "geocoded_column": {
      "latitude": "29.968872316460953",
      "longitude": "-90.05603068082551"
    }
  },
  {
    "service_request": "2024-1072294",
    "request_type": "Trash/Recycling",
    "request_reason": "Request a Large Item Pick Up",
    "date_created": "2024-03-04T14:03:30.000",
    "date_modified": "2024-03-04T14:03:30.000",
    "request_status": "Pending",
    "responsible_agency": "Department of Sanitation",
    "final_address": "7600 Forum Blvd",
    "address_councildis": "E",
    "status": "Assigned to Contractor",
    "contractor": "Waste Pro",
    "rowid": "1072294",
    "final_x": "3720290.97119",
    "final_y": "572993.773673",
    "longitude": "-89.94399612020014",
    "latitude": "30.06829733106004",
    "geocoded_column": {
      "latitude": "30.06829733106004",
      "longitude": "-89.94399612020014"
    }
  },
  {
    "service_request": "2024-1072293",
    "request_type": "Trash/Recycling",
    "request_reason": "Order Trash Cart",
    "date_created": "2024-03-04T13:59:39.000",
    "date_modified": "2024-03-04T13:59:40.000",
    "request_status": "Pending",
    "responsible_agency": "Department of Sanitation",
    "final_address": "1885 Crete St",
    "address_councildis": "A",
    "status": "Assigned to Contractor",
    "contractor": "IV Waste",
    "rowid": "1072293",
    "final_x": "3678647.46325",
    "final_y": "542988.861133",
    "longitude": "-90.0766804387333",
    "latitude": "29.987117419598103",
    "geocoded_column": {
      "latitude": "29.987117419598103",
      "longitude": "-90.0766804387333"
    }
  },
  {
    "service_request": "2024-1072292",
    "request_type": "Roads/Drainage",
    "request_reason": "Catch Basin - Clogged",
    "date_created": "2024-03-04T13:56:02.000",
    "date_modified": "2024-03-04T13:56:03.000",
    "request_status": "Pending",
    "responsible_agency": "Department of Public Works",
    "final_address": "6225 St Bernard Ave",
    "address_councildis": "D",
    "status": "Pending",
    "rowid": "1072292",
    "final_x": "3677060.48725",
    "final_y": "555723.215193",
    "longitude": "-90.08125360234246",
    "latitude": "30.022180129711707",
    "geocoded_column": {
      "latitude": "30.022180129711707",
      "longitude": "-90.08125360234246"
    }
  },
  {
    "service_request": "2024-1072291",
    "request_type": "Trash/Recycling",
    "request_reason": "Request a Large Item Pick Up",
    "date_created": "2024-03-04T13:54:10.000",
    "date_modified": "2024-03-04T13:55:43.000",
    "request_status": "Pending",
    "responsible_agency": "Department of Sanitation",
    "final_address": "9738 W Rockton Cir",
    "address_councildis": "E",
    "status": "Assigned to Contractor",
    "contractor": "Waste Pro",
    "rowid": "1072291",
    "final_x": "3707869.11409",
    "final_y": "562524.743584",
    "longitude": "-89.98365372804501",
    "latitude": "30.03992000795981",
    "geocoded_column": {
      "latitude": "30.03992000795981",
      "longitude": "-89.98365372804501"
    }
  },
  {
    "service_request": "2024-1072289",
    "request_type": "Trash/Recycling",
    "request_reason": "Replace Trash Cart",
    "date_created": "2024-03-04T13:52:19.000",
    "date_modified": "2024-03-04T13:52:20.000",
    "request_status": "Pending",
    "responsible_agency": "Department of Sanitation",
    "final_address": "4034 Baudin St",
    "address_councildis": "A",
    "status": "Assigned to Contractor",
    "contractor": "Richards Disposal",
    "rowid": "1072289",
    "final_x": "3670267.73454",
    "final_y": "536906.386888",
    "longitude": "-90.10335529410388",
    "latitude": "29.970642712774605",
    "geocoded_column": {
      "latitude": "29.970642712774605",
      "longitude": "-90.10335529410388"
    }
  },