[
  {
    "service_request": "2025-1201688",
    "request_type": "Street and Traffic Signs",
    "request_reason": "Street Name Sign Damaged or Missing",
    "date_created": "2025-06-16T23:00:38.000",
    "date_modified": "2025-06-16T23:00:40.000",
    "request_status": "Pending",
    "responsible_agency": "Department of Public Works",
    "final_address": "MILAN ST & S SARATOGA ST",
    "address_councildis": "B",
    "status": "Pending",
    "rowid": "1201688",
    "final_x": "3671422.9",
    "final_y": "522724.38",
    "longitude": "-90.10018914540453",
    "latitude": "29.931612715649266",
    "geocoded_column": {
      "latitude": "29.931612715649266",
      "longitude": "-90.10018914540453"
    }
  },
  {
    "service_request": "2025-1201687",
    "request_type": "Street and Traffic Signs",
    "request_reason": "Street Name Sign Damaged or Missing",
    "date_created": "2025-06-16T22:58:00.000",
    "date_modified": "2025-06-16T22:58:03.000",
    "request_status": "Pending",
    "responsible_agency": "Department of Public Works",
    "final_address": "JENA ST & S SARATOGA ST",
    "address_councildis": "B",
    "status": "Pending",
    "rowid": "1201687",
    "final_x": "3670272.6",
    "final_y": "522607.28",
    "longitude": "-90.10382448587741",
    "latitude": "29.93132471751281",
    "geocoded_column": {
      "latitude": "29.93132471751281",
      "longitude": "-90.10382448587741"
    }
  },
  {
    "service_request": "2025-1201686",
    "request_type": "Trash/Recycling",
    "request_reason": "Request a Large Item Pick Up",
    "date_created": "2025-06-16T22:57:03.000",
    "date_modified": "2025-06-16T22:57:05.000",
    "request_status": "Pending",
    "responsible_agency": "Department of Sanitation",
    "final_address": "7522 Benjamin St",
    "address_councildis": "A",
    "status": "Assigned to Contractor",
    "contractor": "IV Waste",
    "rowid": "1201686",
    "final_x": "3661291.05312",
    "final_y": "524665.586172",
    "longitude": "-90.13211014065003",
    "latitude": "29.93724635262009",
    "geocoded_column": {
      "latitude": "29.93724635262009",
      "longitude": "-90.13211014065003"
    }
  },
  {
    "service_request": "2025-1201685",
    "request_type": "Street and Traffic Signs",
    "request_reason": "Street Name Sign Damaged or Missing",
    "date_created": "2025-06-16T22:56:16.000",
    "date_modified": "2025-06-16T22:56:17.000",
    "request_status": "Pending",
    "responsible_agency": "Department of Public Works",
    "final_address": "DRYADES ST & JENA ST",
    "address_councildis": "B",
    "status": "Pending",
    "rowid": "1201685",
    "final_x": "3670341.1",
    "final_y": "521906.78",
    "longitude": "-90.1036319717341",
    "latitude": "29.929396545792684",
    "geocoded_column": {
      "latitude": "29.929396545792684",
      "longitude": "-90.1036319717341"
    }
  },
  {
    "service_request": "2025-1201684",
    "request_type": "Roads and Streets",
    "request_reason": "Pothole",
    "date_created": "2025-06-16T22:55:56.000",
    "date_modified": "2025-06-16T22:55:57.000",
    "request_status": "Pending",
    "responsible_agency": "Department of Public Works",
    "final_address": "257 Cherokee St",
    "address_councildis": "A",
    "status": "Pending",
    "rowid": "1201684",
    "final_x": "3661304.88096",
    "final_y": "524439.51302",
    "longitude": "-90.13207396754282",
    "latitude": "29.93662432420594",
    "geocoded_column": {
      "latitude": "29.93662432420594",
      "longitude": "-90.13207396754282"
    }
  },
  {
    "service_request": "2025-1201683",
    "request_type": "Trash/Recycling",
    "request_reason": "Missed Trash Pick-Up",
    "date_created": "2025-06-16T22:55:41.000",
    "date_modified": "2025-06-16T22:55:43.000",
    "request_status": "Pending",
    "responsible_agency": "Department of Sanitation",
    "final_address": "221 S Rocheblave St",
    "address_councildis": "B",
    "status": "Assigned to Contractor",
    "contractor": "IV Waste",
    "rowid": "1201683",
    "final_x": "3675708.77857",
    "final_y": "534084.967365",
    "longitude": "-90.08626878521706",
    "latitude": "29.962723046736315",
    "geocoded_column": {
      "latitude": "29.962723046736315",
      "longitude": "-90.08626878521706"
    }
  },
  {
    "service_request": "2025-1201682",
    "request_type": "Street and Traffic Signs",
    "request_reason": "Street Name Sign Damaged or Missing",
    "date_created": "2025-06-16T22:55:10.000",
    "date_modified": "2025-06-16T22:55:13.000",
    "request_status": "Pending",
    "responsible_agency": "Department of Public Works",
    "final_address": "JENA ST & BARONNE ST",
    "address_councildis": "B",
    "status": "Pending",
    "rowid": "1201682",
    "final_x": "3670380.5",
    "final_y": "521559.78",
    "longitude": "-90.10351934985778",
    "latitude": "29.928441244120755",
    "geocoded_column": {
      "latitude": "29.928441244120755",
      "longitude": "-90.10351934985778"
    }
  },
  {
    "service_request": "2025-1201681",
    "request_type": "Trash/Recycling",
    "request_reason": "Request a Large Item Pick Up",
    "date_created": "2025-06-16T22:26:15.000",
    "date_modified": "2025-06-16T22:26:17.000",
    "request_status": "Pending",
    "responsible_agency": "Department of Sanitation",
    "final_address": "8843 Dinkins St",
    "address_councildis": "E",
    "status": "Assigned to Contractor",
    "contractor": "Waste Pro",
    "rowid": "1201681",
    "final_x": "3704627.70974",
    "final_y": "563428.415712",
    "longitude": "-89.99386411558706",
    "latitude": "30.04250933238272",
    "geocoded_column": {
      "latitude": "30.04250933238272",
      "longitude": "-89.99386411558706"
    }
  },
  {
    "service_request": "2025-1201680",
    "request_type": "Streetlights",
    "request_reason": "Streetlight Outage/Malfunction",
    "date_created": "2025-06-16T21:53:25.000",
    "date_modified": "2025-06-16T21:53:28.000",
    "request_status": "Pending",
    "responsible_agency": "Department of Public Works",
    "final_address": "630 Eleonore St",
    "address_councildis": "A",
    "status": "Pending",
    "contractor": "Legacy Professional Services",
    "rowid": "1201680",
    "final_x": "3665088.77133",
    "final_y": "518646.639991",
    "longitude": "-90.12032161768026",
    "latitude": "29.920586132585733",
    "geocoded_column": {
      "latitude": "29.920586132585733",
      "longitude": "-90.12032161768026"
    }
  },
  {
    "service_request": "2025-1201679",
    "request_type": "Streetlights",
    "request_reason": "Streetlight Outage/Malfunction",
    "date_created": "2025-06-16T21:32:04.000",
    "date_modified": "2025-06-16T21:32:07.000",
    "request_status": "Pending",
    "responsible_agency": "Department of Public Works",
    "final_address": "5048 St Bernard Ave",
    "address_councildis": "D",
    "status": "Pending",
    "contractor": "Legacy Professional Services",
    "rowid": "1201679",
    "final_x": "3676552.25659",
    "final_y": "550867.086037",
    "longitude": "-90.08302691702467",
    "latitude": "30.008842780630893",
    "geocoded_column": {
      "latitude": "30.008842780630893",
      "longitude": "-90.08302691702467"
    }
  },
  {
    "service_request": "2025-1201678",
    "request_type": "Streetlights",
    "request_reason": "Streetlight Outage/Malfunction",
    "date_created": "2025-06-16T21:31:59.000",
    "date_modified": "2025-06-16T21:32:00.000",
    "request_status": "Pending",
    "responsible_agency": "Department of Public Works",
    "final_address": "7900 Windward Ct",
    "address_councildis": "E",
    "status": "Pending",
    "contractor": "Legacy Professional Services",
    "rowid": "1201678",
    "final_x": "3715167.59781",
    "final_y": "570253.223015",
    "longitude": "-89.96029582323473",
    "latitude": "30.06093176805096",
    "geocoded_column": {
      "latitude": "30.06093176805096",
      "longitude": "-89.96029582323473"
    }
  },
  {
    "service_request": "2025-1201677",
    "request_type": "Streetlights",
    "request_reason": "Streetlight Outage/Malfunction",
    "date_created": "2025-06-16T21:30:44.000",
    "date_modified": "2025-06-16T21:30:46.000",
    "request_status": "Pending",
    "responsible_agency": "Department of Public Works",
    "final_address": "7900 Windward Ct",
    "address_councildis": "E",
    "status": "Pending",
    "contractor": "Legacy Professional Services",
    "rowid": "1201677",
    "final_x": "3715167.59781",
    "final_y": "570253.223015",
    "longitude": "-89.96029582323473",
    "latitude": "30.06093176805096",
    "geocoded_column": {
      "latitude": "30.06093176805096",
      "longitude": "-89.96029582323473"
    }
  },
  {
    "service_request": "2025-1201676",
    "request_type": "Property Maintenance",
    "request_reason": "Property Maintenance",
    "date_created": "2025-06-16T21:24:36.000",
    "date_modified": "2025-06-16T21:24:37.000",
    "request_status": "Pending",
    "responsible_agency": "Department of Code Enforcement",
    "final_address": "1420 General Taylor St",
    "address_councildis": "B",
    "status": "Pending",
    "rowid": "1201676",
    "final_x": "3672592.10459",
    "final_y": "520669.504953",
    "longitude": "-90.09656811197097",
    "latitude": "29.925927819854273",
    "geocoded_column": {
      "latitude": "29.925927819854273",
      "longitude": "-90.09656811197097"
    }
  },
  {
    "service_request": "2025-1201675",
    "request_type": "Health Related Request",
    "request_reason": "Request Health Records (Immunization, Lead and Health)",
    "date_created": "2025-06-16T21:24:25.000",
    "date_modified": "2025-06-16T21:24:33.000",
    "request_status": "Pending",
    "responsible_agency": "Health Department",
    "final_address": "516 Julia St",
    "address_councildis": "B",
    "status": "Pending",
    "rowid": "1201675",
    "final_x": "3681020.34888",
    "final_y": "527824.825279",
    "longitude": "-90.06971355993512",
    "latitude": "29.945349751317867",
    "geocoded_column": {
      "latitude": "29.945349751317867",
      "longitude": "-90.06971355993512"
    }
  },
  {
    "service_request": "2025-1201674",
    "request_type": "Alley Ways",
    "request_reason": "Alley Way Regrading",
    "date_created": "2025-06-16T21:21:32.000",
    "date_modified": "2025-06-16T21:21:34.000",
    "request_status": "Pending",
    "responsible_agency": "Department of Public Works",
    "final_address": "6551 Milne Blvd",
    "address_councildis": "A",
    "status": "Pending",
    "rowid": "1201674",
    "final_x": "3667513.99879",
    "final_y": "551229.651733",
    "longitude": "-90.11156963119375",
    "latitude": "30.010107790270865",
    "geocoded_column": {
      "latitude": "30.010107790270865",
      "longitude": "-90.11156963119375"
    }
  },
  {
    "service_request": "2025-1201673",
    "request_type": "Health Related Request",
    "request_reason": "Request Health Records (Immunization, Lead and Health)",
    "date_created": "2025-06-16T21:21:30.000",
    "date_modified": "2025-06-16T21:21:32.000",
    "request_status": "Pending",
    "responsible_agency": "Health Department",
    "final_address": "516 Julia St",
    "address_councildis": "B",
    "status": "Pending",
    "rowid": "1201673",
    "final_x": "3681020.34888",
    "final_y": "527824.825279",
    "longitude": "-90.06971355993512",
    "latitude": "29.945349751317867",
    "geocoded_column": {
      "latitude": "29.945349751317867",
      "longitude": "-90.06971355993512"
    }
  },
  {
    "service_request": "2025-1201672",
    "request_type": "Streetlights",
    "request_reason": "Streetlight Outage/Malfunction",
    "date_created": "2025-06-16T21:20:57.000",
    "date_modified": "2025-06-16T21:20:59.000",
    "request_status": "Pending",
    "responsible_agency": "Department of Public Works",
    "final_address": "23 Maryland Dr",
    "address_councildis": "A",
    "status": "Pending",
    "contractor": "Legacy Professional Services",
    "rowid": "1201672",
    "final_x": "3663683.81287",
    "final_y": "540695.663627",
    "longitude": "-90.12402190058556",
    "latitude": "29.981254649766434",
    "geocoded_column": {
      "latitude": "29.981254649766434",
      "longitude": "-90.12402190058556"
    }
  },
  {
    "service_request": "2025-1201671",
    "request_type": "Trash/Recycling",
    "request_reason": "Request a Large Item Pick Up",
    "date_created": "2025-06-16T21:08:18.000",
    "date_modified": "2025-06-16T21:08:20.000",
    "request_status": "Pending",
    "responsible_agency": "Department of Sanitation",
    "final_address": "7721 Branch Dr",
    "address_councildis": "E",
    "status": "Assigned to Contractor",
    "contractor": "Waste Pro",
    "rowid": "1201671",
    "final_x": "3714478.73215",
    "final_y": "569102.329638",
    "longitude": "-89.96251681135584",
    "latitude": "30.05778996443443",
    "geocoded_column": {
      "latitude": "30.05778996443443",
      "longitude": "-89.96251681135584"
    }
  },
  {
    "service_request": "2025-1201670",
    "request_type": "Drainage",
    "request_reason": "Catch Basin Clogged",
    "date_created": "2025-06-16T21:07:53.000",
    "date_modified": "2025-06-16T21:07:57.000",
    "request_status": "Pending",
    "responsible_agency": "Sewerage & Water Board",
    "final_address": "5000 BLK Chestnut St",
    "address_councildis": "B",
    "status": "Pending",
    "rowid": "1201670",
    "final_x": "3668515.68983",
    "final_y": "519335.11138",
    "longitude": "-90.10948118113443",
    "latitude": "29.92237901353171",
    "geocoded_column": {
      "latitude": "29.92237901353171",
      "longitude": "-90.10948118113443"
    }
  },
  {
    "service_request": "2025-1201669",
    "request_type": "Property Maintenance",
    "request_reason": "Property Maintenance",
    "date_created": "2025-06-16T20:56:30.000",
    "date_modified": "2025-06-16T20:56:32.000",
    "request_status": "Pending",
    "responsible_agency": "Department of Code Enforcement",
    "final_address": "5602 Hawthorne Pl",
    "address_councildis": "A",
    "status": "Pending",
    "rowid": "1201669",
    "final_x": "3667786.68602",
    "final_y": "544677.359247",
    "longitude": "-90.11092895232332",
    "latitude": "29.992083256471517",
    "geocoded_column": {
      "latitude": "29.992083256471517",
      "longitude": "-90.11092895232332"
    }
  },
  {
    "service_request": "2025-1201668",
    "request_type": "Parks & Parkways",
    "request_reason": "Request Tree Service (Right of Way/Public Property)",
    "date_created": "2025-06-16T20:39:34.000",
    "date_modified": "2025-06-16T20:39:35.000",
    "request_status": "Pending",
    "responsible_agency": "Department of Parks & Parkway",
    "final_address": "1422 Esplanade Ave",
    "address_councildis": "C",
    "status": "Pending",
    "rowid": "1201668",
    "final_x": "3681614.2294",
    "final_y": "536206.879175",
    "longitude": "-90.06754613966545",
    "latitude": "29.968379530399435",
    "geocoded_column": {
      "latitude": "29.968379530399435",
      "longitude": "-90.06754613966545"
    }
  },
  {
    "service_request": "2025-1201667",
    "request_type": "Trash/Recycling",
    "request_reason": "Request a Large Item Pick Up",
    "date_created": "2025-06-16T20:35:29.000",
    "date_modified": "2025-06-16T20:35:31.000",
    "request_status": "Pending",
    "responsible_agency": "Department of Sanitation",
    "final_address": "3715 DHemecourt St",
    "address_councildis": "B",
    "status": "Assigned to Contractor",
    "contractor": "IV Waste",
    "rowid": "1201667",
    "final_x": "3671060.62471",
    "final_y": "535964.173767",
    "longitude": "-90.10088325167906",
    "latitude": "29.968028516645784",
    "geocoded_column": {
      "latitude": "29.968028516645784",
      "longitude": "-90.10088325167906"
    }
  },
  {
    "service_request": "2025-1201666",
    "request_type": "Trash/Recycling",
    "request_reason": "Order Second Trash Cart",
    "date_created": "2025-06-16T20:17:57.000",
    "date_modified": "2025-06-16T20:17:59.000",
    "request_status": "Pending",
    "responsible_agency": "Department of Sanitation",
    "final_address": "218 W Brooks St",
    "address_councildis": "A",
    "status": "Assigned to Contractor",
    "contractor": "IV Waste",
    "rowid": "1201666",
    "final_x": "3665396.63725",
    "final_y": "546560.413649",
    "longitude": "-90.1184155967271",
    "latitude": "29.99733090563569",
    "geocoded_column": {
      "latitude": "29.99733090563569",
      "longitude": "-90.1184155967271"
    }
  },
  {
    "service_request": "2025-1201665",
    "request_type": "Trash/Recycling",
    "request_reason": "Order Trash Cart",
    "date_created": "2025-06-16T20:03:07.000",
    "date_modified": "2025-06-16T20:03:09.000",
    "request_status": "Pending",
    "responsible_agency": "Department of Sanitation",
    "final_address": "1206 Clouet St",
    "address_councildis": "C",
    "status": "Assigned to Contractor",
    "contractor": "IV Waste",
    "rowid": "1201665",
    "final_x": "3689080.38639",
    "final_y": "536431.931719",
    "longitude": "-90.04395973404286",
    "latitude": "29.96876944999195",
    "geocoded_column": {
      "latitude": "29.96876944999195",
      "longitude": "-90.04395973404286"
    }
  },
  {
    "service_request": "2025-1201664",
    "request_type": "Property Maintenance",
    "request_reason": "Property Maintenance",
    "date_created": "2025-06-16T19:54:13.000",
    "date_modified": "2025-06-16T19:54:15.000",
    "request_status": "Pending",
    "responsible_agency": "Department of Code Enforcement",
    "final_address": "1516 Seville Dr",
    "address_councildis": "D",
    "status": "Pending",
    "rowid": "1201664",
    "final_x": "3678889.234",
    "final_y": "551162.060437",
    "longitude": "-90.07563340737457",
    "latitude": "30.009583530465004",
    "geocoded_column": {
      "latitude": "30.009583530465004",
      "longitude": "-90.07563340737457"
    }
  },
  {
    "service_request": "2025-1201663",
    "request_type": "Trash/Recycling",
    "request_reason": "Replace Trash Cart",
    "date_created": "2025-06-16T19:50:30.000",
    "date_modified": "2025-06-16T19:50:33.000",
    "request_status": "Pending",
    "responsible_agency": "Department of Sanitation",
    "final_address": "3832 Delachaise St",
    "address_councildis": "B",
    "status": "Assigned to Contractor",
    "contractor": "IV Waste",
    "rowid": "1201663",
    "final_x": "3670997.52731",
    "final_y": "528851.336512",
    "longitude": "-90.10132403445864",
    "latitude": "29.948472437913967",
    "geocoded_column": {
      "latitude": "29.948472437913967",
      "longitude": "-90.10132403445864"
    }
  },
  {
    "service_request": "2025-1201662",
    "request_type": "Roads and Streets",
    "request_reason": "Debris in Driving Lanes",
    "date_created": "2025-06-16T19:47:12.000",
    "date_modified": "2025-06-16T19:47:14.000",
    "request_status": "Pending",
    "responsible_agency": "Department of Public Works",
    "final_address": "4603 S Derbigny St",
    "address_councildis": "B",
    "status": "Pending",
    "rowid": "1201662",
    "final_x": "3669512.6091",
    "final_y": "526205.893502",
    "longitude": "-90.10610201598439",
    "latitude": "29.94124214717398",
    "geocoded_column": {
      "latitude": "29.94124214717398",
      "longitude": "-90.10610201598439"
    }
  },
  {
    "service_request": "2025-1201661",
    "request_type": "Abandoned Vehicles",
    "request_reason": "Abandoned/Junk Vehicles",
    "date_created": "2025-06-16T19:44:31.000",
    "date_modified": "2025-06-16T19:44:33.000",
    "request_status": "Pending",
    "responsible_agency": "Department of Public Works",
    "final_address": "2733 Constance St",
    "address_councildis": "B",
    "status": "Pending",
    "rowid": "1201661",
    "final_x": "3677286.24053",
    "final_y": "520565.019448",
    "longitude": "-90.08175370540431",
    "latitude": "29.92550036831288",
    "geocoded_column": {
      "latitude": "29.92550036831288",
      "longitude": "-90.08175370540431"
    }
  },
  {
    "service_request": "2025-1201660",
    "request_type": "Utility Poles",
    "request_reason": "Wires Sagging/Hanging Low",
    "date_created": "2025-06-16T19:35:56.000",
    "date_modified": "2025-06-16T19:36:00.000",
    "request_status": "Pending",
    "responsible_agency": "Utility Company Collective",
    "final_address": "0 BLK Blanc Pl",
    "address_councildis": "B",
    "status": "Pending",
    "rowid": "1201660",
    "final_x": "3667951.08401",
    "final_y": "520874.262829",
    "longitude": "-90.11121159835395",
    "latitude": "29.926627762655404",
    "geocoded_column": {
      "latitude": "29.926627762655404",
      "longitude": "-90.11121159835395"
    }
  },
  {
    "service_request": "2025-1201659",
    "request_type": "Streetlights",
    "request_reason": "Streetlight Outage/Malfunction",
    "date_created": "2025-06-16T19:23:35.000",
    "date_modified": "2025-06-16T19:23:37.000",
    "request_status": "Pending",
    "responsible_agency": "Department of Public Works",
    "final_address": "4713 Bright Dr",
    "address_councildis": "E",
    "status": "Pending",
    "contractor": "Legacy Professional Services",
    "rowid": "1201659",
    "final_x": "3715915.48204",
    "final_y": "556782.904602",
    "longitude": "-89.95844271092068",
    "latitude": "30.023869194760447",
    "geocoded_column": {
      "latitude": "30.023869194760447",
      "longitude": "-89.95844271092068"
    }
  },
  {
    "service_request": "2025-1201658",
    "request_type": "Trash/Recycling",
    "request_reason": "Damaged Caused By Contractor",
    "date_created": "2025-06-16T19:15:28.000",
    "date_modified": "2025-06-16T19:15:30.000",
    "request_status": "Pending",
    "responsible_agency": "Department of Sanitation",
    "final_address": "2611 Palmyra St",
    "address_councildis": "B",
    "status": "Assigned to Contractor",
    "contractor": "IV Waste",
    "rowid": "1201658",
    "final_x": "3675256.9691",
    "final_y": "534222.639941",
    "longitude": "-90.08769081566376",
    "latitude": "29.96311511292509",
    "geocoded_column": {
      "latitude": "29.96311511292509",
      "longitude": "-90.08769081566376"
    }
  },
  {
    "service_request": "2025-1201657",
    "request_type": "Traffic Signals",
    "request_reason": "Traffic Signal Malfunctioning or Damaged",
    "date_created": "2025-06-16T19:14:43.000",
    "date_modified": "2025-06-16T19:14:46.000",
    "request_status": "Pending",
    "responsible_agency": "Department of Public Works",
    "final_address": "1500 BLK Elysian Fields Ave",
    "address_councildis": "D",
    "status": "Pending",
    "rowid": "1201657",
    "final_x": "3684816.99122",
    "final_y": "538077.998763",
    "longitude": "-90.05736588125019",
    "latitude": "29.97342678610034",
    "geocoded_column": {
      "latitude": "29.97342678610034",
      "longitude": "-90.05736588125019"
    }
  },
  {
    "service_request": "2025-1201656",
    "request_type": "Traffic Signals",
    "request_reason": "Traffic Signal Malfunctioning or Damaged",
    "date_created": "2025-06-16T19:00:52.000",
    "date_modified": "2025-06-16T19:00:54.000",
    "request_status": "Pending",
    "responsible_agency": "Department of Public Works",
    "final_address": "1531 Elysian Fields Ave",
    "address_councildis": "C",
    "status": "Pending",
    "rowid": "1201656",
    "final_x": "3685028.90185",
    "final_y": "538057.179337",
    "longitude": "-90.05669735730123",
    "latitude": "29.973363049714713",
    "geocoded_column": {
      "latitude": "29.973363049714713",
      "longitude": "-90.05669735730123"
    }
  },
  {
    "service_request": "2025-1201655",
    "request_type": "Street and Traffic Signs",
    "request_reason": "Stop Sign Missing or Damaged",
    "date_created": "2025-06-16T18:57:06.000",
    "date_modified": "2025-06-16T18:57:08.000",
    "request_status": "Pending",
    "responsible_agency": "Department of Public Works",
    "final_address": "1800 BLK Saint Roch Ave",
    "address_councildis": "D",
    "status": "Pending",
    "rowid": "1201655",
    "final_x": "3686098.62252",
    "final_y": "539171.635683",
    "longitude": "-90.05327964745959",
    "latitude": "29.976394599523815",
    "geocoded_column": {
      "latitude": "29.976394599523815",
      "longitude": "-90.05327964745959"
    }
  },
  {
    "service_request": "2025-1201654",
    "request_type": "Trash/Recycling",
    "request_reason": "Return Trash Cart",
    "date_created": "2025-06-16T18:50:48.000",
    "date_modified": "2025-06-16T18:50:50.000",
    "request_status": "Pending",
    "responsible_agency": "Department of Sanitation",
    "final_address": "5314 Florida Ave",
    "address_councildis": "E",
    "status": "Assigned to Contractor",
    "contractor": "Waste Pro",
    "rowid": "1201654",
    "final_x": "3698624.35504",
    "final_y": "539979.629387",
    "longitude": "-90.01369045805612",
    "latitude": "29.978225588732805",
    "geocoded_column": {
      "latitude": "29.978225588732805",
      "longitude": "-90.01369045805612"
    }
  },
  {
    "service_request": "2025-1201653",
    "request_type": "Trash/Recycling",
    "request_reason": "Start Trash Service",
    "date_created": "2025-06-16T18:46:44.000",
    "date_modified": "2025-06-16T18:46:47.000",
    "request_status": "Pending",
    "responsible_agency": "Department of Sanitation",
    "final_address": "8616 Cohn St",
    "address_councildis": "A",
    "status": "Assigned to Contractor",
    "contractor": "IV Waste",
    "rowid": "1201653",
    "final_x": "3662176.48563",
    "final_y": "531451.799683",
    "longitude": "-90.12908959536696",
    "latitude": "29.955880715747547",
    "geocoded_column": {
      "latitude": "29.955880715747547",
      "longitude": "-90.12908959536696"
    }
  },
  {
    "service_request": "2025-1201652",
    "request_type": "Mosquito, Termite & Rodent Control",
    "request_reason": "Mosquito Complaint",
    "date_created": "2025-06-16T18:46:38.000",
    "date_modified": "2025-06-16T18:46:40.000",
    "request_status": "Pending",
    "responsible_agency": "Mosquito, Termite & Rodent Control Board",
    "final_address": "5318 Florida Ave",
    "address_councildis": "E",
    "status": "Pending",
    "rowid": "1201652",
    "final_x": "3698654.68752",
    "final_y": "539971.976075",
    "longitude": "-90.01359493616758",
    "latitude": "29.978203584321427",
    "geocoded_column": {
      "latitude": "29.978203584321427",
      "longitude": "-90.01359493616758"
    }
  },
  {
    "service_request": "2025-1201651",
    "request_type": "Mosquito, Termite & Rodent Control",
    "request_reason": "Mosquito Complaint",
    "date_created": "2025-06-16T18:46:38.000",
    "date_modified": "2025-06-16T18:46:39.000",
    "request_status": "Pending",
    "responsible_agency": "Mosquito, Termite & Rodent Control Board",
    "final_address": "5318 Florida Ave",
    "address_councildis": "E",
    "status": "Pending",
    "rowid": "1201651",
    "final_x": "3698654.68752",
    "final_y": "539971.976075",
    "longitude": "-90.01359493616758",
    "latitude": "29.978203584321427",
    "geocoded_column": {
      "latitude": "29.978203584321427",
      "longitude": "-90.01359493616758"
    }
  },
  {
    "service_request": "2025-1201650",
    "request_type": "Parks & Parkways",
    "request_reason": "Request Tree Service (Right of Way/Public Property)",
    "date_created": "2025-06-16T18:45:06.000",
    "date_modified": "2025-06-16T18:45:07.000",
    "request_status": "Pending",
    "responsible_agency": "Department of Parks & Parkway",
    "final_address": "6025 Berkley Dr",
    "address_councildis": "C",
    "status": "Pending",
    "rowid": "1201650",
    "final_x": "3706389.84382",
    "final_y": "518043.850934",
    "longitude": "-89.98997669394213",
    "latitude": "29.91766184956741",
    "geocoded_column": {
      "latitude": "29.91766184956741",
      "longitude": "-89.98997669394213"
    }
  },
  {
    "service_request": "2025-1201649",
    "request_type": "Trash/Recycling",
    "request_reason": "Order Recycling Cart",
    "date_created": "2025-06-16T18:44:58.000",
    "date_modified": "2025-06-16T18:44:59.000",
    "request_status": "Pending",
    "responsible_agency": "Department of Sanitation",
    "final_address": "8616 Cohn St",
    "address_councildis": "A",
    "status": "Pending",
    "rowid": "1201649",
    "final_x": "3662176.48563",
    "final_y": "531451.799683",
    "longitude": "-90.12908959536696",
    "latitude": "29.955880715747547",
    "geocoded_column": {
      "latitude": "29.955880715747547",
      "longitude": "-90.12908959536696"
    }
  },
  {
    "service_request": "2025-1201648",
    "request_type": "Mosquito, Termite & Rodent Control",
    "request_reason": "Mosquito Complaint",
    "date_created": "2025-06-16T18:44:54.000",
    "date_modified": "2025-06-16T18:44:56.000",
    "request_status": "Pending",
    "responsible_agency": "Mosquito, Termite & Rodent Control Board",
    "final_address": "4751 Lennox Blvd",
    "address_councildis": "C",
    "status": "Pending",
    "rowid": "1201648",
    "final_x": "3700648.75697",
    "final_y": "513113.321713",
    "longitude": "-90.00827795867319",
    "latitude": "29.904288391246283",
    "geocoded_column": {
      "latitude": "29.904288391246283",
      "longitude": "-90.00827795867319"
    }
  },
  {
    "service_request": "2025-1201647",
    "request_type": "Mosquito, Termite & Rodent Control",
    "request_reason": "Mosquito Complaint",
    "date_created": "2025-06-16T18:43:42.000",
    "date_modified": "2025-06-16T18:43:43.000",
    "request_status": "Pending",
    "responsible_agency": "Mosquito, Termite & Rodent Control Board",
    "final_address": "5314 Florida Ave",
    "address_councildis": "E",
    "status": "Pending",
    "rowid": "1201647",
    "final_x": "3698624.35504",
    "final_y": "539979.629387",
    "longitude": "-90.01369045805612",
    "latitude": "29.978225588732805",
    "geocoded_column": {
      "latitude": "29.978225588732805",
      "longitude": "-90.01369045805612"
    }
  },
  {
    "service_request": "2025-1201646",
    "request_type": "Trash/Recycling",
    "request_reason": "Order Trash Cart",
    "date_created": "2025-06-16T18:43:03.000",
    "date_modified": "2025-06-16T18:43:04.000",
    "request_status": "Pending",
    "responsible_agency": "Department of Sanitation",
    "final_address": "8616 Cohn St",
    "address_councildis": "A",
    "status": "Assigned to Contractor",
    "contractor": "IV Waste",
    "rowid": "1201646",
    "final_x": "3662176.48563",
    "final_y": "531451.799683",
    "longitude": "-90.12908959536696",
    "latitude": "29.955880715747547",
    "geocoded_column": {
      "latitude": "29.955880715747547",
      "longitude": "-90.12908959536696"
    }
  },
  {
    "service_request": "2025-1201645",
    "request_type": "Property Maintenance",
    "request_reason": "Property Maintenance",
    "date_created": "2025-06-16T18:28:51.000",
    "date_modified": "2025-06-16T18:28:52.000",
    "request_status": "Pending",
    "responsible_agency": "Department of Code Enforcement",
    "final_address": "2221 Onzaga St",
    "address_councildis": "D",
    "status": "Pending",
    "rowid": "1201645",
    "final_x": "3680580.1005",
    "final_y": "539509.36673",
    "longitude": "-90.07069704173088",
    "latitude": "29.977491602436682",
    "geocoded_column": {
      "latitude": "29.977491602436682",
      "longitude": "-90.07069704173088"
    }
  },
  {
    "service_request": "2025-1201644",
    "request_type": "Trash/Recycling",
    "request_reason": "Repair Recycling Cart",
    "date_created": "2025-06-16T18:21:02.000",
    "date_modified": "2025-06-16T18:21:04.000",
    "request_status": "Pending",
    "responsible_agency": "Department of Sanitation",
    "final_address": "6025 Berkley Dr",
    "address_councildis": "C",
    "status": "Pending",
    "rowid": "1201644",
    "final_x": "3706389.84382",
    "final_y": "518043.850934",
    "longitude": "-89.98997669394213",
    "latitude": "29.91766184956741",
    "geocoded_column": {
      "latitude": "29.91766184956741",
      "longitude": "-89.98997669394213"
    }
  },
  {
    "service_request": "2025-1201643",
    "request_type": "Trash/Recycling",
    "request_reason": "Dead Animal Pick Up",
    "date_created": "2025-06-16T18:17:17.000",
    "date_modified": "2025-06-16T18:17:19.000",
    "request_status": "Pending",
    "responsible_agency": "Department of Sanitation",
    "final_address": "432 14Th St",
    "address_councildis": "A",
    "status": "Assigned to Contractor",
    "contractor": "IV Waste",
    "rowid": "1201643",
    "final_x": "3664494.42266",
    "final_y": "548120.031954",
    "longitude": "-90.12121355506527",
    "latitude": "30.001645593735713",
    "geocoded_column": {
      "latitude": "30.001645593735713",
      "longitude": "-90.12121355506527"
    }
  },
  {
    "service_request": "2025-1201642",
    "request_type": "Trash/Recycling",
    "request_reason": "Repair Trash Cart",
    "date_created": "2025-06-16T18:15:37.000",
    "date_modified": "2025-06-16T18:15:38.000",
    "request_status": "Pending",
    "responsible_agency": "Department of Sanitation",
    "final_address": "6025 Berkley Dr",
    "address_councildis": "C",
    "status": "Assigned to Contractor",
    "contractor": "Richards Disposal",
    "rowid": "1201642",
    "final_x": "3706389.84382",
    "final_y": "518043.850934",
    "longitude": "-89.98997669394213",
    "latitude": "29.91766184956741",
    "geocoded_column": {
      "latitude": "29.91766184956741",
      "longitude": "-89.98997669394213"
    }
  },
  {
    "service_request": "2025-1201641",
    "request_type": "Mosquito, Termite & Rodent Control",
    "request_reason": "Mosquito Complaint",
    "date_created": "2025-06-16T18:14:03.000",
    "date_modified": "2025-06-16T18:14:06.000",
    "request_status": "Pending",
    "responsible_agency": "Mosquito, Termite & Rodent Control Board",
    "final_address": "2247 Milton St",
    "address_councildis": "D",
    "status": "Pending",
    "rowid": "1201641",
    "final_x": "3684419.22722",
    "final_y": "546722.052945",
    "longitude": "-90.05831832750751",
    "latitude": "29.997207053852595",
    "geocoded_column": {
      "latitude": "29.997207053852595",
      "longitude": "-90.05831832750751"
    }
  },
  {
    "service_request": "2025-1201640",
    "request_type": "Mosquito, Termite & Rodent Control",
    "request_reason": "Rodent Complaint (Mice & Rats)",
    "date_created": "2025-06-16T18:06:53.000",
    "date_modified": "2025-06-16T18:06:55.000",
    "request_status": "Pending",
    "responsible_agency": "Mosquito, Termite & Rodent Control Board",
    "final_address": "1547 Leda St",
    "address_councildis": "A",
    "status": "Pending",
    "rowid": "1201640",
    "final_x": "3675698.75361",
    "final_y": "541841.050444",
    "longitude": "-90.08603382857136",
    "latitude": "29.984049928303698",
    "geocoded_column": {
      "latitude": "29.984049928303698",
      "longitude": "-90.08603382857136"
    }
  },
  {
    "service_request": "2025-1201639",
    "request_type": "Property Maintenance",
    "request_reason": "Property Maintenance",
    "date_created": "2025-06-16T18:02:54.000",
    "date_modified": "2025-06-16T18:02:56.000",
    "request_status": "Pending",
    "responsible_agency": "Department of Code Enforcement",
    "final_address": "1427 France St",
    "address_councildis": "D",
    "status": "Pending",
    "rowid": "1201639",
    "final_x": "3692753.38237",
    "final_y": "536473.102535",
    "longitude": "-90.03235876464868",
    "latitude": "29.968768498233175",
    "geocoded_column": {
      "latitude": "29.968768498233175",
      "longitude": "-90.03235876464868"
    }
  },
  {
    "service_request": "2025-1201638",
    "request_type": "Drainage",
    "request_reason": "Catch Basin Clogged",
    "date_created": "2025-06-16T17:59:42.000",
    "date_modified": "2025-06-16T17:59:44.000",
    "request_status": "Pending",
    "responsible_agency": "Sewerage & Water Board",
    "final_address": "2247 Milton St",
    "address_councildis": "D",
    "status": "Pending",
    "rowid": "1201638",
    "final_x": "3684419.22722",
    "final_y": "546722.052945",
    "longitude": "-90.05831832750751",
    "latitude": "29.997207053852595",
    "geocoded_column": {
      "latitude": "29.997207053852595",
      "longitude": "-90.05831832750751"
    }
  },
  {
    "service_request": "2025-1201637",
    "request_type": "Trash/Recycling",
    "request_reason": "Order Second Trash Cart",
    "date_created": "2025-06-16T17:58:25.000",
    "date_modified": "2025-06-16T17:58:28.000",
    "request_status": "Pending",
    "responsible_agency": "Department of Sanitation",
    "final_address": "3651 Rue Michelle",
    "address_councildis": "C",
    "status": "Assigned to Contractor",
    "contractor": "Richards Disposal",
    "rowid": "1201637",
    "final_x": "3703529.5731",
    "final_y": "517070.400437",
    "longitude": "-89.99904068755625",
    "latitude": "29.91507709047361",
    "geocoded_column": {
      "latitude": "29.91507709047361",
      "longitude": "-89.99904068755625"
    }
  },
  {
    "service_request": "2025-1201636",
    "request_type": "Property Maintenance",
    "request_reason": "Property Maintenance",
    "date_created": "2025-06-16T17:53:35.000",
    "date_modified": "2025-06-16T17:53:38.000",
    "request_status": "Pending",
    "responsible_agency": "Department of Code Enforcement",
    "final_address": "11041 Yardley Rd",
    "address_councildis": "E",
    "status": "Pending",
    "rowid": "1201636",
    "final_x": "3712110.29182",
    "final_y": "563868.387425",
    "longitude": "-89.97019990043422",
    "latitude": "30.04347644487705",
    "geocoded_column": {
      "latitude": "30.04347644487705",
      "longitude": "-89.97019990043422"
    }
  },
  {
    "service_request": "2025-1201635",
    "request_type": "Street and Traffic Signs",
    "request_reason": "Additional Signage Request",
    "date_created": "2025-06-16T17:48:13.000",
    "date_modified": "2025-06-16T17:48:16.000",
    "request_status": "Pending",
    "responsible_agency": "Department of Public Works",
    "final_address": "600 Mazant St",
    "address_councildis": "C",
    "status": "Pending",
    "rowid": "1201635",
    "final_x": "3691618.40579",
    "final_y": "533431.991108",
    "longitude": "-90.03605180827898",
    "latitude": "29.960441894149305",
    "geocoded_column": {
      "latitude": "29.960441894149305",
      "longitude": "-90.03605180827898"
    }
  },
  {
    "service_request": "2025-1201633",
    "request_type": "Abandoned Vehicles",
    "request_reason": "Abandoned/Junk Vehicles",
    "date_created": "2025-06-16T17:35:21.000",
    "date_modified": "2025-06-16T17:35:22.000",
    "request_status": "Pending",
    "responsible_agency": "Department of Public Works",
    "final_address": "2613 Dryades St Apt B",
    "address_councildis": "B",
    "status": "Pending",
    "rowid": "1201633",
    "final_x": "3675694.16379",
    "final_y": "523755.264507",
    "longitude": "-90.086669837746",
    "latitude": "29.934320226917798",
    "geocoded_column": {
      "latitude": "29.934320226917798",
      "longitude": "-90.086669837746"
    }
  },
  {
    "service_request": "2025-1201632",
    "request_type": "Drainage",
    "request_reason": "Catch Basin Clogged",
    "date_created": "2025-06-16T17:35:19.000",
    "date_modified": "2025-06-16T17:35:21.000",
    "request_status": "Pending",
    "responsible_agency": "Sewerage & Water Board",
    "final_address": "900 Howard Ave",
    "address_councildis": "B",
    "status": "Pending",
    "rowid": "1201632",
    "final_x": "3679280.57096",
    "final_y": "527611.107455",
    "longitude": "-90.07521400248727",
    "latitude": "29.944814739164837",
    "geocoded_column": {
      "latitude": "29.944814739164837",
      "longitude": "-90.07521400248727"
    }
  },
  {
    "service_request": "2025-1201631",
    "request_type": "Trash/Recycling",
    "request_reason": "Replace Trash Cart",
    "date_created": "2025-06-16T17:34:36.000",
    "date_modified": "2025-06-16T17:34:39.000",
    "request_status": "Pending",
    "responsible_agency": "Department of Sanitation",
    "final_address": "3501 Rue Colette",
    "address_councildis": "C",
    "status": "Assigned to Contractor",
    "contractor": "Richards Disposal",
    "rowid": "1201631",
    "final_x": "3704484.40548",
    "final_y": "517796.88031",
    "longitude": "-89.99600015275966",
    "latitude": "29.917044052642023",
    "geocoded_column": {
      "latitude": "29.917044052642023",
      "longitude": "-89.99600015275966"
    }
  },
  {
    "service_request": "2025-1201630",
    "request_type": "Parks & Parkways",
    "request_reason": "Request Tree Service (Right of Way/Public Property)",
    "date_created": "2025-06-16T17:23:04.000",
    "date_modified": "2025-06-16T17:23:06.000",
    "request_status": "Pending",
    "responsible_agency": "Department of Parks & Parkway",
    "final_address": "1420 Dauphine St",
    "address_councildis": "C",
    "status": "Pending",
    "rowid": "1201630",
    "final_x": "3683625.04668",
    "final_y": "535007.95239",
    "longitude": "-90.06123792604143",
    "latitude": "29.965021663999185",
    "geocoded_column": {
      "latitude": "29.965021663999185",
      "longitude": "-90.06123792604143"
    }
  },
  {
    "service_request": "2025-1201629",
    "request_type": "Trash/Recycling",
    "request_reason": "Request a Large Item Pick Up",
    "date_created": "2025-06-16T17:19:59.000",
    "date_modified": "2025-06-16T17:20:01.000",
    "request_status": "Pending",
    "responsible_agency": "Department of Sanitation",
    "final_address": "6042 Milne Blvd",
    "address_councildis": "A",
    "status": "Assigned to Contractor",
    "contractor": "IV Waste",
    "rowid": "1201629",
    "final_x": "3666999.20154",
    "final_y": "547900.732882",
    "longitude": "-90.1133080536628",
    "latitude": "30.00096950283612",
    "geocoded_column": {
      "latitude": "30.00096950283612",
      "longitude": "-90.1133080536628"
    }
  },
  {
    "service_request": "2025-1201628",
    "request_type": "Abandoned Vehicles",
    "request_reason": "Abandoned/Junk Vehicles",
    "date_created": "2025-06-16T17:19:47.000",
    "date_modified": "2025-06-16T17:19:50.000",
    "request_status": "Pending",
    "responsible_agency": "Department of Public Works",
    "final_address": "2613 Dryades St Apt B",
    "address_councildis": "B",
    "status": "Pending",
    "rowid": "1201628",
    "final_x": "3675694.16379",
    "final_y": "523755.264507",
    "longitude": "-90.086669837746",
    "latitude": "29.934320226917798",
    "geocoded_column": {
      "latitude": "29.934320226917798",
      "longitude": "-90.086669837746"
    }
  },
  {
    "service_request": "2025-1201627",
    "request_type": "Abandoned Vehicles",
    "request_reason": "Abandoned/Junk Vehicles",
    "date_created": "2025-06-16T17:12:55.000",
    "date_modified": "2025-06-16T17:12:57.000",
    "request_status": "Pending",
    "responsible_agency": "Department of Public Works",
    "final_address": "2613 Dryades St Apt B",
    "address_councildis": "B",
    "status": "Pending",
    "rowid": "1201627",
    "final_x": "3675694.16379",
    "final_y": "523755.264507",
    "longitude": "-90.086669837746",
    "latitude": "29.934320226917798",
    "geocoded_column": {
      "latitude": "29.934320226917798",
      "longitude": "-90.086669837746"
    }
  },
  {
    "service_request": "2025-1201626",
    "request_type": "General Services",
    "request_reason": "General Service Request",
    "date_created": "2025-06-16T17:00:10.000",
    "date_modified": "2025-06-16T17:00:13.000",
    "request_status": "Pending",
    "responsible_agency": "Orleans Parish Communication District",
    "final_address": "5920 Jamison St",
    "address_councildis": "D",
    "status": "Pending",
    "rowid": "1201626",
    "final_x": "3696242.18851",
    "final_y": "553494.894103",
    "longitude": "-90.02072516996958",
    "latitude": "30.015462810705714",
    "geocoded_column": {
      "latitude": "30.015462810705714",
      "longitude": "-90.02072516996958"
    }
  },
  {
    "service_request": "2025-1201625",
    "request_type": "Streetlights",
    "request_reason": "Streetlight Outage/Malfunction",
    "date_created": "2025-06-16T16:58:36.000",
    "date_modified": "2025-06-16T16:58:38.000",
    "request_status": "Pending",
    "responsible_agency": "Department of Public Works",
    "final_address": "5920 Jamison St",
    "address_councildis": "D",
    "status": "Pending",
    "contractor": "Legacy Professional Services",
    "rowid": "1201625",
    "final_x": "3696242.18851",
    "final_y": "553494.894103",
    "longitude": "-90.02072516996958",
    "latitude": "30.015462810705714",
    "geocoded_column": {
      "latitude": "30.015462810705714",
      "longitude": "-90.02072516996958"
    }
  },
  {
    "service_request": "2025-1201624",
    "request_type": "Trash/Recycling",
    "request_reason": "Replace Trash Cart",
    "date_created": "2025-06-16T16:54:02.000",
    "date_modified": "2025-06-16T16:54:05.000",
    "request_status": "Pending",
    "responsible_agency": "Department of Sanitation",
    "final_address": "5222 Annunciation St",
    "address_councildis": "B",
    "status": "Assigned to Contractor",
    "contractor": "IV Waste",
    "rowid": "1201624",
    "final_x": "3667812.88884",
    "final_y": "517527.868022",
    "longitude": "-90.11176046276528",
    "latitude": "29.91743028482488",
    "geocoded_column": {
      "latitude": "29.91743028482488",
      "longitude": "-90.11176046276528"
    }
  },
  {
    "service_request": "2025-1201623",
    "request_type": "Trash/Recycling",
    "request_reason": "Request a Large Item Pick Up",
    "date_created": "2025-06-16T16:51:26.000",
    "date_modified": "2025-06-16T16:51:27.000",
    "request_status": "Pending",
    "responsible_agency": "Department of Sanitation",
    "final_address": "7630 Lafourche St",
    "address_councildis": "E",
    "status": "Assigned to Contractor",
    "contractor": "Waste Pro",
    "rowid": "1201623",
    "final_x": "3710184.25118",
    "final_y": "565502.497826",
    "longitude": "-89.97622578348742",
    "latitude": "30.048032452501335",
    "geocoded_column": {
      "latitude": "30.048032452501335",
      "longitude": "-89.97622578348742"
    }
  },
  {
    "service_request": "2025-1201622",
    "request_type": "Trash/Recycling",
    "request_reason": "Request a Large Item Pick Up",
    "date_created": "2025-06-16T16:49:39.000",
    "date_modified": "2025-06-16T17:41:59.000",
    "case_close_date": "2025-06-16T12:41:57.000",
    "request_status": "Closed",
    "responsible_agency": "Department of Sanitation",
    "final_address": "7626 Lafourche St",
    "address_councildis": "E",
    "status": "Invalid Request",
    "contractor": "Waste Pro",
    "contractor_action": "Invalid",
    "rowid": "1201622",
    "final_x": "3710204.20069",
    "final_y": "565451.554402",
    "longitude": "-89.97616463931737",
    "latitude": "30.047891728930445",
    "geocoded_column": {
      "latitude": "30.047891728930445",
      "longitude": "-89.97616463931737"
    }
  },
  {
    "service_request": "2025-1201621",
    "request_type": "Trash/Recycling",
    "request_reason": "Request a Large Item Pick Up",
    "date_created": "2025-06-16T16:47:23.000",
    "date_modified": "2025-06-16T16:47:25.000",
    "request_status": "Pending",
    "responsible_agency": "Department of Sanitation",
    "final_address": "7625 Lady Gray St",
    "address_councildis": "E",
    "status": "Assigned to Contractor",
    "contractor": "Waste Pro",
    "rowid": "1201621",
    "final_x": "3709993.01029",
    "final_y": "565324.215266",
    "longitude": "-89.97683687860402",
    "latitude": "30.04754847379839",
    "geocoded_column": {
      "latitude": "30.04754847379839",
      "longitude": "-89.97683687860402"
    }
  },
  {
    "service_request": "2025-1201620",
    "request_type": "Trash/Recycling",
    "request_reason": "Request a Large Item Pick Up",
    "date_created": "2025-06-16T16:47:02.000",
    "date_modified": "2025-06-16T16:47:04.000",
    "request_status": "Pending",
    "responsible_agency": "Department of Sanitation",
    "final_address": "7421 Prytania St",
    "address_councildis": "A",
    "status": "Assigned to Contractor",
    "contractor": "IV Waste",
    "rowid": "1201620",
    "final_x": "3661108.57197",
    "final_y": "523195.824123",
    "longitude": "-90.13273486698677",
    "latitude": "29.933210228661174",
    "geocoded_column": {
      "latitude": "29.933210228661174",
      "longitude": "-90.13273486698677"
    }
  },
  {
    "service_request": "2025-1201619",
    "request_type": "Trash/Recycling",
    "request_reason": "Request a Large Item Pick Up",
    "date_created": "2025-06-16T16:45:04.000",
    "date_modified": "2025-06-16T16:45:06.000",
    "request_status": "Pending",
    "responsible_agency": "Department of Sanitation",
    "final_address": "620 Opelousas Ave",
    "address_councildis": "C",
    "status": "Assigned to Contractor",
    "contractor": "Richards Disposal",
    "rowid": "1201619",
    "final_x": "3687434.51382",
    "final_y": "529211.46336",
    "longitude": "-90.04941299029124",
    "latitude": "29.948966478114226",
    "geocoded_column": {
      "latitude": "29.948966478114226",
      "longitude": "-90.04941299029124"
    }
  },
  {
    "service_request": "2025-1201618",
    "request_type": "Trash/Recycling",
    "request_reason": "Repair Trash Cart",
    "date_created": "2025-06-16T16:44:25.000",
    "date_modified": "2025-06-16T16:44:27.000",
    "request_status": "Pending",
    "responsible_agency": "Department of Sanitation",
    "final_address": "6996 Ridgefield Dr",
    "address_councildis": "E",
    "status": "Assigned to Contractor",
    "contractor": "Waste Pro",
    "rowid": "1201618",
    "final_x": "3719511.23525",
    "final_y": "569312.105766",
    "longitude": "-89.94660185265748",
    "latitude": "30.058200258294963",
    "geocoded_column": {
      "latitude": "30.058200258294963",
      "longitude": "-89.94660185265748"
    }
  },
  {
    "service_request": "2025-1201617",
    "request_type": "Abandoned Vehicles",
    "request_reason": "Abandoned/Junk Vehicles",
    "date_created": "2025-06-16T16:44:01.000",
    "date_modified": "2025-06-16T16:44:03.000",
    "request_status": "Pending",
    "responsible_agency": "Department of Public Works",
    "final_address": "1427 France St",
    "address_councildis": "D",
    "status": "Pending",
    "rowid": "1201617",
    "final_x": "3692753.38237",
    "final_y": "536473.102535",
    "longitude": "-90.03235876464868",
    "latitude": "29.968768498233175",
    "geocoded_column": {
      "latitude": "29.968768498233175",
      "longitude": "-90.03235876464868"
    }
  },
  {
    "service_request": "2025-1201616",
    "request_type": "Trash/Recycling",
    "request_reason": "Order Trash Cart",
    "date_created": "2025-06-16T16:42:47.000",
    "date_modified": "2025-06-16T16:42:49.000",
    "request_status": "Pending",
    "responsible_agency": "Department of Sanitation",
    "final_address": "4837 Bonita Dr",
    "address_councildis": "E",
    "status": "Assigned to Contractor",
    "contractor": "Waste Pro",
    "rowid": "1201616",
    "final_x": "3704508.43921",
    "final_y": "555905.868441",
    "longitude": "-89.99451883500343",
    "latitude": "30.021829100264526",
    "geocoded_column": {
      "latitude": "30.021829100264526",
      "longitude": "-89.99451883500343"
    }
  },
  {
    "service_request": "2025-1201615",
    "request_type": "Trash/Recycling",
    "request_reason": "Request a Large Item Pick Up",
    "date_created": "2025-06-16T16:42:13.000",
    "date_modified": "2025-06-16T16:42:14.000",
    "request_status": "Pending",
    "responsible_agency": "Department of Sanitation",
    "final_address": "7661 Wave Dr",
    "address_councildis": "E",
    "status": "Assigned to Contractor",
    "contractor": "Waste Pro",
    "rowid": "1201615",
    "final_x": "3714906.95352",
    "final_y": "568974.38167",
    "longitude": "-89.9611681134045",
    "latitude": "30.057424067034063",
    "geocoded_column": {
      "latitude": "30.057424067034063",
      "longitude": "-89.9611681134045"
    }
  },
  {
    "service_request": "2025-1201614",
    "request_type": "Trash/Recycling",
    "request_reason": "Request a Large Item Pick Up",
    "date_created": "2025-06-16T16:39:25.000",
    "date_modified": "2025-06-16T16:39:29.000",
    "request_status": "Pending",
    "responsible_agency": "Department of Sanitation",
    "final_address": "4924 Paris Ave",
    "address_councildis": "D",
    "status": "Assigned to Contractor",
    "contractor": "IV Waste",
    "rowid": "1201614",
    "final_x": "3679134.68175",
    "final_y": "550546.134804",
    "longitude": "-90.07487932318185",
    "latitude": "30.00788254584537",
    "geocoded_column": {
      "latitude": "30.00788254584537",
      "longitude": "-90.07487932318185"
    }
  },
  {
    "service_request": "2025-1201613",
    "request_type": "Trash/Recycling",
    "request_reason": "Request a Large Item Pick Up",
    "date_created": "2025-06-16T16:29:36.000",
    "date_modified": "2025-06-16T16:30:20.000",
    "request_status": "Pending",
    "responsible_agency": "Department of Sanitation",
    "final_address": "529 Royal St",
    "address_councildis": "C",
    "status": "Assigned to Contractor",
    "contractor": "IV Waste",
    "rowid": "1201613",
    "final_x": "3682219.45109",
    "final_y": "532070.519555",
    "longitude": "-90.06577932623672",
    "latitude": "29.95698756055059",
    "geocoded_column": {
      "latitude": "29.95698756055059",
      "longitude": "-90.06577932623672"
    }
  },
  {
    "service_request": "2025-1201612",
    "request_type": "Abandoned Vehicles",
    "request_reason": "Abandoned/Junk Vehicles",
    "date_created": "2025-06-16T16:29:19.000",
    "date_modified": "2025-06-16T16:30:30.000",
    "request_status": "Pending",
    "responsible_agency": "Department of Public Works",
    "final_address": "1265 Tennessee St",
    "address_councildis": "E",
    "status": "Pending",
    "rowid": "1201612",
    "final_x": "3695963.99638",
    "final_y": "534998.761862",
    "longitude": "-90.02227277974603",
    "latitude": "29.964613962267357",
    "geocoded_column": {
      "latitude": "29.964613962267357",
      "longitude": "-90.02227277974603"
    }
  },
  {
    "service_request": "2025-1201611",
    "request_type": "Streetlights",
    "request_reason": "Streetlight Outage/Malfunction",
    "date_created": "2025-06-16T16:28:16.000",
    "date_modified": "2025-06-16T16:28:17.000",
    "request_status": "Pending",
    "responsible_agency": "Department of Public Works",
    "final_address": "6860 Colbert St",
    "address_councildis": "A",
    "status": "Pending",
    "contractor": "Legacy Professional Services",
    "rowid": "1201611",
    "final_x": "3667856.90202",
    "final_y": "553287.315351",
    "longitude": "-90.11041688758415",
    "latitude": "30.015755584660795",
    "geocoded_column": {
      "latitude": "30.015755584660795",
      "longitude": "-90.11041688758415"
    }
  },
  {
    "service_request": "2025-1201610",
    "request_type": "Trash/Recycling",
    "request_reason": "Request a Large Item Pick Up",
    "date_created": "2025-06-16T16:27:40.000",
    "date_modified": "2025-06-16T16:27:42.000",
    "request_status": "Pending",
    "responsible_agency": "Department of Sanitation",
    "final_address": "11051 Harrow Rd",
    "address_councildis": "E",
    "status": "Assigned to Contractor",
    "contractor": "Waste Pro",
    "rowid": "1201610",
    "final_x": "3711980.31032",
    "final_y": "564152.278881",
    "longitude": "-89.97060002265906",
    "latitude": "30.04426128315203",
    "geocoded_column": {
      "latitude": "30.04426128315203",
      "longitude": "-89.97060002265906"
    }
  },
  {
    "service_request": "2025-1201609",
    "request_type": "Roads and Streets",
    "request_reason": "Abandoned Service Cut",
    "date_created": "2025-06-16T16:25:42.000",
    "date_modified": "2025-06-16T16:25:45.000",
    "request_status": "Pending",
    "responsible_agency": "Department of Public Works",
    "final_address": "4910 Mexico St",
    "address_councildis": "D",
    "status": "Pending",
    "rowid": "1201609",
    "final_x": "3690737.6982",
    "final_y": "556461.932122",
    "longitude": "-90.03801078296839",
    "latitude": "30.02379329076201",
    "geocoded_column": {
      "latitude": "30.02379329076201",
      "longitude": "-90.03801078296839"
    }
  },
  {
    "service_request": "2025-1201608",
    "request_type": "Trash/Recycling",
    "request_reason": "Replace Trash Cart",
    "date_created": "2025-06-16T16:24:48.000",
    "date_modified": "2025-06-16T16:24:51.000",
    "request_status": "Pending",
    "responsible_agency": "Department of Sanitation",
    "final_address": "909 Burdette St",
    "address_councildis": "A",
    "status": "Assigned to Contractor",
    "contractor": "IV Waste",
    "rowid": "1201608",
    "final_x": "3662175.52109",
    "final_y": "526879.968638",
    "longitude": "-90.12924434247142",
    "latitude": "29.943309676087416",
    "geocoded_column": {
      "latitude": "29.943309676087416",
      "longitude": "-90.12924434247142"
    }
  },
  {
    "service_request": "2025-1201607",
    "request_type": "Trash/Recycling",
    "request_reason": "Repair Trash Cart",
    "date_created": "2025-06-16T16:17:04.000",
    "date_modified": "2025-06-16T16:17:06.000",
    "request_status": "Pending",
    "responsible_agency": "Department of Sanitation",
    "final_address": "10815 Wales St",
    "address_councildis": "E",
    "status": "Assigned to Contractor",
    "contractor": "Waste Pro",
    "rowid": "1201607",
    "final_x": "3709518.21003",
    "final_y": "566314.927267",
    "longitude": "-89.97830046832904",
    "latitude": "30.050287979421107",
    "geocoded_column": {
      "latitude": "30.050287979421107",
      "longitude": "-89.97830046832904"
    }
  },
  {
    "service_request": "2025-1201606",
    "request_type": "Roads and Streets",
    "request_reason": "Pothole",
    "date_created": "2025-06-16T16:16:59.000",
    "date_modified": "2025-06-16T16:17:00.000",
    "request_status": "Pending",
    "responsible_agency": "Department of Public Works",
    "final_address": "2100 BLK Joliet St",
    "address_councildis": "A",
    "status": "Pending",
    "rowid": "1201606",
    "final_x": "3663153.34065",
    "final_y": "531802.059871",
    "longitude": "-90.12599335877177",
    "latitude": "29.956815552161437",
    "geocoded_column": {
      "latitude": "29.956815552161437",
      "longitude": "-90.12599335877177"
    }
  },
  {
    "service_request": "2025-1201605",
    "request_type": "Trash/Recycling",
    "request_reason": "Missed Trash Pick-Up",
    "date_created": "2025-06-16T16:12:17.000",
    "date_modified": "2025-06-16T16:12:18.000",
    "request_status": "Pending",
    "responsible_agency": "Department of Sanitation",
    "final_address": "5520 Red Maple Dr",
    "address_councildis": "E",
    "status": "Assigned to Contractor",
    "contractor": "Waste Pro",
    "rowid": "1201605",
    "final_x": "3723365.14649",
    "final_y": "563661.026145",
    "longitude": "-89.93463826455114",
    "latitude": "30.042533332661062",
    "geocoded_column": {
      "latitude": "30.042533332661062",
      "longitude": "-89.93463826455114"
    }
  },
  {
    "service_request": "2025-1201604",
    "request_type": "Trash/Recycling",
    "request_reason": "Request a Large Item Pick Up",
    "date_created": "2025-06-16T16:11:10.000",
    "date_modified": "2025-06-16T16:11:12.000",
    "request_status": "Pending",
    "responsible_agency": "Department of Sanitation",
    "final_address": "7421 Lake Barrington Dr",
    "address_councildis": "E",
    "status": "Assigned to Contractor",
    "contractor": "Waste Pro",
    "rowid": "1201604",
    "final_x": "3712586.33189",
    "final_y": "565089.967714",
    "longitude": "-89.96864944625833",
    "latitude": "30.04681971721735",
    "geocoded_column": {
      "latitude": "30.04681971721735",
      "longitude": "-89.96864944625833"
    }
  },
  {
    "service_request": "2025-1201603",
    "request_type": "Drainage",
    "request_reason": "Catch Basin Clogged",
    "date_created": "2025-06-16T16:07:52.000",
    "date_modified": "2025-06-16T16:07:56.000",
    "request_status": "Pending",
    "responsible_agency": "Sewerage & Water Board",
    "final_address": "500 S Gayoso St",
    "address_councildis": "B",
    "status": "Pending",
    "rowid": "1201603",
    "final_x": "3673379.19099",
    "final_y": "534541.839493",
    "longitude": "-90.09360972003024",
    "latitude": "29.96404880070456",
    "geocoded_column": {
      "latitude": "29.96404880070456",
      "longitude": "-90.09360972003024"
    }
  },
  {
    "service_request": "2025-1201602",
    "request_type": "Roads and Streets",
    "request_reason": "Pothole",
    "date_created": "2025-06-16T16:04:51.000",
    "date_modified": "2025-06-16T16:04:53.000",
    "request_status": "Pending",
    "responsible_agency": "Department of Public Works",
    "final_address": "MARCONI DR & FILMORE AVE",
    "address_councildis": "A",
    "status": "Pending",
    "rowid": "1201602",
    "final_x": "3671719.4",
    "final_y": "551758.48",
    "longitude": "-90.09826517909926",
    "latitude": "30.01143791529304",
    "geocoded_column": {
      "latitude": "30.01143791529304",
      "longitude": "-90.09826517909926"
    }
  },
  {
    "service_request": "2025-1201601",
    "request_type": "Trash/Recycling",
    "request_reason": "Repair Trash Cart",
    "date_created": "2025-06-16T16:03:07.000",
    "date_modified": "2025-06-16T16:03:13.000",
    "request_status": "Pending",
    "responsible_agency": "Department of Sanitation",
    "final_address": "50 Westpark Dr",
    "address_councildis": "C",
    "status": "Assigned to Contractor",
    "contractor": "Richards Disposal",
    "rowid": "1201601",
    "final_x": "3696499.1064",
    "final_y": "521693.261817",
    "longitude": "-90.0210641560578",
    "latitude": "29.928011627001492",
    "geocoded_column": {
      "latitude": "29.928011627001492",
      "longitude": "-90.0210641560578"
    }
  },
  {
    "service_request": "2025-1201600",
    "request_type": "Parks & Parkways",
    "request_reason": "Request Tree Service (Right of Way/Public Property)",
    "date_created": "2025-06-16T15:59:27.000",
    "date_modified": "2025-06-16T15:59:29.000",
    "request_status": "Pending",
    "responsible_agency": "Department of Parks & Parkway",
    "final_address": "7804 Willow St",
    "address_councildis": "A",
    "status": "Pending",
    "rowid": "1201600",
    "final_x": "3663202.59456",
    "final_y": "528139.629439",
    "longitude": "-90.12595968839852",
    "latitude": "29.946743623263103",
    "geocoded_column": {
      "latitude": "29.946743623263103",
      "longitude": "-90.12595968839852"
    }
  },
  {
    "service_request": "2025-1201599",
    "request_type": "Trash/Recycling",
    "request_reason": "Request a Large Item Pick Up",
    "date_created": "2025-06-16T15:58:10.000",
    "date_modified": "2025-06-16T16:01:33.000",
    "request_status": "Pending",
    "responsible_agency": "Department of Sanitation",
    "final_address": "10900 Lincoln Beach Blvd",
    "address_councildis": "E",
    "status": "Assigned to Contractor",
    "contractor": "Waste Pro",
    "rowid": "1201599",
    "final_x": "3709440.76446",
    "final_y": "566884.900132",
    "longitude": "-89.97852394360207",
    "latitude": "30.05185769264082",
    "geocoded_column": {
      "latitude": "30.05185769264082",
      "longitude": "-89.97852394360207"
    }
  },
  {
    "service_request": "2025-1201598",
    "request_type": "Trash/Recycling",
    "request_reason": "Request a Large Item Pick Up",
    "date_created": "2025-06-16T15:56:48.000",
    "date_modified": "2025-06-16T15:56:50.000",
    "request_status": "Pending",
    "responsible_agency": "Department of Sanitation",
    "final_address": "7720 Hansbrough Ave",
    "address_councildis": "E",
    "status": "Assigned to Contractor",
    "contractor": "Waste Pro",
    "rowid": "1201598",
    "final_x": "3707438.93214",
    "final_y": "564758.407266",
    "longitude": "-89.98493015615949",
    "latitude": "30.04607561899579",
    "geocoded_column": {
      "latitude": "30.04607561899579",
      "longitude": "-89.98493015615949"
    }
  },
  {
    "service_request": "2025-1201596",
    "request_type": "Abandoned Vehicles",
    "request_reason": "Abandoned/Junk Vehicles",
    "date_created": "2025-06-16T15:51:26.000",
    "date_modified": "2025-06-16T15:52:52.000",
    "request_status": "Pending",
    "responsible_agency": "Department of Public Works",
    "final_address": "2213 St Andrew St",
    "address_councildis": "B",
    "status": "Pending",
    "rowid": "1201596",
    "final_x": "3676722.52283",
    "final_y": "526060.717054",
    "longitude": "-90.08334393878916",
    "latitude": "29.940628659846293",
    "geocoded_column": {
      "latitude": "29.940628659846293",
      "longitude": "-90.08334393878916"
    }
  },
  {
    "service_request": "2025-1201597",
    "request_type": "Abandoned Vehicles",
    "request_reason": "Abandoned/Junk Vehicles",
    "date_created": "2025-06-16T15:51:26.000",
    "date_modified": "2025-06-16T15:51:28.000",
    "request_status": "Pending",
    "responsible_agency": "Department of Public Works",
    "final_address": "2215 St Andrew St",
    "address_councildis": "B",
    "status": "Pending",
    "rowid": "1201597",
    "final_x": "3676712.09025",
    "final_y": "526072.36083",
    "longitude": "-90.08337647522102",
    "latitude": "29.940660989324673",
    "geocoded_column": {
      "latitude": "29.940660989324673",
      "longitude": "-90.08337647522102"
    }
  },
  {
    "service_request": "2025-1201595",
    "request_type": "Trash/Recycling",
    "request_reason": "Request a Large Item Pick Up",
    "date_created": "2025-06-16T15:50:10.000",
    "date_modified": "2025-06-16T15:50:12.000",
    "request_status": "Pending",
    "responsible_agency": "Department of Sanitation",
    "final_address": "616 Sixth St",
    "address_councildis": "B",
    "status": "Assigned to Contractor",
    "contractor": "IV Waste",
    "rowid": "1201595",
    "final_x": "3677513.93486",
    "final_y": "519130.305271",
    "longitude": "-90.08108443967728",
    "latitude": "29.921548528515974",
    "geocoded_column": {
      "latitude": "29.921548528515974",
      "longitude": "-90.08108443967728"
    }
  },
  {
    "service_request": "2025-1201594",
    "request_type": "Trash/Recycling",
    "request_reason": "Order Trash Cart",
    "date_created": "2025-06-16T15:49:46.000",
    "date_modified": "2025-06-16T15:49:47.000",
    "request_status": "Pending",
    "responsible_agency": "Department of Sanitation",
    "final_address": "4400 Stephen Girard Ave",
    "address_councildis": "D",
    "status": "Assigned to Contractor",
    "contractor": "IV Waste",
    "rowid": "1201594",
    "final_x": "3690593.82262",
    "final_y": "550064.0541",
    "longitude": "-90.03869381241594",
    "latitude": "30.006205971761485",
    "geocoded_column": {
      "latitude": "30.006205971761485",
      "longitude": "-90.03869381241594"
    }
  },
  {
    "service_request": "2025-1201593",
    "request_type": "Safety & Permits",
    "request_reason": "Zoning Enforcement",
    "date_created": "2025-06-16T15:49:43.000",
    "date_modified": "2025-06-16T15:49:46.000",
    "request_status": "Pending",
    "responsible_agency": "Safety and Permits",
    "final_address": "8431 Cohn St",
    "address_councildis": "A",
    "status": "Pending",
    "rowid": "1201593",
    "final_x": "3662660.62432",
    "final_y": "531116.122434",
    "longitude": "-90.12757200015955",
    "latitude": "29.95494371235196",
    "geocoded_column": {
      "latitude": "29.95494371235196",
      "longitude": "-90.12757200015955"
    }
  },
  {
    "service_request": "2025-1201592",
    "request_type": "Roads and Streets",
    "request_reason": "Pothole",
    "date_created": "2025-06-16T15:46:49.000",
    "date_modified": "2025-06-16T15:46:51.000",
    "request_status": "Pending",
    "responsible_agency": "Department of Public Works",
    "final_address": "LIVINGSTON ST & OLEANDER ST",
    "address_councildis": "A",
    "status": "Pending",
    "rowid": "1201592",
    "final_x": "3663140.1",
    "final_y": "536974.28",
    "longitude": "-90.1258630618119",
    "latitude": "29.971037848070615",
    "geocoded_column": {
      "latitude": "29.971037848070615",
      "longitude": "-90.1258630618119"
    }
  },
  {
    "service_request": "2025-1201591",
    "request_type": "Trash/Recycling",
    "request_reason": "Request a Large Item Pick Up",
    "date_created": "2025-06-16T15:46:29.000",
    "date_modified": "2025-06-16T15:48:00.000",
    "request_status": "Pending",
    "responsible_agency": "Department of Sanitation",
    "final_address": "4660 Werner Dr",
    "address_councildis": "E",
    "status": "Assigned to Contractor",
    "contractor": "Waste Pro",
    "rowid": "1201591",
    "final_x": "3704777.89047",
    "final_y": "554826.483864",
    "longitude": "-89.99370731947597",
    "latitude": "30.01885254965806",
    "geocoded_column": {
      "latitude": "30.01885254965806",
      "longitude": "-89.99370731947597"
    }
  },
  {
    "service_request": "2025-1201590",
    "request_type": "Property Maintenance",
    "request_reason": "Property Maintenance",
    "date_created": "2025-06-16T15:44:11.000",
    "date_modified": "2025-06-16T15:44:14.000",
    "request_status": "Pending",
    "responsible_agency": "Department of Code Enforcement",
    "final_address": "HICKORY ST & HOLLYGROVE ST",
    "address_councildis": "A",
    "status": "Pending",
    "rowid": "1201590",
    "final_x": "3661029.0",
    "final_y": "532070.08",
    "longitude": "-90.1326925183436",
    "latitude": "29.9576138973449",
    "geocoded_column": {
      "latitude": "29.9576138973449",
      "longitude": "-90.1326925183436"
    }
  },
  {
    "service_request": "2025-1201589",
    "request_type": "Trash/Recycling",
    "request_reason": "Request a Large Item Pick Up",
    "date_created": "2025-06-16T15:42:51.000",
    "date_modified": "2025-06-16T15:42:53.000",
    "request_status": "Pending",
    "responsible_agency": "Department of Sanitation",
    "final_address": "7340 Lake Barrington Dr",
    "address_councildis": "E",
    "status": "Assigned to Contractor",
    "contractor": "Waste Pro",
    "rowid": "1201589",
    "final_x": "3712217.91198",
    "final_y": "565013.79165",
    "longitude": "-89.96981670202493",
    "latitude": "30.04662232356751",
    "geocoded_column": {
      "latitude": "30.04662232356751",
      "longitude": "-89.96981670202493"
    }
  },
  {
    "service_request": "2025-1201588",
    "request_type": "Roads and Streets",
    "request_reason": "Sidewalk Damaged or Missing",
    "date_created": "2025-06-16T15:42:48.000",
    "date_modified": "2025-06-16T15:42:50.000",
    "request_status": "Pending",
    "responsible_agency": "Department of Public Works",
    "final_address": "8423 Pritchard Pl",
    "address_councildis": "A",
    "status": "Pending",
    "rowid": "1201588",
    "final_x": "3665158.7328",
    "final_y": "533762.228101",
    "longitude": "-90.11959537870347",
    "latitude": "29.962147119888524",
    "geocoded_column": {
      "latitude": "29.962147119888524",
      "longitude": "-90.11959537870347"
    }
  },
  {
    "service_request": "2025-1201587",
    "request_type": "Trash/Recycling",
    "request_reason": "Request a Large Item Pick Up",
    "date_created": "2025-06-16T15:41:21.000",
    "date_modified": "2025-06-16T15:41:23.000",
    "request_status": "Pending",
    "responsible_agency": "Department of Sanitation",
    "final_address": "7600 Marquis St",
    "address_councildis": "E",
    "status": "Assigned to Contractor",
    "contractor": "Waste Pro",
    "rowid": "1201587",
    "final_x": "3711377.31544",
    "final_y": "566019.784483",
    "longitude": "-89.97243564027406",
    "latitude": "30.04941587450748",
    "geocoded_column": {
      "latitude": "30.04941587450748",
      "longitude": "-89.97243564027406"
    }
  },
  {
    "service_request": "2025-1201586",
    "request_type": "Trash/Recycling",
    "request_reason": "Repair Trash Cart",
    "date_created": "2025-06-16T15:38:14.000",
    "date_modified": "2025-06-16T15:38:23.000",
    "request_status": "Pending",
    "responsible_agency": "Department of Sanitation",
    "final_address": "3525 Meadow Park Ln",
    "address_councildis": "C",
    "status": "Assigned to Contractor",
    "contractor": "Richards Disposal",
    "rowid": "1201586",
    "final_x": "3704034.14065",
    "final_y": "511488.533744",
    "longitude": "-89.99765347521787",
    "latitude": "29.899712695066057",
    "geocoded_column": {
      "latitude": "29.899712695066057",
      "longitude": "-89.99765347521787"
    }
  },
  {
    "service_request": "2025-1201585",
    "request_type": "Trash/Recycling",
    "request_reason": "Illegal Dumping",
    "date_created": "2025-06-16T15:36:44.000",
    "date_modified": "2025-06-16T15:36:47.000",
    "request_status": "Pending",
    "responsible_agency": "Department of Sanitation",
    "final_address": "2727 George Nick Connor Dr",
    "address_councildis": "D",
    "status": "Pending",
    "rowid": "1201585",
    "final_x": "3681124.56866",
    "final_y": "542568.289869",
    "longitude": "-90.06887081672048",
    "latitude": "29.985886064999303",
    "geocoded_column": {
      "latitude": "29.985886064999303",
      "longitude": "-90.06887081672048"
    }
  },
  {
    "service_request": "2025-1201584",
    "request_type": "Parks & Parkways",
    "request_reason": "Request Grass Cutting Service (City Owned Property)",
    "date_created": "2025-06-16T15:34:37.000",
    "date_modified": "2025-06-16T15:34:39.000",
    "request_status": "Pending",
    "responsible_agency": "Department of Parks & Parkway",
    "final_address": "4037 St Ferdinand St",
    "address_councildis": "D",
    "status": "Pending",
    "rowid": "1201584",
    "final_x": "3689913.27523",
    "final_y": "548172.59381",
    "longitude": "-90.04091122154271",
    "latitude": "30.00102627259094",
    "geocoded_column": {
      "latitude": "30.00102627259094",
      "longitude": "-90.04091122154271"
    }
  },
  {
    "service_request": "2025-1201583",
    "request_type": "Trash/Recycling",
    "request_reason": "Damaged Caused By Contractor",
    "date_created": "2025-06-16T15:32:58.000",
    "date_modified": "2025-06-16T15:33:00.000",
    "request_status": "Pending",
    "responsible_agency": "Department of Sanitation",
    "final_address": "3548 Pin Oak Ave",
    "address_councildis": "C",
    "status": "Assigned to Contractor",
    "contractor": "Richards Disposal",
    "rowid": "1201583",
    "final_x": "3703561.99921",
    "final_y": "515018.192435",
    "longitude": "-89.999013769562",
    "latitude": "29.909433182545833",
    "geocoded_column": {
      "latitude": "29.909433182545833",
      "longitude": "-89.999013769562"
    }
  },
  {
    "service_request": "2025-1201582",
    "request_type": "Trash/Recycling",
    "request_reason": "Request a Large Item Pick Up",
    "date_created": "2025-06-16T15:31:54.000",
    "date_modified": "2025-06-16T15:31:56.000",
    "request_status": "Pending",
    "responsible_agency": "Department of Sanitation",
    "final_address": "7449 Cameo St",
    "address_councildis": "D",
    "status": "Assigned to Contractor",
    "contractor": "IV Waste",
    "rowid": "1201582",
    "final_x": "3667804.63508",
    "final_y": "556253.857562",
    "longitude": "-90.11048199914225",
    "latitude": "30.023914058698303",
    "geocoded_column": {
      "latitude": "30.023914058698303",
      "longitude": "-90.11048199914225"
    }
  },
  {
    "service_request": "2025-1201581",
    "request_type": "Traffic Signals",
    "request_reason": "Traffic Signal Malfunctioning or Damaged",
    "date_created": "2025-06-16T15:28:36.000",
    "date_modified": "2025-06-16T15:28:42.000",
    "request_status": "Pending",
    "responsible_agency": "Department of Public Works",
    "final_address": "CHEF MENTEUR HWY & DALE ST",
    "address_councildis": "E",
    "status": "Pending",
    "rowid": "1201581",
    "final_x": "3699724.2",
    "final_y": "551982.28",
    "longitude": "-90.00977889450225",
    "latitude": "30.011193557350975",
    "geocoded_column": {
      "latitude": "30.011193557350975",
      "longitude": "-90.00977889450225"
    }
  },
  {
    "service_request": "2025-1201580",
    "request_type": "Abandoned Vehicles",
    "request_reason": "Abandoned/Junk Vehicles",
    "date_created": "2025-06-16T15:23:26.000",
    "date_modified": "2025-06-16T15:23:27.000",
    "request_status": "Pending",
    "responsible_agency": "Department of Public Works",
    "final_address": "8917 Dixon St",
    "address_councildis": "A",
    "status": "Pending",
    "rowid": "1201580",
    "final_x": "3666249.85594",
    "final_y": "537500.813128",
    "longitude": "-90.11602433916752",
    "latitude": "29.9723951656299",
    "geocoded_column": {
      "latitude": "29.9723951656299",
      "longitude": "-90.11602433916752"
    }
  },
  {
    "service_request": "2025-1201579",
    "request_type": "Streetlights",
    "request_reason": "Streetlight Outage/Malfunction",
    "date_created": "2025-06-16T15:19:01.000",
    "date_modified": "2025-06-16T15:19:02.000",
    "request_status": "Pending",
    "responsible_agency": "Department of Public Works",
    "final_address": "421 S Pierce St",
    "address_councildis": "A",
    "status": "Pending",
    "contractor": "Legacy Professional Services",
    "rowid": "1201579",
    "final_x": "3670596.53895",
    "final_y": "536951.005384",
    "longitude": "-90.1023153740388",
    "latitude": "29.9707556896799",
    "geocoded_column": {
      "latitude": "29.9707556896799",
      "longitude": "-90.1023153740388"
    }
  },
  {
    "service_request": "2025-1201578",
    "request_type": "Property Maintenance",
    "request_reason": "Property Maintenance",
    "date_created": "2025-06-16T15:18:22.000",
    "date_modified": "2025-06-16T15:18:24.000",
    "request_status": "Pending",
    "responsible_agency": "Department of Code Enforcement",
    "final_address": "1517 S White St",
    "address_councildis": "B",
    "status": "Pending",
    "rowid": "1201578",
    "final_x": "3671246.59585",
    "final_y": "530317.868354",
    "longitude": "-90.10048779863762",
    "latitude": "29.95249755249957",
    "geocoded_column": {
      "latitude": "29.95249755249957",
      "longitude": "-90.10048779863762"
    }
  },
  {
    "service_request": "2025-1201577",
    "request_type": "Trash/Recycling",
    "request_reason": "Request a Large Item Pick Up",
    "date_created": "2025-06-16T15:17:46.000",
    "date_modified": "2025-06-16T15:58:25.000",
    "case_close_date": "2025-06-16T10:58:23.000",
    "request_status": "Closed",
    "responsible_agency": "Department of Sanitation",
    "final_address": "7432 Dartmoor Dr",
    "address_councildis": "E",
    "status": "Invalid Request",
    "contractor": "Waste Pro",
    "contractor_action": "Invalid",
    "rowid": "1201577",
    "final_x": "3704833.43281",
    "final_y": "562091.487839",
    "longitude": "-89.99326336870699",
    "latitude": "30.038826694607152",
    "geocoded_column": {
      "latitude": "30.038826694607152",
      "longitude": "-89.99326336870699"
    }
  },
  {
    "service_request": "2025-1201576",
    "request_type": "Trash/Recycling",
    "request_reason": "Replace Recycling Cart",
    "date_created": "2025-06-16T15:13:37.000",
    "date_modified": "2025-06-16T15:13:38.000",
    "request_status": "Pending",
    "responsible_agency": "Department of Sanitation",
    "final_address": "4911 Lennox Blvd",
    "address_councildis": "C",
    "status": "Pending",
    "rowid": "1201576",
    "final_x": "3700606.99197",
    "final_y": "512238.543729",
    "longitude": "-90.00844169119837",
    "latitude": "29.901884374108196",
    "geocoded_column": {
      "latitude": "29.901884374108196",
      "longitude": "-90.00844169119837"
    }
  },
  {
    "service_request": "2025-1201575",
    "request_type": "Trash/Recycling",
    "request_reason": "Order Trash Cart",
    "date_created": "2025-06-16T15:12:36.000",
    "date_modified": "2025-06-16T15:12:38.000",
    "request_status": "Pending",
    "responsible_agency": "Department of Sanitation",
    "final_address": "3313 Iberville St",
    "address_councildis": "B",
    "status": "Assigned to Contractor",
    "contractor": "IV Waste",
    "rowid": "1201575",
    "final_x": "3673760.48603",
    "final_y": "536904.387976",
    "longitude": "-90.09232481870977",
    "latitude": "29.970533663425364",
    "geocoded_column": {
      "latitude": "29.970533663425364",
      "longitude": "-90.09232481870977"
    }
  },
  {
    "service_request": "2025-1201574",
    "request_type": "Trash/Recycling",
    "request_reason": "Request a Large Item Pick Up",
    "date_created": "2025-06-16T15:12:03.000",
    "date_modified": "2025-06-16T15:12:05.000",
    "request_status": "Pending",
    "responsible_agency": "Department of Sanitation",
    "final_address": "5409 Marais St",
    "address_councildis": "E",
    "status": "Assigned to Contractor",
    "contractor": "Waste Pro",
    "rowid": "1201574",
    "final_x": "3697357.51043",
    "final_y": "534339.625605",
    "longitude": "-90.0178960826685",
    "latitude": "29.962757656718836",
    "geocoded_column": {
      "latitude": "29.962757656718836",
      "longitude": "-90.0178960826685"
    }
  },
  {
    "service_request": "2025-1201573",
    "request_type": "Trash/Recycling",
    "request_reason": "Order Recycling Cart",
    "date_created": "2025-06-16T15:11:22.000",
    "date_modified": "2025-06-16T15:11:24.000",
    "request_status": "Pending",
    "responsible_agency": "Department of Sanitation",
    "final_address": "4911 Lennox Blvd",
    "address_councildis": "C",
    "status": "Pending",
    "rowid": "1201573",
    "final_x": "3700606.99197",
    "final_y": "512238.543729",
    "longitude": "-90.00844169119837",
    "latitude": "29.901884374108196",
    "geocoded_column": {
      "latitude": "29.901884374108196",
      "longitude": "-90.00844169119837"
    }
  },
  {
    "service_request": "2025-1201572",
    "request_type": "Trash/Recycling",
    "request_reason": "Request a Large Item Pick Up",
    "date_created": "2025-06-16T15:09:49.000",
    "date_modified": "2025-06-16T15:09:50.000",
    "request_status": "Pending",
    "responsible_agency": "Department of Sanitation",
    "final_address": "4400 Mithra St",
    "address_councildis": "D",
    "status": "Assigned to Contractor",
    "contractor": "IV Waste",
    "rowid": "1201572",
    "final_x": "3690080.43004",
    "final_y": "553163.419223",
    "longitude": "-90.0402052373244",
    "latitude": "30.014744022748314",
    "geocoded_column": {
      "latitude": "30.014744022748314",
      "longitude": "-90.0402052373244"
    }
  },
  {
    "service_request": "2025-1201571",
    "request_type": "Trash/Recycling",
    "request_reason": "Request a Large Item Pick Up",
    "date_created": "2025-06-16T15:09:09.000",
    "date_modified": "2025-06-16T15:09:10.000",
    "request_status": "Pending",
    "responsible_agency": "Department of Sanitation",
    "final_address": "7035 Walmsley Ave",
    "address_councildis": "B",
    "status": "Assigned to Contractor",
    "contractor": "IV Waste",
    "rowid": "1201571",
    "final_x": "3667654.24045",
    "final_y": "531034.71757",
    "longitude": "-90.11180673170965",
    "latitude": "29.95457444265618",
    "geocoded_column": {
      "latitude": "29.95457444265618",
      "longitude": "-90.11180673170965"
    }
  },
  {
    "service_request": "2025-1201570",
    "request_type": "Trash/Recycling",
    "request_reason": "Missed Trash Pick-Up",
    "date_created": "2025-06-16T15:06:48.000",
    "date_modified": "2025-06-16T16:57:09.000",
    "case_close_date": "2025-06-16T11:57:08.000",
    "request_status": "Closed",
    "responsible_agency": "Department of Sanitation",
    "final_address": "1439 Louisiana Ave",
    "address_councildis": "B",
    "status": "Invalid Request",
    "contractor": "IV Waste",
    "contractor_action": "Invalid Request",
    "rowid": "1201570",
    "final_x": "3674567.20648",
    "final_y": "520902.567993",
    "longitude": "-90.0903253090172",
    "latitude": "29.926509901896985",
    "geocoded_column": {
      "latitude": "29.926509901896985",
      "longitude": "-90.0903253090172"
    }
  },
  {
    "service_request": "2025-1201569",
    "request_type": "Property Maintenance",
    "request_reason": "Property Maintenance",
    "date_created": "2025-06-16T15:05:55.000",
    "date_modified": "2025-06-16T15:30:17.000",
    "case_close_date": "2025-06-16T10:30:15.000",
    "request_status": "Closed",
    "responsible_agency": "Department of Code Enforcement",
    "final_address": "5018 Constance St",
    "address_councildis": "B",
    "status": "Referred to Code Enforcement",
    "rowid": "1201569",
    "final_x": "3668479.48814",
    "final_y": "518157.039926",
    "longitude": "-90.10963516921593",
    "latitude": "29.919140751944695",
    "geocoded_column": {
      "latitude": "29.919140751944695",
      "longitude": "-90.10963516921593"
    }
  },
  {
    "service_request": "2025-1201568",
    "request_type": "Property Maintenance",
    "request_reason": "Property Maintenance",
    "date_created": "2025-06-16T15:05:47.000",
    "date_modified": "2025-06-16T15:05:49.000",
    "request_status": "Pending",
    "responsible_agency": "Department of Code Enforcement",
    "final_address": "7400 Devine Ave",
    "address_councildis": "E",
    "status": "Pending",
    "rowid": "1201568",
    "final_x": "3705930.22769",
    "final_y": "562419.122911",
    "longitude": "-89.98978507941354",
    "latitude": "30.03969224627146",
    "geocoded_column": {
      "latitude": "30.03969224627146",
      "longitude": "-89.98978507941354"
    }
  },
  {
    "service_request": "2025-1201567",
    "request_type": "Roads and Streets",
    "request_reason": "Street Subsidence (Sinking)",
    "date_created": "2025-06-16T15:04:31.000",
    "date_modified": "2025-06-16T15:04:33.000",
    "request_status": "Pending",
    "responsible_agency": "Department of Public Works",
    "final_address": "2828 N Prieur St",
    "address_councildis": "D",
    "status": "Pending",
    "rowid": "1201567",
    "final_x": "3688556.41583",
    "final_y": "539266.34465",
    "longitude": "-90.0455138560408",
    "latitude": "29.976579290251912",
    "geocoded_column": {
      "latitude": "29.976579290251912",
      "longitude": "-90.0455138560408"
    }
  },
  {
    "service_request": "2025-1201566",
    "request_type": "Trash/Recycling",
    "request_reason": "Order Trash Cart",
    "date_created": "2025-06-16T14:58:57.000",
    "date_modified": "2025-06-16T14:58:59.000",
    "request_status": "Pending",
    "responsible_agency": "Department of Sanitation",
    "final_address": "243 Leboeuf St",
    "address_councildis": "C",
    "status": "Assigned to Contractor",
    "contractor": "Richards Disposal",
    "rowid": "1201566",
    "final_x": "3689857.5119",
    "final_y": "530792.71373",
    "longitude": "-90.04170628130738",
    "latitude": "29.95323949668906",
    "geocoded_column": {
      "latitude": "29.95323949668906",
      "longitude": "-90.04170628130738"
    }
  },
  {
    "service_request": "2025-1201565",
    "request_type": "Trash/Recycling",
    "request_reason": "Repair Recycling Cart",
    "date_created": "2025-06-16T14:55:57.000",
    "date_modified": "2025-06-16T14:55:59.000",
    "request_status": "Pending",
    "responsible_agency": "Department of Sanitation",
    "final_address": "1833 Fourth St",
    "address_councildis": "B",
    "status": "Pending",
    "rowid": "1201565",
    "final_x": "3675655.41992",
    "final_y": "523568.891387",
    "longitude": "-90.08679855191127",
    "latitude": "29.933808920645497",
    "geocoded_column": {
      "latitude": "29.933808920645497",
      "longitude": "-90.08679855191127"
    }
  },
  {
    "service_request": "2025-1201564",
    "request_type": "Parks & Parkways",
    "request_reason": "Request Tree Service (Right of Way/Public Property)",
    "date_created": "2025-06-16T14:53:10.000",
    "date_modified": "2025-06-16T14:53:12.000",
    "request_status": "Pending",
    "responsible_agency": "Department of Parks & Parkway",
    "final_address": "1026 Hendee St",
    "address_councildis": "C",
    "status": "Pending",
    "rowid": "1201564",
    "final_x": "3690844.75184",
    "final_y": "527620.687743",
    "longitude": "-90.03870217933958",
    "latitude": "29.94448688141854",
    "geocoded_column": {
      "latitude": "29.94448688141854",
      "longitude": "-90.03870217933958"
    }
  },
  {
    "service_request": "2025-1201563",
    "request_type": "Parks & Parkways",
    "request_reason": "Request Tree Service (Right of Way/Public Property)",
    "date_created": "2025-06-16T14:52:38.000",
    "date_modified": "2025-06-16T14:52:39.000",
    "request_status": "Pending",
    "responsible_agency": "Department of Parks & Parkway",
    "final_address": "TUPELO ST & ST CLAUDE AVE",
    "address_councildis": "E",
    "status": "Pending",
    "rowid": "1201563",
    "final_x": "3699460.0",
    "final_y": "533397.58",
    "longitude": "-90.01129105936747",
    "latitude": "29.960100831983993",
    "geocoded_column": {
      "latitude": "29.960100831983993",
      "longitude": "-90.01129105936747"
    }
  },
  {
    "service_request": "2025-1201562",
    "request_type": "Trash/Recycling",
    "request_reason": "Repair Trash Cart",
    "date_created": "2025-06-16T14:51:44.000",
    "date_modified": "2025-06-16T14:51:47.000",
    "request_status": "Pending",
    "responsible_agency": "Department of Sanitation",
    "final_address": "3555 River Oaks Dr",
    "address_councildis": "C",
    "status": "Assigned to Contractor",
    "contractor": "Richards Disposal",
    "rowid": "1201562",
    "final_x": "3701292.21905",
    "final_y": "517822.050422",
    "longitude": "-90.0060750563269",
    "latitude": "29.917215319398668",
    "geocoded_column": {
      "latitude": "29.917215319398668",
      "longitude": "-90.0060750563269"
    }
  },
  {
    "service_request": "2025-1201561",
    "request_type": "Trash/Recycling",
    "request_reason": "Return Recycling Cart",
    "date_created": "2025-06-16T14:48:45.000",
    "date_modified": "2025-06-16T14:48:47.000",
    "request_status": "Pending",
    "responsible_agency": "Department of Sanitation",
    "final_address": "5420 Durham Dr",
    "address_councildis": "C",
    "status": "Pending",
    "rowid": "1201561",
    "final_x": "3704108.78698",
    "final_y": "518960.116535",
    "longitude": "-89.99714293867446",
    "latitude": "29.920254599960302",
    "geocoded_column": {
      "latitude": "29.920254599960302",
      "longitude": "-89.99714293867446"
    }
  },
  {
    "service_request": "2025-1201560",
    "request_type": "Trash/Recycling",
    "request_reason": "Request a Large Item Pick Up",
    "date_created": "2025-06-16T14:47:02.000",
    "date_modified": "2025-06-16T14:47:04.000",
    "request_status": "Pending",
    "responsible_agency": "Department of Sanitation",
    "final_address": "2033 Evergreen Ave",
    "address_councildis": "C",
    "status": "Assigned to Contractor",
    "contractor": "Richards Disposal",
    "rowid": "1201560",
    "final_x": "3688091.86031",
    "final_y": "524328.56998",
    "longitude": "-90.0475104769165",
    "latitude": "29.935519910445137",
    "geocoded_column": {
      "latitude": "29.935519910445137",
      "longitude": "-90.0475104769165"
    }
  },
  {
    "service_request": "2025-1201559",
    "request_type": "Trash/Recycling",
    "request_reason": "Request a Large Item Pick Up",
    "date_created": "2025-06-16T14:46:36.000",
    "date_modified": "2025-06-16T14:47:22.000",
    "request_status": "Pending",
    "responsible_agency": "Department of Sanitation",
    "final_address": "5667 General Diaz St",
    "address_councildis": "A",
    "status": "Assigned to Contractor",
    "contractor": "IV Waste",
    "rowid": "1201559",
    "final_x": "3669261.32142",
    "final_y": "545085.321871",
    "longitude": "-90.1062570627752",
    "latitude": "29.993161674354802",
    "geocoded_column": {
      "latitude": "29.993161674354802",
      "longitude": "-90.1062570627752"
    }
  },
  {
    "service_request": "2025-1201558",
    "request_type": "Abandoned Vehicles",
    "request_reason": "Abandoned/Junk Vehicles",
    "date_created": "2025-06-16T14:42:14.000",
    "date_modified": "2025-06-16T14:43:18.000",
    "request_status": "Pending",
    "responsible_agency": "Department of Public Works",
    "final_address": "2631 Mendez St",
    "address_councildis": "D",
    "status": "Pending",
    "rowid": "1201558",
    "final_x": "3686851.41417",
    "final_y": "553701.632535",
    "longitude": "-90.05038830018631",
    "latitude": "30.016323714823717",
    "geocoded_column": {
      "latitude": "30.016323714823717",
      "longitude": "-90.05038830018631"
    }
  },
  {
    "service_request": "2025-1201557",
    "request_type": "Trash/Recycling",
    "request_reason": "Order Trash Cart",
    "date_created": "2025-06-16T14:41:25.000",
    "date_modified": "2025-06-16T14:41:28.000",
    "request_status": "Pending",
    "responsible_agency": "Department of Sanitation",
    "final_address": "4441 Reynes St",
    "address_councildis": "E",
    "status": "Assigned to Contractor",
    "contractor": "Waste Pro",
    "rowid": "1201557",
    "final_x": "3699383.91127",
    "final_y": "553396.779159",
    "longitude": "-90.01080241621786",
    "latitude": "30.015093698992324",
    "geocoded_column": {
      "latitude": "30.015093698992324",
      "longitude": "-90.01080241621786"
    }
  },
  {
    "service_request": "2025-1201556",
    "request_type": "Trash/Recycling",
    "request_reason": "Request a Large Item Pick Up",
    "date_created": "2025-06-16T14:38:21.000",
    "date_modified": "2025-06-16T14:38:22.000",
    "request_status": "Pending",
    "responsible_agency": "Department of Sanitation",
    "final_address": "1471 N Rocheblave St",
    "address_councildis": "D",
    "status": "Assigned to Contractor",
    "contractor": "IV Waste",
    "rowid": "1201556",
    "final_x": "3679420.12994",
    "final_y": "538883.763785",
    "longitude": "-90.07438232741397",
    "latitude": "29.975806505847707",
    "geocoded_column": {
      "latitude": "29.975806505847707",
      "longitude": "-90.07438232741397"
    }
  },
  {
    "service_request": "2025-1201555",
    "request_type": "Trash/Recycling",
    "request_reason": "Order Recycling Cart",
    "date_created": "2025-06-16T14:37:03.000",
    "date_modified": "2025-06-16T14:37:05.000",
    "request_status": "Pending",
    "responsible_agency": "Department of Sanitation",
    "final_address": "1471 N Rocheblave St",
    "address_councildis": "D",
    "status": "Pending",
    "rowid": "1201555",
    "final_x": "3679420.12994",
    "final_y": "538883.763785",
    "longitude": "-90.07438232741397",
    "latitude": "29.975806505847707",
    "geocoded_column": {
      "latitude": "29.975806505847707",
      "longitude": "-90.07438232741397"
    }
  },
  {
    "service_request": "2025-1201554",
    "request_type": "Trash/Recycling",
    "request_reason": "Request a Large Item Pick Up",
    "date_created": "2025-06-16T14:36:33.000",
    "date_modified": "2025-06-16T14:36:34.000",
    "request_status": "Pending",
    "responsible_agency": "Department of Sanitation",
    "final_address": "13223 Curran Rd",
    "address_councildis": "E",
    "status": "Assigned to Contractor",
    "contractor": "Waste Pro",
    "rowid": "1201554",
    "final_x": "3715853.61663",
    "final_y": "570065.975207",
    "longitude": "-89.95813446055728",
    "latitude": "30.060394293323455",
    "geocoded_column": {
      "latitude": "30.060394293323455",
      "longitude": "-89.95813446055728"
    }
  },
  {
    "service_request": "2025-1201553",
    "request_type": "Trash/Recycling",
    "request_reason": "Order Trash Cart",
    "date_created": "2025-06-16T14:35:17.000",
    "date_modified": "2025-06-16T14:35:20.000",
    "request_status": "Pending",
    "responsible_agency": "Department of Sanitation",
    "final_address": "4769 Overton Dr",
    "address_councildis": "D",
    "status": "Assigned to Contractor",
    "contractor": "IV Waste",
    "rowid": "1201553",
    "final_x": "3679760.80213",
    "final_y": "549846.09154",
    "longitude": "-90.07292555019998",
    "latitude": "30.00593875486604",
    "geocoded_column": {
      "latitude": "30.00593875486604",
      "longitude": "-90.07292555019998"
    }
  },
  {
    "service_request": "2025-1201552",
    "request_type": "Trash/Recycling",
    "request_reason": "Order Trash Cart",
    "date_created": "2025-06-16T14:32:49.000",
    "date_modified": "2025-06-16T14:32:50.000",
    "request_status": "Pending",
    "responsible_agency": "Department of Sanitation",
    "final_address": "162 Danny Dr",
    "address_councildis": "C",
    "status": "Assigned to Contractor",
    "contractor": "Richards Disposal",
    "rowid": "1201552",
    "final_x": "3702017.02276",
    "final_y": "523905.797308",
    "longitude": "-90.00356442823181",
    "latitude": "29.933920415817436",
    "geocoded_column": {
      "latitude": "29.933920415817436",
      "longitude": "-90.00356442823181"
    }
  },
  {
    "service_request": "2025-1201551",
    "request_type": "Abandoned Vehicles",
    "request_reason": "Abandoned/Junk Vehicles",
    "date_created": "2025-06-16T14:32:14.000",
    "date_modified": "2025-06-16T14:32:16.000",
    "request_status": "Pending",
    "responsible_agency": "Department of Public Works",
    "final_address": "5920 Marigny St",
    "address_councildis": "D",
    "status": "Pending",
    "rowid": "1201551",
    "final_x": "3683884.85513",
    "final_y": "554795.906904",
    "longitude": "-90.05972289553158",
    "latitude": "30.019423564227804",
    "geocoded_column": {
      "latitude": "30.019423564227804",
      "longitude": "-90.05972289553158"
    }
  },
  {
    "service_request": "2025-1201550",
    "request_type": "Safety & Permits",
    "request_reason": "Zoning Enforcement",
    "date_created": "2025-06-16T14:31:28.000",
    "date_modified": "2025-06-16T14:31:30.000",
    "request_status": "Pending",
    "responsible_agency": "Safety and Permits",
    "final_address": "7634 Burthe St",
    "address_councildis": "A",
    "status": "Pending",
    "rowid": "1201550",
    "final_x": "3662352.4425",
    "final_y": "526550.39827",
    "longitude": "-90.1286966931094",
    "latitude": "29.942398349355663",
    "geocoded_column": {
      "latitude": "29.942398349355663",
      "longitude": "-90.1286966931094"
    }
  },