[
  {
    "service_request": "2025-1170014",
    "request_type": "Utility Poles",
    "request_reason": "Utility Pole Leaning",
    "date_created": "2025-02-18T23:17:31.000",
    "date_modified": "2025-02-18T23:17:35.000",
    "request_status": "Pending",
    "responsible_agency": "Utility Company Collective",
    "final_address": "3015 Frenchmen St",
    "address_councildis": "D",
    "status": "Pending",
    "rowid": "1170014",
    "final_x": "3684032.09199",
    "final_y": "543791.564878",
    "longitude": "-90.05964417238299",
    "latitude": "29.98916109486121",
    "geocoded_column": {
      "latitude": "29.98916109486121",
      "longitude": "-90.05964417238299"
    }
  },
  {
    "service_request": "2025-1170013",
    "request_type": "Trash/Recycling",
    "request_reason": "Request a Large Item Pick Up",
    "date_created": "2025-02-18T23:05:47.000",
    "date_modified": "2025-02-18T23:05:49.000",
    "request_status": "Pending",
    "responsible_agency": "Department of Sanitation",
    "final_address": "1418 Audubon St",
    "address_councildis": "A",
    "status": "Assigned to Contractor",
    "contractor": "IV Waste",
    "rowid": "1170013",
    "final_x": "3664865.15008",
    "final_y": "527067.259518",
    "longitude": "-90.12074620569955",
    "latitude": "29.94374667635719",
    "geocoded_column": {
      "latitude": "29.94374667635719",
      "longitude": "-90.12074620569955"
    }
  },
  {
    "service_request": "2025-1170012",
    "request_type": "Trash/Recycling",
    "request_reason": "Request a Large Item Pick Up",
    "date_created": "2025-02-18T22:32:05.000",
    "date_modified": "2025-02-18T22:32:07.000",
    "request_status": "Pending",
    "responsible_agency": "Department of Sanitation",
    "final_address": "4674 Nottingham Dr",
    "address_councildis": "E",
    "status": "Assigned to Contractor",
    "contractor": "Waste Pro",
    "rowid": "1170012",
    "final_x": "3716349.64421",
    "final_y": "556564.402842",
    "longitude": "-89.95707915191436",
    "latitude": "30.023254070482793",
    "geocoded_column": {
      "latitude": "30.023254070482793",
      "longitude": "-89.95707915191436"
    }
  },
  {
    "service_request": "2025-1170011",
    "request_type": "Abandoned Vehicles",
    "request_reason": "Abandoned/Junk Vehicles",
    "date_created": "2025-02-18T22:13:38.000",
    "date_modified": "2025-02-18T22:13:39.000",
    "request_status": "Pending",
    "responsible_agency": "Department of Public Works",
    "final_address": "3948 Laurel St",
    "address_councildis": "B",
    "status": "Pending",
    "rowid": "1170011",
    "final_x": "3672819.6763",
    "final_y": "518131.266486",
    "longitude": "-90.09593626090395",
    "latitude": "29.918941719533713",
    "geocoded_column": {
      "latitude": "29.918941719533713",
      "longitude": "-90.09593626090395"
    }
  },
  {
    "service_request": "2025-1170010",
    "request_type": "Abandoned Vehicles",
    "request_reason": "Abandoned/Junk Vehicles",
    "date_created": "2025-02-18T22:13:01.000",
    "date_modified": "2025-02-18T22:13:02.000",
    "request_status": "Pending",
    "responsible_agency": "Department of Public Works",
    "status": "Pending",
    "rowid": "1170010",
    "longitude": "0.0",
    "latitude": "0.0",
    "geocoded_column": {
      "latitude": "0.0",
      "longitude": "0.0"
    }
  },
  {
    "service_request": "2025-1170009",
    "request_type": "Roads and Streets",
    "request_reason": "Sidewalk Damaged or Missing",
    "date_created": "2025-02-18T21:56:07.000",
    "date_modified": "2025-02-18T21:56:10.000",
    "request_status": "Pending",
    "responsible_agency": "Department of Public Works",
    "final_address": "0 BLK Acadiana Pl",
    "address_councildis": "E",
    "status": "Pending",
    "rowid": "1170009",
    "final_x": "3725131.4083",
    "final_y": "564393.680055",
    "longitude": "-89.92902788187175",
    "latitude": "30.04448842646984",
    "geocoded_column": {
      "latitude": "30.04448842646984",
      "longitude": "-89.92902788187175"
    }
  },
  {
    "service_request": "2025-1170008",
    "request_type": "Trash/Recycling",
    "request_reason": "Request a Large Item Pick Up",
    "date_created": "2025-02-18T21:54:38.000",
    "date_modified": "2025-02-18T21:54:41.000",
    "request_status": "Pending",
    "responsible_agency": "Department of Sanitation",
    "final_address": "2227 Brainard St",
    "address_councildis": "B",
    "status": "Assigned to Contractor",
    "contractor": "IV Waste",
    "rowid": "1170008",
    "final_x": "3676988.06734",
    "final_y": "524140.428924",
    "longitude": "-90.08257174735182",
    "latitude": "29.935340530845217",
    "geocoded_column": {
      "latitude": "29.935340530845217",
      "longitude": "-90.08257174735182"
    }
  },
  {
    "service_request": "2025-1170007",
    "request_type": "Trash/Recycling",
    "request_reason": "Order Recycling Cart",
    "date_created": "2025-02-18T21:46:40.000",
    "date_modified": "2025-02-18T21:46:42.000",
    "request_status": "Pending",
    "responsible_agency": "Department of Sanitation",
    "final_address": "2618 Dauphine St",
    "address_councildis": "C",
    "status": "Pending",
    "rowid": "1170007",
    "final_x": "3686974.44418",
    "final_y": "535258.431942",
    "longitude": "-90.05065189567226",
    "latitude": "29.965607725957625",
    "geocoded_column": {
      "latitude": "29.965607725957625",
      "longitude": "-90.05065189567226"
    }
  },
  {
    "service_request": "2025-1170006",
    "request_type": "Streetlights",
    "request_reason": "Streetlight Outage/Malfunction",
    "date_created": "2025-02-18T21:11:45.000",
    "date_modified": "2025-02-18T21:11:46.000",
    "request_status": "Pending",
    "responsible_agency": "Department of Public Works",
    "final_address": "5947 Memphis St",
    "address_councildis": "A",
    "status": "Pending",
    "contractor": "Legacy Professional Services",
    "rowid": "1170006",
    "final_x": "3669251.50516",
    "final_y": "546978.153105",
    "longitude": "-90.10622403865115",
    "latitude": "29.998366596083763",
    "geocoded_column": {
      "latitude": "29.998366596083763",
      "longitude": "-90.10622403865115"
    }
  },
  {
    "service_request": "2025-1170005",
    "request_type": "Trash/Recycling",
    "request_reason": "Request a Large Item Pick Up",
    "date_created": "2025-02-18T20:52:11.000",
    "date_modified": "2025-02-18T20:52:14.000",
    "request_status": "Pending",
    "responsible_agency": "Department of Sanitation",
    "final_address": "15540 Dwyer Blvd",
    "address_councildis": "E",
    "status": "Assigned to Contractor",
    "contractor": "Waste Pro",
    "rowid": "1170005",
    "final_x": "3731100.8713",
    "final_y": "563749.996577",
    "longitude": "-89.91018722569073",
    "latitude": "30.042516055040085",
    "geocoded_column": {
      "latitude": "30.042516055040085",
      "longitude": "-89.91018722569073"
    }
  },
  {
    "service_request": "2025-1170004",
    "request_type": "Streetlights",
    "request_reason": "Streetlight Outage/Malfunction",
    "date_created": "2025-02-18T20:50:15.000",
    "date_modified": "2025-02-18T20:50:16.000",
    "request_status": "Pending",
    "responsible_agency": "Department of Public Works",
    "final_address": "4657 Corinne St",
    "address_councildis": "E",
    "status": "Pending",
    "contractor": "Legacy Professional Services",
    "rowid": "1170004",
    "final_x": "3715147.7909",
    "final_y": "556489.26025",
    "longitude": "-89.96087955104767",
    "latitude": "30.023087095041852",
    "geocoded_column": {
      "latitude": "30.023087095041852",
      "longitude": "-89.96087955104767"
    }
  },
  {
    "service_request": "2025-1170003",
    "request_type": "Trash/Recycling",
    "request_reason": "Request a Large Item Pick Up",
    "date_created": "2025-02-18T20:49:46.000",
    "date_modified": "2025-02-18T20:49:48.000",
    "request_status": "Pending",
    "responsible_agency": "Department of Sanitation",
    "final_address": "4239 St Charles Ave Unit G",
    "address_councildis": "B",
    "status": "Assigned to Contractor",
    "contractor": "IV Waste",
    "rowid": "1170003",
    "final_x": "3671318.72999",
    "final_y": "521024.008377",
    "longitude": "-90.1005757494473",
    "latitude": "29.926940321527358",
    "geocoded_column": {
      "latitude": "29.926940321527358",
      "longitude": "-90.1005757494473"
    }
  },
  {
    "service_request": "2025-1170002",
    "request_type": "Abandoned Vehicles",
    "request_reason": "Vehicle Blocking Your Driveway",
    "date_created": "2025-02-18T20:48:13.000",
    "date_modified": "2025-02-18T20:48:16.000",
    "request_status": "Pending",
    "responsible_agency": "Department of Public Works",
    "final_address": "15510 Dwyer Blvd",
    "address_councildis": "E",
    "status": "Pending",
    "rowid": "1170002",
    "final_x": "3730925.67962",
    "final_y": "563688.651233",
    "longitude": "-89.91074329848843",
    "latitude": "30.042353362796096",
    "geocoded_column": {
      "latitude": "30.042353362796096",
      "longitude": "-89.91074329848843"
    }
  },
  {
    "service_request": "2025-1170001",
    "request_type": "Trash/Recycling",
    "request_reason": "Request a Large Item Pick Up",
    "date_created": "2025-02-18T20:39:08.000",
    "date_modified": "2025-02-18T20:39:10.000",
    "request_status": "Pending",
    "responsible_agency": "Department of Sanitation",
    "final_address": "11010 Yardley Rd",
    "address_councildis": "E",
    "status": "Assigned to Contractor",
    "contractor": "Waste Pro",
    "rowid": "1170001",
    "final_x": "3712014.41496",
    "final_y": "563703.492897",
    "longitude": "-89.97050910724337",
    "latitude": "30.043026187121722",
    "geocoded_column": {
      "latitude": "30.043026187121722",
      "longitude": "-89.97050910724337"
    }
  },
  {
    "service_request": "2025-1170000",
    "request_type": "Trash/Recycling",
    "request_reason": "Missed Trash Pick-Up",
    "date_created": "2025-02-18T20:08:59.000",
    "date_modified": "2025-02-18T20:09:01.000",
    "request_status": "Pending",
    "responsible_agency": "Department of Sanitation",
    "final_address": "1310 Evelina St",
    "address_councildis": "C",
    "status": "Assigned to Contractor",
    "contractor": "Richards Disposal",
    "rowid": "1170000",
    "final_x": "3689617.41135",
    "final_y": "529454.774401",
    "longitude": "-90.04251200447335",
    "latitude": "29.949568064037713",
    "geocoded_column": {
      "latitude": "29.949568064037713",
      "longitude": "-90.04251200447335"
    }
  },
  {
    "service_request": "2025-1169999",
    "request_type": "Trash/Recycling",
    "request_reason": "Request a Large Item Pick Up",
    "date_created": "2025-02-18T19:51:28.000",
    "date_modified": "2025-02-18T19:51:31.000",
    "request_status": "Pending",
    "responsible_agency": "Department of Sanitation",
    "final_address": "4617 Rosemont Pl Apt A",
    "address_councildis": "E",
    "status": "Assigned to Contractor",
    "contractor": "Waste Pro",
    "rowid": "1169999",
    "final_x": "3702864.26698",
    "final_y": "554206.606808",
    "longitude": "-89.9997764419282",
    "latitude": "30.017209502686562",
    "geocoded_column": {
      "latitude": "30.017209502686562",
      "longitude": "-89.9997764419282"
    }
  },
  {
    "service_request": "2025-1169998",
    "request_type": "Roads and Streets",
    "request_reason": "Sidewalk Damaged or Missing",
    "date_created": "2025-02-18T19:45:19.000",
    "date_modified": "2025-02-18T19:45:21.000",
    "request_status": "Pending",
    "responsible_agency": "Department of Public Works",
    "final_address": "6021 West End Blvd",
    "address_councildis": "A",
    "status": "Pending",
    "rowid": "1169998",
    "final_x": "3666535.82612",
    "final_y": "547752.167762",
    "longitude": "-90.11477689007326",
    "latitude": "30.000574557964843",
    "geocoded_column": {
      "latitude": "30.000574557964843",
      "longitude": "-90.11477689007326"
    }
  },
  {
    "service_request": "2025-1169997",
    "request_type": "Trash/Recycling",
    "request_reason": "Request a Large Item Pick Up",
    "date_created": "2025-02-18T19:34:52.000",
    "date_modified": "2025-02-18T19:34:55.000",
    "request_status": "Pending",
    "responsible_agency": "Department of Sanitation",
    "final_address": "6070 Annunciation St",
    "address_councildis": "A",
    "status": "Assigned to Contractor",
    "contractor": "IV Waste",
    "rowid": "1169997",
    "final_x": "3663670.40851",
    "final_y": "518023.069366",
    "longitude": "-90.12481951106739",
    "latitude": "29.918912718032427",
    "geocoded_column": {
      "latitude": "29.918912718032427",
      "longitude": "-90.12481951106739"
    }
  },
  {
    "service_request": "2025-1169996",
    "request_type": "Trash/Recycling",
    "request_reason": "Replace Trash Cart",
    "date_created": "2025-02-18T19:28:12.000",
    "date_modified": "2025-02-18T19:28:14.000",
    "request_status": "Pending",
    "responsible_agency": "Department of Sanitation",
    "final_address": "3426 W St Roch Ave",
    "address_councildis": "D",
    "status": "Assigned to Contractor",
    "contractor": "IV Waste",
    "rowid": "1169996",
    "final_x": "3685532.80847",
    "final_y": "545487.89032",
    "longitude": "-90.05484407537628",
    "latitude": "29.993779430672586",
    "geocoded_column": {
      "latitude": "29.993779430672586",
      "longitude": "-90.05484407537628"
    }
  },
  {
    "service_request": "2025-1169995",
    "request_type": "Trash/Recycling",
    "request_reason": "Request a Large Item Pick Up",
    "date_created": "2025-02-18T19:15:29.000",
    "date_modified": "2025-02-18T19:15:31.000",
    "request_status": "Pending",
    "responsible_agency": "Department of Sanitation",
    "final_address": "1316 Bartholomew St",
    "address_councildis": "D",
    "status": "Assigned to Contractor",
    "contractor": "IV Waste",
    "rowid": "1169995",
    "final_x": "3691994.6344",
    "final_y": "536206.841799",
    "longitude": "-90.03476445623207",
    "latitude": "29.96806004094185",
    "geocoded_column": {
      "latitude": "29.96806004094185",
      "longitude": "-90.03476445623207"
    }
  },
  {
    "service_request": "2025-1169994",
    "request_type": "General Services",
    "request_reason": "General Service Request",
    "date_created": "2025-02-18T19:12:07.000",
    "date_modified": "2025-02-18T19:12:09.000",
    "request_status": "Pending",
    "responsible_agency": "Orleans Parish Communication District",
    "final_address": "23 Christopher Ct, New Orleans, Louisiana, 70128",
    "address_councildis": "E",
    "status": "Pending",
    "rowid": "1169994",
    "final_x": "3716606.24517",
    "final_y": "570267.632039",
    "longitude": "-89.95574779472973",
    "latitude": "30.060923907855518",
    "geocoded_column": {
      "latitude": "30.060923907855518",
      "longitude": "-89.95574779472973"
    }
  },
  {
    "service_request": "2025-1169993",
    "request_type": "Trash/Recycling",
    "request_reason": "Missed Trash Pick-Up",
    "date_created": "2025-02-18T18:55:58.000",
    "date_modified": "2025-02-18T18:56:00.000",
    "request_status": "Pending",
    "responsible_agency": "Department of Sanitation",
    "final_address": "8430 Aberdeen Rd",
    "address_councildis": "E",
    "status": "Assigned to Contractor",
    "contractor": "Waste Pro",
    "rowid": "1169993",
    "final_x": "3703813.76132",
    "final_y": "561752.097503",
    "longitude": "-89.99649830359569",
    "latitude": "30.037926254751",
    "geocoded_column": {
      "latitude": "30.037926254751",
      "longitude": "-89.99649830359569"
    }
  },
  {
    "service_request": "2025-1169992",
    "request_type": "Streetlights",
    "request_reason": "Streetlight Outage/Malfunction",
    "date_created": "2025-02-18T18:49:10.000",
    "date_modified": "2025-02-18T18:49:11.000",
    "request_status": "Pending",
    "responsible_agency": "Department of Public Works",
    "final_address": "5522 Catina St",
    "address_councildis": "A",
    "status": "Pending",
    "contractor": "Legacy Professional Services",
    "rowid": "1169992",
    "final_x": "3666548.29652",
    "final_y": "544153.537998",
    "longitude": "-90.11485838471322",
    "latitude": "29.99067919526287",
    "geocoded_column": {
      "latitude": "29.99067919526287",
      "longitude": "-90.11485838471322"
    }
  },
  {
    "service_request": "2025-1169991",
    "request_type": "Trash/Recycling",
    "request_reason": "Request a Large Item Pick Up",
    "date_created": "2025-02-18T18:31:06.000",
    "date_modified": "2025-02-18T18:31:08.000",
    "request_status": "Pending",
    "responsible_agency": "Department of Sanitation",
    "final_address": "10720 Willowbrae Dr",
    "address_councildis": "E",
    "status": "Assigned to Contractor",
    "contractor": "Waste Pro",
    "rowid": "1169991",
    "final_x": "3710830.17553",
    "final_y": "564106.584993",
    "longitude": "-89.97423664405132",
    "latitude": "30.044173203529876",
    "geocoded_column": {
      "latitude": "30.044173203529876",
      "longitude": "-89.97423664405132"
    }
  },
  {
    "service_request": "2025-1169990",
    "request_type": "Roads and Streets",
    "request_reason": "Sidewalk Damaged or Missing",
    "date_created": "2025-02-18T18:18:06.000",
    "date_modified": "2025-02-18T18:18:08.000",
    "request_status": "Pending",
    "responsible_agency": "Department of Public Works",
    "final_address": "1412 Royal St",
    "address_councildis": "C",
    "status": "Pending",
    "rowid": "1169990",
    "final_x": "3684178.80476",
    "final_y": "534535.149061",
    "longitude": "-90.05950579172885",
    "latitude": "29.963704702042723",
    "geocoded_column": {
      "latitude": "29.963704702042723",
      "longitude": "-90.05950579172885"
    }
  },
  {
    "service_request": "2025-1169989",
    "request_type": "Trash/Recycling",
    "request_reason": "Return Trash Cart",
    "date_created": "2025-02-18T18:17:30.000",
    "date_modified": "2025-02-18T18:17:32.000",
    "request_status": "Pending",
    "responsible_agency": "Department of Sanitation",
    "final_address": "4703 Palmyra St",
    "address_councildis": "A",
    "status": "Assigned to Contractor",
    "contractor": "IV Waste",
    "rowid": "1169989",
    "final_x": "3668621.70241",
    "final_y": "539276.990282",
    "longitude": "-90.10847364674828",
    "latitude": "29.977209557333264",
    "geocoded_column": {
      "latitude": "29.977209557333264",
      "longitude": "-90.10847364674828"
    }
  },
  {
    "service_request": "2025-1169988",
    "request_type": "Trash/Recycling",
    "request_reason": "Request a Large Item Pick Up",
    "date_created": "2025-02-18T18:02:35.000",
    "date_modified": "2025-02-18T18:02:37.000",
    "request_status": "Pending",
    "responsible_agency": "Department of Sanitation",
    "final_address": "4603 Arts St",
    "address_councildis": "D",
    "status": "Assigned to Contractor",
    "contractor": "IV Waste",
    "rowid": "1169988",
    "final_x": "3686075.61398",
    "final_y": "549639.599188",
    "longitude": "-90.05298289541811",
    "latitude": "30.00517846870325",
    "geocoded_column": {
      "latitude": "30.00517846870325",
      "longitude": "-90.05298289541811"
    }
  },
  {
    "service_request": "2025-1169987",
    "request_type": "Trash/Recycling",
    "request_reason": "Order Trash Cart",
    "date_created": "2025-02-18T17:53:58.000",
    "date_modified": "2025-02-18T17:54:00.000",
    "request_status": "Pending",
    "responsible_agency": "Department of Sanitation",
    "final_address": "2825 Broadway St",
    "address_councildis": "B",
    "status": "Assigned to Contractor",
    "contractor": "IV Waste",
    "rowid": "1169987",
    "final_x": "3667445.53281",
    "final_y": "531429.486787",
    "longitude": "-90.11245246987329",
    "latitude": "29.955666044937264",
    "geocoded_column": {
      "latitude": "29.955666044937264",
      "longitude": "-90.11245246987329"
    }
  },
  {
    "service_request": "2025-1169986",
    "request_type": "Roads and Streets",
    "request_reason": "Pothole",
    "date_created": "2025-02-18T17:52:32.000",
    "date_modified": "2025-02-18T17:52:34.000",
    "request_status": "Pending",
    "responsible_agency": "Department of Public Works",
    "final_address": "5209 Spain St",
    "address_councildis": "D",
    "status": "Pending",
    "rowid": "1169986",
    "final_x": "3684898.42095",
    "final_y": "552271.00015",
    "longitude": "-90.0566092649044",
    "latitude": "30.012449980420108",
    "geocoded_column": {
      "latitude": "30.012449980420108",
      "longitude": "-90.0566092649044"
    }
  },
  {
    "service_request": "2025-1169985",
    "request_type": "Roads and Streets",
    "request_reason": "Pothole",
    "date_created": "2025-02-18T17:52:32.000",
    "date_modified": "2025-02-18T17:52:34.000",
    "request_status": "Pending",
    "responsible_agency": "Department of Public Works",
    "final_address": "5209 Spain St",
    "address_councildis": "D",
    "status": "Pending",
    "rowid": "1169985",
    "final_x": "3684898.42095",
    "final_y": "552271.00015",
    "longitude": "-90.0566092649044",
    "latitude": "30.012449980420108",
    "geocoded_column": {
      "latitude": "30.012449980420108",
      "longitude": "-90.0566092649044"
    }
  },
  {
    "service_request": "2025-1169984",
    "request_type": "Abandoned Vehicles",
    "request_reason": "Abandoned/Junk Vehicles",
    "date_created": "2025-02-18T17:43:55.000",
    "date_modified": "2025-02-18T17:44:01.000",
    "request_status": "Pending",
    "responsible_agency": "Department of Public Works",
    "final_address": "3500 Octavia St",
    "address_councildis": "A",
    "status": "Pending",
    "rowid": "1169984",
    "final_x": "3668492.10356",
    "final_y": "528401.537152",
    "longitude": "-90.10924990088628",
    "latitude": "29.94730946980304",
    "geocoded_column": {
      "latitude": "29.94730946980304",
      "longitude": "-90.10924990088628"
    }
  },
  {
    "service_request": "2025-1169983",
    "request_type": "Trash/Recycling",
    "request_reason": "Order Trash Cart",
    "date_created": "2025-02-18T17:43:36.000",
    "date_modified": "2025-02-18T17:43:38.000",
    "request_status": "Pending",
    "responsible_agency": "Department of Sanitation",
    "final_address": "500 Audubon St",
    "address_councildis": "A",
    "status": "Assigned to Contractor",
    "contractor": "IV Waste",
    "rowid": "1169983",
    "final_x": "3662667.44973",
    "final_y": "523793.489723",
    "longitude": "-90.12779371627019",
    "latitude": "29.93480861586312",
    "geocoded_column": {
      "latitude": "29.93480861586312",
      "longitude": "-90.12779371627019"
    }
  },
  {
    "service_request": "2025-1169982",
    "request_type": "Abandoned Vehicles",
    "request_reason": "Abandoned/Junk Vehicles",
    "date_created": "2025-02-18T17:41:10.000",
    "date_modified": "2025-02-18T17:41:12.000",
    "request_status": "Pending",
    "responsible_agency": "Department of Public Works",
    "final_address": "5517 S Rocheblave St",
    "address_councildis": "A",
    "status": "Pending",
    "rowid": "1169982",
    "final_x": "3668397.10682",
    "final_y": "528477.446208",
    "longitude": "-90.10954728296782",
    "latitude": "29.947520985138325",
    "geocoded_column": {
      "latitude": "29.947520985138325",
      "longitude": "-90.10954728296782"
    }
  },
  {
    "service_request": "2025-1169981",
    "request_type": "Property Maintenance",
    "request_reason": "Property Maintenance",
    "date_created": "2025-02-18T17:38:33.000",
    "date_modified": "2025-02-18T17:38:34.000",
    "request_status": "Pending",
    "responsible_agency": "Department of Code Enforcement",
    "final_address": "6024 Louis Xiv St",
    "address_councildis": "A",
    "status": "Pending",
    "rowid": "1169981",
    "final_x": "3668003.41338",
    "final_y": "547525.535122",
    "longitude": "-90.110148310983",
    "latitude": "29.99990840062064",
    "geocoded_column": {
      "latitude": "29.99990840062064",
      "longitude": "-90.110148310983"
    }
  },
  {
    "service_request": "2025-1169980",
    "request_type": "Trash/Recycling",
    "request_reason": "Replace Trash Cart",
    "date_created": "2025-02-18T17:38:15.000",
    "date_modified": "2025-02-18T17:38:17.000",
    "request_status": "Pending",
    "responsible_agency": "Department of Sanitation",
    "final_address": "7354 Beryl St",
    "address_councildis": "D",
    "status": "Assigned to Contractor",
    "contractor": "IV Waste",
    "rowid": "1169980",
    "final_x": "3668596.5195",
    "final_y": "555849.498969",
    "longitude": "-90.1079934533174",
    "latitude": "30.022778955537817",
    "geocoded_column": {
      "latitude": "30.022778955537817",
      "longitude": "-90.1079934533174"
    }
  },
  {
    "service_request": "2025-1169979",
    "request_type": "Roads and Streets",
    "request_reason": "Debris in Driving Lanes",
    "date_created": "2025-02-18T17:23:39.000",
    "date_modified": "2025-02-18T17:23:40.000",
    "request_status": "Pending",
    "responsible_agency": "Department of Public Works",
    "final_address": "6700 Avenue A",
    "address_councildis": "A",
    "status": "Pending",
    "rowid": "1169979",
    "final_x": "3666010.86311",
    "final_y": "552719.121814",
    "longitude": "-90.11626862688377",
    "latitude": "30.014247296323262",
    "geocoded_column": {
      "latitude": "30.014247296323262",
      "longitude": "-90.11626862688377"
    }
  },
  {
    "service_request": "2025-1169978",
    "request_type": "Trash/Recycling",
    "request_reason": "Repair Recycling Cart",
    "date_created": "2025-02-18T17:18:58.000",
    "date_modified": "2025-02-18T17:19:01.000",
    "request_status": "Pending",
    "responsible_agency": "Department of Sanitation",
    "final_address": "807 Polk St",
    "address_councildis": "A",
    "status": "Pending",
    "rowid": "1169978",
    "final_x": "3669287.54055",
    "final_y": "547298.381329",
    "longitude": "-90.10609936803603",
    "latitude": "29.999246051602068",
    "geocoded_column": {
      "latitude": "29.999246051602068",
      "longitude": "-90.10609936803603"
    }
  },
  {
    "service_request": "2025-1169977",
    "request_type": "Drainage",
    "request_reason": "Drainage Manhole Cover Missing or Damaged",
    "date_created": "2025-02-18T17:02:03.000",
    "date_modified": "2025-02-18T17:02:06.000",
    "request_status": "Pending",
    "responsible_agency": "Sewerage & Water Board ",
    "final_address": "2973 Sabine St",
    "address_councildis": "C",
    "status": "Pending",
    "rowid": "1169977",
    "final_x": "3693500.68809",
    "final_y": "519163.305143",
    "longitude": "-90.0306202318079",
    "latitude": "29.921149181936187",
    "geocoded_column": {
      "latitude": "29.921149181936187",
      "longitude": "-90.0306202318079"
    }
  },
  {
    "service_request": "2025-1169976",
    "request_type": "Trash/Recycling",
    "request_reason": "Request a Large Item Pick Up",
    "date_created": "2025-02-18T16:56:44.000",
    "date_modified": "2025-02-18T16:56:46.000",
    "request_status": "Pending",
    "responsible_agency": "Department of Sanitation",
    "final_address": "4851 Lynhuber Dr",
    "address_councildis": "D",
    "status": "Assigned to Contractor",
    "contractor": "Waste Pro",
    "rowid": "1169976",
    "final_x": "3698033.7368",
    "final_y": "554963.956952",
    "longitude": "-90.0150113349199",
    "latitude": "30.01944562517929",
    "geocoded_column": {
      "latitude": "30.01944562517929",
      "longitude": "-90.0150113349199"
    }
  },
  {
    "service_request": "2025-1169975",
    "request_type": "Trash/Recycling",
    "request_reason": "Request a Large Item Pick Up",
    "date_created": "2025-02-18T16:52:08.000",
    "date_modified": "2025-02-18T16:52:10.000",
    "request_status": "Pending",
    "responsible_agency": "Department of Sanitation",
    "final_address": "4524 Rosemont Pl",
    "address_councildis": "E",
    "status": "Assigned to Contractor",
    "contractor": "Waste Pro",
    "rowid": "1169975",
    "final_x": "3702746.81994",
    "final_y": "553713.533783",
    "longitude": "-90.00016565014923",
    "latitude": "30.015857498261596",
    "geocoded_column": {
      "latitude": "30.015857498261596",
      "longitude": "-90.00016565014923"
    }
  },
  {
    "service_request": "2025-1169974",
    "request_type": "Property Maintenance",
    "request_reason": "Property Maintenance",
    "date_created": "2025-02-18T16:50:10.000",
    "date_modified": "2025-02-18T16:50:12.000",
    "request_status": "Pending",
    "responsible_agency": "Department of Code Enforcement",
    "final_address": "1734 St Ferdinand St",
    "address_councildis": "D",
    "status": "Pending",
    "rowid": "1169974",
    "final_x": "3688335.38934",
    "final_y": "538822.476041",
    "longitude": "-90.04622767065695",
    "latitude": "29.97536563686343",
    "geocoded_column": {
      "latitude": "29.97536563686343",
      "longitude": "-90.04622767065695"
    }
  },
  {
    "service_request": "2025-1169973",
    "request_type": "Healthy Homes",
    "request_reason": "Healthy Homes",
    "date_created": "2025-02-18T16:49:09.000",
    "date_modified": "2025-02-18T16:50:45.000",
    "request_status": "Pending",
    "responsible_agency": "Department of Code Enforcement",
    "final_address": "1734 St Ferdinand St",
    "address_councildis": "D",
    "status": "Pending",
    "rowid": "1169973",
    "final_x": "3688335.38934",
    "final_y": "538822.476041",
    "longitude": "-90.04622767065695",
    "latitude": "29.97536563686343",
    "geocoded_column": {
      "latitude": "29.97536563686343",
      "longitude": "-90.04622767065695"
    }
  },
  {
    "service_request": "2025-1169972",
    "request_type": "Trash/Recycling",
    "request_reason": "Replace Trash Cart",
    "date_created": "2025-02-18T16:40:44.000",
    "date_modified": "2025-02-18T16:40:46.000",
    "request_status": "Pending",
    "responsible_agency": "Department of Sanitation",
    "final_address": "412 Aurora Oaks Dr",
    "address_councildis": "C",
    "status": "Assigned to Contractor",
    "contractor": "Richards Disposal",
    "rowid": "1169972",
    "final_x": "3701381.21124",
    "final_y": "522241.31609",
    "longitude": "-90.00563253101333",
    "latitude": "29.929363944078688",
    "geocoded_column": {
      "latitude": "29.929363944078688",
      "longitude": "-90.00563253101333"
    }
  },
  {
    "service_request": "2025-1169971",
    "request_type": "Traffic Signals",
    "request_reason": "Traffic Signal Malfunctioning or Damaged",
    "date_created": "2025-02-18T16:38:42.000",
    "date_modified": "2025-02-18T16:38:44.000",
    "request_status": "Pending",
    "responsible_agency": "Department of Public Works",
    "final_address": "ST CHARLES AVE & STATE ST",
    "address_councildis": "A",
    "status": "Pending",
    "rowid": "1169971",
    "final_x": "3665749.4",
    "final_y": "522436.58",
    "longitude": "-90.11810943646248",
    "latitude": "29.930988026619243",
    "geocoded_column": {
      "latitude": "29.930988026619243",
      "longitude": "-90.11810943646248"
    }
  },
  {
    "service_request": "2025-1169970",
    "request_type": "Trash/Recycling",
    "request_reason": "Repair Trash Cart",
    "date_created": "2025-02-18T16:35:40.000",
    "date_modified": "2025-02-18T16:35:42.000",
    "request_status": "Pending",
    "responsible_agency": "Department of Sanitation",
    "final_address": "605 Vallette St",
    "address_councildis": "C",
    "status": "Assigned to Contractor",
    "contractor": "Richards Disposal",
    "rowid": "1169970",
    "final_x": "3687473.24118",
    "final_y": "529437.939265",
    "longitude": "-90.04928269819884",
    "latitude": "29.949588016203595",
    "geocoded_column": {
      "latitude": "29.949588016203595",
      "longitude": "-90.04928269819884"
    }
  },
  {
    "service_request": "2025-1169969",
    "request_type": "Trash/Recycling",
    "request_reason": "Order Second Trash Cart",
    "date_created": "2025-02-18T16:33:48.000",
    "date_modified": "2025-02-18T16:33:50.000",
    "request_status": "Pending",
    "responsible_agency": "Department of Sanitation",
    "final_address": "5611 Holley Ln",
    "address_councildis": "E",
    "status": "Assigned to Contractor",
    "contractor": "Waste Pro",
    "rowid": "1169969",
    "final_x": "3703424.83127",
    "final_y": "556579.221722",
    "longitude": "-89.99791793242247",
    "latitude": "30.023715330674086",
    "geocoded_column": {
      "latitude": "30.023715330674086",
      "longitude": "-89.99791793242247"
    }
  },
  {
    "service_request": "2025-1169968",
    "request_type": "Trash/Recycling",
    "request_reason": "Order Trash Cart",
    "date_created": "2025-02-18T16:30:55.000",
    "date_modified": "2025-02-18T16:30:57.000",
    "request_status": "Pending",
    "responsible_agency": "Department of Sanitation",
    "final_address": "6025 St Anthony Ave",
    "address_councildis": "D",
    "status": "Assigned to Contractor",
    "contractor": "IV Waste",
    "rowid": "1169968",
    "final_x": "3682125.00258",
    "final_y": "555013.314201",
    "longitude": "-90.06527583123177",
    "latitude": "30.020075022652033",
    "geocoded_column": {
      "latitude": "30.020075022652033",
      "longitude": "-90.06527583123177"
    }
  },
  {
    "service_request": "2025-1169967",
    "request_type": "Abandoned Vehicles",
    "request_reason": "Abandoned/Junk Vehicles",
    "date_created": "2025-02-18T16:30:48.000",
    "date_modified": "2025-02-18T16:30:50.000",
    "request_status": "Pending",
    "responsible_agency": "Department of Public Works",
    "final_address": "2655 N Rocheblave St",
    "address_councildis": "D",
    "status": "Pending",
    "rowid": "1169967",
    "final_x": "3686945.25135",
    "final_y": "541315.393292",
    "longitude": "-90.05052994562675",
    "latitude": "29.98226314287364",
    "geocoded_column": {
      "latitude": "29.98226314287364",
      "longitude": "-90.05052994562675"
    }
  },
  {
    "service_request": "2025-1169966",
    "request_type": "Trash/Recycling",
    "request_reason": "Request a Large Item Pick Up",
    "date_created": "2025-02-18T16:29:27.000",
    "date_modified": "2025-02-18T16:29:29.000",
    "request_status": "Pending",
    "responsible_agency": "Department of Sanitation",
    "final_address": "1009 Burgundy St",
    "address_councildis": "C",
    "status": "Assigned to Contractor",
    "contractor": "IV Waste",
    "rowid": "1169966",
    "final_x": "3682406.76885",
    "final_y": "534097.244613",
    "longitude": "-90.06511700337474",
    "latitude": "29.96255466331809",
    "geocoded_column": {
      "latitude": "29.96255466331809",
      "longitude": "-90.06511700337474"
    }
  },
  {
    "service_request": "2025-1169965",
    "request_type": "Trash/Recycling",
    "request_reason": "Request a Large Item Pick Up",
    "date_created": "2025-02-18T16:27:16.000",
    "date_modified": "2025-02-18T16:27:18.000",
    "request_status": "Pending",
    "responsible_agency": "Department of Sanitation",
    "final_address": "2433 Lark St",
    "address_councildis": "D",
    "status": "Assigned to Contractor",
    "contractor": "IV Waste",
    "rowid": "1169965",
    "final_x": "3684873.90953",
    "final_y": "558006.319643",
    "longitude": "-90.05648478543553",
    "latitude": "30.028220746225468",
    "geocoded_column": {
      "latitude": "30.028220746225468",
      "longitude": "-90.05648478543553"
    }
  },
  {
    "service_request": "2025-1169964",
    "request_type": "Trash/Recycling",
    "request_reason": "Illegal Dumping",
    "date_created": "2025-02-18T16:20:20.000",
    "date_modified": "2025-02-18T16:20:22.000",
    "request_status": "Pending",
    "responsible_agency": "Department of Sanitation",
    "final_address": "ALVAR ST & FRANCE RD OVERPASS",
    "address_councildis": "D",
    "status": "Pending",
    "rowid": "1169964",
    "final_x": "3693360.61",
    "final_y": "547920.62",
    "longitude": "-90.03002991248846",
    "latitude": "30.00022607144991",
    "geocoded_column": {
      "latitude": "30.00022607144991",
      "longitude": "-90.03002991248846"
    }
  },
  {
    "service_request": "2025-1169963",
    "request_type": "Trash/Recycling",
    "request_reason": "Request a Large Item Pick Up",
    "date_created": "2025-02-18T16:15:18.000",
    "date_modified": "2025-02-18T16:15:20.000",
    "request_status": "Pending",
    "responsible_agency": "Department of Sanitation",
    "final_address": "7712 Hickory St",
    "address_councildis": "A",
    "status": "Assigned to Contractor",
    "contractor": "IV Waste",
    "rowid": "1169963",
    "final_x": "3664365.34285",
    "final_y": "528981.118912",
    "longitude": "-90.1222603723229",
    "latitude": "29.94902370833665",
    "geocoded_column": {
      "latitude": "29.94902370833665",
      "longitude": "-90.1222603723229"
    }
  },
  {
    "service_request": "2025-1169962",
    "request_type": "Trash/Recycling",
    "request_reason": "Return Recycling Cart",
    "date_created": "2025-02-18T16:14:49.000",
    "date_modified": "2025-02-18T16:14:50.000",
    "request_status": "Pending",
    "responsible_agency": "Department of Sanitation",
    "final_address": "7817 Doyle Ct",
    "address_councildis": "E",
    "status": "Pending",
    "rowid": "1169962",
    "final_x": "3700342.70487",
    "final_y": "561369.462494",
    "longitude": "-90.00748163044572",
    "latitude": "30.03698505019488",
    "geocoded_column": {
      "latitude": "30.03698505019488",
      "longitude": "-90.00748163044572"
    }
  },
  {
    "service_request": "2025-1169961",
    "request_type": "Trash/Recycling",
    "request_reason": "Request a Large Item Pick Up",
    "date_created": "2025-02-18T16:08:57.000",
    "date_modified": "2025-02-18T16:09:00.000",
    "request_status": "Pending",
    "responsible_agency": "Department of Sanitation",
    "final_address": "13020 Ashland Dr",
    "address_councildis": "E",
    "status": "Assigned to Contractor",
    "contractor": "Waste Pro",
    "rowid": "1169961",
    "final_x": "3717576.75954",
    "final_y": "567553.200996",
    "longitude": "-89.95278343391202",
    "latitude": "30.053428228146448",
    "geocoded_column": {
      "latitude": "30.053428228146448",
      "longitude": "-89.95278343391202"
    }
  },
  {
    "service_request": "2025-1169960",
    "request_type": "Alley Ways",
    "request_reason": "Alley Way Regrading",
    "date_created": "2025-02-18T16:08:31.000",
    "date_modified": "2025-02-18T16:08:33.000",
    "request_status": "Pending",
    "responsible_agency": "Department of Public Works",
    "final_address": "6000 BLK West End Blvd",
    "address_councildis": "A",
    "status": "Pending",
    "rowid": "1169960",
    "final_x": "3666473.43342",
    "final_y": "547832.583912",
    "longitude": "-90.11497129234587",
    "latitude": "30.000797498945268",
    "geocoded_column": {
      "latitude": "30.000797498945268",
      "longitude": "-90.11497129234587"
    }
  },
  {
    "service_request": "2025-1169959",
    "request_type": "Trash/Recycling",
    "request_reason": "Request a Large Item Pick Up",
    "date_created": "2025-02-18T16:07:20.000",
    "date_modified": "2025-02-18T16:07:23.000",
    "request_status": "Pending",
    "responsible_agency": "Department of Sanitation",
    "final_address": "12951 Chanelle Ct",
    "address_councildis": "E",
    "status": "Assigned to Contractor",
    "contractor": "Waste Pro",
    "rowid": "1169959",
    "final_x": "3717168.79608",
    "final_y": "567543.422052",
    "longitude": "-89.95407325751852",
    "latitude": "30.053414848901177",
    "geocoded_column": {
      "latitude": "30.053414848901177",
      "longitude": "-89.95407325751852"
    }
  },
  {
    "service_request": "2025-1169958",
    "request_type": "Trash/Recycling",
    "request_reason": "Order Trash Cart",
    "date_created": "2025-02-18T15:58:35.000",
    "date_modified": "2025-02-18T15:58:38.000",
    "request_status": "Pending",
    "responsible_agency": "Department of Sanitation",
    "final_address": "1962 N Tonti St",
    "address_councildis": "D",
    "status": "Assigned to Contractor",
    "contractor": "IV Waste",
    "rowid": "1169958",
    "final_x": "3682654.05141",
    "final_y": "540534.983499",
    "longitude": "-90.06411093436462",
    "latitude": "29.98024868819605",
    "geocoded_column": {
      "latitude": "29.98024868819605",
      "longitude": "-90.06411093436462"
    }
  },
  {
    "service_request": "2025-1169957",
    "request_type": "Trash/Recycling",
    "request_reason": "Order Recycling Cart",
    "date_created": "2025-02-18T15:52:47.000",
    "date_modified": "2025-02-18T15:52:49.000",
    "request_status": "Pending",
    "responsible_agency": "Department of Sanitation",
    "final_address": "5201 Beaucaire St",
    "address_councildis": "E",
    "status": "Pending",
    "rowid": "1169957",
    "final_x": "3724542.45587",
    "final_y": "562384.727647",
    "longitude": "-89.93096692050206",
    "latitude": "30.038984471200873",
    "geocoded_column": {
      "latitude": "30.038984471200873",
      "longitude": "-89.93096692050206"
    }
  },
  {
    "service_request": "2025-1169956",
    "request_type": "Property Maintenance",
    "request_reason": "Property Maintenance",
    "date_created": "2025-02-18T15:49:35.000",
    "date_modified": "2025-02-18T15:49:37.000",
    "request_status": "Pending",
    "responsible_agency": "Department of Code Enforcement",
    "final_address": "5204 Forest Park Ln",
    "address_councildis": "C",
    "status": "Pending",
    "rowid": "1169956",
    "final_x": "3703712.38193",
    "final_y": "510602.199791",
    "longitude": "-89.99870147822675",
    "latitude": "29.8972858851975",
    "geocoded_column": {
      "latitude": "29.8972858851975",
      "longitude": "-89.99870147822675"
    }
  },
  {
    "service_request": "2025-1169955",
    "request_type": "Trash/Recycling",
    "request_reason": "Request a Large Item Pick Up",
    "date_created": "2025-02-18T15:48:56.000",
    "date_modified": "2025-02-18T15:48:58.000",
    "request_status": "Pending",
    "responsible_agency": "Department of Sanitation",
    "final_address": "5502 Annunciation St",
    "address_councildis": "A",
    "status": "Assigned to Contractor",
    "contractor": "IV Waste",
    "rowid": "1169955",
    "final_x": "3666098.93472",
    "final_y": "517515.448758",
    "longitude": "-90.1171708862869",
    "latitude": "29.917446267590737",
    "geocoded_column": {
      "latitude": "29.917446267590737",
      "longitude": "-90.1171708862869"
    }
  },
  {
    "service_request": "2025-1169954",
    "request_type": "Trash/Recycling",
    "request_reason": "Request a Large Item Pick Up",
    "date_created": "2025-02-18T15:48:38.000",
    "date_modified": "2025-02-18T15:48:40.000",
    "request_status": "Pending",
    "responsible_agency": "Department of Sanitation",
    "final_address": "1506 Lesseps St",
    "address_councildis": "D",
    "status": "Assigned to Contractor",
    "contractor": "IV Waste",
    "rowid": "1169954",
    "final_x": "3693053.30832",
    "final_y": "536648.643719",
    "longitude": "-90.03140528571029",
    "latitude": "29.969241807446203",
    "geocoded_column": {
      "latitude": "29.969241807446203",
      "longitude": "-90.03140528571029"
    }
  },
  {
    "service_request": "2025-1169953",
    "request_type": "Drainage",
    "request_reason": "Catch Basin Clogged",
    "date_created": "2025-02-18T15:45:27.000",
    "date_modified": "2025-02-18T15:45:29.000",
    "request_status": "Pending",
    "responsible_agency": "Sewerage & Water Board ",
    "final_address": "4100 General Ogden St",
    "address_councildis": "A",
    "status": "Pending",
    "rowid": "1169953",
    "final_x": "3666799.31367",
    "final_y": "537944.411977",
    "longitude": "-90.11427414439325",
    "latitude": "29.973598852385994",
    "geocoded_column": {
      "latitude": "29.973598852385994",
      "longitude": "-90.11427414439325"
    }
  },
  {
    "service_request": "2025-1169952",
    "request_type": "Trash/Recycling",
    "request_reason": "Request a Large Item Pick Up",
    "date_created": "2025-02-18T15:38:15.000",
    "date_modified": "2025-02-18T15:38:17.000",
    "request_status": "Pending",
    "responsible_agency": "Department of Sanitation",
    "final_address": "2404 Mazant St",
    "address_councildis": "D",
    "status": "Assigned to Contractor",
    "contractor": "IV Waste",
    "rowid": "1169952",
    "final_x": "3693306.44758",
    "final_y": "540199.413899",
    "longitude": "-90.03047835465765",
    "latitude": "29.97899724892322",
    "geocoded_column": {
      "latitude": "29.97899724892322",
      "longitude": "-90.03047835465765"
    }
  },
  {
    "service_request": "2025-1169951",
    "request_type": "Trash/Recycling",
    "request_reason": "Return Recycling Cart",
    "date_created": "2025-02-18T15:33:04.000",
    "date_modified": "2025-02-18T15:33:05.000",
    "request_status": "Pending",
    "responsible_agency": "Department of Sanitation",
    "final_address": "5645 Bellaire Dr",
    "address_councildis": "A",
    "status": "Pending",
    "rowid": "1169951",
    "final_x": "3664179.76903",
    "final_y": "545397.873872",
    "longitude": "-90.12229847076948",
    "latitude": "29.994169738297046",
    "geocoded_column": {
      "latitude": "29.994169738297046",
      "longitude": "-90.12229847076948"
    }
  },
  {
    "service_request": "2025-1169950",
    "request_type": "Trash/Recycling",
    "request_reason": "Request a Large Item Pick Up",
    "date_created": "2025-02-18T15:22:50.000",
    "date_modified": "2025-02-18T15:22:51.000",
    "request_status": "Pending",
    "responsible_agency": "Department of Sanitation",
    "final_address": "6007 Beechcraft St",
    "address_councildis": "D",
    "status": "Assigned to Contractor",
    "contractor": "Waste Pro",
    "rowid": "1169950",
    "final_x": "3696504.12567",
    "final_y": "553200.983511",
    "longitude": "-90.01990821821788",
    "latitude": "30.014646413997145",
    "geocoded_column": {
      "latitude": "30.014646413997145",
      "longitude": "-90.01990821821788"
    }
  },
  {
    "service_request": "2025-1169949",
    "request_type": "Trash/Recycling",
    "request_reason": "Repair Trash Cart",
    "date_created": "2025-02-18T15:22:02.000",
    "date_modified": "2025-02-18T15:25:46.000",
    "request_status": "Pending",
    "responsible_agency": "Department of Sanitation",
    "final_address": "3938 Kathleen St",
    "address_councildis": "C",
    "status": "Assigned to Contractor",
    "contractor": "Richards Disposal",
    "rowid": "1169949",
    "final_x": "3709880.67339",
    "final_y": "516165.431348",
    "longitude": "-89.97902827250128",
    "latitude": "29.91238385738812",
    "geocoded_column": {
      "latitude": "29.91238385738812",
      "longitude": "-89.97902827250128"
    }
  },
  {
    "service_request": "2025-1169948",
    "request_type": "Roads and Streets",
    "request_reason": "Pothole",
    "date_created": "2025-02-18T15:20:40.000",
    "date_modified": "2025-02-18T15:27:23.000",
    "request_status": "Pending",
    "responsible_agency": "Department of Public Works",
    "final_address": "SULLEN PL & STRATFORD PL",
    "address_councildis": "C",
    "status": "Pending",
    "rowid": "1169948",
    "final_x": "3707506.4",
    "final_y": "516189.08",
    "longitude": "-89.98652119182015",
    "latitude": "29.912525831551587",
    "geocoded_column": {
      "latitude": "29.912525831551587",
      "longitude": "-89.98652119182015"
    }
  },
  {
    "service_request": "2025-1169947",
    "request_type": "Trash/Recycling",
    "request_reason": "Request a Large Item Pick Up",
    "date_created": "2025-02-18T15:20:22.000",
    "date_modified": "2025-02-18T15:20:24.000",
    "request_status": "Pending",
    "responsible_agency": "Department of Sanitation",
    "final_address": "2223 Hyman Pl",
    "address_councildis": "C",
    "status": "Assigned to Contractor",
    "contractor": "Richards Disposal",
    "rowid": "1169947",
    "final_x": "3701048.10289",
    "final_y": "522659.57849",
    "longitude": "-90.00666879733635",
    "latitude": "29.930524629708867",
    "geocoded_column": {
      "latitude": "29.930524629708867",
      "longitude": "-90.00666879733635"
    }
  },
  {
    "service_request": "2025-1169946",
    "request_type": "Streetlights",
    "request_reason": "Streetlight Outage/Malfunction",
    "date_created": "2025-02-18T15:15:15.000",
    "date_modified": "2025-02-18T15:15:16.000",
    "request_status": "Pending",
    "responsible_agency": "Department of Public Works",
    "final_address": "2323 Magazine St",
    "address_councildis": "B",
    "status": "Pending",
    "contractor": "Legacy Professional Services",
    "rowid": "1169946",
    "final_x": "3678347.4724",
    "final_y": "521752.515002",
    "longitude": "-90.07836266764072",
    "latitude": "29.9287336781961",
    "geocoded_column": {
      "latitude": "29.9287336781961",
      "longitude": "-90.07836266764072"
    }
  },
  {
    "service_request": "2025-1169945",
    "request_type": "Abandoned Vehicles",
    "request_reason": "Abandoned/Junk Vehicles",
    "date_created": "2025-02-18T15:13:13.000",
    "date_modified": "2025-02-18T15:16:38.000",
    "request_status": "Pending",
    "responsible_agency": "Department of Public Works",
    "final_address": "2131 Delachaise St",
    "address_councildis": "B",
    "status": "Pending",
    "rowid": "1169945",
    "final_x": "3673051.54516",
    "final_y": "523273.593659",
    "longitude": "-90.09502895426952",
    "latitude": "29.93307458062401",
    "geocoded_column": {
      "latitude": "29.93307458062401",
      "longitude": "-90.09502895426952"
    }
  },
  {
    "service_request": "2025-1169944",
    "request_type": "Drainage",
    "request_reason": "Drainage Manhole Cover Missing or Damaged",
    "date_created": "2025-02-18T15:08:01.000",
    "date_modified": "2025-02-18T15:08:03.000",
    "request_status": "Pending",
    "responsible_agency": "Sewerage & Water Board ",
    "final_address": "5900 Almonaster Ave",
    "address_councildis": "E",
    "status": "Pending",
    "rowid": "1169944",
    "final_x": "3698161.74531",
    "final_y": "549080.420243",
    "longitude": "-90.01482078709545",
    "latitude": "30.0032640615742",
    "geocoded_column": {
      "latitude": "30.0032640615742",
      "longitude": "-90.01482078709545"
    }
  },
  {
    "service_request": "2025-1169943",
    "request_type": "Abandoned Vehicles",
    "request_reason": "Abandoned/Junk Vehicles",
    "date_created": "2025-02-18T15:03:55.000",
    "date_modified": "2025-02-18T15:12:41.000",
    "request_status": "Pending",
    "responsible_agency": "Department of Public Works",
    "final_address": "3016 Peoples Ave",
    "address_councildis": "D",
    "status": "Pending",
    "rowid": "1169943",
    "final_x": "3688628.14287",
    "final_y": "544176.559758",
    "longitude": "-90.04511297126939",
    "latitude": "29.990078416449702",
    "geocoded_column": {
      "latitude": "29.990078416449702",
      "longitude": "-90.04511297126939"
    }
  },
  {
    "service_request": "2025-1169942",
    "request_type": "Trash/Recycling",
    "request_reason": "Request a Large Item Pick Up",
    "date_created": "2025-02-18T15:03:16.000",
    "date_modified": "2025-02-18T15:03:19.000",
    "request_status": "Pending",
    "responsible_agency": "Department of Sanitation",
    "final_address": "7425 Mayo Rd",
    "address_councildis": "E",
    "status": "Assigned to Contractor",
    "contractor": "Waste Pro",
    "rowid": "1169942",
    "final_x": "3701059.73137",
    "final_y": "560329.909533",
    "longitude": "-90.00525376107944",
    "latitude": "30.034103851870203",
    "geocoded_column": {
      "latitude": "30.034103851870203",
      "longitude": "-90.00525376107944"
    }
  },
  {
    "service_request": "2025-1169941",
    "request_type": "Street and Traffic Signs",
    "request_reason": "Stop Sign Missing or Damaged",
    "date_created": "2025-02-18T15:02:19.000",
    "date_modified": "2025-02-18T15:02:21.000",
    "request_status": "Pending",
    "responsible_agency": "Department of Public Works",
    "final_address": "1801 Hendee St",
    "address_councildis": "C",
    "status": "Pending",
    "rowid": "1169941",
    "final_x": "3690571.53756",
    "final_y": "524357.135356",
    "longitude": "-90.039681125216",
    "latitude": "29.935521710140772",
    "geocoded_column": {
      "latitude": "29.935521710140772",
      "longitude": "-90.039681125216"
    }
  },
  {
    "service_request": "2025-1169940",
    "request_type": "Streetlights",
    "request_reason": "Streetlight Knocked Down/Leaning",
    "date_created": "2025-02-18T15:00:00.000",
    "date_modified": "2025-02-18T15:00:02.000",
    "request_status": "Pending",
    "responsible_agency": "Department of Public Works",
    "final_address": "1501 Leda St",
    "address_councildis": "A",
    "status": "Pending",
    "contractor": "Legacy Professional Services",
    "rowid": "1169940",
    "final_x": "3675595.34689",
    "final_y": "541494.598092",
    "longitude": "-90.08637235212649",
    "latitude": "29.983100398638573",
    "geocoded_column": {
      "latitude": "29.983100398638573",
      "longitude": "-90.08637235212649"
    }
  },
  {
    "service_request": "2025-1169939",
    "request_type": "Roads and Streets",
    "request_reason": "Sidewalk Damaged or Missing",
    "date_created": "2025-02-18T14:53:27.000",
    "date_modified": "2025-02-18T14:53:29.000",
    "request_status": "Pending",
    "responsible_agency": "Department of Public Works",
    "final_address": "2263 Lark St",
    "address_councildis": "D",
    "status": "Pending",
    "rowid": "1169939",
    "final_x": "3684035.20834",
    "final_y": "557883.164507",
    "longitude": "-90.05913935679041",
    "latitude": "30.02790778651365",
    "geocoded_column": {
      "latitude": "30.02790778651365",
      "longitude": "-90.05913935679041"
    }
  },
  {
    "service_request": "2025-1169938",
    "request_type": "Roads and Streets",
    "request_reason": "Pothole",
    "date_created": "2025-02-18T14:52:13.000",
    "date_modified": "2025-02-18T14:52:44.000",
    "case_close_date": "2025-02-18T08:52:43.000",
    "request_status": "Closed",
    "responsible_agency": "Department of Public Works",
    "final_address": "3800 BLK Prytania St",
    "address_councildis": "B",
    "status": "Resolved",
    "rowid": "1169938",
    "final_x": "3672888.13844",
    "final_y": "520531.115878",
    "longitude": "-90.09563833751155",
    "latitude": "29.925538505097474",
    "geocoded_column": {
      "latitude": "29.925538505097474",
      "longitude": "-90.09563833751155"
    }
  },
  {
    "service_request": "2025-1169937",
    "request_type": "Trash/Recycling",
    "request_reason": "Request a Large Item Pick Up",
    "date_created": "2025-02-18T14:52:02.000",
    "date_modified": "2025-02-18T14:52:03.000",
    "request_status": "Pending",
    "responsible_agency": "Department of Sanitation",
    "final_address": "1210 N Miro St",
    "address_councildis": "D",
    "status": "Assigned to Contractor",
    "contractor": "IV Waste",
    "rowid": "1169937",
    "final_x": "3679286.99765",
    "final_y": "537428.43924",
    "longitude": "-90.07485327840406",
    "latitude": "29.971808885921693",
    "geocoded_column": {
      "latitude": "29.971808885921693",
      "longitude": "-90.07485327840406"
    }
  },
  {
    "service_request": "2025-1169936",
    "request_type": "Trash/Recycling",
    "request_reason": "Request a Large Item Pick Up",
    "date_created": "2025-02-18T14:45:34.000",
    "date_modified": "2025-02-18T14:47:20.000",
    "request_status": "Pending",
    "responsible_agency": "Department of Sanitation",
    "final_address": "7425 Primrose Dr",
    "address_councildis": "E",
    "status": "Assigned to Contractor",
    "contractor": "Waste Pro",
    "rowid": "1169936",
    "final_x": "3702056.58263",
    "final_y": "560659.951518",
    "longitude": "-90.00209148752384",
    "latitude": "30.034979532040918",
    "geocoded_column": {
      "latitude": "30.034979532040918",
      "longitude": "-90.00209148752384"
    }
  },
  {
    "service_request": "2025-1169935",
    "request_type": "Trash/Recycling",
    "request_reason": "Missed Trash Pick-Up",
    "date_created": "2025-02-18T14:45:16.000",
    "date_modified": "2025-02-18T18:40:16.000",
    "case_close_date": "2025-02-18T12:40:14.000",
    "request_status": "Closed",
    "responsible_agency": "Department of Sanitation",
    "final_address": "8631 Hammond St",
    "address_councildis": "E",
    "status": "Invalid Request",
    "contractor": "Waste Pro",
    "contractor_action": "Invalid Request",
    "rowid": "1169935",
    "final_x": "3707232.8268",
    "final_y": "555959.224793",
    "longitude": "-89.98590857124378",
    "latitude": "30.021888001704244",
    "geocoded_column": {
      "latitude": "30.021888001704244",
      "longitude": "-89.98590857124378"
    }
  },
  {
    "service_request": "2025-1169934",
    "request_type": "Roads and Streets",
    "request_reason": "Pothole",
    "date_created": "2025-02-18T14:41:10.000",
    "date_modified": "2025-02-18T14:41:57.000",
    "case_close_date": "2025-02-18T08:41:57.000",
    "request_status": "Closed",
    "responsible_agency": "Department of Public Works",
    "status": "Resolved",
    "rowid": "1169934",
    "longitude": "0.0",
    "latitude": "0.0",
    "geocoded_column": {
      "latitude": "0.0",
      "longitude": "0.0"
    }
  },
  {
    "service_request": "2025-1169933",
    "request_type": "Trash/Recycling",
    "request_reason": "Repair Trash Cart",
    "date_created": "2025-02-18T14:39:32.000",
    "date_modified": "2025-02-18T14:39:34.000",
    "request_status": "Pending",
    "responsible_agency": "Department of Sanitation",
    "final_address": "3325 Hyman Pl",
    "address_councildis": "C",
    "status": "Assigned to Contractor",
    "contractor": "Richards Disposal",
    "rowid": "1169933",
    "final_x": "3700912.75249",
    "final_y": "518914.549879",
    "longitude": "-90.00723289876427",
    "latitude": "29.920231399694398",
    "geocoded_column": {
      "latitude": "29.920231399694398",
      "longitude": "-90.00723289876427"
    }
  },
  {
    "service_request": "2025-1169932",
    "request_type": "Trash/Recycling",
    "request_reason": "Repair Trash Cart",
    "date_created": "2025-02-18T14:38:34.000",
    "date_modified": "2025-02-18T14:38:36.000",
    "request_status": "Pending",
    "responsible_agency": "Department of Sanitation",
    "final_address": "1722 General Collins Ave",
    "address_councildis": "C",
    "status": "Assigned to Contractor",
    "contractor": "Richards Disposal",
    "rowid": "1169932",
    "final_x": "3698561.92676",
    "final_y": "524680.115772",
    "longitude": "-90.0144438170314",
    "latitude": "29.93615932486403",
    "geocoded_column": {
      "latitude": "29.93615932486403",
      "longitude": "-90.0144438170314"
    }
  },
  {
    "service_request": "2025-1169931",
    "request_type": "Trash/Recycling",
    "request_reason": "Repair Recycling Cart",
    "date_created": "2025-02-18T14:37:43.000",
    "date_modified": "2025-02-18T14:37:45.000",
    "request_status": "Pending",
    "responsible_agency": "Department of Sanitation",
    "final_address": "1424 N Derbigny St",
    "address_councildis": "D",
    "status": "Pending",
    "rowid": "1169931",
    "final_x": "3681140.13999",
    "final_y": "536954.202504",
    "longitude": "-90.06901729465486",
    "latitude": "29.970448804236337",
    "geocoded_column": {
      "latitude": "29.970448804236337",
      "longitude": "-90.06901729465486"
    }
  },
  {
    "service_request": "2025-1169930",
    "request_type": "Drainage",
    "request_reason": "Catch Basin Clogged",
    "date_created": "2025-02-18T14:34:14.000",
    "date_modified": "2025-02-18T14:34:16.000",
    "request_status": "Pending",
    "responsible_agency": "Sewerage & Water Board ",
    "final_address": "7110 Milne Blvd",
    "address_councildis": "A",
    "status": "Pending",
    "rowid": "1169930",
    "final_x": "3667666.07079",
    "final_y": "554612.65148",
    "longitude": "-90.11097515902934",
    "latitude": "30.01940538977806",
    "geocoded_column": {
      "latitude": "30.01940538977806",
      "longitude": "-90.11097515902934"
    }
  },
  {
    "service_request": "2025-1169929",
    "request_type": "Drainage",
    "request_reason": "Street Flooding",
    "date_created": "2025-02-18T14:33:01.000",
    "date_modified": "2025-02-18T14:33:06.000",
    "request_status": "Pending",
    "responsible_agency": "Sewerage & Water Board ",
    "final_address": "7422 Hurst St",
    "address_councildis": "A",
    "status": "Pending",
    "rowid": "1169929",
    "final_x": "3661523.71898",
    "final_y": "523977.110588",
    "longitude": "-90.13139839583552",
    "latitude": "29.935346553214575",
    "geocoded_column": {
      "latitude": "29.935346553214575",
      "longitude": "-90.13139839583552"
    }
  },
  {
    "service_request": "2025-1169928",
    "request_type": "Trash/Recycling",
    "request_reason": "Missed Trash Pick-Up",
    "date_created": "2025-02-18T14:32:13.000",
    "date_modified": "2025-02-18T14:32:15.000",
    "request_status": "Pending",
    "responsible_agency": "Department of Sanitation",
    "final_address": "4530 Fort Macomb Rd",
    "address_councildis": "E",
    "status": "Assigned to Contractor",
    "contractor": "Waste Pro",
    "rowid": "1169928",
    "final_x": "3762726.35472",
    "final_y": "573646.655338",
    "longitude": "-89.809825110301",
    "latitude": "30.068609401943966",
    "geocoded_column": {
      "latitude": "30.068609401943966",
      "longitude": "-89.809825110301"
    }
  },
  {
    "service_request": "2025-1169927",
    "request_type": "Health Related Request",
    "request_reason": "Homeless Encampment Complaint",
    "date_created": "2025-02-18T14:28:48.000",
    "date_modified": "2025-02-18T14:28:49.000",
    "request_status": "Pending",
    "responsible_agency": "Health Department",
    "final_address": "CONTI ST & N HENNESSEY ST",
    "address_councildis": "A",
    "status": "Pending",
    "rowid": "1169927",
    "final_x": "3671000.3",
    "final_y": "539885.58",
    "longitude": "-90.10094056588518",
    "latitude": "29.97881284460186",
    "geocoded_column": {
      "latitude": "29.97881284460186",
      "longitude": "-90.10094056588518"
    }
  },
  {
    "service_request": "2025-1169926",
    "request_type": "Trash/Recycling",
    "request_reason": "Order Second Trash Cart",
    "date_created": "2025-02-18T14:28:30.000",
    "date_modified": "2025-02-18T14:28:32.000",
    "request_status": "Pending",
    "responsible_agency": "Department of Sanitation",
    "final_address": "2427 Philip St",
    "address_councildis": "B",
    "status": "Assigned to Contractor",
    "contractor": "IV Waste",
    "rowid": "1169926",
    "final_x": "3675414.29505",
    "final_y": "526026.194558",
    "longitude": "-90.08747542550367",
    "latitude": "29.940572911023825",
    "geocoded_column": {
      "latitude": "29.940572911023825",
      "longitude": "-90.08747542550367"
    }
  },
  {
    "service_request": "2025-1169924",
    "request_type": "Trash/Recycling",
    "request_reason": "Order Trash Cart",
    "date_created": "2025-02-18T14:27:47.000",
    "date_modified": "2025-02-18T14:27:48.000",
    "request_status": "Pending",
    "responsible_agency": "Department of Sanitation",
    "final_address": "2427 Philip St",
    "address_councildis": "B",
    "status": "Assigned to Contractor",
    "contractor": "IV Waste",
    "rowid": "1169924",
    "final_x": "3675414.29505",
    "final_y": "526026.194558",
    "longitude": "-90.08747542550367",
    "latitude": "29.940572911023825",
    "geocoded_column": {
      "latitude": "29.940572911023825",
      "longitude": "-90.08747542550367"
    }
  },
  {
    "service_request": "2025-1169925",
    "request_type": "Trash/Recycling",
    "request_reason": "Return Trash Cart",
    "date_created": "2025-02-18T14:27:47.000",
    "date_modified": "2025-02-18T14:27:48.000",
    "request_status": "Pending",
    "responsible_agency": "Department of Sanitation",
    "final_address": "55 Yellowstone Dr",
    "address_councildis": "C",
    "status": "Assigned to Contractor",
    "contractor": "Richards Disposal",
    "rowid": "1169925",
    "final_x": "3700196.11524",
    "final_y": "516898.027125",
    "longitude": "-90.00956850274457",
    "latitude": "29.914709435654636",
    "geocoded_column": {
      "latitude": "29.914709435654636",
      "longitude": "-90.00956850274457"
    }
  },
  {
    "service_request": "2025-1169923",
    "request_type": "Trash/Recycling",
    "request_reason": "Request a Large Item Pick Up",
    "date_created": "2025-02-18T14:25:13.000",
    "date_modified": "2025-02-18T14:25:14.000",
    "request_status": "Pending",
    "responsible_agency": "Department of Sanitation",
    "final_address": "2427 Philip St",
    "address_councildis": "B",
    "status": "Assigned to Contractor",
    "contractor": "IV Waste",
    "rowid": "1169923",
    "final_x": "3675414.29505",
    "final_y": "526026.194558",
    "longitude": "-90.08747542550367",
    "latitude": "29.940572911023825",
    "geocoded_column": {
      "latitude": "29.940572911023825",
      "longitude": "-90.08747542550367"
    }
  },
  {
    "service_request": "2025-1169922",
    "request_type": "Trash/Recycling",
    "request_reason": "Replace Trash Cart",
    "date_created": "2025-02-18T14:22:57.000",
    "date_modified": "2025-02-18T14:22:59.000",
    "request_status": "Pending",
    "responsible_agency": "Department of Sanitation",
    "final_address": "3500 Kent Dr",
    "address_councildis": "C",
    "status": "Assigned to Contractor",
    "contractor": "Richards Disposal",
    "rowid": "1169922",
    "final_x": "3708835.79441",
    "final_y": "517922.58623",
    "longitude": "-89.98226077464287",
    "latitude": "29.917249338525554",
    "geocoded_column": {
      "latitude": "29.917249338525554",
      "longitude": "-89.98226077464287"
    }
  },
  {
    "service_request": "2025-1169921",
    "request_type": "Abandoned Vehicles",
    "request_reason": "Abandoned/Junk Vehicles",
    "date_created": "2025-02-18T14:20:28.000",
    "date_modified": "2025-02-18T14:20:36.000",
    "request_status": "Pending",
    "responsible_agency": "Department of Public Works",
    "final_address": "1316 Governor Nicholls St",
    "address_councildis": "C",
    "status": "Pending",
    "rowid": "1169921",
    "final_x": "3681796.02248",
    "final_y": "535358.542278",
    "longitude": "-90.06700163699267",
    "latitude": "29.966041372453233",
    "geocoded_column": {
      "latitude": "29.966041372453233",
      "longitude": "-90.06700163699267"
    }
  },
  {
    "service_request": "2025-1169920",
    "request_type": "Abandoned Vehicles",
    "request_reason": "Abandoned/Junk Vehicles",
    "date_created": "2025-02-18T14:16:16.000",
    "date_modified": "2025-02-18T14:16:18.000",
    "request_status": "Pending",
    "responsible_agency": "Department of Public Works",
    "final_address": "13125 Calais St",
    "address_councildis": "E",
    "status": "Pending",
    "rowid": "1169920",
    "final_x": "3724463.62144",
    "final_y": "560689.077534",
    "longitude": "-89.93128162530246",
    "latitude": "30.034324782820143",
    "geocoded_column": {
      "latitude": "30.034324782820143",
      "longitude": "-89.93128162530246"
    }
  },
  {
    "service_request": "2025-1169919",
    "request_type": "Trash/Recycling",
    "request_reason": "Request a Large Item Pick Up",
    "date_created": "2025-02-18T14:13:07.000",
    "date_modified": "2025-02-18T14:13:10.000",
    "request_status": "Pending",
    "responsible_agency": "Department of Sanitation",
    "final_address": "2511 St Peter St Apt A",
    "address_councildis": "D",
    "status": "Assigned to Contractor",
    "contractor": "IV Waste",
    "rowid": "1169919",
    "final_x": "3677405.15758",
    "final_y": "536365.300999",
    "longitude": "-90.08083312738658",
    "latitude": "29.968942315354777",
    "geocoded_column": {
      "latitude": "29.968942315354777",
      "longitude": "-90.08083312738658"
    }
  },
  {
    "service_request": "2025-1169918",
    "request_type": "Trash/Recycling",
    "request_reason": "Request a Large Item Pick Up",
    "date_created": "2025-02-18T14:12:43.000",
    "date_modified": "2025-02-18T14:12:45.000",
    "request_status": "Pending",
    "responsible_agency": "Department of Sanitation",
    "final_address": "1215 Terry St",
    "address_councildis": "C",
    "status": "Assigned to Contractor",
    "contractor": "Richards Disposal",
    "rowid": "1169918",
    "final_x": "3696923.76938",
    "final_y": "526828.085566",
    "longitude": "-90.01953774607497",
    "latitude": "29.942117243285825",
    "geocoded_column": {
      "latitude": "29.942117243285825",
      "longitude": "-90.01953774607497"
    }
  },
  {
    "service_request": "2025-1169917",
    "request_type": "Abandoned Vehicles",
    "request_reason": "Abandoned/Junk Vehicles",
    "date_created": "2025-02-18T14:08:07.000",
    "date_modified": "2025-02-18T14:11:58.000",
    "request_status": "Pending",
    "responsible_agency": "Department of Public Works",
    "final_address": "ROYAL ST & ESPLANADE AVE",
    "address_councildis": "C",
    "status": "Pending",
    "rowid": "1169917",
    "final_x": "3684064.0",
    "final_y": "534440.38",
    "longitude": "-90.05987165913777",
    "latitude": "29.963447628597358",
    "geocoded_column": {
      "latitude": "29.963447628597358",
      "longitude": "-90.05987165913777"
    }
  },
  {
    "service_request": "2025-1169916",
    "request_type": "Trash/Recycling",
    "request_reason": "Repair Trash Cart",
    "date_created": "2025-02-18T14:06:58.000",
    "date_modified": "2025-02-18T14:07:00.000",
    "request_status": "Pending",
    "responsible_agency": "Department of Sanitation",
    "final_address": "4706 Stemway Dr",
    "address_councildis": "D",
    "status": "Assigned to Contractor",
    "contractor": "Waste Pro",
    "rowid": "1169916",
    "final_x": "3696864.9969",
    "final_y": "553944.392856",
    "longitude": "-90.0187411000154",
    "latitude": "30.016679130786407",
    "geocoded_column": {
      "latitude": "30.016679130786407",
      "longitude": "-90.0187411000154"
    }
  },
  {
    "service_request": "2025-1169915",
    "request_type": "Drainage",
    "request_reason": "Street Flooding",
    "date_created": "2025-02-18T13:54:50.000",
    "date_modified": "2025-02-18T13:54:51.000",
    "request_status": "Pending",
    "responsible_agency": "Sewerage & Water Board ",
    "final_address": "3900 Desire Prkwy",
    "address_councildis": "D",
    "status": "Pending",
    "rowid": "1169915",
    "final_x": "3692377.14992",
    "final_y": "547484.310226",
    "longitude": "-90.03315234502884",
    "latitude": "29.999057100345855",
    "geocoded_column": {
      "latitude": "29.999057100345855",
      "longitude": "-90.03315234502884"
    }
  },
  {
    "service_request": "2025-1169914",
    "request_type": "Trash/Recycling",
    "request_reason": "Request a Large Item Pick Up",
    "date_created": "2025-02-18T13:54:48.000",
    "date_modified": "2025-02-18T13:54:50.000",
    "request_status": "Pending",
    "responsible_agency": "Department of Sanitation",
    "final_address": "1822 S Gayoso St",
    "address_councildis": "B",
    "status": "Assigned to Contractor",
    "contractor": "IV Waste",
    "rowid": "1169914",
    "final_x": "3670238.2697",
    "final_y": "529851.751169",
    "longitude": "-90.103687436738",
    "latitude": "29.951245675643673",
    "geocoded_column": {
      "latitude": "29.951245675643673",
      "longitude": "-90.103687436738"
    }
  },
  {
    "service_request": "2025-1169913",
    "request_type": "Trash/Recycling",
    "request_reason": "Request a Large Item Pick Up",
    "date_created": "2025-02-18T13:54:27.000",
    "date_modified": "2025-02-18T13:54:28.000",
    "request_status": "Pending",
    "responsible_agency": "Department of Sanitation",
    "final_address": "4014 General Ogden St",
    "address_councildis": "A",
    "status": "Assigned to Contractor",
    "contractor": "IV Waste",
    "rowid": "1169913",
    "final_x": "3666633.28858",
    "final_y": "537756.901896",
    "longitude": "-90.11480478656753",
    "latitude": "29.973088118051276",
    "geocoded_column": {
      "latitude": "29.973088118051276",
      "longitude": "-90.11480478656753"
    }
  },
  {
    "service_request": "2025-1169912",
    "request_type": "Trash/Recycling",
    "request_reason": "Request a Large Item Pick Up",
    "date_created": "2025-02-18T13:45:11.000",
    "date_modified": "2025-02-18T13:45:12.000",
    "request_status": "Pending",
    "responsible_agency": "Department of Sanitation",
    "final_address": "4551 Laine Ave",
    "address_councildis": "E",
    "status": "Assigned to Contractor",
    "contractor": "Waste Pro",
    "rowid": "1169912",
    "final_x": "3705871.09233",
    "final_y": "554185.1958",
    "longitude": "-89.99027696739601",
    "latitude": "30.017054066909694",
    "geocoded_column": {
      "latitude": "30.017054066909694",
      "longitude": "-89.99027696739601"
    }
  },
  {
    "service_request": "2025-1169911",
    "request_type": "Abandoned Vehicles",
    "request_reason": "Abandoned/Junk Vehicles",
    "date_created": "2025-02-18T13:43:13.000",
    "date_modified": "2025-02-18T13:43:14.000",
    "request_status": "Pending",
    "responsible_agency": "Department of Public Works",
    "final_address": "2132 Franklin Ave",
    "address_councildis": "D",
    "status": "Pending",
    "rowid": "1169911",
    "final_x": "3687519.31343",
    "final_y": "540520.022219",
    "longitude": "-90.04874494618213",
    "latitude": "29.98005847025704",
    "geocoded_column": {
      "latitude": "29.98005847025704",
      "longitude": "-90.04874494618213"
    }
  },
  {
    "service_request": "2025-1169910",
    "request_type": "Trash/Recycling",
    "request_reason": "Replace Trash Cart",
    "date_created": "2025-02-18T13:42:17.000",
    "date_modified": "2025-02-18T13:42:20.000",
    "request_status": "Pending",
    "responsible_agency": "Department of Sanitation",
    "final_address": "750 Adele St",
    "address_councildis": "B",
    "status": "Assigned to Contractor",
    "contractor": "IV Waste",
    "rowid": "1169910",
    "final_x": "3680033.64072",
    "final_y": "521523.179449",
    "longitude": "-90.07304774676535",
    "latitude": "29.928052193062204",
    "geocoded_column": {
      "latitude": "29.928052193062204",
      "longitude": "-90.07304774676535"
    }
  },
  {
    "service_request": "2025-1169909",
    "request_type": "Trash/Recycling",
    "request_reason": "Missed Trash Pick-Up",
    "date_created": "2025-02-18T13:34:09.000",
    "date_modified": "2025-02-18T14:03:07.000",
    "case_close_date": "2025-02-18T08:03:07.000",
    "request_status": "Closed",
    "responsible_agency": "Department of Sanitation",
    "final_address": "1642 Lesseps St",
    "address_councildis": "D",
    "status": "Invalid Request",
    "contractor": "IV Waste",
    "contractor_action": "Invalid",
    "rowid": "1169909",
    "final_x": "3693215.15881",
    "final_y": "537281.093256",
    "longitude": "-90.03087144866902",
    "latitude": "29.97097576178191",
    "geocoded_column": {
      "latitude": "29.97097576178191",
      "longitude": "-90.03087144866902"
    }
  },
  {
    "service_request": "2025-1169908",
    "request_type": "Trash/Recycling",
    "request_reason": "Request a Large Item Pick Up",
    "date_created": "2025-02-18T13:32:58.000",
    "date_modified": "2025-02-18T13:33:01.000",
    "request_status": "Pending",
    "responsible_agency": "Department of Sanitation",
    "final_address": "4611 Hauck Dr",
    "address_councildis": "E",
    "status": "Assigned to Contractor",
    "contractor": "Waste Pro",
    "rowid": "1169908",
    "final_x": "3714705.07973",
    "final_y": "555996.777241",
    "longitude": "-89.96229702488799",
    "latitude": "30.021747534493386",
    "geocoded_column": {
      "latitude": "30.021747534493386",
      "longitude": "-89.96229702488799"
    }
  },
  {
    "service_request": "2025-1169907",
    "request_type": "Trash/Recycling",
    "request_reason": "Request a Large Item Pick Up",
    "date_created": "2025-02-18T13:28:57.000",
    "date_modified": "2025-02-18T17:23:55.000",
    "case_close_date": "2025-02-18T11:23:52.000",
    "request_status": "Closed",
    "responsible_agency": "Department of Sanitation",
    "final_address": "7339 Ebbtide Dr",
    "address_councildis": "E",
    "status": "Duplicate Request",
    "contractor": "Waste Pro",
    "contractor_action": "Duplicate",
    "rowid": "1169907",
    "final_x": "3702561.30769",
    "final_y": "560733.155166",
    "longitude": "-90.0004937978969",
    "latitude": "30.03516468028098",
    "geocoded_column": {
      "latitude": "30.03516468028098",
      "longitude": "-90.0004937978969"
    }
  },
  {
    "service_request": "2025-1169906",
    "request_type": "Roads and Streets",
    "request_reason": "Pothole",
    "date_created": "2025-02-18T13:23:44.000",
    "date_modified": "2025-02-18T13:24:31.000",
    "case_close_date": "2025-02-18T07:24:31.000",
    "request_status": "Closed",
    "responsible_agency": "Department of Public Works",
    "final_address": "1500 BLK Thalia St",
    "address_councildis": "B",
    "status": "Resolved",
    "rowid": "1169906",
    "final_x": "3679610.72998",
    "final_y": "525644.080717",
    "longitude": "-90.0742398342072",
    "latitude": "29.939396097602316",
    "geocoded_column": {
      "latitude": "29.939396097602316",
      "longitude": "-90.0742398342072"
    }
  },
  {
    "service_request": "2025-1169905",
    "request_type": "Trash/Recycling",
    "request_reason": "Replace Trash Cart",
    "date_created": "2025-02-18T13:22:03.000",
    "date_modified": "2025-02-18T13:22:06.000",
    "request_status": "Pending",
    "responsible_agency": "Department of Sanitation",
    "final_address": "7822 Zimple St",
    "address_councildis": "A",
    "status": "Assigned to Contractor",
    "contractor": "IV Waste",
    "rowid": "1169905",
    "final_x": "3662345.90432",
    "final_y": "527359.628415",
    "longitude": "-90.12869047531791",
    "latitude": "29.94462366318619",
    "geocoded_column": {
      "latitude": "29.94462366318619",
      "longitude": "-90.12869047531791"
    }
  },
  {
    "service_request": "2025-1169904",
    "request_type": "Trash/Recycling",
    "request_reason": "Request a Large Item Pick Up",
    "date_created": "2025-02-18T13:20:55.000",
    "date_modified": "2025-02-18T13:20:56.000",
    "request_status": "Pending",
    "responsible_agency": "Department of Sanitation",
    "final_address": "4601 Gawain Dr",
    "address_councildis": "E",
    "status": "Assigned to Contractor",
    "contractor": "Waste Pro",
    "rowid": "1169904",
    "final_x": "3707146.97931",
    "final_y": "554431.299736",
    "longitude": "-89.98623658278929",
    "latitude": "30.01768957555956",
    "geocoded_column": {
      "latitude": "30.01768957555956",
      "longitude": "-89.98623658278929"
    }
  },
  {
    "service_request": "2025-1169903",
    "request_type": "Trash/Recycling",
    "request_reason": "Request a Large Item Pick Up",
    "date_created": "2025-02-18T13:20:24.000",
    "date_modified": "2025-02-18T13:20:27.000",
    "request_status": "Pending",
    "responsible_agency": "Department of Sanitation",
    "final_address": "7339 Ebbtide Dr",
    "address_councildis": "E",
    "status": "Assigned to Contractor",
    "contractor": "Waste Pro",
    "rowid": "1169903",
    "final_x": "3702561.30769",
    "final_y": "560733.155166",
    "longitude": "-90.0004937978969",
    "latitude": "30.03516468028098",
    "geocoded_column": {
      "latitude": "30.03516468028098",
      "longitude": "-90.0004937978969"
    }
  },
  {
    "service_request": "2025-1169902",
    "request_type": "Streetlights",
    "request_reason": "Streetlight Outage/Malfunction",
    "date_created": "2025-02-18T13:19:41.000",
    "date_modified": "2025-02-18T13:19:42.000",
    "request_status": "Pending",
    "responsible_agency": "Department of Public Works",
    "final_address": "328 Alix St",
    "address_councildis": "C",
    "status": "Pending",
    "contractor": "Legacy Professional Services",
    "rowid": "1169902",
    "final_x": "3686605.29628",
    "final_y": "530141.505345",
    "longitude": "-90.05199834559315",
    "latitude": "29.951549298310393",
    "geocoded_column": {
      "latitude": "29.951549298310393",
      "longitude": "-90.05199834559315"
    }
  },
  {
    "service_request": "2025-1169901",
    "request_type": "Trash/Recycling",
    "request_reason": "Repair Trash Cart",
    "date_created": "2025-02-18T13:18:42.000",
    "date_modified": "2025-02-18T13:18:43.000",
    "request_status": "Pending",
    "responsible_agency": "Department of Sanitation",
    "final_address": "9630 Lincoln Beach Blvd",
    "address_councildis": "E",
    "status": "Assigned to Contractor",
    "contractor": "Waste Pro",
    "rowid": "1169901",
    "final_x": "3706682.38423",
    "final_y": "564793.307042",
    "longitude": "-89.98731991601589",
    "latitude": "30.046196037343538",
    "geocoded_column": {
      "latitude": "30.046196037343538",
      "longitude": "-89.98731991601589"
    }
  },
  {
    "service_request": "2025-1169900",
    "request_type": "Property Maintenance",
    "request_reason": "Property Maintenance",
    "date_created": "2025-02-18T13:17:09.000",
    "date_modified": "2025-02-18T13:46:28.000",
    "case_close_date": "2025-02-18T07:46:27.000",
    "request_status": "Closed",
    "responsible_agency": "Department of Code Enforcement",
    "final_address": "430 Olivier St",
    "address_councildis": "C",
    "status": "Referred to Code Enforcement",
    "rowid": "1169900",
    "final_x": "3687292.42294",
    "final_y": "530077.281409",
    "longitude": "-90.04983100970199",
    "latitude": "29.951351558771556",
    "geocoded_column": {
      "latitude": "29.951351558771556",
      "longitude": "-90.04983100970199"
    }
  },
  {
    "service_request": "2025-1169899",
    "request_type": "Property Maintenance",
    "request_reason": "Property Maintenance",
    "date_created": "2025-02-18T13:13:41.000",
    "date_modified": "2025-02-18T13:56:31.000",
    "case_close_date": "2025-02-18T07:56:30.000",
    "request_status": "Closed",
    "responsible_agency": "Department of Code Enforcement",
    "final_address": "529 Olivier St",
    "address_councildis": "C",
    "status": "Referred to Code Enforcement",
    "rowid": "1169899",
    "final_x": "3687235.18761",
    "final_y": "529692.023425",
    "longitude": "-90.05002535425189",
    "latitude": "29.950293993853627",
    "geocoded_column": {
      "latitude": "29.950293993853627",
      "longitude": "-90.05002535425189"
    }
  },
  {
    "service_request": "2025-1169898",
    "request_type": "Safety & Permits",
    "request_reason": "Licenses & Permits",
    "date_created": "2025-02-18T13:13:12.000",
    "date_modified": "2025-02-18T13:13:14.000",
    "request_status": "Pending",
    "responsible_agency": "Safety and Permits",
    "final_address": "1206 Leboeuf St",
    "address_councildis": "C",
    "status": "Pending",
    "rowid": "1169898",
    "final_x": "3689772.3688",
    "final_y": "527044.493054",
    "longitude": "-90.04210849469975",
    "latitude": "29.942935815190705",
    "geocoded_column": {
      "latitude": "29.942935815190705",
      "longitude": "-90.04210849469975"
    }
  },
  {
    "service_request": "2025-1169896",
    "request_type": "Property Maintenance",
    "request_reason": "Property Maintenance",
    "date_created": "2025-02-18T13:11:28.000",
    "date_modified": "2025-02-18T13:52:47.000",
    "case_close_date": "2025-02-18T07:52:46.000",
    "request_status": "Closed",
    "responsible_agency": "Department of Code Enforcement",
    "final_address": "539 Olivier St",
    "address_councildis": "C",
    "status": "Referred to Code Enforcement",
    "rowid": "1169896",
    "final_x": "3687238.60706",
    "final_y": "529601.013889",
    "longitude": "-90.05001777581822",
    "latitude": "29.950043643440818",
    "geocoded_column": {
      "latitude": "29.950043643440818",
      "longitude": "-90.05001777581822"
    }
  },
  {
    "service_request": "2025-1169897",
    "request_type": "Drainage",
    "request_reason": "Catch Basin Clogged",
    "date_created": "2025-02-18T13:11:28.000",
    "date_modified": "2025-02-18T13:11:29.000",
    "request_status": "Pending",
    "responsible_agency": "Sewerage & Water Board ",
    "final_address": "8741 Aberdeen Rd",
    "address_councildis": "E",
    "status": "Pending",
    "rowid": "1169897",
    "final_x": "3704782.37035",
    "final_y": "562416.635615",
    "longitude": "-89.99341272302453",
    "latitude": "30.039722364728703",
    "geocoded_column": {
      "latitude": "30.039722364728703",
      "longitude": "-89.99341272302453"
    }
  },
  {
    "service_request": "2025-1169895",
    "request_type": "Trash/Recycling",
    "request_reason": "Request a Large Item Pick Up",
    "date_created": "2025-02-18T13:11:13.000",
    "date_modified": "2025-02-18T13:11:16.000",
    "request_status": "Pending",
    "responsible_agency": "Department of Sanitation",
    "final_address": "2326 Laharpe St",
    "address_councildis": "D",
    "status": "Assigned to Contractor",
    "contractor": "IV Waste",
    "rowid": "1169895",
    "final_x": "3679764.76456",
    "final_y": "539065.103434",
    "longitude": "-90.07328757599709",
    "latitude": "29.97629471099269",
    "geocoded_column": {
      "latitude": "29.97629471099269",
      "longitude": "-90.07328757599709"
    }
  },
  {
    "service_request": "2025-1169894",
    "request_type": "Safety & Permits",
    "request_reason": "Licenses & Permits",
    "date_created": "2025-02-18T13:11:11.000",
    "date_modified": "2025-02-18T13:11:13.000",
    "request_status": "Pending",
    "responsible_agency": "Safety and Permits",
    "final_address": "1206 Leboeuf St",
    "address_councildis": "C",
    "status": "Pending",
    "rowid": "1169894",
    "final_x": "3689772.3688",
    "final_y": "527044.493054",
    "longitude": "-90.04210849469975",
    "latitude": "29.942935815190705",
    "geocoded_column": {
      "latitude": "29.942935815190705",
      "longitude": "-90.04210849469975"
    }
  },
  {
    "service_request": "2025-1169893",
    "request_type": "Streetlights",
    "request_reason": "Streetlight Outage/Malfunction",
    "date_created": "2025-02-18T13:04:20.000",
    "date_modified": "2025-02-18T13:04:22.000",
    "request_status": "Pending",
    "responsible_agency": "Department of Public Works",
    "final_address": "422 Alix St",
    "address_councildis": "C",
    "status": "Pending",
    "contractor": "Legacy Professional Services",
    "rowid": "1169893",
    "final_x": "3686852.49974",
    "final_y": "530321.229826",
    "longitude": "-90.05121144901196",
    "latitude": "29.95203587579124",
    "geocoded_column": {
      "latitude": "29.95203587579124",
      "longitude": "-90.05121144901196"
    }
  },
  {
    "service_request": "2025-1169892",
    "request_type": "Abandoned Vehicles",
    "request_reason": "Vehicle Blocking Your Driveway",
    "date_created": "2025-02-18T13:04:19.000",
    "date_modified": "2025-02-18T13:04:20.000",
    "request_status": "Pending",
    "responsible_agency": "Department of Public Works",
    "final_address": "4662 Lafaye St",
    "address_councildis": "D",
    "status": "Pending",
    "rowid": "1169892",
    "final_x": "3687420.32092",
    "final_y": "550144.51394",
    "longitude": "-90.04871680762076",
    "latitude": "30.006525416669803",
    "geocoded_column": {
      "latitude": "30.006525416669803",
      "longitude": "-90.04871680762076"
    }
  },
  {
    "service_request": "2025-1169891",
    "request_type": "Property Maintenance",
    "request_reason": "Property Maintenance",
    "date_created": "2025-02-18T13:03:43.000",
    "date_modified": "2025-02-18T14:56:30.000",
    "case_close_date": "2025-02-18T08:56:29.000",
    "request_status": "Closed",
    "responsible_agency": "Department of Code Enforcement",
    "final_address": "3404 Dauphine St A",
    "address_councildis": "C",
    "status": "Referred to Code Enforcement",
    "rowid": "1169891",
    "final_x": "3689956.14115",
    "final_y": "534523.889029",
    "longitude": "-90.04126200411216",
    "latitude": "29.963495875391363",
    "geocoded_column": {
      "latitude": "29.963495875391363",
      "longitude": "-90.04126200411216"
    }
  },
  {
    "service_request": "2025-1169890",
    "request_type": "Streetlights",
    "request_reason": "Streetlight Outage/Malfunction",
    "date_created": "2025-02-18T13:02:51.000",
    "date_modified": "2025-02-18T13:02:52.000",
    "request_status": "Pending",
    "responsible_agency": "Department of Public Works",
    "final_address": "422 Alix St",
    "address_councildis": "C",
    "status": "Pending",
    "contractor": "Legacy Professional Services",
    "rowid": "1169890",
    "final_x": "3686852.49974",
    "final_y": "530321.229826",
    "longitude": "-90.05121144901196",
    "latitude": "29.95203587579124",
    "geocoded_column": {
      "latitude": "29.95203587579124",
      "longitude": "-90.05121144901196"
    }
  },
  {
    "service_request": "2025-1169889",
    "request_type": "Trash/Recycling",
    "request_reason": "Request a Large Item Pick Up",
    "date_created": "2025-02-18T12:59:36.000",
    "date_modified": "2025-02-18T12:59:38.000",
    "request_status": "Pending",
    "responsible_agency": "Department of Sanitation",
    "final_address": "942 Ursulines Ave",
    "address_councildis": "C",
    "status": "Assigned to Contractor",
    "contractor": "IV Waste",
    "rowid": "1169889",
    "final_x": "3682591.77397",
    "final_y": "534251.524037",
    "longitude": "-90.0645273883416",
    "latitude": "29.962973247246367",
    "geocoded_column": {
      "latitude": "29.962973247246367",
      "longitude": "-90.0645273883416"
    }
  },
  {
    "service_request": "2025-1169888",
    "request_type": "Streetlights",
    "request_reason": "Streetlight Outage/Malfunction",
    "date_created": "2025-02-18T12:58:13.000",
    "date_modified": "2025-02-18T12:58:13.000",
    "request_status": "Pending",
    "responsible_agency": "Department of Public Works",
    "final_address": "438 Olivier St",
    "address_councildis": "C",
    "status": "Pending",
    "contractor": "Legacy Professional Services",
    "rowid": "1169888",
    "final_x": "3687330.81442",
    "final_y": "530001.904705",
    "longitude": "-90.04971245477537",
    "latitude": "29.951143116126183",
    "geocoded_column": {
      "latitude": "29.951143116126183",
      "longitude": "-90.04971245477537"
    }
  },
  {
    "service_request": "2025-1169887",
    "request_type": "Trash/Recycling",
    "request_reason": "Request a Large Item Pick Up",
    "date_created": "2025-02-18T12:56:09.000",
    "date_modified": "2025-02-18T12:56:11.000",
    "request_status": "Pending",
    "responsible_agency": "Department of Sanitation",
    "final_address": "4626 Viola St",
    "address_councildis": "E",
    "status": "Assigned to Contractor",
    "contractor": "Waste Pro",
    "rowid": "1169887",
    "final_x": "3704024.07345",
    "final_y": "554487.45244",
    "longitude": "-89.99610159727551",
    "latitude": "30.017944554552063",
    "geocoded_column": {
      "latitude": "30.017944554552063",
      "longitude": "-89.99610159727551"
    }
  },
  {
    "service_request": "2025-1169886",
    "request_type": "Trash/Recycling",
    "request_reason": "Request a Large Item Pick Up",
    "date_created": "2025-02-18T12:55:02.000",
    "date_modified": "2025-02-18T13:05:05.000",
    "request_status": "Pending",
    "responsible_agency": "Department of Sanitation",
    "final_address": "2523 Dreux Ave",
    "address_councildis": "D",
    "status": "Assigned to Contractor",
    "contractor": "IV Waste",
    "rowid": "1169886",
    "final_x": "3686272.46575",
    "final_y": "552233.95343",
    "longitude": "-90.05226936660453",
    "latitude": "30.012305947117323",
    "geocoded_column": {
      "latitude": "30.012305947117323",
      "longitude": "-90.05226936660453"
    }
  },
  {
    "service_request": "2025-1169885",
    "request_type": "Utility Poles",
    "request_reason": "Wires Sagging/Hanging Low",
    "date_created": "2025-02-18T12:54:03.000",
    "date_modified": "2025-02-18T12:54:05.000",
    "request_status": "Pending",
    "responsible_agency": "Utility Company Collective",
    "final_address": "4100 N Prieur St",
    "address_councildis": "D",
    "status": "Pending",
    "rowid": "1169885",
    "final_x": "3692912.76131",
    "final_y": "538183.879945",
    "longitude": "-90.03179406990901",
    "latitude": "29.973467552368483",
    "geocoded_column": {
      "latitude": "29.973467552368483",
      "longitude": "-90.03179406990901"
    }
  },
  {
    "service_request": "2025-1169884",
    "request_type": "Parks & Parkways",
    "request_reason": "Request Tree Service (Right of Way/Public Property)",
    "date_created": "2025-02-18T12:52:20.000",
    "date_modified": "2025-02-18T12:52:21.000",
    "request_status": "Pending",
    "responsible_agency": "Department of Parks & Parkway",
    "final_address": "8146 Lincoln Beach Blvd",
    "address_councildis": "E",
    "status": "Pending",
    "rowid": "1169884",
    "final_x": "3702397.74602",
    "final_y": "563045.102432",
    "longitude": "-90.00092571862385",
    "latitude": "30.041526859951155",
    "geocoded_column": {
      "latitude": "30.041526859951155",
      "longitude": "-90.00092571862385"
    }
  },
  {
    "service_request": "2025-1169883",
    "request_type": "Trash/Recycling",
    "request_reason": "Request a Large Item Pick Up",
    "date_created": "2025-02-18T12:52:00.000",
    "date_modified": "2025-02-18T15:25:52.000",
    "case_close_date": "2025-02-18T09:25:52.000",
    "request_status": "Closed",
    "responsible_agency": "Department of Sanitation",
    "final_address": "7632 Brevard Ave",
    "address_councildis": "E",
    "status": "Assigned to Contractor",
    "contractor": "Waste Pro",
    "contractor_action": "Completed",
    "rowid": "1169883",
    "final_x": "3706279.06129",
    "final_y": "563511.164704",
    "longitude": "-89.98864216678022",
    "latitude": "30.042683677107586",
    "geocoded_column": {
      "latitude": "30.042683677107586",
      "longitude": "-89.98864216678022"
    }
  },
  {
    "service_request": "2025-1169882",
    "request_type": "Trash/Recycling",
    "request_reason": "Request a Large Item Pick Up",
    "date_created": "2025-02-18T12:46:45.000",
    "date_modified": "2025-02-18T12:46:47.000",
    "request_status": "Pending",
    "responsible_agency": "Department of Sanitation",
    "final_address": "7550 Shorewood Blvd",
    "address_councildis": "E",
    "status": "Assigned to Contractor",
    "contractor": "Waste Pro",
    "rowid": "1169882",
    "final_x": "3720096.6446",
    "final_y": "572559.011177",
    "longitude": "-89.94462707671099",
    "latitude": "30.067108394601853",
    "geocoded_column": {
      "latitude": "30.067108394601853",
      "longitude": "-89.94462707671099"
    }
  },
  {
    "service_request": "2025-1169881",
    "request_type": "Trash/Recycling",
    "request_reason": "Request a Large Item Pick Up",
    "date_created": "2025-02-18T12:43:53.000",
    "date_modified": "2025-02-18T12:52:15.000",
    "request_status": "Pending",
    "responsible_agency": "Department of Sanitation",
    "final_address": "4601 Lafaye St",
    "address_councildis": "D",
    "status": "Assigned to Contractor",
    "contractor": "IV Waste",
    "rowid": "1169881",
    "final_x": "3687540.63062",
    "final_y": "549770.351892",
    "longitude": "-90.04834997567558",
    "latitude": "30.0054928981776",
    "geocoded_column": {
      "latitude": "30.0054928981776",
      "longitude": "-90.04834997567558"
    }
  },
  {
    "service_request": "2025-1169880",
    "request_type": "Abandoned Vehicles",
    "request_reason": "Abandoned/Junk Vehicles",
    "date_created": "2025-02-18T12:42:22.000",
    "date_modified": "2025-02-18T12:42:24.000",
    "request_status": "Pending",
    "responsible_agency": "Department of Public Works",
    "final_address": "917 Teche St",
    "address_councildis": "C",
    "status": "Pending",
    "rowid": "1169880",
    "final_x": "3686497.1391",
    "final_y": "528122.686015",
    "longitude": "-90.05241111199355",
    "latitude": "29.946001558213883",
    "geocoded_column": {
      "latitude": "29.946001558213883",
      "longitude": "-90.05241111199355"
    }
  },
  {
    "service_request": "2025-1169879",
    "request_type": "Abandoned Vehicles",
    "request_reason": "Abandoned/Junk Vehicles",
    "date_created": "2025-02-18T12:40:20.000",
    "date_modified": "2025-02-18T12:40:22.000",
    "request_status": "Pending",
    "responsible_agency": "Department of Public Works",
    "final_address": "1141 Teche St",
    "address_councildis": "C",
    "status": "Pending",
    "rowid": "1169879",
    "final_x": "3686572.07785",
    "final_y": "527204.009983",
    "longitude": "-90.05220693576257",
    "latitude": "29.943473207117226",
    "geocoded_column": {
      "latitude": "29.943473207117226",
      "longitude": "-90.05220693576257"
    }
  },
  {
    "service_request": "2025-1169878",
    "request_type": "Safety & Permits",
    "request_reason": "Zoning Enforcement",
    "date_created": "2025-02-18T12:34:07.000",
    "date_modified": "2025-02-18T12:34:09.000",
    "request_status": "Pending",
    "responsible_agency": "Safety and Permits",
    "final_address": "13000 Chateau Ct",
    "address_councildis": "E",
    "status": "Pending",
    "rowid": "1169878",
    "final_x": "3724448.00364",
    "final_y": "562272.230367",
    "longitude": "-89.93126976223337",
    "latitude": "30.038678328170985",
    "geocoded_column": {
      "latitude": "30.038678328170985",
      "longitude": "-89.93126976223337"
    }
  },
  {
    "service_request": "2025-1169877",
    "request_type": "Streetlights",
    "request_reason": "Streetlight Outage/Malfunction",
    "date_created": "2025-02-18T12:34:06.000",
    "date_modified": "2025-02-18T12:34:08.000",
    "request_status": "Pending",
    "responsible_agency": "Department of Public Works",
    "final_address": "3401 Texas Dr",
    "address_councildis": "C",
    "status": "Pending",
    "contractor": "Legacy Professional Services",
    "rowid": "1169877",
    "final_x": "3696661.07139",
    "final_y": "519010.515895",
    "longitude": "-90.02064989168944",
    "latitude": "29.920629887743424",
    "geocoded_column": {
      "latitude": "29.920629887743424",
      "longitude": "-90.02064989168944"
    }
  },