[
  {
    "service_request": "2022-914608",
    "request_type": "Traffic Signals/Signs/Striping/Streetlights",
    "request_reason": "Street Light Knocked Down/Leaning",
    "date_created": "2022-08-29T23:58:12.000",
    "date_modified": "2022-08-29T23:58:12.000",
    "request_status": "Pending",
    "responsible_agency": "Department of Public Works",
    "final_address": "200 Alonzo St",
    "address_councildis": "A",
    "status": "Pending",
    "contractor": "Legacy Professional Services",
    "rowid": "914608",
    "final_x": "3664456.84813",
    "final_y": "517096.615925",
    "longitude": "-90.12236802251839",
    "latitude": "29.916342428615057",
    "geocoded_column": {
      "latitude": "29.916342428615057",
      "longitude": "-90.12236802251839"
    }
  },
  {
    "service_request": "2022-914607",
    "request_type": "Roads/Drainage",
    "request_reason": "Pothole",
    "date_created": "2022-08-29T23:31:18.000",
    "date_modified": "2022-08-29T23:31:18.000",
    "request_status": "Pending",
    "responsible_agency": "Department of Public Works",
    "final_address": "5641 Milne St",
    "address_councildis": "A",
    "status": "Pending",
    "rowid": "914607",
    "final_x": "3666872.10721",
    "final_y": "545057.395535",
    "longitude": "-90.11380515606258",
    "latitude": "29.993155022715687",
    "geocoded_column": {
      "latitude": "29.993155022715687",
      "longitude": "-90.11380515606258"
    }
  },
  {
    "service_request": "2022-914606",
    "request_type": "Trash/Recycling",
    "request_reason": "MIssed Recycling Pick-Up",
    "date_created": "2022-08-29T23:29:16.000",
    "date_modified": "2022-08-29T23:29:16.000",
    "request_status": "Pending",
    "responsible_agency": "Department of Sanitation",
    "final_address": "2329 General Meyer Ave",
    "address_councildis": "C",
    "status": "Assigned to Contractor",
    "contractor": "Richards Disposal",
    "rowid": "914606",
    "final_x": "3692652.05296",
    "final_y": "527621.965631",
    "longitude": "-90.03299598049206",
    "latitude": "29.944434123735533",
    "geocoded_column": {
      "latitude": "29.944434123735533",
      "longitude": "-90.03299598049206"
    }
  },
  {
    "service_request": "2022-914605",
    "request_type": "Traffic Signals/Signs/Striping/Streetlights",
    "request_reason": "Street Light Outage/Malfunction",
    "date_created": "2022-08-29T23:14:57.000",
    "date_modified": "2022-08-29T23:14:58.000",
    "request_status": "Pending",
    "responsible_agency": "Department of Public Works",
    "final_address": "5855 W Louis Prima Dr",
    "address_councildis": "E",
    "status": "Pending",
    "contractor": "Legacy Professional Services",
    "rowid": "914605",
    "final_x": "3715371.92594",
    "final_y": "562939.381024",
    "longitude": "-89.95992705612096",
    "latitude": "30.040814960685704",
    "geocoded_column": {
      "latitude": "30.040814960685704",
      "longitude": "-89.95992705612096"
    }
  },
  {
    "service_request": "2022-914604",
    "request_type": "Trash/Recycling",
    "request_reason": "Request a Large Item Pick Up",
    "date_created": "2022-08-29T22:55:25.000",
    "date_modified": "2022-08-29T22:55:26.000",
    "request_status": "Pending",
    "responsible_agency": "Department of Sanitation",
    "final_address": "8018 Cohn St",
    "address_councildis": "A",
    "status": "Assigned to Contractor",
    "contractor": "Richards Disposal",
    "rowid": "914604",
    "final_x": "3663830.23027",
    "final_y": "529926.821569",
    "longitude": "-90.12391844657765",
    "latitude": "29.951639626138572",
    "geocoded_column": {
      "latitude": "29.951639626138572",
      "longitude": "-90.12391844657765"
    }
  },
  {
    "service_request": "2022-914603",
    "request_type": "Property Maintenance",
    "request_reason": "Property Maintenance",
    "date_created": "2022-08-29T22:55:14.000",
    "date_modified": "2022-08-29T22:55:14.000",
    "request_status": "Pending",
    "responsible_agency": "Department of Code Enforcement",
    "final_address": "3215 Cherry St",
    "address_councildis": "A",
    "status": "Pending",
    "rowid": "914603",
    "final_x": "3663758.11635",
    "final_y": "536570.515207",
    "longitude": "-90.12392473466345",
    "latitude": "29.9699097064629",
    "geocoded_column": {
      "latitude": "29.9699097064629",
      "longitude": "-90.12392473466345"
    }
  },
  {
    "service_request": "2022-914602",
    "request_type": "Traffic Signals/Signs/Striping/Streetlights",
    "request_reason": "Street Light Outage/Malfunction",
    "date_created": "2022-08-29T22:54:35.000",
    "date_modified": "2022-08-29T22:54:35.000",
    "request_status": "Pending",
    "responsible_agency": "Department of Public Works",
    "final_address": "1540 St Roch Ave",
    "address_councildis": "C",
    "status": "Pending",
    "contractor": "Legacy Professional Services",
    "rowid": "914602",
    "final_x": "3686247.89218",
    "final_y": "538209.580169",
    "longitude": "-90.05284216507283",
    "latitude": "29.973744698300056",
    "geocoded_column": {
      "latitude": "29.973744698300056",
      "longitude": "-90.05284216507283"
    }
  },
  {
    "service_request": "2022-914601",
    "request_type": "Traffic Signals/Signs/Striping/Streetlights",
    "request_reason": "Street Light Outage/Malfunction",
    "date_created": "2022-08-29T22:45:12.000",
    "date_modified": "2022-08-29T22:45:13.000",
    "request_status": "Pending",
    "responsible_agency": "Department of Public Works",
    "final_address": "8200 Plum St",
    "address_councildis": "A",
    "status": "Pending",
    "contractor": "Legacy Professional Services",
    "rowid": "914601",
    "final_x": "3661888.07783",
    "final_y": "528862.559872",
    "longitude": "-90.13008614700767",
    "latitude": "29.94876947096202",
    "geocoded_column": {
      "latitude": "29.94876947096202",
      "longitude": "-90.13008614700767"
    }
  },
  {
    "service_request": "2022-914600",
    "request_type": "Traffic Signals/Signs/Striping/Streetlights",
    "request_reason": "Street Light Outage/Malfunction",
    "date_created": "2022-08-29T22:17:25.000",
    "date_modified": "2022-08-29T22:17:25.000",
    "request_status": "Pending",
    "responsible_agency": "Department of Public Works",
    "final_address": "1373 Madrid St",
    "address_councildis": "D",
    "status": "Pending",
    "contractor": "Legacy Professional Services",
    "rowid": "914600",
    "final_x": "3677335.40546",
    "final_y": "554722.11484",
    "longitude": "-90.08041951685529",
    "latitude": "30.01941920358103",
    "geocoded_column": {
      "latitude": "30.01941920358103",
      "longitude": "-90.08041951685529"
    }
  },
  {
    "service_request": "2022-914599",
    "request_type": "Property Maintenance",
    "request_reason": "Property Maintenance",
    "date_created": "2022-08-29T22:09:23.000",
    "date_modified": "2022-08-29T22:09:23.000",
    "request_status": "Pending",
    "responsible_agency": "Department of Code Enforcement",
    "final_address": "3515 S Miro St",
    "address_councildis": "B",
    "status": "Pending",
    "rowid": "914599",
    "final_x": "3671161.88065",
    "final_y": "528005.723071",
    "longitude": "-90.10083381990133",
    "latitude": "29.946142417790902",
    "geocoded_column": {
      "latitude": "29.946142417790902",
      "longitude": "-90.10083381990133"
    }
  },
  {
    "service_request": "2022-914598",
    "request_type": "Traffic Signals/Signs/Striping/Streetlights",
    "request_reason": "Street Light Outage/Malfunction",
    "date_created": "2022-08-29T22:04:04.000",
    "date_modified": "2022-08-29T22:04:05.000",
    "request_status": "Pending",
    "responsible_agency": "Department of Public Works",
    "final_address": "3438 Banks St",
    "address_councildis": "B",
    "status": "Pending",
    "contractor": "Legacy Professional Services",
    "rowid": "914598",
    "final_x": "3672121.96366",
    "final_y": "535946.123463",
    "longitude": "-90.09753211219875",
    "latitude": "29.967947452636345",
    "geocoded_column": {
      "latitude": "29.967947452636345",
      "longitude": "-90.09753211219875"
    }
  },
  {
    "service_request": "2022-914596",
    "request_type": "Traffic Signals/Signs/Striping/Streetlights",
    "request_reason": "Additional signage",
    "date_created": "2022-08-29T21:47:24.000",
    "date_modified": "2022-08-29T21:47:24.000",
    "request_status": "Pending",
    "responsible_agency": "Department of Public Works",
    "final_address": "3111 Grand Route St John St",
    "address_councildis": "A",
    "status": "Pending",
    "rowid": "914596",
    "final_x": "3676507.66805",
    "final_y": "540406.357323",
    "longitude": "-90.0835282619005",
    "latitude": "29.980080781175236",
    "geocoded_column": {
      "latitude": "29.980080781175236",
      "longitude": "-90.0835282619005"
    }
  },
  {
    "service_request": "2022-914595",
    "request_type": "Traffic Signals/Signs/Striping/Streetlights",
    "request_reason": "Street Light Outage/Malfunction",
    "date_created": "2022-08-29T21:42:24.000",
    "date_modified": "2022-08-29T21:42:25.000",
    "request_status": "Pending",
    "responsible_agency": "Department of Public Works",
    "final_address": "4537 Canal St",
    "address_councildis": "A",
    "status": "Pending",
    "contractor": "Legacy Professional Services",
    "rowid": "914595",
    "final_x": "3669558.67354",
    "final_y": "539699.880714",
    "longitude": "-90.10550006489046",
    "latitude": "29.97834478963538",
    "geocoded_column": {
      "latitude": "29.97834478963538",
      "longitude": "-90.10550006489046"
    }
  },
  {
    "service_request": "2022-914594",
    "request_type": "Property Maintenance",
    "request_reason": "Property Maintenance",
    "date_created": "2022-08-29T21:19:20.000",
    "date_modified": "2022-08-29T21:19:20.000",
    "request_status": "Pending",
    "responsible_agency": "Department of Code Enforcement",
    "final_address": "2520 General Pershing St",
    "address_councildis": "B",
    "status": "Pending",
    "rowid": "914594",
    "final_x": "3670863.06849",
    "final_y": "524252.990268",
    "longitude": "-90.10190461216385",
    "latitude": "29.935832455959247",
    "geocoded_column": {
      "latitude": "29.935832455959247",
      "longitude": "-90.10190461216385"
    }
  },
  {
    "service_request": "2022-914593",
    "request_type": "Trash/Recycling",
    "request_reason": "Replace Trash Cart",
    "date_created": "2022-08-29T21:17:58.000",
    "date_modified": "2022-08-29T21:17:59.000",
    "request_status": "Pending",
    "responsible_agency": "Department of Sanitation",
    "final_address": "808 Baronne St",
    "address_councildis": "B",
    "status": "Assigned to Contractor",
    "contractor": "Empire Services",
    "rowid": "914593",
    "final_x": "3679626.60456",
    "final_y": "528108.076415",
    "longitude": "-90.07410422653632",
    "latitude": "29.946170786311757",
    "geocoded_column": {
      "latitude": "29.946170786311757",
      "longitude": "-90.07410422653632"
    }
  },
  {
    "service_request": "2022-914592",
    "request_type": "Traffic Signals/Signs/Striping/Streetlights",
    "request_reason": "Street Light Outage/Malfunction",
    "date_created": "2022-08-29T21:14:53.000",
    "date_modified": "2022-08-29T21:14:54.000",
    "request_status": "Pending",
    "responsible_agency": "Department of Public Works",
    "final_address": "1212 Austerlitz St",
    "address_councildis": "B",
    "status": "Pending",
    "contractor": "Legacy Professional Services",
    "rowid": "914592",
    "final_x": "3672716.81652",
    "final_y": "520114.793976",
    "longitude": "-90.096193338305",
    "latitude": "29.924398840621677",
    "geocoded_column": {
      "latitude": "29.924398840621677",
      "longitude": "-90.096193338305"
    }
  },
  {
    "service_request": "2022-914590",
    "request_type": "Roads/Drainage",
    "request_reason": "Catch Basin - Clogged",
    "date_created": "2022-08-29T20:47:31.000",
    "date_modified": "2022-08-29T20:47:31.000",
    "request_status": "Pending",
    "responsible_agency": "Department of Public Works",
    "final_address": "3057 Grand Route St John St",
    "address_councildis": "A",
    "status": "Pending",
    "rowid": "914590",
    "final_x": "3676709.81691",
    "final_y": "540351.877003",
    "longitude": "-90.08289166861967",
    "latitude": "29.97992491480886",
    "geocoded_column": {
      "latitude": "29.97992491480886",
      "longitude": "-90.08289166861967"
    }
  },
  {
    "service_request": "2022-914589",
    "request_type": "Health Related Questions",
    "request_reason": "Noise Ordinance Complaint",
    "date_created": "2022-08-29T20:44:30.000",
    "date_modified": "2022-08-29T20:44:30.000",
    "request_status": "Pending",
    "responsible_agency": "Health Department",
    "final_address": "718 Bourbon St, New Orleans, Louisiana, 70116",
    "address_councildis": "C",
    "status": "Pending",
    "rowid": "914589",
    "final_x": "3682364.17781",
    "final_y": "532746.008004",
    "longitude": "-90.06529872053143",
    "latitude": "29.95884052062511",
    "geocoded_column": {
      "latitude": "29.95884052062511",
      "longitude": "-90.06529872053143"
    }
  },
  {
    "service_request": "2022-914588",
    "request_type": "Health Related Questions",
    "request_reason": "Noise Ordinance Complaint",
    "date_created": "2022-08-29T20:40:24.000",
    "date_modified": "2022-08-29T20:40:24.000",
    "request_status": "Pending",
    "responsible_agency": "Health Department",
    "final_address": "718 Bourbon St, New Orleans, Louisiana, 70116",
    "address_councildis": "C",
    "status": "Pending",
    "rowid": "914588",
    "final_x": "3682364.17781",
    "final_y": "532746.008004",
    "longitude": "-90.06529872053143",
    "latitude": "29.95884052062511",
    "geocoded_column": {
      "latitude": "29.95884052062511",
      "longitude": "-90.06529872053143"
    }
  },
  {
    "service_request": "2022-914587",
    "request_type": "Health Related Questions",
    "request_reason": "Noise Ordinance Complaint",
    "date_created": "2022-08-29T20:40:18.000",
    "date_modified": "2022-08-29T20:40:18.000",
    "request_status": "Pending",
    "responsible_agency": "Health Department",
    "final_address": "718 Bourbon St, New Orleans, Louisiana, 70116",
    "address_councildis": "C",
    "status": "Pending",
    "rowid": "914587",
    "final_x": "3682364.17781",
    "final_y": "532746.008004",
    "longitude": "-90.06529872053143",
    "latitude": "29.95884052062511",
    "geocoded_column": {
      "latitude": "29.95884052062511",
      "longitude": "-90.06529872053143"
    }
  },
  {
    "service_request": "2022-914586",
    "request_type": "Health Related Questions",
    "request_reason": "Noise Ordinance Complaint",
    "date_created": "2022-08-29T20:40:07.000",
    "date_modified": "2022-08-29T20:40:07.000",
    "request_status": "Pending",
    "responsible_agency": "Health Department",
    "final_address": "718 Bourbon St, New Orleans, Louisiana, 70116",
    "address_councildis": "C",
    "status": "Pending",
    "rowid": "914586",
    "final_x": "3682364.17781",
    "final_y": "532746.008004",
    "longitude": "-90.06529872053143",
    "latitude": "29.95884052062511",
    "geocoded_column": {
      "latitude": "29.95884052062511",
      "longitude": "-90.06529872053143"
    }
  },
  {
    "service_request": "2022-914585",
    "request_type": "Health Related Questions",
    "request_reason": "Noise Ordinance Complaint",
    "date_created": "2022-08-29T20:39:51.000",
    "date_modified": "2022-08-29T20:39:51.000",
    "request_status": "Pending",
    "responsible_agency": "Health Department",
    "final_address": "718 Bourbon St, New Orleans, Louisiana, 70116",
    "address_councildis": "C",
    "status": "Pending",
    "rowid": "914585",
    "final_x": "3682364.17781",
    "final_y": "532746.008004",
    "longitude": "-90.06529872053143",
    "latitude": "29.95884052062511",
    "geocoded_column": {
      "latitude": "29.95884052062511",
      "longitude": "-90.06529872053143"
    }
  },
  {
    "service_request": "2022-914584",
    "request_type": "Health Related Questions",
    "request_reason": "Noise Ordinance Complaint",
    "date_created": "2022-08-29T20:39:13.000",
    "date_modified": "2022-08-29T20:39:13.000",
    "request_status": "Pending",
    "responsible_agency": "Health Department",
    "final_address": "718 Bourbon St, New Orleans, Louisiana, 70116",
    "address_councildis": "C",
    "status": "Pending",
    "rowid": "914584",
    "final_x": "3682364.17781",
    "final_y": "532746.008004",
    "longitude": "-90.06529872053143",
    "latitude": "29.95884052062511",
    "geocoded_column": {
      "latitude": "29.95884052062511",
      "longitude": "-90.06529872053143"
    }
  },
  {
    "service_request": "2022-914583",
    "request_type": "Health Related Questions",
    "request_reason": "Noise Ordinance Complaint",
    "date_created": "2022-08-29T20:38:41.000",
    "date_modified": "2022-08-29T20:38:41.000",
    "request_status": "Pending",
    "responsible_agency": "Health Department",
    "final_address": "718 Bourbon St, New Orleans, Louisiana, 70116",
    "address_councildis": "C",
    "status": "Pending",
    "rowid": "914583",
    "final_x": "3682364.17781",
    "final_y": "532746.008004",
    "longitude": "-90.06529872053143",
    "latitude": "29.95884052062511",
    "geocoded_column": {
      "latitude": "29.95884052062511",
      "longitude": "-90.06529872053143"
    }
  },
  {
    "service_request": "2022-914582",
    "request_type": "Health Related Questions",
    "request_reason": "Noise Ordinance Complaint",
    "date_created": "2022-08-29T20:38:27.000",
    "date_modified": "2022-08-29T20:38:27.000",
    "request_status": "Pending",
    "responsible_agency": "Health Department",
    "final_address": "718 Bourbon St, New Orleans, Louisiana, 70116",
    "address_councildis": "C",
    "status": "Pending",
    "rowid": "914582",
    "final_x": "3682364.17781",
    "final_y": "532746.008004",
    "longitude": "-90.06529872053143",
    "latitude": "29.95884052062511",
    "geocoded_column": {
      "latitude": "29.95884052062511",
      "longitude": "-90.06529872053143"
    }
  },
  {
    "service_request": "2022-914581",
    "request_type": "Health Related Questions",
    "request_reason": "Noise Ordinance Complaint",
    "date_created": "2022-08-29T20:37:03.000",
    "date_modified": "2022-08-29T20:37:03.000",
    "request_status": "Pending",
    "responsible_agency": "Health Department",
    "final_address": "718 Bourbon St, New Orleans, Louisiana, 70116",
    "address_councildis": "C",
    "status": "Pending",
    "rowid": "914581",
    "final_x": "3682364.17781",
    "final_y": "532746.008004",
    "longitude": "-90.06529872053143",
    "latitude": "29.95884052062511",
    "geocoded_column": {
      "latitude": "29.95884052062511",
      "longitude": "-90.06529872053143"
    }
  },
  {
    "service_request": "2022-914580",
    "request_type": "Health Related Questions",
    "request_reason": "Noise Ordinance Complaint",
    "date_created": "2022-08-29T20:34:34.000",
    "date_modified": "2022-08-29T20:34:34.000",
    "request_status": "Pending",
    "responsible_agency": "Health Department",
    "final_address": "718 Bourbon St, New Orleans, Louisiana, 70116",
    "address_councildis": "C",
    "status": "Pending",
    "rowid": "914580",
    "final_x": "3682364.17781",
    "final_y": "532746.008004",
    "longitude": "-90.06529872053143",
    "latitude": "29.95884052062511",
    "geocoded_column": {
      "latitude": "29.95884052062511",
      "longitude": "-90.06529872053143"
    }
  },
  {
    "service_request": "2022-914579",
    "request_type": "Health Related Questions",
    "request_reason": "Noise Ordinance Complaint",
    "date_created": "2022-08-29T20:34:08.000",
    "date_modified": "2022-08-29T20:34:08.000",
    "request_status": "Pending",
    "responsible_agency": "Health Department",
    "final_address": "718 Bourbon St, New Orleans, Louisiana, 70116",
    "address_councildis": "C",
    "status": "Pending",
    "rowid": "914579",
    "final_x": "3682364.17781",
    "final_y": "532746.008004",
    "longitude": "-90.06529872053143",
    "latitude": "29.95884052062511",
    "geocoded_column": {
      "latitude": "29.95884052062511",
      "longitude": "-90.06529872053143"
    }
  },
  {
    "service_request": "2022-914578",
    "request_type": "Mayor's Request",
    "request_reason": "Requests to the Mayor",
    "date_created": "2022-08-29T20:34:05.000",
    "date_modified": "2022-08-29T20:34:05.000",
    "request_status": "Pending",
    "responsible_agency": "Executive Office of the Mayor",
    "status": "Pending",
    "rowid": "914578",
    "longitude": "0.0",
    "latitude": "0.0",
    "geocoded_column": {
      "latitude": "0.0",
      "longitude": "0.0"
    }
  },
  {
    "service_request": "2022-914577",
    "request_type": "Health Related Questions",
    "request_reason": "Noise Ordinance Complaint",
    "date_created": "2022-08-29T20:33:50.000",
    "date_modified": "2022-08-29T20:33:50.000",
    "request_status": "Pending",
    "responsible_agency": "Health Department",
    "final_address": "718 Bourbon St, New Orleans, Louisiana, 70116",
    "address_councildis": "C",
    "status": "Pending",
    "rowid": "914577",
    "final_x": "3682364.17781",
    "final_y": "532746.008004",
    "longitude": "-90.06529872053143",
    "latitude": "29.95884052062511",
    "geocoded_column": {
      "latitude": "29.95884052062511",
      "longitude": "-90.06529872053143"
    }
  },
  {
    "service_request": "2022-914576",
    "request_type": "Health Related Questions",
    "request_reason": "Noise Ordinance Complaint",
    "date_created": "2022-08-29T20:33:34.000",
    "date_modified": "2022-08-29T20:33:34.000",
    "request_status": "Pending",
    "responsible_agency": "Health Department",
    "final_address": "718 Bourbon St, New Orleans, Louisiana, 70116",
    "address_councildis": "C",
    "status": "Pending",
    "rowid": "914576",
    "final_x": "3682364.17781",
    "final_y": "532746.008004",
    "longitude": "-90.06529872053143",
    "latitude": "29.95884052062511",
    "geocoded_column": {
      "latitude": "29.95884052062511",
      "longitude": "-90.06529872053143"
    }
  },
  {
    "service_request": "2022-914575",
    "request_type": "Health Related Questions",
    "request_reason": "Noise Ordinance Complaint",
    "date_created": "2022-08-29T20:29:18.000",
    "date_modified": "2022-08-29T20:29:18.000",
    "request_status": "Pending",
    "responsible_agency": "Health Department",
    "final_address": "718 Bourbon St, New Orleans, Louisiana, 70116",
    "address_councildis": "C",
    "status": "Pending",
    "rowid": "914575",
    "final_x": "3682364.17781",
    "final_y": "532746.008004",
    "longitude": "-90.06529872053143",
    "latitude": "29.95884052062511",
    "geocoded_column": {
      "latitude": "29.95884052062511",
      "longitude": "-90.06529872053143"
    }
  },
  {
    "service_request": "2022-914574",
    "request_type": "Trash/Recycling",
    "request_reason": "Illegal Dumping",
    "date_created": "2022-08-29T20:23:24.000",
    "date_modified": "2022-08-29T20:23:24.000",
    "request_status": "Pending",
    "responsible_agency": "Department of Sanitation",
    "final_address": "2175 N Broad St",
    "address_councildis": "D",
    "status": "Pending",
    "rowid": "914574",
    "final_x": "3681086.75829",
    "final_y": "542921.845645",
    "longitude": "-90.0689779220846",
    "latitude": "29.98685936652361",
    "geocoded_column": {
      "latitude": "29.98685936652361",
      "longitude": "-90.0689779220846"
    }
  },
  {
    "service_request": "2022-914573",
    "request_type": "Health Related Questions",
    "request_reason": "Noise Ordinance Complaint",
    "date_created": "2022-08-29T20:22:24.000",
    "date_modified": "2022-08-29T20:22:24.000",
    "request_status": "Pending",
    "responsible_agency": "Health Department",
    "final_address": "718 Bourbon St, New Orleans, Louisiana, 70116",
    "address_councildis": "C",
    "status": "Pending",
    "rowid": "914573",
    "final_x": "3682364.17781",
    "final_y": "532746.008004",
    "longitude": "-90.06529872053143",
    "latitude": "29.95884052062511",
    "geocoded_column": {
      "latitude": "29.95884052062511",
      "longitude": "-90.06529872053143"
    }
  },
  {
    "service_request": "2022-914572",
    "request_type": "Health Related Questions",
    "request_reason": "Noise Ordinance Complaint",
    "date_created": "2022-08-29T20:19:04.000",
    "date_modified": "2022-08-29T20:19:04.000",
    "request_status": "Pending",
    "responsible_agency": "Health Department",
    "final_address": "718 Bourbon St, New Orleans, Louisiana, 70116",
    "address_councildis": "C",
    "status": "Pending",
    "rowid": "914572",
    "final_x": "3682364.17781",
    "final_y": "532746.008004",
    "longitude": "-90.06529872053143",
    "latitude": "29.95884052062511",
    "geocoded_column": {
      "latitude": "29.95884052062511",
      "longitude": "-90.06529872053143"
    }
  },
  {
    "service_request": "2022-914571",
    "request_type": "Health Related Questions",
    "request_reason": "Noise Ordinance Complaint",
    "date_created": "2022-08-29T20:15:55.000",
    "date_modified": "2022-08-29T20:15:55.000",
    "request_status": "Pending",
    "responsible_agency": "Health Department",
    "final_address": "718 Bourbon St, New Orleans, Louisiana, 70116",
    "address_councildis": "C",
    "status": "Pending",
    "rowid": "914571",
    "final_x": "3682364.17781",
    "final_y": "532746.008004",
    "longitude": "-90.06529872053143",
    "latitude": "29.95884052062511",
    "geocoded_column": {
      "latitude": "29.95884052062511",
      "longitude": "-90.06529872053143"
    }
  },
  {
    "service_request": "2022-914570",
    "request_type": "Traffic Signals/Signs/Striping/Streetlights",
    "request_reason": "Street Light Outage/Malfunction",
    "date_created": "2022-08-29T20:04:02.000",
    "date_modified": "2022-08-29T20:04:03.000",
    "request_status": "Pending",
    "responsible_agency": "Department of Public Works",
    "final_address": "1012 Marengo St",
    "address_councildis": "B",
    "status": "Pending",
    "contractor": "Legacy Professional Services",
    "rowid": "914570",
    "final_x": "3672061.73294",
    "final_y": "519390.395383",
    "longitude": "-90.09828586346265",
    "latitude": "29.922426407537305",
    "geocoded_column": {
      "latitude": "29.922426407537305",
      "longitude": "-90.09828586346265"
    }
  },
  {
    "service_request": "2022-914569",
    "request_type": "Trash/Recycling",
    "request_reason": "Missed Trash Pick-Up",
    "date_created": "2022-08-29T19:59:51.000",
    "date_modified": "2022-08-29T19:59:52.000",
    "request_status": "Pending",
    "responsible_agency": "Department of Sanitation",
    "final_address": "4902 Franklin Ave",
    "address_councildis": "D",
    "status": "Assigned to Contractor",
    "contractor": "Metro Disposal",
    "rowid": "914569",
    "final_x": "3686710.86524",
    "final_y": "551007.113557",
    "longitude": "-90.05092765448137",
    "latitude": "30.008919102081776",
    "geocoded_column": {
      "latitude": "30.008919102081776",
      "longitude": "-90.05092765448137"
    }
  },
  {
    "service_request": "2022-914568",
    "request_type": "Traffic Signals/Signs/Striping/Streetlights",
    "request_reason": "Street Light Outage/Malfunction",
    "date_created": "2022-08-29T19:52:13.000",
    "date_modified": "2022-08-29T19:52:14.000",
    "request_status": "Pending",
    "responsible_agency": "Department of Public Works",
    "final_address": "745 Toledano St",
    "address_councildis": "B",
    "status": "Pending",
    "contractor": "Legacy Professional Services",
    "rowid": "914568",
    "final_x": "3675908.99841",
    "final_y": "518700.795383",
    "longitude": "-90.08616528946597",
    "latitude": "29.920415645682976",
    "geocoded_column": {
      "latitude": "29.920415645682976",
      "longitude": "-90.08616528946597"
    }
  },
  {
    "service_request": "2022-914567",
    "request_type": "Traffic Signals/Signs/Striping/Streetlights",
    "request_reason": "Street Light Outage/Malfunction",
    "date_created": "2022-08-29T19:45:39.000",
    "date_modified": "2022-08-29T19:45:40.000",
    "request_status": "Pending",
    "responsible_agency": "Department of Public Works",
    "final_address": "1538 Hillary St",
    "address_councildis": "A",
    "status": "Pending",
    "contractor": "Legacy Professional Services",
    "rowid": "914567",
    "final_x": "3664192.27271",
    "final_y": "528197.110912",
    "longitude": "-90.12283298398403",
    "latitude": "29.946872967466117",
    "geocoded_column": {
      "latitude": "29.946872967466117",
      "longitude": "-90.12283298398403"
    }
  },
  {
    "service_request": "2022-914566",
    "request_type": "Traffic Signals/Signs/Striping/Streetlights",
    "request_reason": "Street Light Outage/Malfunction",
    "date_created": "2022-08-29T19:44:00.000",
    "date_modified": "2022-08-29T19:44:01.000",
    "request_status": "Pending",
    "responsible_agency": "Department of Public Works",
    "final_address": "1538 Hillary St",
    "address_councildis": "A",
    "status": "Pending",
    "contractor": "Legacy Professional Services",
    "rowid": "914566",
    "final_x": "3664192.27271",
    "final_y": "528197.110912",
    "longitude": "-90.12283298398403",
    "latitude": "29.946872967466117",
    "geocoded_column": {
      "latitude": "29.946872967466117",
      "longitude": "-90.12283298398403"
    }
  },
  {
    "service_request": "2022-914565",
    "request_type": "Trash/Recycling",
    "request_reason": "Missed Trash Pick-Up",
    "date_created": "2022-08-29T19:34:14.000",
    "date_modified": "2022-08-29T19:34:15.000",
    "request_status": "Pending",
    "responsible_agency": "Department of Sanitation",
    "final_address": "531 Second St",
    "address_councildis": "B",
    "status": "Assigned to Contractor",
    "contractor": "Richards Disposal",
    "rowid": "914565",
    "final_x": "3678946.68136",
    "final_y": "519703.907704",
    "longitude": "-90.07654202089383",
    "latitude": "29.923082616838766",
    "geocoded_column": {
      "latitude": "29.923082616838766",
      "longitude": "-90.07654202089383"
    }
  },
  {
    "service_request": "2022-914564",
    "request_type": "Property Maintenance",
    "request_reason": "Property Maintenance",
    "date_created": "2022-08-29T19:26:41.000",
    "date_modified": "2022-08-29T19:26:41.000",
    "request_status": "Pending",
    "responsible_agency": "Department of Code Enforcement",
    "final_address": "2234 S Salcedo St",
    "address_councildis": "A",
    "status": "Pending",
    "rowid": "914564",
    "final_x": "3669186.24692",
    "final_y": "528784.061376",
    "longitude": "-90.10704529362307",
    "latitude": "29.94834087849322",
    "geocoded_column": {
      "latitude": "29.94834087849322",
      "longitude": "-90.10704529362307"
    }
  },
  {
    "service_request": "2022-914563",
    "request_type": "Abandoned Vehicles",
    "request_reason": "Abandoned/Junk Vehicles",
    "date_created": "2022-08-29T19:04:54.000",
    "date_modified": "2022-08-29T19:04:54.000",
    "request_status": "Pending",
    "responsible_agency": "Department of Public Works",
    "final_address": "8800 Jeannette St",
    "address_councildis": "A",
    "status": "Pending",
    "rowid": "914563",
    "final_x": "3660786.05536",
    "final_y": "530816.850946",
    "longitude": "-90.1335011085568",
    "latitude": "29.954174918840426",
    "geocoded_column": {
      "latitude": "29.954174918840426",
      "longitude": "-90.1335011085568"
    }
  },
  {
    "service_request": "2022-914562",
    "request_type": "Traffic Signals/Signs/Striping/Streetlights",
    "request_reason": "Street Light Outage/Malfunction",
    "date_created": "2022-08-29T18:58:37.000",
    "date_modified": "2022-08-29T18:58:37.000",
    "request_status": "Pending",
    "responsible_agency": "Department of Public Works",
    "final_address": "1531 N Roman St",
    "address_councildis": "D",
    "status": "Pending",
    "contractor": "Legacy Professional Services",
    "rowid": "914562",
    "final_x": "3681291.5668",
    "final_y": "537856.839241",
    "longitude": "-90.06850760556053",
    "latitude": "29.972926148554574",
    "geocoded_column": {
      "latitude": "29.972926148554574",
      "longitude": "-90.06850760556053"
    }
  },
  {
    "service_request": "2022-914561",
    "request_type": "Trash/Recycling",
    "request_reason": "Replace Trash Cart",
    "date_created": "2022-08-29T18:57:23.000",
    "date_modified": "2022-08-29T18:57:24.000",
    "request_status": "Pending",
    "responsible_agency": "Department of Sanitation",
    "final_address": "2118 St Nick Dr",
    "address_councildis": "C",
    "status": "Assigned to Contractor",
    "contractor": "Richards Disposal",
    "rowid": "914561",
    "final_x": "3700018.99856",
    "final_y": "523271.414139",
    "longitude": "-90.00989519599706",
    "latitude": "29.932239688418345",
    "geocoded_column": {
      "latitude": "29.932239688418345",
      "longitude": "-90.00989519599706"
    }
  },
  {
    "service_request": "2022-914560",
    "request_type": "Abandoned Vehicles",
    "request_reason": "Abandoned/Junk Vehicles",
    "date_created": "2022-08-29T18:55:00.000",
    "date_modified": "2022-08-29T18:56:58.000",
    "request_status": "Pending",
    "responsible_agency": "Department of Public Works",
    "final_address": "N Roman St & Columbus St, New Orleans, Louisiana, 70116",
    "address_councildis": "D",
    "rowid": "914560",
    "final_x": "3681291.5668",
    "final_y": "537856.839241",
    "longitude": "-90.06850760556053",
    "latitude": "29.972926148554574",
    "geocoded_column": {
      "latitude": "29.972926148554574",
      "longitude": "-90.06850760556053"
    }
  },
  {
    "service_request": "2022-914559",
    "request_type": "Abandoned Vehicles",
    "request_reason": "Abandoned/Junk Vehicles",
    "date_created": "2022-08-29T18:54:01.000",
    "date_modified": "2022-08-29T18:54:01.000",
    "request_status": "Pending",
    "responsible_agency": "Department of Public Works",
    "final_address": "1531 N Roman St, New Orleans, Louisiana, 70116",
    "address_councildis": "D",
    "status": "Pending",
    "rowid": "914559",
    "final_x": "3681291.5668",
    "final_y": "537856.839241",
    "longitude": "-90.06850760556053",
    "latitude": "29.972926148554574",
    "geocoded_column": {
      "latitude": "29.972926148554574",
      "longitude": "-90.06850760556053"
    }
  },
  {
    "service_request": "2022-914558",
    "request_type": "Parks & Parkways",
    "request_reason": "Request Tree Service (Right of Way/Public Property)",
    "date_created": "2022-08-29T18:49:06.000",
    "date_modified": "2022-08-29T18:49:06.000",
    "request_status": "Pending",
    "responsible_agency": "Department of Parks & Parkway",
    "final_address": "3438 Banks St",
    "address_councildis": "B",
    "status": "Pending",
    "rowid": "914558",
    "final_x": "3672121.96366",
    "final_y": "535946.123463",
    "longitude": "-90.09753211219875",
    "latitude": "29.967947452636345",
    "geocoded_column": {
      "latitude": "29.967947452636345",
      "longitude": "-90.09753211219875"
    }
  },
  {
    "service_request": "2022-914557",
    "request_type": "Roads/Drainage",
    "request_reason": "Catch Basin - Broken/Damage",
    "date_created": "2022-08-29T18:47:05.000",
    "date_modified": "2022-08-29T18:47:06.000",
    "request_status": "Pending",
    "responsible_agency": "Department of Public Works",
    "final_address": "1418 S Tonti St",
    "address_councildis": "B",
    "status": "Pending",
    "rowid": "914557",
    "final_x": "3673096.76136",
    "final_y": "529499.560321",
    "longitude": "-90.09467373848807",
    "latitude": "29.950192609949706",
    "geocoded_column": {
      "latitude": "29.950192609949706",
      "longitude": "-90.09467373848807"
    }
  },
  {
    "service_request": "2022-914556",
    "request_type": "Trash/Recycling",
    "request_reason": "Replace Trash Cart",
    "date_created": "2022-08-29T18:45:11.000",
    "date_modified": "2022-08-29T18:45:12.000",
    "request_status": "Pending",
    "responsible_agency": "Department of Sanitation",
    "final_address": "1432 Esplanade Ave",
    "address_councildis": "C",
    "status": "Assigned to Contractor",
    "contractor": "Richards Disposal",
    "rowid": "914556",
    "final_x": "3681554.7012",
    "final_y": "536245.473095",
    "longitude": "-90.06773278622015",
    "latitude": "29.96848745842695",
    "geocoded_column": {
      "latitude": "29.96848745842695",
      "longitude": "-90.06773278622015"
    }
  },
  {
    "service_request": "2022-914555",
    "request_type": "Trash/Recycling",
    "request_reason": "Missed Trash Pick-Up",
    "date_created": "2022-08-29T18:42:52.000",
    "date_modified": "2022-08-29T18:42:53.000",
    "request_status": "Pending",
    "responsible_agency": "Department of Sanitation",
    "final_address": "529 N Hennessey St",
    "address_councildis": "A",
    "status": "Assigned to Contractor",
    "contractor": "Richards Disposal",
    "rowid": "914555",
    "final_x": "3671318.54644",
    "final_y": "540375.987339",
    "longitude": "-90.09991874828722",
    "latitude": "29.980151882484684",
    "geocoded_column": {
      "latitude": "29.980151882484684",
      "longitude": "-90.09991874828722"
    }
  },
  {
    "service_request": "2022-914554",
    "request_type": "Trash/Recycling",
    "request_reason": "MIssed Recycling Pick-Up",
    "date_created": "2022-08-29T18:35:45.000",
    "date_modified": "2022-08-29T18:35:46.000",
    "request_status": "Pending",
    "responsible_agency": "Department of Sanitation",
    "final_address": "616 Delaronde St",
    "address_councildis": "C",
    "status": "Assigned to Contractor",
    "contractor": "Richards Disposal",
    "rowid": "914554",
    "final_x": "3687372.21244",
    "final_y": "531236.979714",
    "longitude": "-90.04953804812723",
    "latitude": "29.954537873504975",
    "geocoded_column": {
      "latitude": "29.954537873504975",
      "longitude": "-90.04953804812723"
    }
  },
  {
    "service_request": "2022-914553",
    "request_type": "Trash/Recycling",
    "request_reason": "Missed Trash Pick-Up",
    "date_created": "2022-08-29T18:25:35.000",
    "date_modified": "2022-08-29T18:25:35.000",
    "request_status": "Pending",
    "responsible_agency": "Department of Sanitation",
    "final_address": "7433 Dogwood Dr",
    "address_councildis": "E",
    "status": "Assigned to Contractor",
    "contractor": "Metro Disposal",
    "rowid": "914553",
    "final_x": "3701531.79652",
    "final_y": "560601.984158",
    "longitude": "-90.00375200802554",
    "latitude": "30.034836898343386",
    "geocoded_column": {
      "latitude": "30.034836898343386",
      "longitude": "-90.00375200802554"
    }
  },
  {
    "service_request": "2022-914552",
    "request_type": "Trash/Recycling",
    "request_reason": "MIssed Recycling Pick-Up",
    "date_created": "2022-08-29T18:23:36.000",
    "date_modified": "2022-08-29T18:23:37.000",
    "request_status": "Pending",
    "responsible_agency": "Department of Sanitation",
    "final_address": "5129 General Meyer Ave",
    "address_councildis": "C",
    "status": "Assigned to Contractor",
    "contractor": "Richards Disposal",
    "rowid": "914552",
    "final_x": "3703142.0915",
    "final_y": "522611.948986",
    "longitude": "-90.0000601882434",
    "latitude": "29.930326835113064",
    "geocoded_column": {
      "latitude": "29.930326835113064",
      "longitude": "-90.0000601882434"
    }
  },
  {
    "service_request": "2022-914551",
    "request_type": "Trash/Recycling",
    "request_reason": "Illegal Dumping",
    "date_created": "2022-08-29T18:12:08.000",
    "date_modified": "2022-08-29T18:12:08.000",
    "request_status": "Pending",
    "responsible_agency": "Department of Sanitation",
    "final_address": "TARA LN & WENDY LN",
    "address_councildis": "E",
    "status": "Pending",
    "rowid": "914551",
    "final_x": "3707360.5",
    "final_y": "559201.48",
    "longitude": "-89.98538464386247",
    "latitude": "30.03079880796594",
    "geocoded_column": {
      "latitude": "30.03079880796594",
      "longitude": "-89.98538464386247"
    }
  },
  {
    "service_request": "2022-914550",
    "request_type": "Trash/Recycling",
    "request_reason": "Replace Trash Cart",
    "date_created": "2022-08-29T18:07:55.000",
    "date_modified": "2022-08-29T18:07:56.000",
    "request_status": "Pending",
    "responsible_agency": "Department of Sanitation",
    "final_address": "6479 Fleur-De-Lis Dr",
    "address_councildis": "A",
    "status": "Assigned to Contractor",
    "contractor": "Metro Disposal",
    "rowid": "914550",
    "final_x": "3665452.76973",
    "final_y": "551177.675989",
    "longitude": "-90.11808358230486",
    "latitude": "30.01002514585179",
    "geocoded_column": {
      "latitude": "30.01002514585179",
      "longitude": "-90.11808358230486"
    }
  },
  {
    "service_request": "2022-914549",
    "request_type": "Trash/Recycling",
    "request_reason": "MIssed Recycling Pick-Up",
    "date_created": "2022-08-29T18:00:59.000",
    "date_modified": "2022-08-29T18:01:00.000",
    "request_status": "Pending",
    "responsible_agency": "Department of Sanitation",
    "final_address": "301 Berkley Dr",
    "address_councildis": "C",
    "status": "Assigned to Contractor",
    "contractor": "Richards Disposal",
    "rowid": "914549",
    "final_x": "3707031.2188",
    "final_y": "518029.19935",
    "longitude": "-89.98795279084345",
    "latitude": "29.91760087155059",
    "geocoded_column": {
      "latitude": "29.91760087155059",
      "longitude": "-89.98795279084345"
    }
  },
  {
    "service_request": "2022-914548",
    "request_type": "Parks & Parkways",
    "request_reason": "Request Tree Service (Right of Way/Public Property)",
    "date_created": "2022-08-29T17:56:56.000",
    "date_modified": "2022-08-29T17:56:56.000",
    "request_status": "Pending",
    "responsible_agency": "Department of Parks & Parkway",
    "final_address": "1464 N Dorgenois St",
    "address_councildis": "D",
    "status": "Pending",
    "rowid": "914548",
    "final_x": "3679093.29717",
    "final_y": "539146.463178",
    "longitude": "-90.07540544933704",
    "latitude": "29.97653870834625",
    "geocoded_column": {
      "latitude": "29.97653870834625",
      "longitude": "-90.07540544933704"
    }
  },
  {
    "service_request": "2022-914547",
    "request_type": "Roads/Drainage",
    "request_reason": "Pothole",
    "date_created": "2022-08-29T17:55:06.000",
    "date_modified": "2022-08-29T17:55:06.000",
    "request_status": "Pending",
    "responsible_agency": "Department of Public Works",
    "final_address": "928 Felicity St",
    "address_councildis": "B",
    "status": "Pending",
    "rowid": "914547",
    "final_x": "3680343.27963",
    "final_y": "522629.571962",
    "longitude": "-90.0720318420857",
    "latitude": "29.93108504100539",
    "geocoded_column": {
      "latitude": "29.93108504100539",
      "longitude": "-90.0720318420857"
    }
  },
  {
    "service_request": "2022-914546",
    "request_type": "Trash/Recycling",
    "request_reason": "Missed Trash Pick-Up",
    "date_created": "2022-08-29T17:50:02.000",
    "date_modified": "2022-08-29T17:50:03.000",
    "request_status": "Pending",
    "responsible_agency": "Department of Sanitation",
    "final_address": "1405 Music St",
    "address_councildis": "C",
    "status": "Assigned to Contractor",
    "contractor": "Metro Disposal",
    "rowid": "914546",
    "final_x": "3686789.34978",
    "final_y": "537626.239432",
    "longitude": "-90.05115274347482",
    "latitude": "29.972124066773844",
    "geocoded_column": {
      "latitude": "29.972124066773844",
      "longitude": "-90.05115274347482"
    }
  },
  {
    "service_request": "2022-914545",
    "request_type": "Trash/Recycling",
    "request_reason": "Missed Trash Pick-Up",
    "date_created": "2022-08-29T17:50:02.000",
    "date_modified": "2022-08-29T17:50:03.000",
    "request_status": "Pending",
    "responsible_agency": "Department of Sanitation",
    "final_address": "1405 Music St",
    "address_councildis": "C",
    "status": "Assigned to Contractor",
    "contractor": "Metro Disposal",
    "rowid": "914545",
    "final_x": "3686789.34978",
    "final_y": "537626.239432",
    "longitude": "-90.05115274347482",
    "latitude": "29.972124066773844",
    "geocoded_column": {
      "latitude": "29.972124066773844",
      "longitude": "-90.05115274347482"
    }
  },
  {
    "service_request": "2022-914544",
    "request_type": "Abandoned Vehicles",
    "request_reason": "Abandoned/Junk Vehicles",
    "date_created": "2022-08-29T17:37:14.000",
    "date_modified": "2022-08-29T17:37:14.000",
    "request_status": "Pending",
    "responsible_agency": "Department of Public Works",
    "final_address": "13731 Curran Rd",
    "address_councildis": "E",
    "status": "Pending",
    "rowid": "914544",
    "final_x": "3717681.08761",
    "final_y": "571578.01988",
    "longitude": "-89.95230035868781",
    "latitude": "30.064491353354878",
    "geocoded_column": {
      "latitude": "30.064491353354878",
      "longitude": "-89.95230035868781"
    }
  },
  {
    "service_request": "2022-914543",
    "request_type": "Abandoned Vehicles",
    "request_reason": "Abandoned/Junk Vehicles",
    "date_created": "2022-08-29T17:35:35.000",
    "date_modified": "2022-08-29T17:35:35.000",
    "request_status": "Pending",
    "responsible_agency": "Department of Public Works",
    "final_address": "7672 Anne Marie Ct",
    "address_councildis": "E",
    "status": "Pending",
    "rowid": "914543",
    "final_x": "3717661.25944",
    "final_y": "571390.9402",
    "longitude": "-89.95237016381769",
    "latitude": "30.0639776194137",
    "geocoded_column": {
      "latitude": "30.0639776194137",
      "longitude": "-89.95237016381769"
    }
  },
  {
    "service_request": "2022-914541",
    "request_type": "Trash/Recycling",
    "request_reason": "Missed Trash Pick-Up",
    "date_created": "2022-08-29T17:20:10.000",
    "date_modified": "2022-08-29T17:20:11.000",
    "request_status": "Pending",
    "responsible_agency": "Department of Sanitation",
    "final_address": "4962 Franklin Ave",
    "address_councildis": "D",
    "status": "Assigned to Contractor",
    "contractor": "Metro Disposal",
    "rowid": "914541",
    "final_x": "3686665.06511",
    "final_y": "551515.174165",
    "longitude": "-90.0510543893501",
    "latitude": "30.01031749245393",
    "geocoded_column": {
      "latitude": "30.01031749245393",
      "longitude": "-90.0510543893501"
    }
  },
  {
    "service_request": "2022-914540",
    "request_type": "Trash/Recycling",
    "request_reason": "Repair Trash Cart",
    "date_created": "2022-08-29T17:19:07.000",
    "date_modified": "2022-08-29T17:19:08.000",
    "request_status": "Pending",
    "responsible_agency": "Department of Sanitation",
    "final_address": "4320 S Johnson St",
    "address_councildis": "B",
    "status": "Assigned to Contractor",
    "contractor": "Richards Disposal",
    "rowid": "914540",
    "final_x": "3670435.77767",
    "final_y": "527186.598655",
    "longitude": "-90.10315414899094",
    "latitude": "29.94391154809709",
    "geocoded_column": {
      "latitude": "29.94391154809709",
      "longitude": "-90.10315414899094"
    }
  },
  {
    "service_request": "2022-914539",
    "request_type": "Trash/Recycling",
    "request_reason": "Request a Large Item Pick Up",
    "date_created": "2022-08-29T17:18:26.000",
    "date_modified": "2022-08-29T17:18:28.000",
    "request_status": "Pending",
    "responsible_agency": "Department of Sanitation",
    "final_address": "4923 S Rocheblave St, New Orleans, Louisiana, 70125",
    "address_councildis": "B",
    "status": "Assigned to Contractor",
    "contractor": "Richards Disposal",
    "rowid": "914539",
    "final_x": "3669144.85466",
    "final_y": "528460.037696",
    "longitude": "-90.10718693429686",
    "latitude": "29.947451137002638",
    "geocoded_column": {
      "latitude": "29.947451137002638",
      "longitude": "-90.10718693429686"
    }
  },
  {
    "service_request": "2022-914538",
    "request_type": "Trash/Recycling",
    "request_reason": "Repair Trash Cart",
    "date_created": "2022-08-29T17:05:23.000",
    "date_modified": "2022-08-29T17:05:27.000",
    "request_status": "Pending",
    "responsible_agency": "Department of Sanitation",
    "final_address": "2225 Touro St",
    "address_councildis": "D",
    "status": "Assigned to Contractor",
    "contractor": "Metro Disposal",
    "rowid": "914538",
    "final_x": "3683924.16386",
    "final_y": "540499.980363",
    "longitude": "-90.06010061581893",
    "latitude": "29.980113696531408",
    "geocoded_column": {
      "latitude": "29.980113696531408",
      "longitude": "-90.06010061581893"
    }
  },
  {
    "service_request": "2022-914537",
    "request_type": "Trash/Recycling",
    "request_reason": "Missed Trash Pick-Up",
    "date_created": "2022-08-29T17:04:09.000",
    "date_modified": "2022-08-29T17:04:11.000",
    "request_status": "Pending",
    "responsible_agency": "Department of Sanitation",
    "final_address": "1626 Martin Luther King, Jr. Blvd",
    "address_councildis": "B",
    "status": "Assigned to Contractor",
    "contractor": "Richards Disposal",
    "rowid": "914537",
    "final_x": "3678966.37621",
    "final_y": "525637.438781",
    "longitude": "-90.07627437339087",
    "latitude": "29.939397287521764",
    "geocoded_column": {
      "latitude": "29.939397287521764",
      "longitude": "-90.07627437339087"
    }
  },
  {
    "service_request": "2022-914536",
    "request_type": "Trash/Recycling",
    "request_reason": "Request a Large Item Pick Up",
    "date_created": "2022-08-29T17:02:52.000",
    "date_modified": "2022-08-29T17:02:53.000",
    "request_status": "Pending",
    "responsible_agency": "Department of Sanitation",
    "final_address": "138 Alvin Callender St",
    "address_councildis": "A",
    "status": "Assigned to Contractor",
    "contractor": "Richards Disposal",
    "rowid": "914536",
    "final_x": "3661064.18925",
    "final_y": "523402.506299",
    "longitude": "-90.13286814521028",
    "latitude": "29.933779818332855",
    "geocoded_column": {
      "latitude": "29.933779818332855",
      "longitude": "-90.13286814521028"
    }
  },
  {
    "service_request": "2022-914535",
    "request_type": "Trash/Recycling",
    "request_reason": "Request a Large Item Pick Up",
    "date_created": "2022-08-29T16:53:18.000",
    "date_modified": "2022-08-29T16:53:18.000",
    "request_status": "Pending",
    "responsible_agency": "Department of Sanitation",
    "final_address": "5433 Lafaye St",
    "address_councildis": "D",
    "status": "Assigned to Contractor",
    "contractor": "Metro Disposal",
    "rowid": "914535",
    "final_x": "3687347.52943",
    "final_y": "553228.307927",
    "longitude": "-90.04883755996268",
    "latitude": "30.0150069636776",
    "geocoded_column": {
      "latitude": "30.0150069636776",
      "longitude": "-90.04883755996268"
    }
  },
  {
    "service_request": "2022-914534",
    "request_type": "Abandoned Vehicles",
    "request_reason": "Abandoned/Junk Vehicles",
    "date_created": "2022-08-29T16:48:51.000",
    "date_modified": "2022-08-29T16:48:51.000",
    "request_status": "Pending",
    "responsible_agency": "Department of Public Works",
    "final_address": "2342 Chippewa St",
    "address_councildis": "B",
    "status": "Pending",
    "rowid": "914534",
    "final_x": "3679137.30555",
    "final_y": "520413.377656",
    "longitude": "-90.07591571778603",
    "latitude": "29.925027677834294",
    "geocoded_column": {
      "latitude": "29.925027677834294",
      "longitude": "-90.07591571778603"
    }
  },
  {
    "service_request": "2022-914533",
    "request_type": "Roads/Drainage",
    "request_reason": "Catch Basin - Clogged",
    "date_created": "2022-08-29T16:48:23.000",
    "date_modified": "2022-08-29T16:48:24.000",
    "request_status": "Pending",
    "responsible_agency": "Department of Public Works",
    "final_address": "2401 St Bernard Ave",
    "address_councildis": "D",
    "status": "Pending",
    "rowid": "914533",
    "final_x": "3680737.9981",
    "final_y": "540813.759371",
    "longitude": "-90.07015293239488",
    "latitude": "29.981073443408263",
    "geocoded_column": {
      "latitude": "29.981073443408263",
      "longitude": "-90.07015293239488"
    }
  },
  {
    "service_request": "2022-914532",
    "request_type": "Abandoned Vehicles",
    "request_reason": "Abandoned/Junk Vehicles",
    "date_created": "2022-08-29T16:41:50.000",
    "date_modified": "2022-08-29T16:41:50.000",
    "request_status": "Pending",
    "responsible_agency": "Department of Public Works",
    "final_address": "1443 Felicity St",
    "address_councildis": "B",
    "status": "Pending",
    "rowid": "914532",
    "final_x": "3679002.1828",
    "final_y": "524087.29382",
    "longitude": "-90.076215020202",
    "latitude": "29.935133820487145",
    "geocoded_column": {
      "latitude": "29.935133820487145",
      "longitude": "-90.076215020202"
    }
  },
  {
    "service_request": "2022-914531",
    "request_type": "Trash/Recycling",
    "request_reason": "Order Trash Cart",
    "date_created": "2022-08-29T16:38:20.000",
    "date_modified": "2022-08-29T16:38:21.000",
    "request_status": "Pending",
    "responsible_agency": "Department of Sanitation",
    "final_address": "New Orleans,LA",
    "status": "Assigned to Contractor",
    "rowid": "914531",
    "longitude": "0.0",
    "latitude": "0.0",
    "geocoded_column": {
      "latitude": "0.0",
      "longitude": "0.0"
    }
  },
  {
    "service_request": "2022-914530",
    "request_type": "Trash/Recycling",
    "request_reason": "Order Trash Cart",
    "date_created": "2022-08-29T16:37:31.000",
    "date_modified": "2022-08-29T16:39:48.000",
    "request_status": "Pending",
    "responsible_agency": "Department of Sanitation",
    "final_address": "New Orleans,LA",
    "address_councildis": "B",
    "status": "Assigned to Contractor",
    "contractor": "Richards Disposal",
    "rowid": "914530",
    "final_x": "3672793.53134",
    "final_y": "523863.915004",
    "longitude": "-90.09582336059931",
    "latitude": "29.93470543768908",
    "geocoded_column": {
      "latitude": "29.93470543768908",
      "longitude": "-90.09582336059931"
    }
  },
  {
    "service_request": "2022-914529",
    "request_type": "Roads/Drainage",
    "request_reason": "Pothole",
    "date_created": "2022-08-29T16:37:24.000",
    "date_modified": "2022-08-29T16:37:24.000",
    "request_status": "Pending",
    "responsible_agency": "Department of Public Works",
    "final_address": "345 W Robert E Lee Blvd, New Orleans, Louisiana, 70124",
    "status": "Pending",
    "rowid": "914529",
    "longitude": "0.0",
    "latitude": "0.0",
    "geocoded_column": {
      "latitude": "0.0",
      "longitude": "0.0"
    }
  },
  {
    "service_request": "2022-914528",
    "request_type": "Abandoned Vehicles",
    "request_reason": "Abandoned/Junk Vehicles",
    "date_created": "2022-08-29T16:36:42.000",
    "date_modified": "2022-08-29T16:36:42.000",
    "request_status": "Pending",
    "responsible_agency": "Department of Public Works",
    "final_address": "1443 Felicity St",
    "address_councildis": "B",
    "status": "Pending",
    "rowid": "914528",
    "final_x": "3679002.1828",
    "final_y": "524087.29382",
    "longitude": "-90.076215020202",
    "latitude": "29.935133820487145",
    "geocoded_column": {
      "latitude": "29.935133820487145",
      "longitude": "-90.076215020202"
    }
  },
  {
    "service_request": "2022-914527",
    "request_type": "Abandoned Vehicles",
    "request_reason": "Abandoned/Junk Vehicles",
    "date_created": "2022-08-29T16:36:19.000",
    "date_modified": "2022-08-29T16:38:02.000",
    "request_status": "Pending",
    "responsible_agency": "Department of Public Works",
    "final_address": "8209 Birch St",
    "address_councildis": "A",
    "status": "Pending",
    "rowid": "914527",
    "final_x": "3662610.29875",
    "final_y": "529744.499521",
    "longitude": "-90.12777647800807",
    "latitude": "29.951173648041962",
    "geocoded_column": {
      "latitude": "29.951173648041962",
      "longitude": "-90.12777647800807"
    }
  },
  {
    "service_request": "2022-914526",
    "request_type": "Traffic Signals/Signs/Striping/Streetlights",
    "request_reason": "Street Light Outage/Malfunction",
    "date_created": "2022-08-29T16:34:34.000",
    "date_modified": "2022-08-29T16:34:35.000",
    "request_status": "Pending",
    "responsible_agency": "Department of Public Works",
    "final_address": "5500 Dauphine St",
    "address_councildis": "E",
    "status": "Pending",
    "contractor": "Legacy Professional Services",
    "rowid": "914526",
    "final_x": "3697444.08656",
    "final_y": "532664.357508",
    "longitude": "-90.01768343074488",
    "latitude": "29.958148530327403",
    "geocoded_column": {
      "latitude": "29.958148530327403",
      "longitude": "-90.01768343074488"
    }
  },
  {
    "service_request": "2022-914525",
    "request_type": "Traffic Signals/Signs/Striping/Streetlights",
    "request_reason": "Street Light Outage/Malfunction",
    "date_created": "2022-08-29T16:33:29.000",
    "date_modified": "2022-08-29T16:33:29.000",
    "request_status": "Pending",
    "responsible_agency": "Department of Public Works",
    "final_address": "6000 Bullard Ave",
    "address_councildis": "E",
    "status": "Pending",
    "contractor": "Legacy Professional Services",
    "rowid": "914525",
    "final_x": "3714876.25311",
    "final_y": "563881.658913",
    "longitude": "-89.96145788051206",
    "latitude": "30.043422170200817",
    "geocoded_column": {
      "latitude": "30.043422170200817",
      "longitude": "-89.96145788051206"
    }
  },
  {
    "service_request": "2022-914524",
    "request_type": "Trash/Recycling",
    "request_reason": "Request a Large Item Pick Up",
    "date_created": "2022-08-29T16:32:45.000",
    "date_modified": "2022-08-29T16:32:46.000",
    "request_status": "Pending",
    "responsible_agency": "Department of Sanitation",
    "final_address": "457 Audubon Blvd",
    "address_councildis": "B",
    "status": "Assigned to Contractor",
    "contractor": "Richards Disposal",
    "rowid": "914524",
    "final_x": "3667714.74842",
    "final_y": "530691.250818",
    "longitude": "-90.1116272338601",
    "latitude": "29.953628247671602",
    "geocoded_column": {
      "latitude": "29.953628247671602",
      "longitude": "-90.1116272338601"
    }
  },
  {
    "service_request": "2022-914523",
    "request_type": "Trash/Recycling",
    "request_reason": "Repair Recycling Cart",
    "date_created": "2022-08-29T16:31:23.000",
    "date_modified": "2022-08-29T16:31:23.000",
    "request_status": "Pending",
    "responsible_agency": "Department of Sanitation",
    "final_address": "457 Audubon Blvd",
    "address_councildis": "B",
    "status": "Pending",
    "rowid": "914523",
    "final_x": "3667714.74842",
    "final_y": "530691.250818",
    "longitude": "-90.1116272338601",
    "latitude": "29.953628247671602",
    "geocoded_column": {
      "latitude": "29.953628247671602",
      "longitude": "-90.1116272338601"
    }
  },
  {
    "service_request": "2022-914522",
    "request_type": "Trash/Recycling",
    "request_reason": "Replace Trash Cart",
    "date_created": "2022-08-29T16:30:57.000",
    "date_modified": "2022-08-29T16:30:58.000",
    "request_status": "Pending",
    "responsible_agency": "Department of Sanitation",
    "final_address": "922 N Lopez St",
    "address_councildis": "A",
    "status": "Assigned to Contractor",
    "contractor": "Richards Disposal",
    "rowid": "914522",
    "final_x": "3675847.02625",
    "final_y": "538771.680969",
    "longitude": "-90.08567106484794",
    "latitude": "29.97560577916738",
    "geocoded_column": {
      "latitude": "29.97560577916738",
      "longitude": "-90.08567106484794"
    }
  },
  {
    "service_request": "2022-914521",
    "request_type": "Abandoned Vehicles",
    "request_reason": "Abandoned/Junk Vehicles",
    "date_created": "2022-08-29T16:29:57.000",
    "date_modified": "2022-08-29T16:29:57.000",
    "request_status": "Pending",
    "responsible_agency": "Department of Public Works",
    "final_address": "200 Carondelet St",
    "address_councildis": "B",
    "status": "Pending",
    "rowid": "914521",
    "final_x": "3680618.51733",
    "final_y": "530414.539586",
    "longitude": "-90.07089218374696",
    "latitude": "29.952482774541487",
    "geocoded_column": {
      "latitude": "29.952482774541487",
      "longitude": "-90.07089218374696"
    }
  },
  {
    "service_request": "2022-914519",
    "request_type": "Roads/Drainage",
    "request_reason": "Pothole",
    "date_created": "2022-08-29T16:22:33.000",
    "date_modified": "2022-08-29T16:22:33.000",
    "request_status": "Pending",
    "responsible_agency": "Department of Public Works",
    "final_address": "7900 Stroelitz St, New Orleans, Louisiana, 70125",
    "status": "Pending",
    "rowid": "914519",
    "longitude": "0.0",
    "latitude": "0.0",
    "geocoded_column": {
      "latitude": "0.0",
      "longitude": "0.0"
    }
  },
  {
    "service_request": "2022-914518",
    "request_type": "Trash/Recycling",
    "request_reason": "Request a Large Item Pick Up",
    "date_created": "2022-08-29T16:19:18.000",
    "date_modified": "2022-08-29T16:19:18.000",
    "request_status": "Pending",
    "responsible_agency": "Department of Sanitation",
    "final_address": "3429 General Pershing St",
    "address_councildis": "B",
    "status": "Assigned to Contractor",
    "contractor": "Richards Disposal",
    "rowid": "914518",
    "final_x": "3670621.79809",
    "final_y": "527519.539263",
    "longitude": "-90.10255553909457",
    "latitude": "29.94482153352745",
    "geocoded_column": {
      "latitude": "29.94482153352745",
      "longitude": "-90.10255553909457"
    }
  },
  {
    "service_request": "2022-914517",
    "request_type": "Roads/Drainage",
    "request_reason": "Service Cut",
    "date_created": "2022-08-29T16:19:15.000",
    "date_modified": "2022-08-29T16:19:15.000",
    "request_status": "Pending",
    "responsible_agency": "Department of Public Works",
    "final_address": "2601 Jackson Ave",
    "address_councildis": "B",
    "status": "Pending",
    "rowid": "914517",
    "final_x": "3675224.61",
    "final_y": "526882.894782",
    "longitude": "-90.08804489881594",
    "latitude": "29.942934224668576",
    "geocoded_column": {
      "latitude": "29.942934224668576",
      "longitude": "-90.08804489881594"
    }
  },
  {
    "service_request": "2022-914516",
    "request_type": "Trash/Recycling",
    "request_reason": "Repair Trash Cart",
    "date_created": "2022-08-29T16:17:47.000",
    "date_modified": "2022-08-29T16:17:48.000",
    "request_status": "Pending",
    "responsible_agency": "Department of Sanitation",
    "final_address": "4613 Arts St",
    "address_councildis": "D",
    "status": "Assigned to Contractor",
    "contractor": "Metro Disposal",
    "rowid": "914516",
    "final_x": "3686068.15375",
    "final_y": "549741.095444",
    "longitude": "-90.05300288098948",
    "latitude": "30.005457775764746",
    "geocoded_column": {
      "latitude": "30.005457775764746",
      "longitude": "-90.05300288098948"
    }
  },
  {
    "service_request": "2022-914515",
    "request_type": "Trash/Recycling",
    "request_reason": "Missed Trash Pick-Up",
    "date_created": "2022-08-29T16:17:08.000",
    "date_modified": "2022-08-29T16:17:09.000",
    "request_status": "Pending",
    "responsible_agency": "Department of Sanitation",
    "final_address": "4613 Arts St",
    "address_councildis": "D",
    "status": "Assigned to Contractor",
    "contractor": "Metro Disposal",
    "rowid": "914515",
    "final_x": "3686068.15375",
    "final_y": "549741.095444",
    "longitude": "-90.05300288098948",
    "latitude": "30.005457775764746",
    "geocoded_column": {
      "latitude": "30.005457775764746",
      "longitude": "-90.05300288098948"
    }
  },
  {
    "service_request": "2022-914514",
    "request_type": "Roads/Drainage",
    "request_reason": "Alley Way",
    "date_created": "2022-08-29T16:13:41.000",
    "date_modified": "2022-08-29T16:18:32.000",
    "request_status": "Pending",
    "responsible_agency": "Department of Public Works",
    "final_address": "New Orleans,LA",
    "address_councildis": "A",
    "rowid": "914514",
    "final_x": "3670857.39713",
    "final_y": "554077.49372",
    "longitude": "-90.10090980369738",
    "latitude": "30.01783990062325",
    "geocoded_column": {
      "latitude": "30.01783990062325",
      "longitude": "-90.10090980369738"
    }
  },
  {
    "service_request": "2022-914513",
    "request_type": "Trash/Recycling",
    "request_reason": "Replace Trash Cart",
    "date_created": "2022-08-29T16:13:35.000",
    "date_modified": "2022-08-29T16:13:36.000",
    "request_status": "Pending",
    "responsible_agency": "Department of Sanitation",
    "final_address": "3809 Clematis St",
    "address_councildis": "D",
    "status": "Assigned to Contractor",
    "contractor": "Metro Disposal",
    "rowid": "914513",
    "final_x": "3685922.80585",
    "final_y": "546932.614353",
    "longitude": "-90.05356116311239",
    "latitude": "29.997739932499762",
    "geocoded_column": {
      "latitude": "29.997739932499762",
      "longitude": "-90.05356116311239"
    }
  },
  {
    "service_request": "2022-914512",
    "request_type": "Trash/Recycling",
    "request_reason": "Request a Large Item Pick Up",
    "date_created": "2022-08-29T16:12:40.000",
    "date_modified": "2022-08-29T16:12:41.000",
    "request_status": "Pending",
    "responsible_agency": "Department of Sanitation",
    "final_address": "2411 DAbadie St",
    "address_councildis": "D",
    "status": "Assigned to Contractor",
    "contractor": "Metro Disposal",
    "rowid": "914512",
    "final_x": "3680333.12239",
    "final_y": "540196.826571",
    "longitude": "-90.07145317022469",
    "latitude": "29.979389359311238",
    "geocoded_column": {
      "latitude": "29.979389359311238",
      "longitude": "-90.07145317022469"
    }
  },
  {
    "service_request": "2022-914511",
    "request_type": "Trash/Recycling",
    "request_reason": "Repair Trash Cart",
    "date_created": "2022-08-29T16:10:06.000",
    "date_modified": "2022-08-29T16:10:07.000",
    "request_status": "Pending",
    "responsible_agency": "Department of Sanitation",
    "final_address": "1211 N Dupre St",
    "address_councildis": "A",
    "status": "Assigned to Contractor",
    "contractor": "Richards Disposal",
    "rowid": "914511",
    "final_x": "3676952.6331",
    "final_y": "539362.497034",
    "longitude": "-90.08215887559284",
    "latitude": "29.977197172263857",
    "geocoded_column": {
      "latitude": "29.977197172263857",
      "longitude": "-90.08215887559284"
    }
  },
  {
    "service_request": "2022-914510",
    "request_type": "Trash/Recycling",
    "request_reason": "Missed Trash Pick-Up",
    "date_created": "2022-08-29T16:06:00.000",
    "date_modified": "2022-08-29T16:06:01.000",
    "request_status": "Pending",
    "responsible_agency": "Department of Sanitation",
    "final_address": "1934 Arts St",
    "address_councildis": "D",
    "status": "Assigned to Contractor",
    "contractor": "Metro Disposal",
    "rowid": "914510",
    "final_x": "3686912.08489",
    "final_y": "539692.201354",
    "longitude": "-90.05069209035307",
    "latitude": "29.977800959445727",
    "geocoded_column": {
      "latitude": "29.977800959445727",
      "longitude": "-90.05069209035307"
    }
  },
  {
    "service_request": "2022-914509",
    "request_type": "Trash/Recycling",
    "request_reason": "Request a Large Item Pick Up",
    "date_created": "2022-08-29T16:04:33.000",
    "date_modified": "2022-08-29T16:04:34.000",
    "request_status": "Pending",
    "responsible_agency": "Department of Sanitation",
    "final_address": "2808 Seine St",
    "address_councildis": "C",
    "status": "Assigned to Contractor",
    "contractor": "Richards Disposal",
    "rowid": "914509",
    "final_x": "3693363.14576",
    "final_y": "521041.724089",
    "longitude": "-90.03098699779967",
    "latitude": "29.926318499274164",
    "geocoded_column": {
      "latitude": "29.926318499274164",
      "longitude": "-90.03098699779967"
    }
  },
  {
    "service_request": "2022-914508",
    "request_type": "Trash/Recycling",
    "request_reason": "Request a Large Item Pick Up",
    "date_created": "2022-08-29T16:00:55.000",
    "date_modified": "2022-08-29T16:00:56.000",
    "request_status": "Pending",
    "responsible_agency": "Department of Sanitation",
    "final_address": "615 Napoleon Ave",
    "address_councildis": "B",
    "status": "Assigned to Contractor",
    "contractor": "Richards Disposal",
    "rowid": "914508",
    "final_x": "3671231.94907",
    "final_y": "517896.75935",
    "longitude": "-90.10095586924072",
    "latitude": "29.918343949553897",
    "geocoded_column": {
      "latitude": "29.918343949553897",
      "longitude": "-90.10095586924072"
    }
  },
  {
    "service_request": "2022-914507",
    "request_type": "Trash/Recycling",
    "request_reason": "Request a Large Item Pick Up",
    "date_created": "2022-08-29T15:58:34.000",
    "date_modified": "2022-08-29T15:58:34.000",
    "request_status": "Pending",
    "responsible_agency": "Department of Sanitation",
    "final_address": "1915 Mediamolle Dr",
    "address_councildis": "C",
    "status": "Assigned to Contractor",
    "contractor": "Richards Disposal",
    "rowid": "914507",
    "final_x": "3699427.23792",
    "final_y": "524283.515132",
    "longitude": "-90.0117264638219",
    "latitude": "29.93504139585885",
    "geocoded_column": {
      "latitude": "29.93504139585885",
      "longitude": "-90.0117264638219"
    }
  },
  {
    "service_request": "2022-914506",
    "request_type": "Trash/Recycling",
    "request_reason": "Illegal Dumping",
    "date_created": "2022-08-29T15:58:31.000",
    "date_modified": "2022-08-29T15:58:33.000",
    "request_status": "Pending",
    "responsible_agency": "Department of Sanitation",
    "final_address": "BERKLEY DR & SULLEN PL",
    "address_councildis": "C",
    "status": "Pending",
    "rowid": "914506",
    "final_x": "3707685.7",
    "final_y": "518075.28",
    "longitude": "-89.98588526734164",
    "latitude": "29.917706431137237",
    "geocoded_column": {
      "latitude": "29.917706431137237",
      "longitude": "-89.98588526734164"
    }
  },
  {
    "service_request": "2022-914505",
    "request_type": "Trash/Recycling",
    "request_reason": "Order Trash Cart",
    "date_created": "2022-08-29T15:56:52.000",
    "date_modified": "2022-08-29T15:56:53.000",
    "request_status": "Pending",
    "responsible_agency": "Department of Sanitation",
    "final_address": "4032 Athis Ct",
    "address_councildis": "D",
    "status": "Assigned to Contractor",
    "contractor": "Metro Disposal",
    "rowid": "914505",
    "final_x": "3688581.23849",
    "final_y": "554646.060184",
    "longitude": "-90.04488926878895",
    "latitude": "30.018867172452055",
    "geocoded_column": {
      "latitude": "30.018867172452055",
      "longitude": "-90.04488926878895"
    }
  },
  {
    "service_request": "2022-914504",
    "request_type": "Roads/Drainage",
    "request_reason": "Pothole",
    "date_created": "2022-08-29T15:56:21.000",
    "date_modified": "2022-08-29T15:56:22.000",
    "request_status": "Pending",
    "responsible_agency": "Department of Public Works",
    "final_address": "BERKLEY DR & SULLEN PL",
    "address_councildis": "C",
    "status": "Pending",
    "rowid": "914504",
    "final_x": "3707685.7",
    "final_y": "518075.28",
    "longitude": "-89.98588526734164",
    "latitude": "29.917706431137237",
    "geocoded_column": {
      "latitude": "29.917706431137237",
      "longitude": "-89.98588526734164"
    }
  },
  {
    "service_request": "2022-914503",
    "request_type": "Trash/Recycling",
    "request_reason": "MIssed Recycling Pick-Up",
    "date_created": "2022-08-29T15:55:58.000",
    "date_modified": "2022-08-29T15:56:01.000",
    "request_status": "Pending",
    "responsible_agency": "Department of Sanitation",
    "final_address": "2053 Easter Ln",
    "address_councildis": "C",
    "status": "Assigned to Contractor",
    "contractor": "Richards Disposal",
    "rowid": "914503",
    "final_x": "3699444.50576",
    "final_y": "523783.587067",
    "longitude": "-90.0116901538607",
    "latitude": "29.933666219259134",
    "geocoded_column": {
      "latitude": "29.933666219259134",
      "longitude": "-90.0116901538607"
    }
  },
  {
    "service_request": "2022-914502",
    "request_type": "Property Maintenance",
    "request_reason": "Property Maintenance",
    "date_created": "2022-08-29T15:55:14.000",
    "date_modified": "2022-08-29T15:55:14.000",
    "request_status": "Pending",
    "responsible_agency": "Department of Code Enforcement",
    "final_address": "826 France St",
    "address_councildis": "C",
    "status": "Pending",
    "rowid": "914502",
    "final_x": "3692128.66659",
    "final_y": "534235.425669",
    "longitude": "-90.0344117547013",
    "latitude": "29.962635163018142",
    "geocoded_column": {
      "latitude": "29.962635163018142",
      "longitude": "-90.0344117547013"
    }
  },
  {
    "service_request": "2022-914501",
    "request_type": "Trash/Recycling",
    "request_reason": "Illegal Dumping",
    "date_created": "2022-08-29T15:54:47.000",
    "date_modified": "2022-08-29T15:54:48.000",
    "request_status": "Pending",
    "responsible_agency": "Department of Sanitation",
    "final_address": "SULLEN PL & STRATFORD PL",
    "address_councildis": "C",
    "status": "Pending",
    "rowid": "914501",
    "final_x": "3707506.4",
    "final_y": "516189.08",
    "longitude": "-89.98652119182015",
    "latitude": "29.912525831551587",
    "geocoded_column": {
      "latitude": "29.912525831551587",
      "longitude": "-89.98652119182015"
    }
  },
  {
    "service_request": "2022-914500",
    "request_type": "Trash/Recycling",
    "request_reason": "Dead Animal Pick Up",
    "date_created": "2022-08-29T15:52:29.000",
    "date_modified": "2022-08-29T15:55:46.000",
    "request_status": "Pending",
    "responsible_agency": "Department of Sanitation",
    "final_address": "1020 Nunez St",
    "address_councildis": "C",
    "status": "Assigned to Contractor",
    "contractor": "Richards Disposal",
    "rowid": "914500",
    "final_x": "3687009.60162",
    "final_y": "527748.141567",
    "longitude": "-90.05080633398104",
    "latitude": "29.944955926179464",
    "geocoded_column": {
      "latitude": "29.944955926179464",
      "longitude": "-90.05080633398104"
    }
  },
  {
    "service_request": "2022-914499",
    "request_type": "Trash/Recycling",
    "request_reason": "Request a Large Item Pick Up",
    "date_created": "2022-08-29T15:51:44.000",
    "date_modified": "2022-08-29T15:51:45.000",
    "request_status": "Pending",
    "responsible_agency": "Department of Sanitation",
    "final_address": "6024 Louis Xiv St",
    "address_councildis": "A",
    "status": "Assigned to Contractor",
    "contractor": "Metro Disposal",
    "rowid": "914499",
    "final_x": "3668003.41338",
    "final_y": "547525.535122",
    "longitude": "-90.110148310983",
    "latitude": "29.99990840062064",
    "geocoded_column": {
      "latitude": "29.99990840062064",
      "longitude": "-90.110148310983"
    }
  },
  {
    "service_request": "2022-914498",
    "request_type": "Trash/Recycling",
    "request_reason": "Missed Trash Pick-Up",
    "date_created": "2022-08-29T15:50:45.000",
    "date_modified": "2022-08-29T15:50:46.000",
    "request_status": "Pending",
    "responsible_agency": "Department of Sanitation",
    "final_address": "5322 Wingate Dr",
    "address_councildis": "D",
    "status": "Assigned to Contractor",
    "contractor": "Metro Disposal",
    "rowid": "914498",
    "final_x": "3681326.02248",
    "final_y": "552688.32911",
    "longitude": "-90.06788148545486",
    "latitude": "30.013706448172407",
    "geocoded_column": {
      "latitude": "30.013706448172407",
      "longitude": "-90.06788148545486"
    }
  },
  {
    "service_request": "2022-914497",
    "request_type": "Property Maintenance",
    "request_reason": "Property Maintenance",
    "date_created": "2022-08-29T15:48:08.000",
    "date_modified": "2022-08-29T15:49:30.000",
    "request_status": "Pending",
    "responsible_agency": "Department of Code Enforcement",
    "final_address": "4673 Read Blvd",
    "address_councildis": "E",
    "status": "Pending",
    "rowid": "914497",
    "final_x": "3712901.97637",
    "final_y": "555844.908697",
    "longitude": "-89.96800001556353",
    "latitude": "30.021389154955834",
    "geocoded_column": {
      "latitude": "30.021389154955834",
      "longitude": "-89.96800001556353"
    }
  },
  {
    "service_request": "2022-914496",
    "request_type": "Roads/Drainage",
    "request_reason": "Pothole",
    "date_created": "2022-08-29T15:46:16.000",
    "date_modified": "2022-08-29T15:46:16.000",
    "request_status": "Pending",
    "responsible_agency": "Department of Public Works",
    "final_address": "1901 Monroe St, New Orleans, Louisiana, 70118",
    "address_councildis": "A",
    "status": "Pending",
    "rowid": "914496",
    "final_x": "3662098.5753",
    "final_y": "531624.230403",
    "longitude": "-90.12932988918026",
    "latitude": "29.956357095686077",
    "geocoded_column": {
      "latitude": "29.956357095686077",
      "longitude": "-90.12932988918026"
    }
  },
  {
    "service_request": "2022-914495",
    "request_type": "Trash/Recycling",
    "request_reason": "Request a Large Item Pick Up",
    "date_created": "2022-08-29T15:43:21.000",
    "date_modified": "2022-08-29T15:43:22.000",
    "request_status": "Pending",
    "responsible_agency": "Department of Sanitation",
    "final_address": "3923 Franklin Ave, New Orleans, Louisiana, 70122",
    "address_councildis": "D",
    "status": "Assigned to Contractor",
    "contractor": "Metro Disposal",
    "rowid": "914495",
    "final_x": "3687111.14671",
    "final_y": "547425.789585",
    "longitude": "-90.04978977905543",
    "latitude": "29.999059438435506",
    "geocoded_column": {
      "latitude": "29.999059438435506",
      "longitude": "-90.04978977905543"
    }
  },
  {
    "service_request": "2022-914494",
    "request_type": "Abandoned Vehicles",
    "request_reason": "Abandoned/Junk Vehicles",
    "date_created": "2022-08-29T15:42:09.000",
    "date_modified": "2022-08-29T15:42:09.000",
    "request_status": "Pending",
    "responsible_agency": "Department of Public Works",
    "final_address": "3351 Thalia St",
    "address_councildis": "B",
    "status": "Pending",
    "rowid": "914494",
    "final_x": "3674042.58356",
    "final_y": "529246.625921",
    "longitude": "-90.09169598065573",
    "latitude": "29.94946897645763",
    "geocoded_column": {
      "latitude": "29.94946897645763",
      "longitude": "-90.09169598065573"
    }
  },
  {
    "service_request": "2022-914493",
    "request_type": "Abandoned Vehicles",
    "request_reason": "Abandoned/Junk Vehicles",
    "date_created": "2022-08-29T15:41:42.000",
    "date_modified": "2022-08-29T15:41:42.000",
    "request_status": "Pending",
    "responsible_agency": "Department of Public Works",
    "final_address": "1569 N Broad St",
    "address_councildis": "D",
    "status": "Pending",
    "rowid": "914493",
    "final_x": "3678972.93378",
    "final_y": "540107.856843",
    "longitude": "-90.07575226898331",
    "latitude": "29.97918584129287",
    "geocoded_column": {
      "latitude": "29.97918584129287",
      "longitude": "-90.07575226898331"
    }
  },
  {
    "service_request": "2022-914492",
    "request_type": "Trash/Recycling",
    "request_reason": "Illegal Dumping",
    "date_created": "2022-08-29T15:36:27.000",
    "date_modified": "2022-08-29T15:36:28.000",
    "request_status": "Pending",
    "responsible_agency": "Department of Sanitation",
    "final_address": "1945 Egania St",
    "address_councildis": "E",
    "status": "Pending",
    "rowid": "914492",
    "final_x": "3697774.47498",
    "final_y": "537374.675656",
    "longitude": "-90.01646922268546",
    "latitude": "29.971089790960654",
    "geocoded_column": {
      "latitude": "29.971089790960654",
      "longitude": "-90.01646922268546"
    }
  },
  {
    "service_request": "2022-914491",
    "request_type": "Abandoned Vehicles",
    "request_reason": "Abandoned/Junk Vehicles",
    "date_created": "2022-08-29T15:33:52.000",
    "date_modified": "2022-08-29T15:35:28.000",
    "request_status": "Pending",
    "responsible_agency": "Department of Public Works",
    "final_address": "700 BLK Elmira Ave",
    "address_councildis": "C",
    "status": "Pending",
    "rowid": "914491",
    "final_x": "3688167.10591",
    "final_y": "528899.583065",
    "longitude": "-90.04711093980478",
    "latitude": "29.948086322400357",
    "geocoded_column": {
      "latitude": "29.948086322400357",
      "longitude": "-90.04711093980478"
    }
  },
  {
    "service_request": "2022-914490",
    "request_type": "Abandoned Vehicles",
    "request_reason": "Abandoned/Junk Vehicles",
    "date_created": "2022-08-29T15:33:35.000",
    "date_modified": "2022-08-29T15:33:35.000",
    "request_status": "Pending",
    "responsible_agency": "Department of Public Works",
    "final_address": "934 Pauline St",
    "address_councildis": "C",
    "status": "Pending",
    "rowid": "914490",
    "final_x": "3691055.14313",
    "final_y": "534956.749958",
    "longitude": "-90.03777603071444",
    "latitude": "29.964651970204645",
    "geocoded_column": {
      "latitude": "29.964651970204645",
      "longitude": "-90.03777603071444"
    }
  },
  {
    "service_request": "2022-914489",
    "request_type": "Trash/Recycling",
    "request_reason": "Replace Trash Cart",
    "date_created": "2022-08-29T15:29:50.000",
    "date_modified": "2022-08-29T15:29:51.000",
    "request_status": "Pending",
    "responsible_agency": "Department of Sanitation",
    "final_address": "3947 Tchoupitoulas St",
    "address_councildis": "B",
    "status": "Assigned to Contractor",
    "contractor": "Richards Disposal",
    "rowid": "914489",
    "final_x": "3673063.49019",
    "final_y": "517699.90623",
    "longitude": "-90.09518137765606",
    "latitude": "29.917748374164916",
    "geocoded_column": {
      "latitude": "29.917748374164916",
      "longitude": "-90.09518137765606"
    }
  },
  {
    "service_request": "2022-914488",
    "request_type": "Abandoned Vehicles",
    "request_reason": "Abandoned/Junk Vehicles",
    "date_created": "2022-08-29T15:28:05.000",
    "date_modified": "2022-08-29T15:30:09.000",
    "request_status": "Pending",
    "responsible_agency": "Department of Public Works",
    "final_address": "8717 Monroe Ct",
    "address_councildis": "A",
    "status": "Pending",
    "rowid": "914488",
    "final_x": "3662072.70714",
    "final_y": "531889.423491",
    "longitude": "-90.12940277417577",
    "latitude": "29.95708703820584",
    "geocoded_column": {
      "latitude": "29.95708703820584",
      "longitude": "-90.12940277417577"
    }
  },
  {
    "service_request": "2022-914487",
    "request_type": "Roads/Drainage",
    "request_reason": "Pothole",
    "date_created": "2022-08-29T15:25:07.000",
    "date_modified": "2022-08-29T15:25:08.000",
    "request_status": "Pending",
    "responsible_agency": "Department of Public Works",
    "final_address": "901 Louisiana Ave",
    "address_councildis": "B",
    "status": "Pending",
    "rowid": "914487",
    "final_x": "3675422.73825",
    "final_y": "519039.790391",
    "longitude": "-90.08768855363991",
    "latitude": "29.921362317040032",
    "geocoded_column": {
      "latitude": "29.921362317040032",
      "longitude": "-90.08768855363991"
    }
  },
  {
    "service_request": "2022-914485",
    "request_type": "Trash/Recycling",
    "request_reason": "Missed Trash Pick-Up",
    "date_created": "2022-08-29T15:12:09.000",
    "date_modified": "2022-08-29T15:12:10.000",
    "request_status": "Pending",
    "responsible_agency": "Department of Sanitation",
    "final_address": "3074 Sullen Pl",
    "address_councildis": "C",
    "status": "Assigned to Contractor",
    "contractor": "Richards Disposal",
    "rowid": "914485",
    "final_x": "3707853.14174",
    "final_y": "519162.005111",
    "longitude": "-89.98531639739093",
    "latitude": "29.92068913125304",
    "geocoded_column": {
      "latitude": "29.92068913125304",
      "longitude": "-89.98531639739093"
    }
  },
  {
    "service_request": "2022-914484",
    "request_type": "Trash/Recycling",
    "request_reason": "Illegal Dumping",
    "date_created": "2022-08-29T15:07:40.000",
    "date_modified": "2022-08-29T15:07:41.000",
    "request_status": "Pending",
    "responsible_agency": "Department of Code Enforcement",
    "final_address": "3319 S Saratoga St",
    "address_councildis": "B",
    "status": "Pending",
    "rowid": "914484",
    "final_x": "3673679.07912",
    "final_y": "523314.161723",
    "longitude": "-90.09304648353091",
    "latitude": "29.933167467191968",
    "geocoded_column": {
      "latitude": "29.933167467191968",
      "longitude": "-90.09304648353091"
    }
  },
  {
    "service_request": "2022-914481",
    "request_type": "Trash/Recycling",
    "request_reason": "Order Trash Cart",
    "date_created": "2022-08-29T14:58:06.000",
    "date_modified": "2022-08-29T14:58:06.000",
    "request_status": "Pending",
    "responsible_agency": "Department of Sanitation",
    "final_address": "7450 Seven Oaks Rd",
    "address_councildis": "E",
    "status": "Assigned to Contractor",
    "contractor": "Metro Disposal",
    "rowid": "914481",
    "final_x": "3712355.66437",
    "final_y": "565476.035682",
    "longitude": "-89.96936394618264",
    "latitude": "30.04788879968247",
    "geocoded_column": {
      "latitude": "30.04788879968247",
      "longitude": "-89.96936394618264"
    }
  },
  {
    "service_request": "2022-914480",
    "request_type": "Trash/Recycling",
    "request_reason": "Illegal Dumping",
    "date_created": "2022-08-29T14:57:16.000",
    "date_modified": "2022-08-29T14:57:17.000",
    "request_status": "Pending",
    "responsible_agency": "Department of Sanitation",
    "final_address": "5535 West End Blvd",
    "address_councildis": "A",
    "status": "Pending",
    "rowid": "914480",
    "final_x": "3666353.20602",
    "final_y": "544582.194959",
    "longitude": "-90.11546023844582",
    "latitude": "29.991863558691673",
    "geocoded_column": {
      "latitude": "29.991863558691673",
      "longitude": "-90.11546023844582"
    }
  },
  {
    "service_request": "2022-914479",
    "request_type": "Trash/Recycling",
    "request_reason": "Request a Large Item Pick Up",
    "date_created": "2022-08-29T14:55:48.000",
    "date_modified": "2022-08-29T14:55:48.000",
    "request_status": "Pending",
    "responsible_agency": "Department of Sanitation",
    "final_address": "3217 Banks St",
    "address_councildis": "B",
    "status": "Assigned to Contractor",
    "contractor": "Richards Disposal",
    "rowid": "914479",
    "final_x": "3673058.28443",
    "final_y": "535418.57095",
    "longitude": "-90.09459318500666",
    "latitude": "29.96646906065243",
    "geocoded_column": {
      "latitude": "29.96646906065243",
      "longitude": "-90.09459318500666"
    }
  },
  {
    "service_request": "2022-914478",
    "request_type": "Trash/Recycling",
    "request_reason": "Request a Large Item Pick Up",
    "date_created": "2022-08-29T14:55:31.000",
    "date_modified": "2022-08-29T14:56:12.000",
    "request_status": "Pending",
    "responsible_agency": "Department of Sanitation",
    "final_address": "5535 West End Blvd",
    "address_councildis": "A",
    "status": "Assigned to Contractor",
    "contractor": "Metro Disposal",
    "rowid": "914478",
    "final_x": "3666353.20602",
    "final_y": "544582.194959",
    "longitude": "-90.11546023844582",
    "latitude": "29.991863558691673",
    "geocoded_column": {
      "latitude": "29.991863558691673",
      "longitude": "-90.11546023844582"
    }
  },
  {
    "service_request": "2022-914477",
    "request_type": "Property Maintenance",
    "request_reason": "Property Maintenance",
    "date_created": "2022-08-29T14:53:30.000",
    "date_modified": "2022-08-29T14:53:30.000",
    "request_status": "Pending",
    "responsible_agency": "Department of Code Enforcement",
    "final_address": "3111 Bacchus Dr",
    "address_councildis": "C",
    "status": "Pending",
    "rowid": "914477",
    "final_x": "3710146.53246",
    "final_y": "518550.646839",
    "longitude": "-89.97810011473715",
    "latitude": "29.918933723969104",
    "geocoded_column": {
      "latitude": "29.918933723969104",
      "longitude": "-89.97810011473715"
    }
  },
  {
    "service_request": "2022-914476",
    "request_type": "Traffic Signals/Signs/Striping/Streetlights",
    "request_reason": "Additional signage",
    "date_created": "2022-08-29T14:52:09.000",
    "date_modified": "2022-08-29T14:52:09.000",
    "request_status": "Pending",
    "responsible_agency": "Department of Public Works",
    "final_address": "CHANTILLY DR & WARFIELD ST",
    "address_councildis": "E",
    "status": "Pending",
    "rowid": "914476",
    "final_x": "3701008.2",
    "final_y": "552821.48",
    "longitude": "-90.00569152792261",
    "latitude": "30.0134601958626",
    "geocoded_column": {
      "latitude": "30.0134601958626",
      "longitude": "-90.00569152792261"
    }
  },
  {
    "service_request": "2022-914475",
    "request_type": "Traffic Signals/Signs/Striping/Streetlights",
    "request_reason": "Street Light Outage/Malfunction",
    "date_created": "2022-08-29T14:47:08.000",
    "date_modified": "2022-08-29T14:47:09.000",
    "request_status": "Pending",
    "responsible_agency": "Department of Public Works",
    "final_address": "4645 Crowder Blvd",
    "address_councildis": "E",
    "status": "Pending",
    "contractor": "Legacy Professional Services",
    "rowid": "914475",
    "final_x": "3706608.49451",
    "final_y": "555126.997145",
    "longitude": "-89.98791215968888",
    "latitude": "30.01961987037333",
    "geocoded_column": {
      "latitude": "30.01961987037333",
      "longitude": "-89.98791215968888"
    }
  },
  {
    "service_request": "2022-914474",
    "request_type": "Trash/Recycling",
    "request_reason": "Order Trash Cart",
    "date_created": "2022-08-29T14:46:26.000",
    "date_modified": "2022-08-29T14:46:27.000",
    "request_status": "Pending",
    "responsible_agency": "Department of Sanitation",
    "final_address": "6818 General Diaz St",
    "address_councildis": "A",
    "status": "Assigned to Contractor",
    "contractor": "Metro Disposal",
    "rowid": "914474",
    "final_x": "3669920.14881",
    "final_y": "552748.90191",
    "longitude": "-90.103916194936",
    "latitude": "30.014214428801974",
    "geocoded_column": {
      "latitude": "30.014214428801974",
      "longitude": "-90.103916194936"
    }
  },
  {
    "service_request": "2022-914473",
    "request_type": "Mosquito, Termite & Rodent Control",
    "request_reason": "Mosquito Complaint",
    "date_created": "2022-08-29T14:38:54.000",
    "date_modified": "2022-08-29T14:38:54.000",
    "request_status": "Pending",
    "responsible_agency": "Mosquito, Termite & Rodent Control Board",
    "final_address": "4351 San Remo St",
    "address_councildis": "E",
    "status": "Pending",
    "rowid": "914473",
    "final_x": "3760526.57974",
    "final_y": "573623.996714",
    "longitude": "-89.81677984866538",
    "latitude": "30.068627338119175",
    "geocoded_column": {
      "latitude": "30.068627338119175",
      "longitude": "-89.81677984866538"
    }
  },
  {
    "service_request": "2022-914472",
    "request_type": "Trash/Recycling",
    "request_reason": "Request a Large Item Pick Up",
    "date_created": "2022-08-29T14:38:15.000",
    "date_modified": "2022-08-29T14:38:16.000",
    "request_status": "Pending",
    "responsible_agency": "Department of Sanitation",
    "final_address": "1225 St Ferdinand St",
    "address_councildis": "C",
    "status": "Assigned to Contractor",
    "contractor": "Metro Disposal",
    "rowid": "914472",
    "final_x": "3687893.47849",
    "final_y": "536861.439048",
    "longitude": "-90.04769283138789",
    "latitude": "29.969987115478734",
    "geocoded_column": {
      "latitude": "29.969987115478734",
      "longitude": "-90.04769283138789"
    }
  },
  {
    "service_request": "2022-914471",
    "request_type": "Trash/Recycling",
    "request_reason": "Illegal Dumping",
    "date_created": "2022-08-29T14:37:48.000",
    "date_modified": "2022-08-29T14:37:48.000",
    "request_status": "Pending",
    "responsible_agency": "Department of Sanitation",
    "final_address": "2524 Valence St",
    "address_councildis": "B",
    "status": "Pending",
    "rowid": "914471",
    "final_x": "3669347.64506",
    "final_y": "524145.718076",
    "longitude": "-90.10669247050184",
    "latitude": "29.93558218659783",
    "geocoded_column": {
      "latitude": "29.93558218659783",
      "longitude": "-90.10669247050184"
    }
  },
  {
    "service_request": "2022-914470",
    "request_type": "Roads/Drainage",
    "request_reason": "Catch Basin - Clogged",
    "date_created": "2022-08-29T14:36:35.000",
    "date_modified": "2022-08-29T14:36:35.000",
    "request_status": "Pending",
    "responsible_agency": "Department of Public Works",
    "final_address": "2127 Burbank Dr Apt A",
    "address_councildis": "D",
    "status": "Pending",
    "rowid": "914470",
    "final_x": "3683016.04783",
    "final_y": "554768.412696",
    "longitude": "-90.0624689949703",
    "latitude": "30.01937448946277",
    "geocoded_column": {
      "latitude": "30.01937448946277",
      "longitude": "-90.0624689949703"
    }
  },
  {
    "service_request": "2022-914469",
    "request_type": "Roads/Drainage",
    "request_reason": "Catch Basin - Clogged",
    "date_created": "2022-08-29T14:36:00.000",
    "date_modified": "2022-08-29T14:36:00.000",
    "request_status": "Pending",
    "responsible_agency": "Department of Public Works",
    "final_address": "2127 Burbank Dr Apt A",
    "address_councildis": "D",
    "status": "Pending",
    "rowid": "914469",
    "final_x": "3683016.04783",
    "final_y": "554768.412696",
    "longitude": "-90.0624689949703",
    "latitude": "30.01937448946277",
    "geocoded_column": {
      "latitude": "30.01937448946277",
      "longitude": "-90.0624689949703"
    }
  },
  {
    "service_request": "2022-914467",
    "request_type": "Trash/Recycling",
    "request_reason": "MIssed Recycling Pick-Up",
    "date_created": "2022-08-29T14:32:59.000",
    "date_modified": "2022-08-29T14:32:59.000",
    "request_status": "Pending",
    "responsible_agency": "Department of Sanitation",
    "final_address": "2833 S Liberty St",
    "address_councildis": "B",
    "status": "Assigned to Contractor",
    "contractor": "Richards Disposal",
    "rowid": "914467",
    "final_x": "3674286.65134",
    "final_y": "524479.15078",
    "longitude": "-90.09108854333479",
    "latitude": "29.936352710840243",
    "geocoded_column": {
      "latitude": "29.936352710840243",
      "longitude": "-90.09108854333479"
    }
  },
  {
    "service_request": "2022-914466",
    "request_type": "Roads/Drainage",
    "request_reason": "Street Subsidence (Sinking)",
    "date_created": "2022-08-29T14:32:58.000",
    "date_modified": "2022-08-29T14:32:58.000",
    "request_status": "Pending",
    "responsible_agency": "Department of Public Works",
    "final_address": "11031 Lake Forest Blvd",
    "address_councildis": "E",
    "status": "Pending",
    "rowid": "914466",
    "final_x": "3714486.70379",
    "final_y": "560634.310174",
    "longitude": "-89.96281176164841",
    "latitude": "30.03450608747222",
    "geocoded_column": {
      "latitude": "30.03450608747222",
      "longitude": "-89.96281176164841"
    }
  },
  {
    "service_request": "2022-914465",
    "request_type": "Parks & Parkways",
    "request_reason": "Request Tree Service (Right of Way/Public Property)",
    "date_created": "2022-08-29T14:29:48.000",
    "date_modified": "2022-08-29T14:30:39.000",
    "request_status": "Pending",
    "responsible_agency": "Department of Parks & Parkway",
    "final_address": "2157 Carnot St",
    "address_councildis": "D",
    "status": "Pending",
    "rowid": "914465",
    "final_x": "3683658.27983",
    "final_y": "549959.296852",
    "longitude": "-90.06060853948743",
    "latitude": "30.006131570990934",
    "geocoded_column": {
      "latitude": "30.006131570990934",
      "longitude": "-90.06060853948743"
    }
  },
  {
    "service_request": "2022-914464",
    "request_type": "Trash/Recycling",
    "request_reason": "Missed Trash Pick-Up",
    "date_created": "2022-08-29T14:27:23.000",
    "date_modified": "2022-08-29T14:27:23.000",
    "request_status": "Pending",
    "responsible_agency": "Department of Sanitation",
    "final_address": "2636 Dublin St",
    "address_councildis": "A",
    "status": "Assigned to Contractor",
    "contractor": "Richards Disposal",
    "rowid": "914464",
    "final_x": "3665274.8329",
    "final_y": "532587.138628",
    "longitude": "-90.11926806749284",
    "latitude": "29.95891262689653",
    "geocoded_column": {
      "latitude": "29.95891262689653",
      "longitude": "-90.11926806749284"
    }
  },
  {
    "service_request": "2022-914463",
    "request_type": "Safety & Permits",
    "request_reason": "Licenses & Permits",
    "date_created": "2022-08-29T14:24:54.000",
    "date_modified": "2022-08-29T14:24:54.000",
    "request_status": "Pending",
    "responsible_agency": "Safety and Permits",
    "final_address": "200 Broadway St",
    "address_councildis": "A",
    "status": "Pending",
    "rowid": "914463",
    "final_x": "3661133.6896",
    "final_y": "522411.540538",
    "longitude": "-90.13268151557148",
    "latitude": "29.931052971193296",
    "geocoded_column": {
      "latitude": "29.931052971193296",
      "longitude": "-90.13268151557148"
    }
  },
  {
    "service_request": "2022-914462",
    "request_type": "Abandoned Vehicles",
    "request_reason": "Abandoned/Junk Vehicles",
    "date_created": "2022-08-29T14:24:28.000",
    "date_modified": "2022-08-29T14:24:28.000",
    "request_status": "Pending",
    "responsible_agency": "Department of Public Works",
    "final_address": "2424 Short St",
    "address_councildis": "A",
    "status": "Pending",
    "rowid": "914462",
    "final_x": "3665330.73709",
    "final_y": "531454.212291",
    "longitude": "-90.11912944484438",
    "latitude": "29.955795820590712",
    "geocoded_column": {
      "latitude": "29.955795820590712",
      "longitude": "-90.11912944484438"
    }
  },