[
  {
    "service_request": "2025-1225154",
    "request_type": "Trash/Recycling",
    "request_reason": "Request a Large Item Pick Up",
    "date_created": "2025-09-09T23:57:29.000",
    "date_modified": "2025-09-09T23:57:31.000",
    "request_status": "Pending",
    "responsible_agency": "Department of Sanitation",
    "final_address": "6746 Deanne St",
    "address_councildis": "D",
    "status": "Assigned to Contractor",
    "contractor": "Waste Pro",
    "rowid": "1225154",
    "final_x": "3695858.9343",
    "final_y": "555542.895705",
    "longitude": "-90.02186200943933",
    "latitude": "30.021106109156342",
    "geocoded_column": {
      "latitude": "30.021106109156342",
      "longitude": "-90.02186200943933"
    }
  },
  {
    "service_request": "2025-1225153",
    "request_type": "Parks & Parkways",
    "request_reason": "Request Grass Cutting Service (City Owned Property)",
    "date_created": "2025-09-09T22:57:53.000",
    "date_modified": "2025-09-09T22:57:56.000",
    "request_status": "Pending",
    "responsible_agency": "Department of Parks & Parkway",
    "final_address": "9000 Palmetto St",
    "address_councildis": "A",
    "status": "Pending",
    "rowid": "1225153",
    "final_x": "3665519.4752",
    "final_y": "537400.062856",
    "longitude": "-90.11833439246129",
    "latitude": "29.97213945127435",
    "geocoded_column": {
      "latitude": "29.97213945127435",
      "longitude": "-90.11833439246129"
    }
  },
  {
    "service_request": "2025-1225152",
    "request_type": "Trash/Recycling",
    "request_reason": "Request a Large Item Pick Up",
    "date_created": "2025-09-09T22:37:26.000",
    "date_modified": "2025-09-09T22:37:28.000",
    "request_status": "Pending",
    "responsible_agency": "Department of Sanitation",
    "final_address": "4842 Gabriel Dr",
    "address_councildis": "E",
    "status": "Assigned to Contractor",
    "contractor": "Waste Pro",
    "rowid": "1225152",
    "final_x": "3708759.61144",
    "final_y": "556382.21609",
    "longitude": "-89.98106859726059",
    "latitude": "30.023001607871134",
    "geocoded_column": {
      "latitude": "30.023001607871134",
      "longitude": "-89.98106859726059"
    }
  },
  {
    "service_request": "2025-1225151",
    "request_type": "Trash/Recycling",
    "request_reason": "Replace Trash Cart",
    "date_created": "2025-09-09T22:25:50.000",
    "date_modified": "2025-09-09T22:25:54.000",
    "request_status": "Pending",
    "responsible_agency": "Department of Sanitation",
    "final_address": "1722 Dublin St",
    "address_councildis": "A",
    "status": "Assigned to Contractor",
    "contractor": "IV Waste",
    "rowid": "1225151",
    "final_x": "3662985.82951",
    "final_y": "530081.946753",
    "longitude": "-90.12657951140606",
    "latitude": "29.952090649777386",
    "geocoded_column": {
      "latitude": "29.952090649777386",
      "longitude": "-90.12657951140606"
    }
  },
  {
    "service_request": "2025-1225150",
    "request_type": "Property Maintenance",
    "request_reason": "Property Maintenance",
    "date_created": "2025-09-09T21:28:46.000",
    "date_modified": "2025-09-09T21:28:48.000",
    "request_status": "Pending",
    "responsible_agency": "Department of Code Enforcement",
    "final_address": "7730 Green St",
    "address_councildis": "A",
    "status": "Pending",
    "rowid": "1225150",
    "final_x": "3664034.8649",
    "final_y": "528804.985344",
    "longitude": "-90.12330971253472",
    "latitude": "29.948548998018904",
    "geocoded_column": {
      "latitude": "29.948548998018904",
      "longitude": "-90.12330971253472"
    }
  },
  {
    "service_request": "2025-1225149",
    "request_type": "Safety & Permits",
    "request_reason": "Licenses & Permits",
    "date_created": "2025-09-09T21:24:46.000",
    "date_modified": "2025-09-09T21:24:50.000",
    "request_status": "Pending",
    "responsible_agency": "Safety and Permits",
    "final_address": "7730 Green St",
    "address_councildis": "A",
    "status": "Pending",
    "rowid": "1225149",
    "final_x": "3664034.8649",
    "final_y": "528804.985344",
    "longitude": "-90.12330971253472",
    "latitude": "29.948548998018904",
    "geocoded_column": {
      "latitude": "29.948548998018904",
      "longitude": "-90.12330971253472"
    }
  },
  {
    "service_request": "2025-1225148",
    "request_type": "Trash/Recycling",
    "request_reason": "Return Trash Cart",
    "date_created": "2025-09-09T20:59:30.000",
    "date_modified": "2025-09-09T20:59:32.000",
    "request_status": "Pending",
    "responsible_agency": "Department of Sanitation",
    "final_address": "717 Evelina St",
    "address_councildis": "C",
    "status": "Assigned to Contractor",
    "contractor": "Richards Disposal",
    "rowid": "1225148",
    "final_x": "3687668.62953",
    "final_y": "529460.512641",
    "longitude": "-90.04866497116821",
    "latitude": "29.94964406327142",
    "geocoded_column": {
      "latitude": "29.94964406327142",
      "longitude": "-90.04866497116821"
    }
  },
  {
    "service_request": "2025-1225147",
    "request_type": "Property Maintenance",
    "request_reason": "Property Maintenance",
    "date_created": "2025-09-09T20:54:48.000",
    "date_modified": "2025-09-09T20:54:51.000",
    "request_status": "Pending",
    "responsible_agency": "Department of Code Enforcement",
    "final_address": "6900 Martin Dr",
    "address_councildis": "E",
    "status": "Pending",
    "rowid": "1225147",
    "final_x": "3699050.20208",
    "final_y": "557776.318043",
    "longitude": "-90.01169717120273",
    "latitude": "30.027146348453442",
    "geocoded_column": {
      "latitude": "30.027146348453442",
      "longitude": "-90.01169717120273"
    }
  },
  {
    "service_request": "2025-1225146",
    "request_type": "Graffiti Removal",
    "request_reason": "Graffiti Removal",
    "date_created": "2025-09-09T20:48:07.000",
    "date_modified": "2025-09-09T20:48:10.000",
    "request_status": "Pending",
    "responsible_agency": "Department of Code Enforcement",
    "final_address": "1171 Annunciation St",
    "address_councildis": "B",
    "status": "Pending",
    "rowid": "1225146",
    "final_x": "3681385.62255",
    "final_y": "525519.154429",
    "longitude": "-90.06864062349281",
    "latitude": "29.938998845219917",
    "geocoded_column": {
      "latitude": "29.938998845219917",
      "longitude": "-90.06864062349281"
    }
  },
  {
    "service_request": "2025-1225145",
    "request_type": "Mosquito, Termite & Rodent Control",
    "request_reason": "Rodent Complaint (Mice & Rats)",
    "date_created": "2025-09-09T20:39:01.000",
    "date_modified": "2025-09-09T20:39:02.000",
    "request_status": "Pending",
    "responsible_agency": "Mosquito, Termite & Rodent Control Board",
    "final_address": "2831 Baronne St",
    "address_councildis": "B",
    "status": "Pending",
    "rowid": "1225145",
    "final_x": "3675267.97032",
    "final_y": "523023.602555",
    "longitude": "-90.0880404225184",
    "latitude": "29.93232113798806",
    "geocoded_column": {
      "latitude": "29.93232113798806",
      "longitude": "-90.0880404225184"
    }
  },
  {
    "service_request": "2025-1225144",
    "request_type": "Trash/Recycling",
    "request_reason": "Request a Large Item Pick Up",
    "date_created": "2025-09-09T20:38:54.000",
    "date_modified": "2025-09-09T20:38:56.000",
    "request_status": "Pending",
    "responsible_agency": "Department of Sanitation",
    "final_address": "1501 Allen Toussaint Blvd",
    "address_councildis": "D",
    "status": "Assigned to Contractor",
    "contractor": "IV Waste",
    "rowid": "1225144",
    "final_x": "3678318.7348",
    "final_y": "555441.167705",
    "longitude": "-90.077287621092",
    "latitude": "30.021366736680008",
    "geocoded_column": {
      "latitude": "30.021366736680008",
      "longitude": "-90.077287621092"
    }
  },
  {
    "service_request": "2025-1225143",
    "request_type": "Trash/Recycling",
    "request_reason": "Order Trash Cart",
    "date_created": "2025-09-09T20:35:56.000",
    "date_modified": "2025-09-09T20:35:58.000",
    "request_status": "Pending",
    "responsible_agency": "Department of Sanitation",
    "final_address": "2723 N Roman St",
    "address_councildis": "D",
    "status": "Assigned to Contractor",
    "contractor": "IV Waste",
    "rowid": "1225143",
    "final_x": "3688301.57615",
    "final_y": "538996.941642",
    "longitude": "-90.04632827258423",
    "latitude": "29.97584640005778",
    "geocoded_column": {
      "latitude": "29.97584640005778",
      "longitude": "-90.04632827258423"
    }
  },
  {
    "service_request": "2025-1225142",
    "request_type": "Trash/Recycling",
    "request_reason": "Request a Large Item Pick Up",
    "date_created": "2025-09-09T20:19:29.000",
    "date_modified": "2025-09-09T20:19:32.000",
    "request_status": "Pending",
    "responsible_agency": "Department of Sanitation",
    "final_address": "4600 De Montluzin St",
    "address_councildis": "D",
    "status": "Assigned to Contractor",
    "contractor": "IV Waste",
    "rowid": "1225142",
    "final_x": "3687178.00022",
    "final_y": "549721.999764",
    "longitude": "-90.04949731457698",
    "latitude": "30.005371124288935",
    "geocoded_column": {
      "latitude": "30.005371124288935",
      "longitude": "-90.04949731457698"
    }
  },
  {
    "service_request": "2025-1225141",
    "request_type": "Roads and Streets",
    "request_reason": "Pothole",
    "date_created": "2025-09-09T20:19:21.000",
    "date_modified": "2025-09-09T20:19:23.000",
    "request_status": "Pending",
    "responsible_agency": "Department of Public Works",
    "final_address": "2218 Brainard St",
    "address_councildis": "B",
    "status": "Pending",
    "rowid": "1225141",
    "final_x": "3677084.93806",
    "final_y": "524077.704764",
    "longitude": "-90.0822680881199",
    "latitude": "29.935165152086007",
    "geocoded_column": {
      "latitude": "29.935165152086007",
      "longitude": "-90.0822680881199"
    }
  },
  {
    "service_request": "2025-1225140",
    "request_type": "Trash/Recycling",
    "request_reason": "Replace Trash Cart",
    "date_created": "2025-09-09T20:16:16.000",
    "date_modified": "2025-09-09T20:16:18.000",
    "request_status": "Pending",
    "responsible_agency": "Department of Sanitation",
    "final_address": "2218 Brainard St",
    "address_councildis": "B",
    "status": "Assigned to Contractor",
    "contractor": "IV Waste",
    "rowid": "1225140",
    "final_x": "3677084.93806",
    "final_y": "524077.704764",
    "longitude": "-90.0822680881199",
    "latitude": "29.935165152086007",
    "geocoded_column": {
      "latitude": "29.935165152086007",
      "longitude": "-90.0822680881199"
    }
  },
  {
    "service_request": "2025-1225139",
    "request_type": "Trash/Recycling",
    "request_reason": "Request a Large Item Pick Up",
    "date_created": "2025-09-09T19:57:38.000",
    "date_modified": "2025-09-09T19:57:40.000",
    "request_status": "Pending",
    "responsible_agency": "Department of Sanitation",
    "final_address": "7501 Jonlee Dr",
    "address_councildis": "E",
    "status": "Assigned to Contractor",
    "contractor": "Waste Pro",
    "rowid": "1225139",
    "final_x": "3717604.06962",
    "final_y": "569965.811366",
    "longitude": "-89.952605226929",
    "latitude": "30.060061003473713",
    "geocoded_column": {
      "latitude": "30.060061003473713",
      "longitude": "-89.952605226929"
    }
  },
  {
    "service_request": "2025-1225138",
    "request_type": "General Services",
    "request_reason": "General Service Request",
    "date_created": "2025-09-09T19:17:31.000",
    "date_modified": "2025-09-09T19:17:33.000",
    "request_status": "Pending",
    "responsible_agency": "Orleans Parish Communication District",
    "final_address": "4918 Haik Dr",
    "address_councildis": "D",
    "status": "Pending",
    "rowid": "1225138",
    "final_x": "3681923.22946",
    "final_y": "550797.418837",
    "longitude": "-90.06606069612111",
    "latitude": "30.008488980809023",
    "geocoded_column": {
      "latitude": "30.008488980809023",
      "longitude": "-90.06606069612111"
    }
  },
  {
    "service_request": "2025-1225137",
    "request_type": "General Services",
    "request_reason": "General Service Request",
    "date_created": "2025-09-09T19:15:57.000",
    "date_modified": "2025-09-09T19:15:58.000",
    "request_status": "Pending",
    "responsible_agency": "Orleans Parish Communication District",
    "final_address": "5002 Constance St",
    "address_councildis": "B",
    "status": "Pending",
    "rowid": "1225137",
    "final_x": "3668555.57678",
    "final_y": "518176.730294",
    "longitude": "-90.10939433153351",
    "latitude": "29.91919265967972",
    "geocoded_column": {
      "latitude": "29.91919265967972",
      "longitude": "-90.10939433153351"
    }
  },
  {
    "service_request": "2025-1225136",
    "request_type": "Trash/Recycling",
    "request_reason": "Request a Large Item Pick Up",
    "date_created": "2025-09-09T19:10:51.000",
    "date_modified": "2025-09-09T19:10:57.000",
    "request_status": "Pending",
    "responsible_agency": "Department of Sanitation",
    "final_address": "90 Yellowstone Dr",
    "address_councildis": "C",
    "status": "Assigned to Contractor",
    "contractor": "Richards Disposal",
    "rowid": "1225136",
    "final_x": "3700612.61284",
    "final_y": "515746.925812",
    "longitude": "-90.00829591405584",
    "latitude": "29.911531061182938",
    "geocoded_column": {
      "latitude": "29.911531061182938",
      "longitude": "-90.00829591405584"
    }
  },
  {
    "service_request": "2025-1225135",
    "request_type": "Roads and Streets",
    "request_reason": "Road Shoulder Damage",
    "date_created": "2025-09-09T19:02:37.000",
    "date_modified": "2025-09-09T19:02:38.000",
    "request_status": "Pending",
    "responsible_agency": "Department of Public Works",
    "final_address": "6600 Orleans Ave",
    "address_councildis": "A",
    "status": "Pending",
    "rowid": "1225135",
    "final_x": "3671160.53102",
    "final_y": "551201.491157",
    "longitude": "-90.10004982066505",
    "latitude": "30.009922944266012",
    "geocoded_column": {
      "latitude": "30.009922944266012",
      "longitude": "-90.10004982066505"
    }
  },
  {
    "service_request": "2025-1225134",
    "request_type": "Abandoned Vehicles",
    "request_reason": "Abandoned/Junk Vehicles",
    "date_created": "2025-09-09T19:01:35.000",
    "date_modified": "2025-09-09T19:01:37.000",
    "request_status": "Pending",
    "responsible_agency": "Department of Public Works",
    "final_address": "PANOLA ST & S CARROLLTON AVE",
    "address_councildis": "A",
    "status": "Pending",
    "rowid": "1225134",
    "final_x": "3664113.5",
    "final_y": "530688.58",
    "longitude": "-90.12299860681755",
    "latitude": "29.953725991014394",
    "geocoded_column": {
      "latitude": "29.953725991014394",
      "longitude": "-90.12299860681755"
    }
  },
  {
    "service_request": "2025-1225133",
    "request_type": "Trash/Recycling",
    "request_reason": "Replace Trash Cart",
    "date_created": "2025-09-09T19:01:22.000",
    "date_modified": "2025-09-09T19:01:23.000",
    "request_status": "Pending",
    "responsible_agency": "Department of Sanitation",
    "final_address": "4015 Banks St",
    "address_councildis": "A",
    "status": "Assigned to Contractor",
    "contractor": "IV Waste",
    "rowid": "1225133",
    "final_x": "3670686.00852",
    "final_y": "537232.649352",
    "longitude": "-90.1020232592935",
    "latitude": "29.971527472602105",
    "geocoded_column": {
      "latitude": "29.971527472602105",
      "longitude": "-90.1020232592935"
    }
  },
  {
    "service_request": "2025-1225132",
    "request_type": "Abandoned Vehicles",
    "request_reason": "Abandoned/Junk Vehicles",
    "date_created": "2025-09-09T18:59:31.000",
    "date_modified": "2025-09-09T18:59:34.000",
    "request_status": "Pending",
    "responsible_agency": "Department of Public Works",
    "final_address": "2132 S Gayoso St",
    "address_councildis": "B",
    "status": "Pending",
    "rowid": "1225132",
    "final_x": "3669648.42689",
    "final_y": "528863.475584",
    "longitude": "-90.10558330948386",
    "latitude": "29.948545632881203",
    "geocoded_column": {
      "latitude": "29.948545632881203",
      "longitude": "-90.10558330948386"
    }
  },
  {
    "service_request": "2025-1225131",
    "request_type": "Street and Traffic Signs",
    "request_reason": "One Way Sign Missing or Damaged",
    "date_created": "2025-09-09T18:54:50.000",
    "date_modified": "2025-09-09T18:54:51.000",
    "request_status": "Pending",
    "responsible_agency": "Department of Public Works",
    "final_address": "N DERBIGNY ST & MANDEVILLE ST",
    "address_councildis": "D",
    "status": "Pending",
    "rowid": "1225131",
    "final_x": "3685603.2",
    "final_y": "538573.88",
    "longitude": "-90.05486540208896",
    "latitude": "29.974766189552444",
    "geocoded_column": {
      "latitude": "29.974766189552444",
      "longitude": "-90.05486540208896"
    }
  },
  {
    "service_request": "2025-1225130",
    "request_type": "Street and Traffic Signs",
    "request_reason": "Street Name Sign Damaged or Missing",
    "date_created": "2025-09-09T18:53:57.000",
    "date_modified": "2025-09-09T18:53:59.000",
    "request_status": "Pending",
    "responsible_agency": "Department of Public Works",
    "final_address": "N DERBIGNY ST & MANDEVILLE ST",
    "address_councildis": "D",
    "status": "Pending",
    "rowid": "1225130",
    "final_x": "3685603.2",
    "final_y": "538573.88",
    "longitude": "-90.05486540208896",
    "latitude": "29.974766189552444",
    "geocoded_column": {
      "latitude": "29.974766189552444",
      "longitude": "-90.05486540208896"
    }
  },
  {
    "service_request": "2025-1225129",
    "request_type": "Property Maintenance",
    "request_reason": "Property Maintenance",
    "date_created": "2025-09-09T18:53:36.000",
    "date_modified": "2025-09-09T18:53:38.000",
    "request_status": "Pending",
    "responsible_agency": "Department of Code Enforcement",
    "final_address": "4616 Touro St",
    "address_councildis": "D",
    "status": "Pending",
    "rowid": "1225129",
    "final_x": "3683110.70613",
    "final_y": "549642.123476",
    "longitude": "-90.06234957039581",
    "latitude": "30.00527617082744",
    "geocoded_column": {
      "latitude": "30.00527617082744",
      "longitude": "-90.06234957039581"
    }
  },
  {
    "service_request": "2025-1225128",
    "request_type": "Property Maintenance",
    "request_reason": "Property Maintenance",
    "date_created": "2025-09-09T18:47:03.000",
    "date_modified": "2025-09-09T18:47:05.000",
    "request_status": "Pending",
    "responsible_agency": "Department of Code Enforcement",
    "final_address": "4616 Touro St",
    "address_councildis": "D",
    "status": "Pending",
    "rowid": "1225128",
    "final_x": "3683110.70613",
    "final_y": "549642.123476",
    "longitude": "-90.06234957039581",
    "latitude": "30.00527617082744",
    "geocoded_column": {
      "latitude": "30.00527617082744",
      "longitude": "-90.06234957039581"
    }
  },
  {
    "service_request": "2025-1225127",
    "request_type": "Trash/Recycling",
    "request_reason": "Return Recycling Cart",
    "date_created": "2025-09-09T18:28:39.000",
    "date_modified": "2025-09-09T18:28:41.000",
    "request_status": "Pending",
    "responsible_agency": "Department of Sanitation",
    "final_address": "2321 Oriole St",
    "address_councildis": "D",
    "status": "Pending",
    "rowid": "1225127",
    "final_x": "3684219.23401",
    "final_y": "558179.372955",
    "longitude": "-90.05854743563843",
    "latitude": "30.028716621582188",
    "geocoded_column": {
      "latitude": "30.028716621582188",
      "longitude": "-90.05854743563843"
    }
  },
  {
    "service_request": "2025-1225125",
    "request_type": "Streetlights",
    "request_reason": "New Streetlight Request",
    "date_created": "2025-09-09T18:07:10.000",
    "date_modified": "2025-09-09T18:07:12.000",
    "request_status": "Pending",
    "responsible_agency": "Department of Public Works",
    "final_address": "1626 Tricou St",
    "address_councildis": "E",
    "status": "Pending",
    "rowid": "1225125",
    "final_x": "3700887.35933",
    "final_y": "535044.464326",
    "longitude": "-90.00672358567464",
    "latitude": "29.96458381381023",
    "geocoded_column": {
      "latitude": "29.96458381381023",
      "longitude": "-90.00672358567464"
    }
  },
  {
    "service_request": "2025-1225124",
    "request_type": "Abandoned Vehicles",
    "request_reason": "Abandoned/Junk Vehicles",
    "date_created": "2025-09-09T18:04:29.000",
    "date_modified": "2025-09-09T18:04:30.000",
    "request_status": "Pending",
    "responsible_agency": "Department of Public Works",
    "final_address": "2723 Dante St",
    "address_councildis": "A",
    "status": "Pending",
    "rowid": "1225124",
    "final_x": "3665250.47149",
    "final_y": "533009.480708",
    "longitude": "-90.11933086514672",
    "latitude": "29.96007463910378",
    "geocoded_column": {
      "latitude": "29.96007463910378",
      "longitude": "-90.11933086514672"
    }
  },
  {
    "service_request": "2025-1225123",
    "request_type": "Trash/Recycling",
    "request_reason": "Missed Trash Pick-Up",
    "date_created": "2025-09-09T18:00:53.000",
    "date_modified": "2025-09-09T18:00:55.000",
    "request_status": "Pending",
    "responsible_agency": "Department of Sanitation",
    "final_address": "938 Delery St",
    "address_councildis": "E",
    "status": "Assigned to Contractor",
    "contractor": "Waste Pro",
    "rowid": "1225123",
    "final_x": "3700202.3617",
    "final_y": "532495.62394",
    "longitude": "-90.00897977456329",
    "latitude": "29.957597202075252",
    "geocoded_column": {
      "latitude": "29.957597202075252",
      "longitude": "-90.00897977456329"
    }
  },
  {
    "service_request": "2025-1225122",
    "request_type": "Property Maintenance",
    "request_reason": "Property Maintenance",
    "date_created": "2025-09-09T17:59:15.000",
    "date_modified": "2025-09-09T17:59:18.000",
    "request_status": "Pending",
    "responsible_agency": "Department of Code Enforcement",
    "final_address": "258 Hillary St",
    "address_councildis": "A",
    "status": "Pending",
    "rowid": "1225122",
    "final_x": "3661077.29453",
    "final_y": "524783.995964",
    "longitude": "-90.13278107673736",
    "latitude": "29.937578102197023",
    "geocoded_column": {
      "latitude": "29.937578102197023",
      "longitude": "-90.13278107673736"
    }
  },
  {
    "service_request": "2025-1225121",
    "request_type": "Trash/Recycling",
    "request_reason": "Request a Large Item Pick Up",
    "date_created": "2025-09-09T17:55:11.000",
    "date_modified": "2025-09-09T17:55:13.000",
    "request_status": "Pending",
    "responsible_agency": "Department of Sanitation",
    "final_address": "12540 N Lake Carmel Dr",
    "address_councildis": "E",
    "status": "Assigned to Contractor",
    "contractor": "Waste Pro",
    "rowid": "1225121",
    "final_x": "3715844.74936",
    "final_y": "567899.210341",
    "longitude": "-89.9582446825664",
    "latitude": "30.05443687644844",
    "geocoded_column": {
      "latitude": "30.05443687644844",
      "longitude": "-89.9582446825664"
    }
  },
  {
    "service_request": "2025-1225120",
    "request_type": "Trash/Recycling",
    "request_reason": "Request a Large Item Pick Up",
    "date_created": "2025-09-09T17:35:33.000",
    "date_modified": "2025-09-09T17:35:35.000",
    "request_status": "Pending",
    "responsible_agency": "Department of Sanitation",
    "final_address": "7741 Shubert St",
    "address_councildis": "E",
    "status": "Assigned to Contractor",
    "contractor": "Waste Pro",
    "rowid": "1225120",
    "final_x": "3695651.64963",
    "final_y": "559268.75126",
    "longitude": "-90.02238227689813",
    "latitude": "30.031357316537708",
    "geocoded_column": {
      "latitude": "30.031357316537708",
      "longitude": "-90.02238227689813"
    }
  },
  {
    "service_request": "2025-1225119",
    "request_type": "Trash/Recycling",
    "request_reason": "Replace Trash Cart",
    "date_created": "2025-09-09T17:19:17.000",
    "date_modified": "2025-09-09T17:19:19.000",
    "request_status": "Pending",
    "responsible_agency": "Department of Sanitation",
    "final_address": "4618 Bienville Ave",
    "address_councildis": "A",
    "status": "Assigned to Contractor",
    "contractor": "IV Waste",
    "rowid": "1225119",
    "final_x": "3669730.85818",
    "final_y": "540291.021067",
    "longitude": "-90.10493622618948",
    "latitude": "29.979965151006738",
    "geocoded_column": {
      "latitude": "29.979965151006738",
      "longitude": "-90.10493622618948"
    }
  },
  {
    "service_request": "2025-1225118",
    "request_type": "Trash/Recycling",
    "request_reason": "Missed Trash Pick-Up",
    "date_created": "2025-09-09T17:15:13.000",
    "date_modified": "2025-09-09T17:15:14.000",
    "request_status": "Pending",
    "responsible_agency": "Department of Sanitation",
    "final_address": "7620 Wave Dr",
    "address_councildis": "E",
    "status": "Assigned to Contractor",
    "contractor": "Waste Pro",
    "rowid": "1225118",
    "final_x": "3714932.26559",
    "final_y": "568693.384869",
    "longitude": "-89.96109874297412",
    "latitude": "30.056650607995163",
    "geocoded_column": {
      "latitude": "30.056650607995163",
      "longitude": "-89.96109874297412"
    }
  },
  {
    "service_request": "2025-1225117",
    "request_type": "Parks & Parkways",
    "request_reason": "Request Tree Service (Right of Way/Public Property)",
    "date_created": "2025-09-09T17:14:32.000",
    "date_modified": "2025-09-09T17:14:34.000",
    "request_status": "Pending",
    "responsible_agency": "Department of Parks & Parkway",
    "final_address": "1458 Riviera Ave",
    "address_councildis": "D",
    "status": "Pending",
    "rowid": "1225117",
    "final_x": "3678022.46901",
    "final_y": "550792.327317",
    "longitude": "-90.07838461773507",
    "latitude": "30.00859302779604",
    "geocoded_column": {
      "latitude": "30.00859302779604",
      "longitude": "-90.07838461773507"
    }
  },
  {
    "service_request": "2025-1225116",
    "request_type": "Property Maintenance",
    "request_reason": "Property Maintenance",
    "date_created": "2025-09-09T16:58:10.000",
    "date_modified": "2025-09-09T16:58:12.000",
    "request_status": "Pending",
    "responsible_agency": "Department of Code Enforcement",
    "final_address": "2326 St Philip St",
    "address_councildis": "D",
    "status": "Pending",
    "rowid": "1225116",
    "final_x": "3678563.84904",
    "final_y": "536915.314056",
    "longitude": "-90.07715486085894",
    "latitude": "29.970419786481706",
    "geocoded_column": {
      "latitude": "29.970419786481706",
      "longitude": "-90.07715486085894"
    }
  },
  {
    "service_request": "2025-1225115",
    "request_type": "Property Maintenance",
    "request_reason": "Property Maintenance",
    "date_created": "2025-09-09T16:57:42.000",
    "date_modified": "2025-09-09T16:57:43.000",
    "request_status": "Pending",
    "responsible_agency": "Department of Code Enforcement",
    "final_address": "5519 Spain St",
    "address_councildis": "D",
    "status": "Pending",
    "rowid": "1225115",
    "final_x": "3684826.04847",
    "final_y": "553297.613463",
    "longitude": "-90.05680178652828",
    "latitude": "30.015275008704933",
    "geocoded_column": {
      "latitude": "30.015275008704933",
      "longitude": "-90.05680178652828"
    }
  },
  {
    "service_request": "2025-1225114",
    "request_type": "Trash/Recycling",
    "request_reason": "Order Recycling Cart",
    "date_created": "2025-09-09T16:51:48.000",
    "date_modified": "2025-09-09T16:51:49.000",
    "request_status": "Pending",
    "responsible_agency": "Department of Sanitation",
    "final_address": "420 37Th St",
    "address_councildis": "A",
    "status": "Pending",
    "rowid": "1225114",
    "final_x": "3664791.17575",
    "final_y": "552335.183382",
    "longitude": "-90.12013508923175",
    "latitude": "30.01322716495783",
    "geocoded_column": {
      "latitude": "30.01322716495783",
      "longitude": "-90.12013508923175"
    }
  },
  {
    "service_request": "2025-1225113",
    "request_type": "Parks & Parkways",
    "request_reason": "Request Tree Service (Right of Way/Public Property)",
    "date_created": "2025-09-09T16:51:30.000",
    "date_modified": "2025-09-09T16:51:32.000",
    "request_status": "Pending",
    "responsible_agency": "Department of Parks & Parkway",
    "final_address": "7936 Zimple St",
    "address_councildis": "A",
    "status": "Pending",
    "rowid": "1225113",
    "final_x": "3662075.71693",
    "final_y": "527746.787007",
    "longitude": "-90.12953069909054",
    "latitude": "29.945696033446776",
    "geocoded_column": {
      "latitude": "29.945696033446776",
      "longitude": "-90.12953069909054"
    }
  },
  {
    "service_request": "2025-1225112",
    "request_type": "Trash/Recycling",
    "request_reason": "Order Trash Cart",
    "date_created": "2025-09-09T16:51:26.000",
    "date_modified": "2025-09-09T16:51:27.000",
    "request_status": "Pending",
    "responsible_agency": "Department of Sanitation",
    "final_address": "420 37Th St",
    "address_councildis": "A",
    "status": "Assigned to Contractor",
    "contractor": "IV Waste",
    "rowid": "1225112",
    "final_x": "3664791.17575",
    "final_y": "552335.183382",
    "longitude": "-90.12013508923175",
    "latitude": "30.01322716495783",
    "geocoded_column": {
      "latitude": "30.01322716495783",
      "longitude": "-90.12013508923175"
    }
  },
  {
    "service_request": "2025-1225111",
    "request_type": "Property Maintenance",
    "request_reason": "Property Maintenance",
    "date_created": "2025-09-09T16:41:10.000",
    "date_modified": "2025-09-09T16:41:12.000",
    "request_status": "Pending",
    "responsible_agency": "Department of Code Enforcement",
    "final_address": "1716 Cambronne St",
    "address_councildis": "A",
    "status": "Pending",
    "rowid": "1225111",
    "final_x": "3662424.83821",
    "final_y": "530543.421378",
    "longitude": "-90.12833554476613",
    "latitude": "29.95337578969376",
    "geocoded_column": {
      "latitude": "29.95337578969376",
      "longitude": "-90.12833554476613"
    }
  },
  {
    "service_request": "2025-1225110",
    "request_type": "Trash/Recycling",
    "request_reason": "Request a Large Item Pick Up",
    "date_created": "2025-09-09T16:39:46.000",
    "date_modified": "2025-09-09T16:39:47.000",
    "request_status": "Pending",
    "responsible_agency": "Department of Sanitation",
    "final_address": "7830 Swift St",
    "address_councildis": "E",
    "status": "Assigned to Contractor",
    "contractor": "Waste Pro",
    "rowid": "1225110",
    "final_x": "3695194.3183",
    "final_y": "559346.479389",
    "longitude": "-90.02382464892662",
    "latitude": "30.03158541814074",
    "geocoded_column": {
      "latitude": "30.03158541814074",
      "longitude": "-90.02382464892662"
    }
  },
  {
    "service_request": "2025-1225109",
    "request_type": "Streetlights",
    "request_reason": "Streetlight Outage/Malfunction",
    "date_created": "2025-09-09T16:38:28.000",
    "date_modified": "2025-09-09T16:38:30.000",
    "request_status": "Pending",
    "responsible_agency": "Department of Public Works",
    "final_address": "6241 Kingston Ct",
    "address_councildis": "C",
    "status": "Pending",
    "rowid": "1225109",
    "final_x": "3707160.04561",
    "final_y": "517745.210038",
    "longitude": "-89.98755668816732",
    "latitude": "29.916815839726723",
    "geocoded_column": {
      "latitude": "29.916815839726723",
      "longitude": "-89.98755668816732"
    }
  },
  {
    "service_request": "2025-1225108",
    "request_type": "Property Maintenance",
    "request_reason": "Property Maintenance",
    "date_created": "2025-09-09T16:38:05.000",
    "date_modified": "2025-09-09T16:38:07.000",
    "request_status": "Pending",
    "responsible_agency": "Department of Code Enforcement",
    "final_address": "1920 Terpsichore St",
    "address_councildis": "B",
    "status": "Pending",
    "rowid": "1225108",
    "final_x": "3677691.85979",
    "final_y": "526085.909374",
    "longitude": "-90.08028270646226",
    "latitude": "29.94066881863091",
    "geocoded_column": {
      "latitude": "29.94066881863091",
      "longitude": "-90.08028270646226"
    }
  },
  {
    "service_request": "2025-1225107",
    "request_type": "Trash/Recycling",
    "request_reason": "Order Recycling Cart",
    "date_created": "2025-09-09T16:32:49.000",
    "date_modified": "2025-09-09T16:32:50.000",
    "request_status": "Pending",
    "responsible_agency": "Department of Sanitation",
    "final_address": "2516 Wisteria St",
    "address_councildis": "D",
    "status": "Pending",
    "rowid": "1225107",
    "final_x": "3686355.9469",
    "final_y": "548277.846162",
    "longitude": "-90.05214536830016",
    "latitude": "30.0014255254705",
    "geocoded_column": {
      "latitude": "30.0014255254705",
      "longitude": "-90.05214536830016"
    }
  },
  {
    "service_request": "2025-1225106",
    "request_type": "Abandoned Vehicles",
    "request_reason": "Abandoned/Junk Vehicles",
    "date_created": "2025-09-09T16:31:43.000",
    "date_modified": "2025-09-09T16:31:44.000",
    "request_status": "Pending",
    "responsible_agency": "Department of Public Works",
    "final_address": "2024 Lamarque St",
    "address_councildis": "C",
    "status": "Pending",
    "rowid": "1225106",
    "final_x": "3691565.84124",
    "final_y": "526693.578366",
    "longitude": "-90.03645862827743",
    "latitude": "29.941915226696537",
    "geocoded_column": {
      "latitude": "29.941915226696537",
      "longitude": "-90.03645862827743"
    }
  },
  {
    "service_request": "2025-1225105",
    "request_type": "Trash/Recycling",
    "request_reason": "Order Trash Cart",
    "date_created": "2025-09-09T16:31:38.000",
    "date_modified": "2025-09-09T16:31:39.000",
    "request_status": "Pending",
    "responsible_agency": "Department of Sanitation",
    "final_address": "2516 Wisteria St",
    "address_councildis": "D",
    "status": "Assigned to Contractor",
    "contractor": "IV Waste",
    "rowid": "1225105",
    "final_x": "3686355.9469",
    "final_y": "548277.846162",
    "longitude": "-90.05214536830016",
    "latitude": "30.0014255254705",
    "geocoded_column": {
      "latitude": "30.0014255254705",
      "longitude": "-90.05214536830016"
    }
  },
  {
    "service_request": "2025-1225104",
    "request_type": "Trash/Recycling",
    "request_reason": "Illegal Dumping",
    "date_created": "2025-09-09T16:17:14.000",
    "date_modified": "2025-09-09T16:17:39.000",
    "request_status": "Pending",
    "responsible_agency": "Department of Sanitation",
    "final_address": "SAGE ST & PEOPLES AVE",
    "address_councildis": "D",
    "status": "Pending",
    "rowid": "1225104",
    "final_x": "3688595.4",
    "final_y": "545595.58",
    "longitude": "-90.04516600641615",
    "latitude": "29.993981223923438",
    "geocoded_column": {
      "latitude": "29.993981223923438",
      "longitude": "-90.04516600641615"
    }
  },
  {
    "service_request": "2025-1225103",
    "request_type": "Abandoned Vehicles",
    "request_reason": "Abandoned/Junk Vehicles",
    "date_created": "2025-09-09T16:14:17.000",
    "date_modified": "2025-09-09T16:15:36.000",
    "request_status": "Pending",
    "responsible_agency": "Department of Public Works",
    "final_address": "322 N Miro St",
    "address_councildis": "B",
    "status": "Pending",
    "rowid": "1225103",
    "final_x": "3677359.30792",
    "final_y": "534843.237958",
    "longitude": "-90.08103045752472",
    "latitude": "29.964758537536287",
    "geocoded_column": {
      "latitude": "29.964758537536287",
      "longitude": "-90.08103045752472"
    }
  },
  {
    "service_request": "2025-1225102",
    "request_type": "Traffic Signals",
    "request_reason": "Traffic Signal Malfunctioning or Damaged",
    "date_created": "2025-09-09T16:11:49.000",
    "date_modified": "2025-09-09T16:12:59.000",
    "request_status": "Pending",
    "responsible_agency": "Department of Public Works",
    "final_address": "6200 BLK Canal Blvd",
    "address_councildis": "A",
    "status": "Pending",
    "rowid": "1225102",
    "final_x": "3668564.11625",
    "final_y": "548919.647355",
    "longitude": "-90.1083299359717",
    "latitude": "30.00372525545345",
    "geocoded_column": {
      "latitude": "30.00372525545345",
      "longitude": "-90.1083299359717"
    }
  },
  {
    "service_request": "2025-1225101",
    "request_type": "Streetlights",
    "request_reason": "Streetlight Outage/Malfunction",
    "date_created": "2025-09-09T16:04:53.000",
    "date_modified": "2025-09-09T16:04:55.000",
    "request_status": "Pending",
    "responsible_agency": "Department of Public Works",
    "final_address": "14TH ST & FLEUR DE LIS DR",
    "address_councildis": "A",
    "status": "Pending",
    "rowid": "1225101",
    "final_x": "3665152.4",
    "final_y": "548129.38",
    "longitude": "-90.11913461669027",
    "latitude": "30.0016521426651",
    "geocoded_column": {
      "latitude": "30.0016521426651",
      "longitude": "-90.11913461669027"
    }
  },
  {
    "service_request": "2025-1225100",
    "request_type": "Trash/Recycling",
    "request_reason": "Return Trash Cart",
    "date_created": "2025-09-09T16:04:03.000",
    "date_modified": "2025-09-09T16:04:04.000",
    "request_status": "Pending",
    "responsible_agency": "Department of Sanitation",
    "final_address": "7532 Dominican St",
    "address_councildis": "A",
    "status": "Assigned to Contractor",
    "contractor": "IV Waste",
    "rowid": "1225100",
    "final_x": "3661442.69158",
    "final_y": "524997.411325",
    "longitude": "-90.13162041926375",
    "latitude": "29.938154394956456",
    "geocoded_column": {
      "latitude": "29.938154394956456",
      "longitude": "-90.13162041926375"
    }
  },
  {
    "service_request": "2025-1225099",
    "request_type": "Parks & Parkways",
    "request_reason": "Request Tree Service (Right of Way/Public Property)",
    "date_created": "2025-09-09T16:01:38.000",
    "date_modified": "2025-09-09T16:01:39.000",
    "request_status": "Pending",
    "responsible_agency": "Department of Parks & Parkway",
    "final_address": "1500 Riviera Ave",
    "address_councildis": "D",
    "status": "Pending",
    "rowid": "1225099",
    "final_x": "3678672.70389",
    "final_y": "550845.117589",
    "longitude": "-90.0763284871648",
    "latitude": "30.00871858450286",
    "geocoded_column": {
      "latitude": "30.00871858450286",
      "longitude": "-90.0763284871648"
    }
  },
  {
    "service_request": "2025-1225098",
    "request_type": "Property Maintenance",
    "request_reason": "Property Maintenance",
    "date_created": "2025-09-09T16:00:24.000",
    "date_modified": "2025-09-09T16:00:26.000",
    "request_status": "Pending",
    "responsible_agency": "Department of Code Enforcement",
    "final_address": "3925 N Johnson St",
    "address_councildis": "D",
    "status": "Pending",
    "rowid": "1225098",
    "final_x": "3692579.66429",
    "final_y": "538777.229577",
    "longitude": "-90.03282478681618",
    "latitude": "29.975109452067226",
    "geocoded_column": {
      "latitude": "29.975109452067226",
      "longitude": "-90.03282478681618"
    }
  },
  {
    "service_request": "2025-1225097",
    "request_type": "Property Maintenance",
    "request_reason": "Property Maintenance",
    "date_created": "2025-09-09T15:56:08.000",
    "date_modified": "2025-09-09T15:56:11.000",
    "request_status": "Pending",
    "responsible_agency": "Department of Code Enforcement",
    "final_address": "3701 Mansfield Ave",
    "address_councildis": "C",
    "status": "Pending",
    "rowid": "1225097",
    "final_x": "3708942.3596",
    "final_y": "517373.531829",
    "longitude": "-89.98194485150553",
    "latitude": "29.9157361748237",
    "geocoded_column": {
      "latitude": "29.9157361748237",
      "longitude": "-89.98194485150553"
    }
  },
  {
    "service_request": "2025-1225096",
    "request_type": "Roads and Streets",
    "request_reason": "Street Subsidence (Sinking)",
    "date_created": "2025-09-09T15:54:33.000",
    "date_modified": "2025-09-09T16:07:36.000",
    "request_status": "Pending",
    "responsible_agency": "Sewerage & Water Board",
    "final_address": "SULLEN PL & STRATFORD PL",
    "address_councildis": "C",
    "status": "Pending",
    "rowid": "1225096",
    "final_x": "3707506.4",
    "final_y": "516189.08",
    "longitude": "-89.98652119182015",
    "latitude": "29.912525831551587",
    "geocoded_column": {
      "latitude": "29.912525831551587",
      "longitude": "-89.98652119182015"
    }
  },
  {
    "service_request": "2025-1225095",
    "request_type": "Property Maintenance",
    "request_reason": "Property Maintenance",
    "date_created": "2025-09-09T15:54:16.000",
    "date_modified": "2025-09-09T15:54:18.000",
    "request_status": "Pending",
    "responsible_agency": "Department of Code Enforcement",
    "final_address": "800 BLK N Derbigny St",
    "address_councildis": "D",
    "status": "Pending",
    "rowid": "1225095",
    "final_x": "3679774.11679",
    "final_y": "535288.759591",
    "longitude": "-90.07338918388304",
    "latitude": "29.96591078066911",
    "geocoded_column": {
      "latitude": "29.96591078066911",
      "longitude": "-90.07338918388304"
    }
  },
  {
    "service_request": "2025-1225094",
    "request_type": "Trash/Recycling",
    "request_reason": "Order Recycling Cart",
    "date_created": "2025-09-09T15:46:49.000",
    "date_modified": "2025-09-09T16:15:38.000",
    "request_status": "Pending",
    "responsible_agency": "Department of Sanitation",
    "final_address": "1440 Frenchmen St",
    "address_councildis": "C",
    "status": "Pending",
    "contractor": "Sanitation Dept. ",
    "rowid": "1225094",
    "final_x": "3684443.74709",
    "final_y": "537702.657672",
    "longitude": "-90.05855784964331",
    "latitude": "29.972406152004094",
    "geocoded_column": {
      "latitude": "29.972406152004094",
      "longitude": "-90.05855784964331"
    }
  },
  {
    "service_request": "2025-1225093",
    "request_type": "Trash/Recycling",
    "request_reason": "Request a Large Item Pick Up",
    "date_created": "2025-09-09T15:46:12.000",
    "date_modified": "2025-09-09T15:46:14.000",
    "request_status": "Pending",
    "responsible_agency": "Department of Sanitation",
    "final_address": "815 St Maurice Ave",
    "address_councildis": "E",
    "status": "Assigned to Contractor",
    "contractor": "Waste Pro",
    "rowid": "1225093",
    "final_x": "3699492.49322",
    "final_y": "532203.930819",
    "longitude": "-90.01123194435489",
    "latitude": "29.956817690334372",
    "geocoded_column": {
      "latitude": "29.956817690334372",
      "longitude": "-90.01123194435489"
    }
  },
  {
    "service_request": "2025-1225092",
    "request_type": "Trash/Recycling",
    "request_reason": "Order Trash Cart",
    "date_created": "2025-09-09T15:45:55.000",
    "date_modified": "2025-09-09T15:45:57.000",
    "request_status": "Pending",
    "responsible_agency": "Department of Sanitation",
    "final_address": "1440 Frenchmen St",
    "address_councildis": "C",
    "status": "Assigned to Contractor",
    "contractor": "IV Waste",
    "rowid": "1225092",
    "final_x": "3684443.74709",
    "final_y": "537702.657672",
    "longitude": "-90.05855784964331",
    "latitude": "29.972406152004094",
    "geocoded_column": {
      "latitude": "29.972406152004094",
      "longitude": "-90.05855784964331"
    }
  },
  {
    "service_request": "2025-1225091",
    "request_type": "Abandoned Vehicles",
    "request_reason": "Abandoned/Junk Vehicles",
    "date_created": "2025-09-09T15:43:29.000",
    "date_modified": "2025-09-09T15:43:30.000",
    "request_status": "Pending",
    "responsible_agency": "Department of Public Works",
    "final_address": "2603 St Peter St",
    "address_councildis": "D",
    "status": "Pending",
    "rowid": "1225091",
    "final_x": "3677081.33525",
    "final_y": "536585.769863",
    "longitude": "-90.08184817565692",
    "latitude": "29.969558258461532",
    "geocoded_column": {
      "latitude": "29.969558258461532",
      "longitude": "-90.08184817565692"
    }
  },
  {
    "service_request": "2025-1225090",
    "request_type": "Trash/Recycling",
    "request_reason": "Illegal Dumping",
    "date_created": "2025-09-09T15:40:16.000",
    "date_modified": "2025-09-09T15:40:17.000",
    "request_status": "Pending",
    "responsible_agency": "Department of Sanitation",
    "final_address": "2600 BLK Saint Peter St",
    "address_councildis": "D",
    "status": "Pending",
    "rowid": "1225090",
    "final_x": "3676888.1639",
    "final_y": "536686.505483",
    "longitude": "-90.08245475466519",
    "latitude": "29.969841046942786",
    "geocoded_column": {
      "latitude": "29.969841046942786",
      "longitude": "-90.08245475466519"
    }
  },
  {
    "service_request": "2025-1225089",
    "request_type": "Trash/Recycling",
    "request_reason": "Request a Large Item Pick Up",
    "date_created": "2025-09-09T15:39:55.000",
    "date_modified": "2025-09-09T15:40:20.000",
    "request_status": "Pending",
    "responsible_agency": "Department of Sanitation",
    "final_address": "3202 General Taylor St",
    "address_councildis": "B",
    "status": "Assigned to Contractor",
    "contractor": "IV Waste",
    "rowid": "1225089",
    "final_x": "3671237.95047",
    "final_y": "526711.396158",
    "longitude": "-90.10063760481563",
    "latitude": "29.94258119115884",
    "geocoded_column": {
      "latitude": "29.94258119115884",
      "longitude": "-90.10063760481563"
    }
  },
  {
    "service_request": "2025-1225088",
    "request_type": "Mosquito, Termite & Rodent Control",
    "request_reason": "Rodent Complaint (Mice & Rats)",
    "date_created": "2025-09-09T15:36:18.000",
    "date_modified": "2025-09-09T15:36:19.000",
    "request_status": "Pending",
    "responsible_agency": "Mosquito, Termite & Rodent Control Board",
    "final_address": "1862 N Dorgenois St",
    "address_councildis": "D",
    "status": "Pending",
    "rowid": "1225088",
    "final_x": "3681068.02344",
    "final_y": "541148.812812",
    "longitude": "-90.0690988887141",
    "latitude": "29.981984715486654",
    "geocoded_column": {
      "latitude": "29.981984715486654",
      "longitude": "-90.0690988887141"
    }
  },
  {
    "service_request": "2025-1225087",
    "request_type": "Trash/Recycling",
    "request_reason": "Request a Large Item Pick Up",
    "date_created": "2025-09-09T15:33:46.000",
    "date_modified": "2025-09-09T15:33:48.000",
    "request_status": "Pending",
    "responsible_agency": "Department of Sanitation",
    "final_address": "1422 Josephine St",
    "address_councildis": "B",
    "status": "Assigned to Contractor",
    "contractor": "IV Waste",
    "rowid": "1225087",
    "final_x": "3678381.02882",
    "final_y": "523271.131963",
    "longitude": "-90.07820422491805",
    "latitude": "29.93290836720927",
    "geocoded_column": {
      "latitude": "29.93290836720927",
      "longitude": "-90.07820422491805"
    }
  },
  {
    "service_request": "2025-1225086",
    "request_type": "Trash/Recycling",
    "request_reason": "Request a Large Item Pick Up",
    "date_created": "2025-09-09T15:32:41.000",
    "date_modified": "2025-09-09T15:32:44.000",
    "request_status": "Pending",
    "responsible_agency": "Department of Sanitation",
    "final_address": "7180 Whitmore Pl",
    "address_councildis": "E",
    "status": "Assigned to Contractor",
    "contractor": "Waste Pro",
    "rowid": "1225086",
    "final_x": "3718528.97516",
    "final_y": "569855.007334",
    "longitude": "-89.94968591087053",
    "latitude": "30.05972566159047",
    "geocoded_column": {
      "latitude": "30.05972566159047",
      "longitude": "-89.94968591087053"
    }
  },
  {
    "service_request": "2025-1225085",
    "request_type": "Streetlights",
    "request_reason": "Streetlight Outage/Malfunction",
    "date_created": "2025-09-09T15:30:29.000",
    "date_modified": "2025-09-09T15:30:30.000",
    "request_status": "Pending",
    "responsible_agency": "Department of Public Works",
    "final_address": "3000 BLK Bruxelles St",
    "address_councildis": "D",
    "status": "Pending",
    "rowid": "1225085",
    "final_x": "3680251.49576",
    "final_y": "543520.864189",
    "longitude": "-90.07159537413617",
    "latitude": "29.988531773197483",
    "geocoded_column": {
      "latitude": "29.988531773197483",
      "longitude": "-90.07159537413617"
    }
  },
  {
    "service_request": "2025-1225084",
    "request_type": "Trash/Recycling",
    "request_reason": "Request a Large Item Pick Up",
    "date_created": "2025-09-09T15:29:52.000",
    "date_modified": "2025-09-09T15:30:38.000",
    "request_status": "Pending",
    "responsible_agency": "Department of Sanitation",
    "final_address": "1918 Elizardi Blvd",
    "address_councildis": "C",
    "status": "Assigned to Contractor",
    "contractor": "Richards Disposal",
    "rowid": "1225084",
    "final_x": "3694743.8497",
    "final_y": "523584.930939",
    "longitude": "-90.02653696829178",
    "latitude": "29.93326822902167",
    "geocoded_column": {
      "latitude": "29.93326822902167",
      "longitude": "-90.02653696829178"
    }
  },
  {
    "service_request": "2025-1225083",
    "request_type": "Trash/Recycling",
    "request_reason": "Request a Large Item Pick Up",
    "date_created": "2025-09-09T15:29:08.000",
    "date_modified": "2025-09-09T15:29:09.000",
    "request_status": "Pending",
    "responsible_agency": "Department of Sanitation",
    "final_address": "13413 N Nemours St",
    "address_councildis": "E",
    "status": "Assigned to Contractor",
    "contractor": "Waste Pro",
    "rowid": "1225083",
    "final_x": "3725226.45171",
    "final_y": "562714.411232",
    "longitude": "-89.92879256022596",
    "latitude": "30.039867929469775",
    "geocoded_column": {
      "latitude": "30.039867929469775",
      "longitude": "-89.92879256022596"
    }
  },
  {
    "service_request": "2025-1225082",
    "request_type": "Trash/Recycling",
    "request_reason": "Illegal Dumping",
    "date_created": "2025-09-09T15:29:05.000",
    "date_modified": "2025-09-09T15:29:07.000",
    "request_status": "Pending",
    "responsible_agency": "Department of Sanitation",
    "final_address": "6801 Mayo Rd",
    "address_councildis": "E",
    "status": "Pending",
    "rowid": "1225082",
    "final_x": "3702182.34026",
    "final_y": "557172.671771",
    "longitude": "-90.00182213699544",
    "latitude": "30.025386847267303",
    "geocoded_column": {
      "latitude": "30.025386847267303",
      "longitude": "-90.00182213699544"
    }
  },
  {
    "service_request": "2025-1225081",
    "request_type": "Trash/Recycling",
    "request_reason": "Replace Trash Cart",
    "date_created": "2025-09-09T15:19:03.000",
    "date_modified": "2025-09-09T15:19:05.000",
    "request_status": "Pending",
    "responsible_agency": "Department of Sanitation",
    "final_address": "608 Homedale St",
    "address_councildis": "A",
    "status": "Assigned to Contractor",
    "contractor": "IV Waste",
    "rowid": "1225081",
    "final_x": "3667918.22311",
    "final_y": "544551.612111",
    "longitude": "-90.1105176907665",
    "latitude": "29.991733635765986",
    "geocoded_column": {
      "latitude": "29.991733635765986",
      "longitude": "-90.1105176907665"
    }
  },
  {
    "service_request": "2025-1225080",
    "request_type": "Trash/Recycling",
    "request_reason": "Replace Trash Cart",
    "date_created": "2025-09-09T15:14:00.000",
    "date_modified": "2025-09-09T15:14:02.000",
    "request_status": "Pending",
    "responsible_agency": "Department of Sanitation",
    "final_address": "719 Canal Roadway",
    "address_councildis": "A",
    "status": "Assigned to Contractor",
    "contractor": "IV Waste",
    "rowid": "1225080",
    "final_x": "3668480.67866",
    "final_y": "544626.979279",
    "longitude": "-90.10873846351754",
    "latitude": "29.991924353137627",
    "geocoded_column": {
      "latitude": "29.991924353137627",
      "longitude": "-90.10873846351754"
    }
  },
  {
    "service_request": "2025-1225079",
    "request_type": "Trash/Recycling",
    "request_reason": "Request a Large Item Pick Up",
    "date_created": "2025-09-09T15:13:12.000",
    "date_modified": "2025-09-09T15:13:14.000",
    "request_status": "Pending",
    "responsible_agency": "Department of Sanitation",
    "final_address": "4558 Rosemont Pl",
    "address_councildis": "E",
    "status": "Assigned to Contractor",
    "contractor": "Waste Pro",
    "rowid": "1225079",
    "final_x": "3702720.1546",
    "final_y": "553983.735384",
    "longitude": "-90.00023996775927",
    "latitude": "30.01660130244286",
    "geocoded_column": {
      "latitude": "30.01660130244286",
      "longitude": "-90.00023996775927"
    }
  },
  {
    "service_request": "2025-1225078",
    "request_type": "Trash/Recycling",
    "request_reason": "Repair Trash Cart",
    "date_created": "2025-09-09T15:10:31.000",
    "date_modified": "2025-09-09T15:10:32.000",
    "request_status": "Pending",
    "responsible_agency": "Department of Sanitation",
    "final_address": "2418 Milan St",
    "address_councildis": "B",
    "status": "Assigned to Contractor",
    "contractor": "IV Waste",
    "rowid": "1225078",
    "final_x": "3671251.78081",
    "final_y": "523931.728188",
    "longitude": "-90.10068834815588",
    "latitude": "29.93493759663276",
    "geocoded_column": {
      "latitude": "29.93493759663276",
      "longitude": "-90.10068834815588"
    }
  },
  {
    "service_request": "2025-1225077",
    "request_type": "Drainage",
    "request_reason": "Catch Basin Not Draining",
    "date_created": "2025-09-09T15:07:00.000",
    "date_modified": "2025-09-09T15:07:03.000",
    "request_status": "Pending",
    "responsible_agency": "Sewerage & Water Board",
    "final_address": "2209 Foucher St",
    "address_councildis": "B",
    "status": "Pending",
    "rowid": "1225077",
    "final_x": "3672801.27688",
    "final_y": "523402.254715",
    "longitude": "-90.09581464866558",
    "latitude": "29.933435791392895",
    "geocoded_column": {
      "latitude": "29.933435791392895",
      "longitude": "-90.09581464866558"
    }
  },
  {
    "service_request": "2025-1225076",
    "request_type": "Trash/Recycling",
    "request_reason": "Request a Large Item Pick Up",
    "date_created": "2025-09-09T15:05:49.000",
    "date_modified": "2025-09-09T15:05:53.000",
    "request_status": "Pending",
    "responsible_agency": "Department of Sanitation",
    "final_address": "7300 Ebbtide Dr",
    "address_councildis": "E",
    "status": "Assigned to Contractor",
    "contractor": "Waste Pro",
    "rowid": "1225076",
    "final_x": "3702533.69783",
    "final_y": "560418.494942",
    "longitude": "-90.00059261460926",
    "latitude": "30.034300370472543",
    "geocoded_column": {
      "latitude": "30.034300370472543",
      "longitude": "-90.00059261460926"
    }
  },
  {
    "service_request": "2025-1225075",
    "request_type": "Trash/Recycling",
    "request_reason": "Request a Large Item Pick Up",
    "date_created": "2025-09-09T15:02:06.000",
    "date_modified": "2025-09-09T15:02:09.000",
    "request_status": "Pending",
    "responsible_agency": "Department of Sanitation",
    "final_address": "420 Delery St",
    "address_councildis": "E",
    "status": "Assigned to Contractor",
    "contractor": "Waste Pro",
    "rowid": "1225075",
    "final_x": "3699517.16925",
    "final_y": "530761.234626",
    "longitude": "-90.01120659014201",
    "latitude": "29.952850003967722",
    "geocoded_column": {
      "latitude": "29.952850003967722",
      "longitude": "-90.01120659014201"
    }
  },
  {
    "service_request": "2025-1225074",
    "request_type": "Property Maintenance",
    "request_reason": "Property Maintenance",
    "date_created": "2025-09-09T15:01:58.000",
    "date_modified": "2025-09-09T15:37:03.000",
    "case_close_date": "2025-09-09T10:37:02.000",
    "request_status": "Closed",
    "responsible_agency": "Department of Code Enforcement",
    "final_address": "2630 N Derbigny St",
    "address_councildis": "D",
    "status": "Referred to Code Enforcement",
    "rowid": "1225074",
    "final_x": "3687949.49155",
    "final_y": "538617.969929",
    "longitude": "-90.04745368453806",
    "latitude": "29.97481523044817",
    "geocoded_column": {
      "latitude": "29.97481523044817",
      "longitude": "-90.04745368453806"
    }
  },
  {
    "service_request": "2025-1225073",
    "request_type": "Safety & Permits",
    "request_reason": "Zoning Enforcement",
    "date_created": "2025-09-09T15:01:05.000",
    "date_modified": "2025-09-09T15:01:07.000",
    "request_status": "Pending",
    "responsible_agency": "Safety and Permits",
    "final_address": "1811 N Robertson St",
    "address_councildis": "C",
    "status": "Pending",
    "rowid": "1225073",
    "final_x": "3683509.39823",
    "final_y": "537733.624392",
    "longitude": "-90.06150759753184",
    "latitude": "29.972519848920914",
    "geocoded_column": {
      "latitude": "29.972519848920914",
      "longitude": "-90.06150759753184"
    }
  },
  {
    "service_request": "2025-1225072",
    "request_type": "Trash/Recycling",
    "request_reason": "Request a Large Item Pick Up",
    "date_created": "2025-09-09T15:00:19.000",
    "date_modified": "2025-09-09T15:00:21.000",
    "request_status": "Pending",
    "responsible_agency": "Department of Sanitation",
    "final_address": "1218 St Mary St",
    "address_councildis": "B",
    "status": "Assigned to Contractor",
    "contractor": "IV Waste",
    "rowid": "1225072",
    "final_x": "3679346.67362",
    "final_y": "523214.533499",
    "longitude": "-90.07515771841543",
    "latitude": "29.932723620166904",
    "geocoded_column": {
      "latitude": "29.932723620166904",
      "longitude": "-90.07515771841543"
    }
  },
  {
    "service_request": "2025-1225071",
    "request_type": "Trash/Recycling",
    "request_reason": "Request a Large Item Pick Up",
    "date_created": "2025-09-09T14:57:59.000",
    "date_modified": "2025-09-09T14:58:01.000",
    "request_status": "Pending",
    "responsible_agency": "Department of Sanitation",
    "final_address": "4809 Ray Ave",
    "address_councildis": "E",
    "status": "Assigned to Contractor",
    "contractor": "Waste Pro",
    "rowid": "1225071",
    "final_x": "3698785.60541",
    "final_y": "554731.557656",
    "longitude": "-90.01264416021145",
    "latitude": "30.018782808405092",
    "geocoded_column": {
      "latitude": "30.018782808405092",
      "longitude": "-90.01264416021145"
    }
  },
  {
    "service_request": "2025-1225070",
    "request_type": "Trash/Recycling",
    "request_reason": "Request a Large Item Pick Up",
    "date_created": "2025-09-09T14:56:59.000",
    "date_modified": "2025-09-09T14:57:02.000",
    "request_status": "Pending",
    "responsible_agency": "Department of Sanitation",
    "final_address": "7201 Restgate Rd",
    "address_councildis": "E",
    "status": "Assigned to Contractor",
    "contractor": "Waste Pro",
    "rowid": "1225070",
    "final_x": "3710767.1939",
    "final_y": "563371.55248",
    "longitude": "-89.97446324136814",
    "latitude": "30.04215421302514",
    "geocoded_column": {
      "latitude": "30.04215421302514",
      "longitude": "-89.97446324136814"
    }
  },
  {
    "service_request": "2025-1225069",
    "request_type": "Property Maintenance",
    "request_reason": "Property Maintenance",
    "date_created": "2025-09-09T14:56:59.000",
    "date_modified": "2025-09-09T15:43:25.000",
    "case_close_date": "2025-09-09T10:43:23.000",
    "request_status": "Closed",
    "responsible_agency": "Department of Code Enforcement",
    "final_address": "1629 Franklin Ave",
    "address_councildis": "D",
    "status": "Referred to Code Enforcement",
    "rowid": "1225069",
    "final_x": "3687684.70358",
    "final_y": "538555.913097",
    "longitude": "-90.04829214732841",
    "latitude": "29.974652763905485",
    "geocoded_column": {
      "latitude": "29.974652763905485",
      "longitude": "-90.04829214732841"
    }
  },
  {
    "service_request": "2025-1225068",
    "request_type": "Trash/Recycling",
    "request_reason": "Order Recycling Cart",
    "date_created": "2025-09-09T14:56:35.000",
    "date_modified": "2025-09-09T14:57:35.000",
    "request_status": "Pending",
    "responsible_agency": "Department of Sanitation",
    "final_address": "318 S Dorgenois St",
    "address_councildis": "B",
    "status": "Pending",
    "rowid": "1225068",
    "final_x": "3675295.87214",
    "final_y": "533918.746437",
    "longitude": "-90.08757839774673",
    "latitude": "29.962278345183837",
    "geocoded_column": {
      "latitude": "29.962278345183837",
      "longitude": "-90.08757839774673"
    }
  },
  {
    "service_request": "2025-1225067",
    "request_type": "Trash/Recycling",
    "request_reason": "Missed Trash Pick-Up",
    "date_created": "2025-09-09T14:55:16.000",
    "date_modified": "2025-09-09T15:36:11.000",
    "case_close_date": "2025-09-09T10:36:10.000",
    "request_status": "Closed",
    "responsible_agency": "Department of Sanitation",
    "final_address": "318 N Dorgenois St",
    "address_councildis": "B",
    "status": "Invalid Request",
    "contractor": "IV Waste",
    "contractor_action": "Invalid",
    "rowid": "1225067",
    "final_x": "3676414.77742",
    "final_y": "535529.835334",
    "longitude": "-90.08398958323508",
    "latitude": "29.966674798315353",
    "geocoded_column": {
      "latitude": "29.966674798315353",
      "longitude": "-90.08398958323508"
    }
  },
  {
    "service_request": "2025-1225066",
    "request_type": "Trash/Recycling",
    "request_reason": "Repair Trash Cart",
    "date_created": "2025-09-09T14:51:24.000",
    "date_modified": "2025-09-09T14:51:27.000",
    "request_status": "Pending",
    "responsible_agency": "Department of Sanitation",
    "final_address": "4761 Lynhuber Dr",
    "address_councildis": "D",
    "status": "Assigned to Contractor",
    "contractor": "Waste Pro",
    "rowid": "1225066",
    "final_x": "3698075.70359",
    "final_y": "554522.826328",
    "longitude": "-90.01489477245067",
    "latitude": "30.0182313555506",
    "geocoded_column": {
      "latitude": "30.0182313555506",
      "longitude": "-90.01489477245067"
    }
  },
  {
    "service_request": "2025-1225065",
    "request_type": "Roads and Streets",
    "request_reason": "Sidewalk Damaged or Missing",
    "date_created": "2025-09-09T14:45:30.000",
    "date_modified": "2025-09-09T14:45:32.000",
    "request_status": "Pending",
    "responsible_agency": "Department of Public Works",
    "final_address": "2209 Foucher St",
    "address_councildis": "B",
    "status": "Pending",
    "rowid": "1225065",
    "final_x": "3672801.27688",
    "final_y": "523402.254715",
    "longitude": "-90.09581464866558",
    "latitude": "29.933435791392895",
    "geocoded_column": {
      "latitude": "29.933435791392895",
      "longitude": "-90.09581464866558"
    }
  },
  {
    "service_request": "2025-1225064",
    "request_type": "Parks & Parkways",
    "request_reason": "Request Tree Service (Right of Way/Public Property)",
    "date_created": "2025-09-09T14:41:55.000",
    "date_modified": "2025-09-09T14:41:58.000",
    "request_status": "Pending",
    "responsible_agency": "Department of Parks & Parkway",
    "final_address": "N ROCHEBLAVE ST & FRANKLIN AVE",
    "address_councildis": "D",
    "status": "Pending",
    "rowid": "1225064",
    "final_x": "3687497.6",
    "final_y": "541320.88",
    "longitude": "-90.04878516970092",
    "latitude": "29.982261214769057",
    "geocoded_column": {
      "latitude": "29.982261214769057",
      "longitude": "-90.04878516970092"
    }
  },
  {
    "service_request": "2025-1225063",
    "request_type": "Trash/Recycling",
    "request_reason": "Order Recycling Cart",
    "date_created": "2025-09-09T14:38:26.000",
    "date_modified": "2025-09-09T14:38:28.000",
    "request_status": "Pending",
    "responsible_agency": "Department of Sanitation",
    "final_address": "2917 General Ogden St",
    "address_councildis": "A",
    "status": "Pending",
    "rowid": "1225063",
    "final_x": "3664121.3936",
    "final_y": "534898.477894",
    "longitude": "-90.12283324945423",
    "latitude": "29.965301606824696",
    "geocoded_column": {
      "latitude": "29.965301606824696",
      "longitude": "-90.12283324945423"
    }
  },
  {
    "service_request": "2025-1225062",
    "request_type": "Trash/Recycling",
    "request_reason": "Order Recycling Cart",
    "date_created": "2025-09-09T14:36:41.000",
    "date_modified": "2025-09-09T14:36:43.000",
    "request_status": "Pending",
    "responsible_agency": "Department of Sanitation",
    "final_address": "2915 General Ogden St",
    "address_councildis": "A",
    "status": "Pending",
    "rowid": "1225062",
    "final_x": "3664111.02944",
    "final_y": "534885.149894",
    "longitude": "-90.12286642373303",
    "latitude": "29.965265260261532",
    "geocoded_column": {
      "latitude": "29.965265260261532",
      "longitude": "-90.12286642373303"
    }
  },
  {
    "service_request": "2025-1225061",
    "request_type": "Property Maintenance",
    "request_reason": "Property Maintenance",
    "date_created": "2025-09-09T14:36:26.000",
    "date_modified": "2025-09-09T15:22:07.000",
    "case_close_date": "2025-09-09T10:22:05.000",
    "request_status": "Closed",
    "responsible_agency": "Department of Code Enforcement",
    "final_address": "13807 Horizon Dr",
    "address_councildis": "E",
    "status": "Referred to Code Enforcement",
    "rowid": "1225061",
    "final_x": "3725409.18566",
    "final_y": "570338.576359",
    "longitude": "-89.92791954350176",
    "latitude": "30.060825036060017",
    "geocoded_column": {
      "latitude": "30.060825036060017",
      "longitude": "-89.92791954350176"
    }
  },
  {
    "service_request": "2025-1225060",
    "request_type": "Property Maintenance",
    "request_reason": "Property Maintenance",
    "date_created": "2025-09-09T14:33:24.000",
    "date_modified": "2025-09-09T15:48:28.000",
    "case_close_date": "2025-09-09T10:48:26.000",
    "request_status": "Closed",
    "responsible_agency": "Department of Code Enforcement",
    "final_address": "4947 Charlene Dr",
    "address_councildis": "E",
    "status": "Referred to Code Enforcement",
    "rowid": "1225060",
    "final_x": "3707839.48241",
    "final_y": "556849.70857",
    "longitude": "-89.98395857841219",
    "latitude": "30.02431685574397",
    "geocoded_column": {
      "latitude": "30.02431685574397",
      "longitude": "-89.98395857841219"
    }
  },
  {
    "service_request": "2025-1225059",
    "request_type": "Trash/Recycling",
    "request_reason": "Request a Large Item Pick Up",
    "date_created": "2025-09-09T14:32:50.000",
    "date_modified": "2025-09-09T14:32:52.000",
    "request_status": "Pending",
    "responsible_agency": "Department of Sanitation",
    "final_address": "5126 Cameron Blvd",
    "address_councildis": "D",
    "status": "Assigned to Contractor",
    "contractor": "IV Waste",
    "rowid": "1225059",
    "final_x": "3682582.69397",
    "final_y": "551643.271509",
    "longitude": "-90.063947635985",
    "latitude": "30.01079469843244",
    "geocoded_column": {
      "latitude": "30.01079469843244",
      "longitude": "-90.063947635985"
    }
  },
  {
    "service_request": "2025-1225058",
    "request_type": "Trash/Recycling",
    "request_reason": "Replace Trash Cart",
    "date_created": "2025-09-09T14:31:31.000",
    "date_modified": "2025-09-09T14:31:33.000",
    "request_status": "Pending",
    "responsible_agency": "Department of Sanitation",
    "final_address": "4108 Vendome Pl",
    "address_councildis": "B",
    "status": "Assigned to Contractor",
    "contractor": "IV Waste",
    "rowid": "1225058",
    "final_x": "3668755.82785",
    "final_y": "530523.41485",
    "longitude": "-90.10834559678759",
    "latitude": "29.953136191166198",
    "geocoded_column": {
      "latitude": "29.953136191166198",
      "longitude": "-90.10834559678759"
    }
  },
  {
    "service_request": "2025-1225057",
    "request_type": "Taxi Issues",
    "request_reason": "Taxi Complaint",
    "date_created": "2025-09-09T14:31:15.000",
    "date_modified": "2025-09-09T14:32:13.000",
    "request_status": "Pending",
    "responsible_agency": "Department of Public Works",
    "final_address": "1100 Port Of New Orleans Pl",
    "address_councildis": "B",
    "status": "Pending",
    "rowid": "1225057",
    "final_x": "3683628.04546",
    "final_y": "525877.710461",
    "longitude": "-90.06154847499872",
    "latitude": "29.93991650899375",
    "geocoded_column": {
      "latitude": "29.93991650899375",
      "longitude": "-90.06154847499872"
    }
  },
  {
    "service_request": "2025-1225056",
    "request_type": "Trash/Recycling",
    "request_reason": "Order Trash Cart",
    "date_created": "2025-09-09T14:29:32.000",
    "date_modified": "2025-09-09T14:29:36.000",
    "request_status": "Pending",
    "responsible_agency": "Department of Sanitation",
    "final_address": "9870 E Wheaton Cir",
    "address_councildis": "E",
    "status": "Assigned to Contractor",
    "contractor": "Waste Pro",
    "rowid": "1225056",
    "final_x": "3708937.62129",
    "final_y": "562716.898784",
    "longitude": "-89.98026977100506",
    "latitude": "30.0404137085187",
    "geocoded_column": {
      "latitude": "30.0404137085187",
      "longitude": "-89.98026977100506"
    }
  },
  {
    "service_request": "2025-1225055",
    "request_type": "Streetlights",
    "request_reason": "Streetlight Outage/Malfunction",
    "date_created": "2025-09-09T14:27:55.000",
    "date_modified": "2025-09-09T14:27:56.000",
    "request_status": "Pending",
    "responsible_agency": "Department of Public Works",
    "final_address": "38 Kings Canyon Dr",
    "address_councildis": "C",
    "status": "Pending",
    "rowid": "1225055",
    "final_x": "3700226.49693",
    "final_y": "515835.156468",
    "longitude": "-90.00951136689895",
    "latitude": "29.91178593721581",
    "geocoded_column": {
      "latitude": "29.91178593721581",
      "longitude": "-90.00951136689895"
    }
  },
  {
    "service_request": "2025-1225054",
    "request_type": "Property Maintenance",
    "request_reason": "Property Maintenance",
    "date_created": "2025-09-09T14:27:50.000",
    "date_modified": "2025-09-09T14:27:52.000",
    "request_status": "Pending",
    "responsible_agency": "Department of Code Enforcement",
    "final_address": "2900 St Peter St",
    "address_councildis": "A",
    "status": "Pending",
    "rowid": "1225054",
    "final_x": "3675873.25333",
    "final_y": "537398.609864",
    "longitude": "-90.08563545268144",
    "latitude": "29.971829517306773",
    "geocoded_column": {
      "latitude": "29.971829517306773",
      "longitude": "-90.08563545268144"
    }
  },
  {
    "service_request": "2025-1225053",
    "request_type": "Streetlights",
    "request_reason": "Streetlight Outage/Malfunction",
    "date_created": "2025-09-09T14:26:30.000",
    "date_modified": "2025-09-09T14:26:32.000",
    "request_status": "Pending",
    "responsible_agency": "Department of Public Works",
    "final_address": "3600 First St",
    "address_councildis": "B",
    "status": "Pending",
    "rowid": "1225053",
    "final_x": "3673025.22625",
    "final_y": "529101.44512",
    "longitude": "-90.09491319504716",
    "latitude": "29.949100050579418",
    "geocoded_column": {
      "latitude": "29.949100050579418",
      "longitude": "-90.09491319504716"
    }
  },
  {
    "service_request": "2025-1225052",
    "request_type": "Roads and Streets",
    "request_reason": "Pothole",
    "date_created": "2025-09-09T14:25:54.000",
    "date_modified": "2025-09-09T14:25:55.000",
    "request_status": "Pending",
    "responsible_agency": "Department of Public Works",
    "final_address": "1442 Delachaise St",
    "address_councildis": "B",
    "status": "Pending",
    "rowid": "1225052",
    "final_x": "3674086.26337",
    "final_y": "520671.742905",
    "longitude": "-90.09185141024905",
    "latitude": "29.92588954428878",
    "geocoded_column": {
      "latitude": "29.92588954428878",
      "longitude": "-90.09185141024905"
    }
  },
  {
    "service_request": "2025-1225051",
    "request_type": "Trash/Recycling",
    "request_reason": "Request a Large Item Pick Up",
    "date_created": "2025-09-09T14:25:05.000",
    "date_modified": "2025-09-09T14:25:07.000",
    "request_status": "Pending",
    "responsible_agency": "Department of Sanitation",
    "final_address": "1017 Wilson Dr",
    "address_councildis": "A",
    "status": "Assigned to Contractor",
    "contractor": "IV Waste",
    "rowid": "1225051",
    "final_x": "3674355.62932",
    "final_y": "540609.464523",
    "longitude": "-90.09031835065842",
    "latitude": "29.980703623384887",
    "geocoded_column": {
      "latitude": "29.980703623384887",
      "longitude": "-90.09031835065842"
    }
  },
  {
    "service_request": "2025-1225050",
    "request_type": "Trash/Recycling",
    "request_reason": "Return Trash Cart",
    "date_created": "2025-09-09T14:24:58.000",
    "date_modified": "2025-09-09T14:25:00.000",
    "request_status": "Pending",
    "responsible_agency": "Department of Sanitation",
    "final_address": "2566 Jasmine St",
    "address_councildis": "D",
    "status": "Assigned to Contractor",
    "contractor": "IV Waste",
    "rowid": "1225050",
    "final_x": "3686805.57014",
    "final_y": "548032.850194",
    "longitude": "-90.05073363298386",
    "latitude": "30.000738044197735",
    "geocoded_column": {
      "latitude": "30.000738044197735",
      "longitude": "-90.05073363298386"
    }
  },
  {
    "service_request": "2025-1225049",
    "request_type": "Trash/Recycling",
    "request_reason": "Request a Large Item Pick Up",
    "date_created": "2025-09-09T14:19:05.000",
    "date_modified": "2025-09-09T14:23:24.000",
    "request_status": "Pending",
    "responsible_agency": "Department of Sanitation",
    "final_address": "1420 Gordon St",
    "address_councildis": "E",
    "status": "Assigned to Contractor",
    "contractor": "Waste Pro",
    "rowid": "1225049",
    "final_x": "3699534.28285",
    "final_y": "534721.313478",
    "longitude": "-90.01100825274783",
    "latitude": "29.96373826966449",
    "geocoded_column": {
      "latitude": "29.96373826966449",
      "longitude": "-90.01100825274783"
    }
  },
  {
    "service_request": "2025-1225048",
    "request_type": "Trash/Recycling",
    "request_reason": "Request a Large Item Pick Up",
    "date_created": "2025-09-09T14:17:43.000",
    "date_modified": "2025-09-09T14:17:56.000",
    "request_status": "Pending",
    "responsible_agency": "Department of Sanitation",
    "final_address": "6433 Baccich St",
    "address_councildis": "D",
    "status": "Assigned to Contractor",
    "contractor": "IV Waste",
    "rowid": "1225048",
    "final_x": "3687383.34281",
    "final_y": "557103.48873",
    "longitude": "-90.04858712726339",
    "latitude": "30.025661170530842",
    "geocoded_column": {
      "latitude": "30.025661170530842",
      "longitude": "-90.04858712726339"
    }
  },
  {
    "service_request": "2025-1225047",
    "request_type": "Property Maintenance",
    "request_reason": "Property Maintenance",
    "date_created": "2025-09-09T14:17:38.000",
    "date_modified": "2025-09-09T14:17:41.000",
    "request_status": "Pending",
    "responsible_agency": "Department of Code Enforcement",
    "final_address": "3421 Baronne St",
    "address_councildis": "B",
    "status": "Pending",
    "rowid": "1225047",
    "final_x": "3673686.76526",
    "final_y": "522173.026938",
    "longitude": "-90.09306121264684",
    "latitude": "29.930029487143866",
    "geocoded_column": {
      "latitude": "29.930029487143866",
      "longitude": "-90.09306121264684"
    }
  },
  {
    "service_request": "2025-1225046",
    "request_type": "Trash/Recycling",
    "request_reason": "Request a Large Item Pick Up",
    "date_created": "2025-09-09T14:16:18.000",
    "date_modified": "2025-09-09T14:16:20.000",
    "request_status": "Pending",
    "responsible_agency": "Department of Sanitation",
    "final_address": "6026 Dauphine St",
    "address_councildis": "E",
    "status": "Assigned to Contractor",
    "contractor": "Waste Pro",
    "rowid": "1225046",
    "final_x": "3698950.09405",
    "final_y": "532207.191875",
    "longitude": "-90.01294453915925",
    "latitude": "29.956843854240645",
    "geocoded_column": {
      "latitude": "29.956843854240645",
      "longitude": "-90.01294453915925"
    }
  },
  {
    "service_request": "2025-1225045",
    "request_type": "Trash/Recycling",
    "request_reason": "Request a Large Item Pick Up",
    "date_created": "2025-09-09T14:14:23.000",
    "date_modified": "2025-09-09T14:14:24.000",
    "request_status": "Pending",
    "responsible_agency": "Department of Sanitation",
    "final_address": "7814 Bass St",
    "address_councildis": "E",
    "status": "Assigned to Contractor",
    "contractor": "Waste Pro",
    "rowid": "1225045",
    "final_x": "3719936.45791",
    "final_y": "573769.501674",
    "longitude": "-89.94508708760934",
    "latitude": "30.070442070107088",
    "geocoded_column": {
      "latitude": "30.070442070107088",
      "longitude": "-89.94508708760934"
    }
  },
  {
    "service_request": "2025-1225044",
    "request_type": "Safety & Permits",
    "request_reason": "Licenses & Permits",
    "date_created": "2025-09-09T14:13:30.000",
    "date_modified": "2025-09-09T14:13:32.000",
    "request_status": "Pending",
    "responsible_agency": "Safety and Permits",
    "final_address": "8536 Dwyer Rd",
    "address_councildis": "E",
    "status": "Pending",
    "rowid": "1225044",
    "final_x": "3706593.03601",
    "final_y": "556678.703642",
    "longitude": "-89.9879034342508",
    "latitude": "30.02388696024611",
    "geocoded_column": {
      "latitude": "30.02388696024611",
      "longitude": "-89.9879034342508"
    }
  },
  {
    "service_request": "2025-1225043",
    "request_type": "Trash/Recycling",
    "request_reason": "Request a Large Item Pick Up",
    "date_created": "2025-09-09T14:11:32.000",
    "date_modified": "2025-09-09T14:11:34.000",
    "request_status": "Pending",
    "responsible_agency": "Department of Sanitation",
    "final_address": "2150 Timoleon St",
    "address_councildis": "D",
    "status": "Assigned to Contractor",
    "contractor": "IV Waste",
    "rowid": "1225043",
    "final_x": "3683496.12309",
    "final_y": "551051.480533",
    "longitude": "-90.06108252002572",
    "latitude": "30.00913963233658",
    "geocoded_column": {
      "latitude": "30.00913963233658",
      "longitude": "-90.06108252002572"
    }
  },
  {
    "service_request": "2025-1225042",
    "request_type": "Property Maintenance",
    "request_reason": "Property Maintenance",
    "date_created": "2025-09-09T14:10:17.000",
    "date_modified": "2025-09-09T14:10:20.000",
    "request_status": "Pending",
    "responsible_agency": "Department of Code Enforcement",
    "final_address": "CHIPPEWA ST & PLEASANT ST",
    "address_councildis": "B",
    "status": "Pending",
    "rowid": "1225042",
    "final_x": "3676257.9",
    "final_y": "518492.68",
    "longitude": "-90.08507112646079",
    "latitude": "29.91983294867849",
    "geocoded_column": {
      "latitude": "29.91983294867849",
      "longitude": "-90.08507112646079"
    }
  },
  {
    "service_request": "2025-1225041",
    "request_type": "Trash/Recycling",
    "request_reason": "Illegal Dumping",
    "date_created": "2025-09-09T14:08:49.000",
    "date_modified": "2025-09-09T14:08:52.000",
    "request_status": "Pending",
    "responsible_agency": "Department of Sanitation",
    "final_address": "401 Newton St",
    "address_councildis": "C",
    "status": "Pending",
    "rowid": "1225041",
    "final_x": "3686618.07721",
    "final_y": "527876.331903",
    "longitude": "-90.0520379679116",
    "latitude": "29.945320450110266",
    "geocoded_column": {
      "latitude": "29.945320450110266",
      "longitude": "-90.0520379679116"
    }
  },
  {
    "service_request": "2025-1225040",
    "request_type": "Trash/Recycling",
    "request_reason": "Order Recycling Cart",
    "date_created": "2025-09-09T14:07:20.000",
    "date_modified": "2025-09-09T14:07:22.000",
    "request_status": "Pending",
    "responsible_agency": "Department of Sanitation",
    "final_address": "1441 N Claiborne Ave",
    "address_councildis": "D",
    "status": "Pending",
    "rowid": "1225040",
    "final_x": "3681406.80924",
    "final_y": "536919.708872",
    "longitude": "-90.06817632634565",
    "latitude": "29.97034586530749",
    "geocoded_column": {
      "latitude": "29.97034586530749",
      "longitude": "-90.06817632634565"
    }
  },
  {
    "service_request": "2025-1225039",
    "request_type": "Trash/Recycling",
    "request_reason": "Order Trash Cart",
    "date_created": "2025-09-09T14:05:39.000",
    "date_modified": "2025-09-09T14:05:40.000",
    "request_status": "Pending",
    "responsible_agency": "Department of Sanitation",
    "final_address": "1441 N Claiborne Ave",
    "address_councildis": "D",
    "status": "Assigned to Contractor",
    "contractor": "IV Waste",
    "rowid": "1225039",
    "final_x": "3681406.80924",
    "final_y": "536919.708872",
    "longitude": "-90.06817632634565",
    "latitude": "29.97034586530749",
    "geocoded_column": {
      "latitude": "29.97034586530749",
      "longitude": "-90.06817632634565"
    }
  },
  {
    "service_request": "2025-1225038",
    "request_type": "Trash/Recycling",
    "request_reason": "Illegal Dumping",
    "date_created": "2025-09-09T14:04:50.000",
    "date_modified": "2025-09-09T14:04:52.000",
    "request_status": "Pending",
    "responsible_agency": "Department of Sanitation",
    "final_address": "5977 Babylon St",
    "address_councildis": "D",
    "status": "Pending",
    "rowid": "1225038",
    "final_x": "3696484.71197",
    "final_y": "555059.644185",
    "longitude": "-90.01990224215561",
    "latitude": "30.019757641771367",
    "geocoded_column": {
      "latitude": "30.019757641771367",
      "longitude": "-90.01990224215561"
    }
  },
  {
    "service_request": "2025-1225035",
    "request_type": "Streetlights",
    "request_reason": "Streetlight Outage/Malfunction",
    "date_created": "2025-09-09T13:52:31.000",
    "date_modified": "2025-09-09T13:53:30.000",
    "request_status": "Pending",
    "responsible_agency": "Department of Public Works",
    "final_address": "824 Port St",
    "address_councildis": "C",
    "status": "Pending",
    "rowid": "1225035",
    "final_x": "3687145.26409",
    "final_y": "535540.79911",
    "longitude": "-90.05010246833841",
    "latitude": "29.966378878434735",
    "geocoded_column": {
      "latitude": "29.966378878434735",
      "longitude": "-90.05010246833841"
    }
  },
  {
    "service_request": "2025-1225034",
    "request_type": "Abandoned Vehicles",
    "request_reason": "Abandoned/Junk Vehicles",
    "date_created": "2025-09-09T13:52:01.000",
    "date_modified": "2025-09-09T13:52:03.000",
    "request_status": "Pending",
    "responsible_agency": "Department of Public Works",
    "final_address": "6030 Burgundy St",
    "address_councildis": "E",
    "status": "Pending",
    "rowid": "1225034",
    "final_x": "3699068.76631",
    "final_y": "532558.845124",
    "longitude": "-90.01255701280975",
    "latitude": "29.95780701522104",
    "geocoded_column": {
      "latitude": "29.95780701522104",
      "longitude": "-90.01255701280975"
    }
  },
  {
    "service_request": "2025-1225033",
    "request_type": "Trash/Recycling",
    "request_reason": "Request a Large Item Pick Up",
    "date_created": "2025-09-09T13:51:09.000",
    "date_modified": "2025-09-09T13:51:11.000",
    "request_status": "Pending",
    "responsible_agency": "Department of Sanitation",
    "final_address": "3664 Clematis St Apt B",
    "address_councildis": "D",
    "status": "Assigned to Contractor",
    "contractor": "IV Waste",
    "rowid": "1225033",
    "final_x": "3686076.21487",
    "final_y": "546439.743185",
    "longitude": "-90.05309394443267",
    "latitude": "29.996380001880627",
    "geocoded_column": {
      "latitude": "29.996380001880627",
      "longitude": "-90.05309394443267"
    }
  },
  {
    "service_request": "2025-1225032",
    "request_type": "Parks & Parkways",
    "request_reason": "Request Tree Service (Right of Way/Public Property)",
    "date_created": "2025-09-09T13:48:05.000",
    "date_modified": "2025-09-09T14:09:50.000",
    "case_close_date": "2025-09-09T09:09:48.000",
    "request_status": "Closed",
    "responsible_agency": "Department of Parks & Parkway",
    "final_address": "HOPE ST & N BROAD ST & BRUXELLES ST",
    "address_councildis": "D",
    "status": "Not Enough Information- Resubmittal Required",
    "rowid": "1225032",
    "final_x": "3680381.8",
    "final_y": "541866.68",
    "longitude": "-90.07124133571763",
    "latitude": "29.983979400241573",
    "geocoded_column": {
      "latitude": "29.983979400241573",
      "longitude": "-90.07124133571763"
    }
  },
  {
    "service_request": "2025-1225031",
    "request_type": "Roads and Streets",
    "request_reason": "Pothole",
    "date_created": "2025-09-09T13:47:53.000",
    "date_modified": "2025-09-09T13:47:54.000",
    "request_status": "Pending",
    "responsible_agency": "Department of Public Works",
    "final_address": "CANAL BLVD & HARRISON AVE",
    "address_councildis": "A",
    "status": "Pending",
    "rowid": "1225031",
    "final_x": "3668723.1",
    "final_y": "549310.28",
    "longitude": "-90.10781447934356",
    "latitude": "30.00479468473077",
    "geocoded_column": {
      "latitude": "30.00479468473077",
      "longitude": "-90.10781447934356"
    }
  },
  {
    "service_request": "2025-1225030",
    "request_type": "Trash/Recycling",
    "request_reason": "Repair Trash Cart",
    "date_created": "2025-09-09T13:47:10.000",
    "date_modified": "2025-09-09T13:47:12.000",
    "request_status": "Pending",
    "responsible_agency": "Department of Sanitation",
    "final_address": "1922 Milan St",
    "address_councildis": "B",
    "status": "Assigned to Contractor",
    "contractor": "IV Waste",
    "rowid": "1225030",
    "final_x": "3671428.49947",
    "final_y": "522178.743802",
    "longitude": "-90.10019000600168",
    "latitude": "29.93011222587029",
    "geocoded_column": {
      "latitude": "29.93011222587029",
      "longitude": "-90.10019000600168"
    }
  },
  {
    "service_request": "2025-1225029",
    "request_type": "Trash/Recycling",
    "request_reason": "Request a Large Item Pick Up",
    "date_created": "2025-09-09T13:41:31.000",
    "date_modified": "2025-09-09T13:42:03.000",
    "request_status": "Pending",
    "responsible_agency": "Department of Sanitation",
    "final_address": "7809 Michigan St",
    "address_councildis": "E",
    "status": "Assigned to Contractor",
    "contractor": "Waste Pro",
    "rowid": "1225029",
    "final_x": "3711355.14123",
    "final_y": "567203.303972",
    "longitude": "-89.9724612975465",
    "latitude": "30.05267079729904",
    "geocoded_column": {
      "latitude": "30.05267079729904",
      "longitude": "-89.9724612975465"
    }
  },
  {
    "service_request": "2025-1225028",
    "request_type": "Parks & Parkways",
    "request_reason": "Request Tree Service (Right of Way/Public Property)",
    "date_created": "2025-09-09T13:40:08.000",
    "date_modified": "2025-09-09T13:40:10.000",
    "request_status": "Pending",
    "responsible_agency": "Department of Parks & Parkway",
    "final_address": "South Park Place & West Park Place",
    "address_councildis": "A",
    "status": "Pending",
    "rowid": "1225028",
    "final_x": "3670171.9458",
    "final_y": "543804.100238",
    "longitude": "-90.10342398645223",
    "latitude": "29.989611910044676",
    "geocoded_column": {
      "latitude": "29.989611910044676",
      "longitude": "-90.10342398645223"
    }
  },
  {
    "service_request": "2025-1225027",
    "request_type": "Parks & Parkways",
    "request_reason": "Request Tree Service (Right of Way/Public Property)",
    "date_created": "2025-09-09T13:36:58.000",
    "date_modified": "2025-09-09T13:37:00.000",
    "request_status": "Pending",
    "responsible_agency": "Department of Parks & Parkway",
    "final_address": "3500 BLK Saint Claude Ave",
    "address_councildis": "C",
    "status": "Pending",
    "rowid": "1225027",
    "final_x": "3690607.30576",
    "final_y": "535670.970769",
    "longitude": "-90.03916479043339",
    "latitude": "29.966629742288003",
    "geocoded_column": {
      "latitude": "29.966629742288003",
      "longitude": "-90.03916479043339"
    }
  },
  {
    "service_request": "2025-1225026",
    "request_type": "Trash/Recycling",
    "request_reason": "Repair Trash Cart",
    "date_created": "2025-09-09T13:34:33.000",
    "date_modified": "2025-09-09T13:34:35.000",
    "request_status": "Pending",
    "responsible_agency": "Department of Sanitation",
    "final_address": "901 Stewart Ct",
    "address_councildis": "A",
    "status": "Assigned to Contractor",
    "contractor": "IV Waste",
    "rowid": "1225026",
    "final_x": "3673010.33992",
    "final_y": "540754.678475",
    "longitude": "-90.09456241286665",
    "latitude": "29.981142971358693",
    "geocoded_column": {
      "latitude": "29.981142971358693",
      "longitude": "-90.09456241286665"
    }
  },
  {
    "service_request": "2025-1225025",
    "request_type": "Trash/Recycling",
    "request_reason": "Request a Large Item Pick Up",
    "date_created": "2025-09-09T13:32:59.000",
    "date_modified": "2025-09-09T13:33:01.000",
    "request_status": "Pending",
    "responsible_agency": "Department of Sanitation",
    "final_address": "901 Stewart Ct",
    "address_councildis": "A",
    "status": "Assigned to Contractor",
    "contractor": "IV Waste",
    "rowid": "1225025",
    "final_x": "3673010.33992",
    "final_y": "540754.678475",
    "longitude": "-90.09456241286665",
    "latitude": "29.981142971358693",
    "geocoded_column": {
      "latitude": "29.981142971358693",
      "longitude": "-90.09456241286665"
    }
  },
  {
    "service_request": "2025-1225024",
    "request_type": "Trash/Recycling",
    "request_reason": "Request a Large Item Pick Up",
    "date_created": "2025-09-09T13:29:44.000",
    "date_modified": "2025-09-09T13:29:46.000",
    "request_status": "Pending",
    "responsible_agency": "Department of Sanitation",
    "final_address": "6900 Martin Dr",
    "address_councildis": "E",
    "status": "Assigned to Contractor",
    "contractor": "Waste Pro",
    "rowid": "1225024",
    "final_x": "3699050.20208",
    "final_y": "557776.318043",
    "longitude": "-90.01169717120273",
    "latitude": "30.027146348453442",
    "geocoded_column": {
      "latitude": "30.027146348453442",
      "longitude": "-90.01169717120273"
    }
  },
  {
    "service_request": "2025-1225023",
    "request_type": "Trash/Recycling",
    "request_reason": "Repair Recycling Cart",
    "date_created": "2025-09-09T13:28:03.000",
    "date_modified": "2025-09-09T13:28:04.000",
    "request_status": "Pending",
    "responsible_agency": "Department of Sanitation",
    "final_address": "1928 Cadiz St",
    "address_councildis": "B",
    "status": "Pending",
    "rowid": "1225023",
    "final_x": "3669926.99738",
    "final_y": "522100.674746",
    "longitude": "-90.10493265850991",
    "latitude": "29.929941907637527",
    "geocoded_column": {
      "latitude": "29.929941907637527",
      "longitude": "-90.10493265850991"
    }
  },
  {
    "service_request": "2025-1225022",
    "request_type": "Property Maintenance",
    "request_reason": "Property Maintenance",
    "date_created": "2025-09-09T13:27:27.000",
    "date_modified": "2025-09-09T13:28:37.000",
    "request_status": "Pending",
    "responsible_agency": "Department of Code Enforcement",
    "final_address": "2327 Lamanche St",
    "address_councildis": "E",
    "status": "Pending",
    "rowid": "1225022",
    "final_x": "3699672.4712",
    "final_y": "538422.163849",
    "longitude": "-90.01043694284766",
    "latitude": "29.973909890874502",
    "geocoded_column": {
      "latitude": "29.973909890874502",
      "longitude": "-90.01043694284766"
    }
  },
  {
    "service_request": "2025-1225021",
    "request_type": "Streetlights",
    "request_reason": "Streetlight Outage/Malfunction",
    "date_created": "2025-09-09T13:22:56.000",
    "date_modified": "2025-09-09T13:22:57.000",
    "request_status": "Pending",
    "responsible_agency": "Department of Public Works",
    "final_address": "4400 Jeanne Marie Pl",
    "address_councildis": "D",
    "status": "Pending",
    "rowid": "1225021",
    "final_x": "3678462.44392",
    "final_y": "548548.01301",
    "longitude": "-90.0770723334688",
    "latitude": "30.002408707105264",
    "geocoded_column": {
      "latitude": "30.002408707105264",
      "longitude": "-90.0770723334688"
    }
  },
  {
    "service_request": "2025-1225020",
    "request_type": "Abandoned Vehicles",
    "request_reason": "Abandoned/Junk Vehicles",
    "date_created": "2025-09-09T13:22:20.000",
    "date_modified": "2025-09-09T13:22:21.000",
    "request_status": "Pending",
    "responsible_agency": "Department of Public Works",
    "final_address": "106 Brunswick Ct",
    "address_councildis": "C",
    "status": "Pending",
    "rowid": "1225020",
    "final_x": "3705811.21553",
    "final_y": "517244.938677",
    "longitude": "-89.99183260927123",
    "latitude": "29.915483757341732",
    "geocoded_column": {
      "latitude": "29.915483757341732",
      "longitude": "-89.99183260927123"
    }
  },
  {
    "service_request": "2025-1225019",
    "request_type": "Trash/Recycling",
    "request_reason": "Illegal Dumping",
    "date_created": "2025-09-09T13:19:40.000",
    "date_modified": "2025-09-09T13:19:42.000",
    "request_status": "Pending",
    "responsible_agency": "Department of Sanitation",
    "final_address": "7800 S Coronet Ct",
    "address_councildis": "E",
    "status": "Pending",
    "rowid": "1225019",
    "final_x": "3702964.31018",
    "final_y": "557259.357915",
    "longitude": "-89.99934805648685",
    "latitude": "30.02560019218219",
    "geocoded_column": {
      "latitude": "30.02560019218219",
      "longitude": "-89.99934805648685"
    }
  },
  {
    "service_request": "2025-1225018",
    "request_type": "Trash/Recycling",
    "request_reason": "Order Trash Cart",
    "date_created": "2025-09-09T13:17:27.000",
    "date_modified": "2025-09-09T13:17:29.000",
    "request_status": "Pending",
    "responsible_agency": "Department of Sanitation",
    "final_address": "3513 Delachaise St",
    "address_councildis": "B",
    "status": "Assigned to Contractor",
    "contractor": "IV Waste",
    "rowid": "1225018",
    "final_x": "3671397.59175",
    "final_y": "527819.981567",
    "longitude": "-90.10009590894461",
    "latitude": "29.945624715856493",
    "geocoded_column": {
      "latitude": "29.945624715856493",
      "longitude": "-90.10009590894461"
    }
  },
  {
    "service_request": "2025-1225017",
    "request_type": "Drainage",
    "request_reason": "Illegal Dumping (Catch Basin)",
    "date_created": "2025-09-09T13:17:04.000",
    "date_modified": "2025-09-09T13:17:06.000",
    "request_status": "Pending",
    "responsible_agency": "Sewerage & Water Board",
    "final_address": "1243 Frenchmen St",
    "address_councildis": "C",
    "status": "Pending",
    "rowid": "1225017",
    "final_x": "3684560.10377",
    "final_y": "536979.353544",
    "longitude": "-90.05821579591212",
    "latitude": "29.970413757327485",
    "geocoded_column": {
      "latitude": "29.970413757327485",
      "longitude": "-90.05821579591212"
    }
  },
  {
    "service_request": "2025-1225016",
    "request_type": "Trash/Recycling",
    "request_reason": "Request a Large Item Pick Up",
    "date_created": "2025-09-09T13:14:26.000",
    "date_modified": "2025-09-09T13:14:28.000",
    "request_status": "Pending",
    "responsible_agency": "Department of Sanitation",
    "final_address": "5861 Macarthur Blvd",
    "address_councildis": "C",
    "status": "Assigned to Contractor",
    "contractor": "Richards Disposal",
    "rowid": "1225016",
    "final_x": "3705121.04587",
    "final_y": "519062.145975",
    "longitude": "-89.99394397922369",
    "latitude": "29.920502649183724",
    "geocoded_column": {
      "latitude": "29.920502649183724",
      "longitude": "-89.99394397922369"
    }
  },
  {
    "service_request": "2025-1225015",
    "request_type": "Trash/Recycling",
    "request_reason": "Request a Large Item Pick Up",
    "date_created": "2025-09-09T13:13:41.000",
    "date_modified": "2025-09-09T13:13:42.000",
    "request_status": "Pending",
    "responsible_agency": "Department of Sanitation",
    "final_address": "4494 Baccich St",
    "address_councildis": "D",
    "status": "Assigned to Contractor",
    "contractor": "IV Waste",
    "rowid": "1225015",
    "final_x": "3687756.03926",
    "final_y": "549632.721939",
    "longitude": "-90.04767433219007",
    "latitude": "30.00510782200673",
    "geocoded_column": {
      "latitude": "30.00510782200673",
      "longitude": "-90.04767433219007"
    }
  },
  {
    "service_request": "2025-1225014",
    "request_type": "Trash/Recycling",
    "request_reason": "Missed Trash Pick-Up",
    "date_created": "2025-09-09T13:13:07.000",
    "date_modified": "2025-09-09T13:13:45.000",
    "request_status": "Pending",
    "responsible_agency": "Department of Sanitation",
    "final_address": "8418 Beechwood Ct",
    "address_councildis": "E",
    "status": "Assigned to Contractor",
    "contractor": "Waste Pro",
    "rowid": "1225014",
    "final_x": "3704196.4995",
    "final_y": "560583.57859",
    "longitude": "-89.99533188557568",
    "latitude": "30.03470100264756",
    "geocoded_column": {
      "latitude": "30.03470100264756",
      "longitude": "-89.99533188557568"
    }
  },
  {
    "service_request": "2025-1225013",
    "request_type": "Trash/Recycling",
    "request_reason": "Illegal Dumping",
    "date_created": "2025-09-09T13:11:14.000",
    "date_modified": "2025-09-09T13:11:15.000",
    "request_status": "Pending",
    "responsible_agency": "Department of Sanitation",
    "final_address": "7771 S Coronet Ct",
    "address_councildis": "E",
    "status": "Pending",
    "rowid": "1225013",
    "final_x": "3702826.68049",
    "final_y": "557313.189531",
    "longitude": "-89.9997809641292",
    "latitude": "30.02575261328651",
    "geocoded_column": {
      "latitude": "30.02575261328651",
      "longitude": "-89.9997809641292"
    }
  },