[
  {
    "service_request": "2026-1271554",
    "request_type": "Drainage",
    "request_reason": "Catch Basin Not Draining",
    "date_created": "2026-04-06T23:48:54.000",
    "date_modified": "2026-04-06T23:48:55.000",
    "request_status": "Pending",
    "responsible_agency": "Sewerage & Water Board",
    "final_address": "1650 Felicity St",
    "address_councildis": "B",
    "status": "Pending",
    "rowid": "1271554",
    "final_x": "3678241.10709",
    "final_y": "524746.349308",
    "longitude": "-90.07859494994605",
    "latitude": "29.93696894365686",
    "geocoded_column": {
      "latitude": "29.93696894365686",
      "longitude": "-90.07859494994605"
    }
  },
  {
    "service_request": "2026-1271553",
    "request_type": "Trash/Recycling",
    "request_reason": "Request a Large Item Pick Up",
    "date_created": "2026-04-06T23:07:52.000",
    "date_modified": "2026-04-06T23:07:54.000",
    "request_status": "Pending",
    "responsible_agency": "Department of Sanitation",
    "final_address": "3920 S Pin Oak Ave",
    "address_councildis": "C",
    "status": "Assigned to Contractor",
    "contractor": "Richards Disposal",
    "rowid": "1271553",
    "final_x": "3704935.83217",
    "final_y": "513637.39877",
    "longitude": "-89.99472864771663",
    "latitude": "29.905592410816674",
    "geocoded_column": {
      "latitude": "29.905592410816674",
      "longitude": "-89.99472864771663"
    }
  },
  {
    "service_request": "2026-1271552",
    "request_type": "Streetlights",
    "request_reason": "Streetlight Outage/Malfunction",
    "date_created": "2026-04-06T23:02:27.000",
    "date_modified": "2026-04-06T23:02:30.000",
    "request_status": "Pending",
    "responsible_agency": "Department of Public Works",
    "final_address": "8021 Mercier St",
    "address_councildis": "E",
    "status": "Pending",
    "rowid": "1271552",
    "final_x": "3710769.03294",
    "final_y": "567557.457636",
    "longitude": "-89.97430052548572",
    "latitude": "30.05366370309794",
    "geocoded_column": {
      "latitude": "30.05366370309794",
      "longitude": "-89.97430052548572"
    }
  },
  {
    "service_request": "2026-1271551",
    "request_type": "Trash/Recycling",
    "request_reason": "Request a Large Item Pick Up",
    "date_created": "2026-04-06T22:39:32.000",
    "date_modified": "2026-04-06T22:39:34.000",
    "request_status": "Pending",
    "responsible_agency": "Department of Sanitation",
    "final_address": "625 Delaronde St",
    "address_councildis": "C",
    "status": "Assigned to Contractor",
    "contractor": "Richards Disposal",
    "rowid": "1271551",
    "final_x": "3687423.28553",
    "final_y": "531170.328386",
    "longitude": "-90.04937913791635",
    "latitude": "29.954353031746777",
    "geocoded_column": {
      "latitude": "29.954353031746777",
      "longitude": "-90.04937913791635"
    }
  },
  {
    "service_request": "2026-1271550",
    "request_type": "Health Related Request",
    "request_reason": "Noise Ordinance Complaint",
    "date_created": "2026-04-06T22:25:36.000",
    "date_modified": "2026-04-06T22:25:48.000",
    "request_status": "Pending",
    "responsible_agency": "Health Department",
    "final_address": "801 Bourbon St, New Orleans, Louisiana, 70116",
    "address_councildis": "C",
    "status": "Pending",
    "rowid": "1271550",
    "final_x": "3682490.98735",
    "final_y": "533018.672772",
    "longitude": "-90.06488875731978",
    "latitude": "29.959586396383013",
    "geocoded_column": {
      "latitude": "29.959586396383013",
      "longitude": "-90.06488875731978"
    }
  },
  {
    "service_request": "2026-1271549",
    "request_type": "Trash/Recycling",
    "request_reason": "Repair Trash Cart",
    "date_created": "2026-04-06T22:21:48.000",
    "date_modified": "2026-04-06T22:21:50.000",
    "request_status": "Pending",
    "responsible_agency": "Department of Sanitation",
    "final_address": "100 BLK S Scott St",
    "address_councildis": "A",
    "status": "Assigned to Contractor",
    "contractor": "IV Waste",
    "rowid": "1271549",
    "final_x": "3671638.4477",
    "final_y": "537644.588869",
    "longitude": "-90.09900129491528",
    "latitude": "29.97263199062984",
    "geocoded_column": {
      "latitude": "29.97263199062984",
      "longitude": "-90.09900129491528"
    }
  },
  {
    "service_request": "2026-1271548",
    "request_type": "Trash/Recycling",
    "request_reason": "Request a Large Item Pick Up",
    "date_created": "2026-04-06T21:41:40.000",
    "date_modified": "2026-04-06T21:41:42.000",
    "request_status": "Pending",
    "responsible_agency": "Department of Sanitation",
    "final_address": "431 Red Allen Way",
    "address_councildis": "C",
    "status": "Assigned to Contractor",
    "contractor": "Richards Disposal",
    "rowid": "1271548",
    "final_x": "3686787.38178",
    "final_y": "528658.614784",
    "longitude": "-90.05147578973634",
    "latitude": "29.94746625527619",
    "geocoded_column": {
      "latitude": "29.94746625527619",
      "longitude": "-90.05147578973634"
    }
  },
  {
    "service_request": "2026-1271547",
    "request_type": "Streetlights",
    "request_reason": "Streetlight Outage/Malfunction",
    "date_created": "2026-04-06T21:25:09.000",
    "date_modified": "2026-04-06T21:25:11.000",
    "request_status": "Pending",
    "responsible_agency": "Department of Public Works",
    "final_address": "7321 Northgate Dr",
    "address_councildis": "E",
    "status": "Pending",
    "rowid": "1271547",
    "final_x": "3713365.4917",
    "final_y": "565667.425122",
    "longitude": "-89.9661651373025",
    "latitude": "30.048381952151942",
    "geocoded_column": {
      "latitude": "30.048381952151942",
      "longitude": "-89.9661651373025"
    }
  },
  {
    "service_request": "2026-1271546",
    "request_type": "Trash/Recycling",
    "request_reason": "Request a Large Item Pick Up",
    "date_created": "2026-04-06T21:15:28.000",
    "date_modified": "2026-04-06T21:15:30.000",
    "request_status": "Pending",
    "responsible_agency": "Department of Sanitation",
    "final_address": "1817 Dublin St",
    "address_councildis": "A",
    "status": "Assigned to Contractor",
    "contractor": "IV Waste",
    "rowid": "1271546",
    "final_x": "3663255.13875",
    "final_y": "530254.916417",
    "longitude": "-90.12572339879524",
    "latitude": "29.9525584589749",
    "geocoded_column": {
      "latitude": "29.9525584589749",
      "longitude": "-90.12572339879524"
    }
  },
  {
    "service_request": "2026-1271545",
    "request_type": "Trash/Recycling",
    "request_reason": "Missed Trash Pick-Up",
    "date_created": "2026-04-06T21:02:51.000",
    "date_modified": "2026-04-06T21:02:53.000",
    "request_status": "Pending",
    "responsible_agency": "Department of Sanitation",
    "final_address": "13136 Linden St",
    "address_councildis": "E",
    "status": "Assigned to Contractor",
    "contractor": "Waste Pro",
    "rowid": "1271545",
    "final_x": "3716321.86533",
    "final_y": "570628.387111",
    "longitude": "-89.95663300207842",
    "latitude": "30.061925232349026",
    "geocoded_column": {
      "latitude": "30.061925232349026",
      "longitude": "-89.95663300207842"
    }
  },
  {
    "service_request": "2026-1271544",
    "request_type": "Streetlights",
    "request_reason": "Streetlight Outage/Malfunction",
    "date_created": "2026-04-06T20:54:41.000",
    "date_modified": "2026-04-06T20:54:43.000",
    "request_status": "Pending",
    "responsible_agency": "Department of Public Works",
    "final_address": "315 Bermuda St",
    "address_councildis": "C",
    "status": "Pending",
    "rowid": "1271544",
    "final_x": "3686336.46281",
    "final_y": "530659.154498",
    "longitude": "-90.05282892371683",
    "latitude": "29.952980919859105",
    "geocoded_column": {
      "latitude": "29.952980919859105",
      "longitude": "-90.05282892371683"
    }
  },
  {
    "service_request": "2026-1271543",
    "request_type": "Business Issues",
    "request_reason": "Illegal Business",
    "date_created": "2026-04-06T20:50:39.000",
    "date_modified": "2026-04-06T20:50:41.000",
    "request_status": "Pending",
    "responsible_agency": "Bureau of Revenue",
    "final_address": "544 Bourbon St",
    "address_councildis": "C",
    "status": "Pending",
    "rowid": "1271543",
    "final_x": "3682036.63554",
    "final_y": "532331.743875",
    "longitude": "-90.06634747930269",
    "latitude": "29.957711398051075",
    "geocoded_column": {
      "latitude": "29.957711398051075",
      "longitude": "-90.06634747930269"
    }
  },
  {
    "service_request": "2026-1271542",
    "request_type": "Trash/Recycling",
    "request_reason": "Request a Large Item Pick Up",
    "date_created": "2026-04-06T20:41:02.000",
    "date_modified": "2026-04-06T20:41:03.000",
    "request_status": "Pending",
    "responsible_agency": "Department of Sanitation",
    "final_address": "3232 Vincennes Pl",
    "address_councildis": "B",
    "status": "Assigned to Contractor",
    "contractor": "IV Waste",
    "rowid": "1271542",
    "final_x": "3667785.01146",
    "final_y": "528078.154047",
    "longitude": "-90.11149335525418",
    "latitude": "29.946441022595504",
    "geocoded_column": {
      "latitude": "29.946441022595504",
      "longitude": "-90.11149335525418"
    }
  },
  {
    "service_request": "2026-1271541",
    "request_type": "Parks & Parkways",
    "request_reason": "Request Tree Service (Right of Way/Public Property)",
    "date_created": "2026-04-06T20:38:54.000",
    "date_modified": "2026-04-06T20:38:56.000",
    "request_status": "Pending",
    "responsible_agency": "Department of Parks & Parkway",
    "final_address": "246 Audubon Blvd",
    "address_councildis": "A",
    "status": "Pending",
    "rowid": "1271541",
    "final_x": "3666447.64999",
    "final_y": "528967.632192",
    "longitude": "-90.11568605014573",
    "latitude": "29.94892594380154",
    "geocoded_column": {
      "latitude": "29.94892594380154",
      "longitude": "-90.11568605014573"
    }
  },
  {
    "service_request": "2026-1271540",
    "request_type": "Safety & Permits",
    "request_reason": "Licenses & Permits",
    "date_created": "2026-04-06T20:29:15.000",
    "date_modified": "2026-04-06T20:29:16.000",
    "request_status": "Pending",
    "responsible_agency": "Safety and Permits",
    "final_address": "217 Bourbon St",
    "address_councildis": "C",
    "status": "Pending",
    "rowid": "1271540",
    "final_x": "3681227.88431",
    "final_y": "531360.770242",
    "longitude": "-90.06893511250594",
    "latitude": "29.955066114185197",
    "geocoded_column": {
      "latitude": "29.955066114185197",
      "longitude": "-90.06893511250594"
    }
  },
  {
    "service_request": "2026-1271539",
    "request_type": "Trash/Recycling",
    "request_reason": "Order Second Trash Cart",
    "date_created": "2026-04-06T20:22:01.000",
    "date_modified": "2026-04-06T20:22:03.000",
    "request_status": "Pending",
    "responsible_agency": "Department of Sanitation",
    "final_address": "2423 Annunciation St",
    "address_councildis": "B",
    "status": "Assigned to Contractor",
    "contractor": "IV Waste",
    "rowid": "1271539",
    "final_x": "3678504.69358",
    "final_y": "520512.516792",
    "longitude": "-90.07790924053496",
    "latitude": "29.92531935164262",
    "geocoded_column": {
      "latitude": "29.92531935164262",
      "longitude": "-90.07790924053496"
    }
  },
  {
    "service_request": "2026-1271538",
    "request_type": "Trash/Recycling",
    "request_reason": "Request a Large Item Pick Up",
    "date_created": "2026-04-06T20:05:19.000",
    "date_modified": "2026-04-06T20:05:21.000",
    "request_status": "Pending",
    "responsible_agency": "Department of Sanitation",
    "final_address": "1724 N Robertson St",
    "address_councildis": "C",
    "status": "Assigned to Contractor",
    "contractor": "IV Waste",
    "rowid": "1271538",
    "final_x": "3683242.28751",
    "final_y": "537603.186632",
    "longitude": "-90.06235574921246",
    "latitude": "29.972169339820468",
    "geocoded_column": {
      "latitude": "29.972169339820468",
      "longitude": "-90.06235574921246"
    }
  },
  {
    "service_request": "2026-1271537",
    "request_type": "Trash/Recycling",
    "request_reason": "Replace Trash Cart",
    "date_created": "2026-04-06T19:53:52.000",
    "date_modified": "2026-04-06T19:53:55.000",
    "request_status": "Pending",
    "responsible_agency": "Department of Sanitation",
    "final_address": "8027 Trapier Ave",
    "address_councildis": "E",
    "status": "Assigned to Contractor",
    "contractor": "Waste Pro",
    "rowid": "1271537",
    "final_x": "3706029.78123",
    "final_y": "564709.594402",
    "longitude": "-89.98938556171903",
    "latitude": "30.04598692361931",
    "geocoded_column": {
      "latitude": "30.04598692361931",
      "longitude": "-89.98938556171903"
    }
  },
  {
    "service_request": "2026-1271536",
    "request_type": "Property Maintenance",
    "request_reason": "Property Maintenance",
    "date_created": "2026-04-06T19:38:30.000",
    "date_modified": "2026-04-06T19:38:32.000",
    "request_status": "Pending",
    "responsible_agency": "Department of Code Enforcement",
    "final_address": "1535 Canal St",
    "address_councildis": "C",
    "status": "Pending",
    "rowid": "1271536",
    "final_x": "3678936.45589",
    "final_y": "532521.076676",
    "longitude": "-90.07613038878848",
    "latitude": "29.958325892153642",
    "geocoded_column": {
      "latitude": "29.958325892153642",
      "longitude": "-90.07613038878848"
    }
  },
  {
    "service_request": "2026-1271535",
    "request_type": "Trash/Recycling",
    "request_reason": "Replace Trash Cart",
    "date_created": "2026-04-06T19:35:21.000",
    "date_modified": "2026-04-06T19:35:22.000",
    "request_status": "Pending",
    "responsible_agency": "Department of Sanitation",
    "final_address": "7601 Berg Rd",
    "address_councildis": "E",
    "status": "Assigned to Contractor",
    "contractor": "Waste Pro",
    "rowid": "1271535",
    "final_x": "3712142.36107",
    "final_y": "566511.358755",
    "longitude": "-89.96999916537659",
    "latitude": "30.050742498190353",
    "geocoded_column": {
      "latitude": "30.050742498190353",
      "longitude": "-89.96999916537659"
    }
  },
  {
    "service_request": "2026-1271534",
    "request_type": "Trash/Recycling",
    "request_reason": "Order Second Trash Cart",
    "date_created": "2026-04-06T19:33:36.000",
    "date_modified": "2026-04-06T19:33:38.000",
    "request_status": "Pending",
    "responsible_agency": "Department of Sanitation",
    "final_address": "7601 Berg Rd",
    "address_councildis": "E",
    "status": "Assigned to Contractor",
    "contractor": "Waste Pro",
    "rowid": "1271534",
    "final_x": "3712142.36107",
    "final_y": "566511.358755",
    "longitude": "-89.96999916537659",
    "latitude": "30.050742498190353",
    "geocoded_column": {
      "latitude": "30.050742498190353",
      "longitude": "-89.96999916537659"
    }
  },
  {
    "service_request": "2026-1271533",
    "request_type": "Trash/Recycling",
    "request_reason": "Request a Large Item Pick Up",
    "date_created": "2026-04-06T19:22:58.000",
    "date_modified": "2026-04-06T19:23:01.000",
    "request_status": "Pending",
    "responsible_agency": "Department of Sanitation",
    "final_address": "2014 N Roman St",
    "address_councildis": "C",
    "status": "Assigned to Contractor",
    "contractor": "IV Waste",
    "rowid": "1271533",
    "final_x": "3684166.55145",
    "final_y": "538797.082889",
    "longitude": "-90.05939485279828",
    "latitude": "29.97542391658076",
    "geocoded_column": {
      "latitude": "29.97542391658076",
      "longitude": "-90.05939485279828"
    }
  },
  {
    "service_request": "2026-1271532",
    "request_type": "Roads and Streets",
    "request_reason": "Push-up/Pavement Expansion",
    "date_created": "2026-04-06T19:08:38.000",
    "date_modified": "2026-04-06T19:08:40.000",
    "request_status": "Pending",
    "responsible_agency": "Department of Public Works",
    "final_address": "2261 Beck St",
    "address_councildis": "C",
    "status": "Pending",
    "rowid": "1271532",
    "final_x": "3700400.53623",
    "final_y": "522398.76249",
    "longitude": "-90.00872257281247",
    "latitude": "29.929828075880238",
    "geocoded_column": {
      "latitude": "29.929828075880238",
      "longitude": "-90.00872257281247"
    }
  },
  {
    "service_request": "2026-1271531",
    "request_type": "Trash/Recycling",
    "request_reason": "Order Recycling Cart",
    "date_created": "2026-04-06T18:52:12.000",
    "date_modified": "2026-04-06T18:52:14.000",
    "request_status": "Pending",
    "responsible_agency": "Department of Sanitation",
    "final_address": "3514 Hamburg St",
    "address_councildis": "D",
    "status": "Pending",
    "rowid": "1271531",
    "final_x": "3679258.80699",
    "final_y": "545255.799183",
    "longitude": "-90.07467076875083",
    "latitude": "29.993332253853644",
    "geocoded_column": {
      "latitude": "29.993332253853644",
      "longitude": "-90.07467076875083"
    }
  },
  {
    "service_request": "2026-1271530",
    "request_type": "Trash/Recycling",
    "request_reason": "Order Trash Cart",
    "date_created": "2026-04-06T18:51:23.000",
    "date_modified": "2026-04-06T18:51:25.000",
    "request_status": "Pending",
    "responsible_agency": "Department of Sanitation",
    "final_address": "3512 Hamburg St",
    "address_councildis": "D",
    "status": "Assigned to Contractor",
    "contractor": "IV Waste",
    "rowid": "1271530",
    "final_x": "3679259.63957",
    "final_y": "545242.874255",
    "longitude": "-90.07466858724412",
    "latitude": "29.993296689708025",
    "geocoded_column": {
      "latitude": "29.993296689708025",
      "longitude": "-90.07466858724412"
    }
  },
  {
    "service_request": "2026-1271529",
    "request_type": "Trash/Recycling",
    "request_reason": "Order Trash Cart",
    "date_created": "2026-04-06T18:50:03.000",
    "date_modified": "2026-04-06T18:50:04.000",
    "request_status": "Pending",
    "responsible_agency": "Department of Sanitation",
    "final_address": "3512 Hamburg St",
    "address_councildis": "D",
    "status": "Assigned to Contractor",
    "contractor": "IV Waste",
    "rowid": "1271529",
    "final_x": "3679259.63957",
    "final_y": "545242.874255",
    "longitude": "-90.07466858724412",
    "latitude": "29.993296689708025",
    "geocoded_column": {
      "latitude": "29.993296689708025",
      "longitude": "-90.07466858724412"
    }
  },
  {
    "service_request": "2026-1271528",
    "request_type": "Trash/Recycling",
    "request_reason": "Missed Trash Pick-Up",
    "date_created": "2026-04-06T18:49:16.000",
    "date_modified": "2026-04-06T18:49:18.000",
    "request_status": "Pending",
    "responsible_agency": "Department of Sanitation",
    "final_address": "8804 Apple St",
    "address_councildis": "A",
    "status": "Assigned to Contractor",
    "contractor": "IV Waste",
    "rowid": "1271528",
    "final_x": "3663449.56301",
    "final_y": "533783.606021",
    "longitude": "-90.12499199448412",
    "latitude": "29.962255572729166",
    "geocoded_column": {
      "latitude": "29.962255572729166",
      "longitude": "-90.12499199448412"
    }
  },
  {
    "service_request": "2026-1271527",
    "request_type": "Trash/Recycling",
    "request_reason": "Request a Large Item Pick Up",
    "date_created": "2026-04-06T18:41:50.000",
    "date_modified": "2026-04-06T18:41:52.000",
    "request_status": "Pending",
    "responsible_agency": "Department of Sanitation",
    "final_address": "617 David St",
    "address_councildis": "A",
    "status": "Assigned to Contractor",
    "contractor": "IV Waste",
    "rowid": "1271527",
    "final_x": "3672047.77876",
    "final_y": "540096.798859",
    "longitude": "-90.09762503075697",
    "latitude": "29.97936260530238",
    "geocoded_column": {
      "latitude": "29.97936260530238",
      "longitude": "-90.09762503075697"
    }
  },
  {
    "service_request": "2026-1271526",
    "request_type": "Trash/Recycling",
    "request_reason": "Damaged Caused By Contractor",
    "date_created": "2026-04-06T18:38:58.000",
    "date_modified": "2026-04-06T18:39:01.000",
    "request_status": "Pending",
    "responsible_agency": "Department of Sanitation",
    "final_address": "7220 Farwood Dr",
    "address_councildis": "E",
    "status": "Assigned to Contractor",
    "contractor": "Waste Pro",
    "rowid": "1271526",
    "final_x": "3701157.74999",
    "final_y": "556728.537178",
    "longitude": "-90.00507593757095",
    "latitude": "30.02419834557102",
    "geocoded_column": {
      "latitude": "30.02419834557102",
      "longitude": "-90.00507593757095"
    }
  },
  {
    "service_request": "2026-1271525",
    "request_type": "Trash/Recycling",
    "request_reason": "Damaged Caused By Contractor",
    "date_created": "2026-04-06T18:30:08.000",
    "date_modified": "2026-04-06T18:30:11.000",
    "request_status": "Pending",
    "responsible_agency": "Department of Sanitation",
    "final_address": "0 BLK Blanc Pl",
    "address_councildis": "B",
    "status": "Assigned to Contractor",
    "contractor": "IV Waste",
    "rowid": "1271525",
    "final_x": "3667951.08401",
    "final_y": "520874.262829",
    "longitude": "-90.11121159835395",
    "latitude": "29.926627762655404",
    "geocoded_column": {
      "latitude": "29.926627762655404",
      "longitude": "-90.11121159835395"
    }
  },
  {
    "service_request": "2026-1271524",
    "request_type": "Trash/Recycling",
    "request_reason": "Return Recycling Cart",
    "date_created": "2026-04-06T18:10:37.000",
    "date_modified": "2026-04-06T18:10:39.000",
    "request_status": "Pending",
    "responsible_agency": "Department of Sanitation",
    "final_address": "228 S Cortez St",
    "address_councildis": "A",
    "status": "Pending",
    "rowid": "1271524",
    "final_x": "3671716.04251",
    "final_y": "537043.462472",
    "longitude": "-90.09877669037786",
    "latitude": "29.970976797235696",
    "geocoded_column": {
      "latitude": "29.970976797235696",
      "longitude": "-90.09877669037786"
    }
  },
  {
    "service_request": "2026-1271523",
    "request_type": "Trash/Recycling",
    "request_reason": "Missed Trash Pick-Up",
    "date_created": "2026-04-06T17:57:02.000",
    "date_modified": "2026-04-06T18:19:18.000",
    "case_close_date": "2026-04-06T13:19:17.000",
    "request_status": "Closed",
    "responsible_agency": "Department of Sanitation",
    "final_address": "4106 Duplessis St",
    "address_councildis": "D",
    "status": "Invalid Request",
    "contractor": "IV Waste",
    "contractor_action": "Invalid Request",
    "rowid": "1271523",
    "final_x": "3678296.5092",
    "final_y": "547330.676625",
    "longitude": "-90.07763868629011",
    "latitude": "29.99906646498025",
    "geocoded_column": {
      "latitude": "29.99906646498025",
      "longitude": "-90.07763868629011"
    }
  },
  {
    "service_request": "2026-1271522",
    "request_type": "Trash/Recycling",
    "request_reason": "Request a Large Item Pick Up",
    "date_created": "2026-04-06T17:46:07.000",
    "date_modified": "2026-04-06T17:46:09.000",
    "request_status": "Pending",
    "responsible_agency": "Department of Sanitation",
    "final_address": "1249 Michael St",
    "address_councildis": "C",
    "status": "Assigned to Contractor",
    "contractor": "Richards Disposal",
    "rowid": "1271522",
    "final_x": "3697148.77015",
    "final_y": "526565.909246",
    "longitude": "-90.01883686965601",
    "latitude": "29.941389253919663",
    "geocoded_column": {
      "latitude": "29.941389253919663",
      "longitude": "-90.01883686965601"
    }
  },
  {
    "service_request": "2026-1271521",
    "request_type": "Trash/Recycling",
    "request_reason": "Request a Large Item Pick Up",
    "date_created": "2026-04-06T17:31:07.000",
    "date_modified": "2026-04-06T17:31:09.000",
    "request_status": "Pending",
    "responsible_agency": "Department of Sanitation",
    "final_address": "79 Flamingo St",
    "address_councildis": "D",
    "status": "Assigned to Contractor",
    "contractor": "IV Waste",
    "rowid": "1271521",
    "final_x": "3674388.75534",
    "final_y": "555770.687641",
    "longitude": "-90.08969399490917",
    "latitude": "30.02239066540233",
    "geocoded_column": {
      "latitude": "30.02239066540233",
      "longitude": "-90.08969399490917"
    }
  },
  {
    "service_request": "2026-1271520",
    "request_type": "Trash/Recycling",
    "request_reason": "Request a Large Item Pick Up",
    "date_created": "2026-04-06T17:14:31.000",
    "date_modified": "2026-04-06T17:14:32.000",
    "request_status": "Pending",
    "responsible_agency": "Department of Sanitation",
    "final_address": "1109 State St Apt 2A",
    "address_councildis": "A",
    "status": "Assigned to Contractor",
    "contractor": "IV Waste",
    "rowid": "1271520",
    "final_x": "3665149.17108",
    "final_y": "520262.403832",
    "longitude": "-90.12007695995197",
    "latitude": "29.92502721813296",
    "geocoded_column": {
      "latitude": "29.92502721813296",
      "longitude": "-90.12007695995197"
    }
  },
  {
    "service_request": "2026-1271519",
    "request_type": "Trash/Recycling",
    "request_reason": "Order Trash Cart",
    "date_created": "2026-04-06T17:13:03.000",
    "date_modified": "2026-04-06T17:13:05.000",
    "request_status": "Pending",
    "responsible_agency": "Department of Sanitation",
    "final_address": "833 Esplanade Ave",
    "address_councildis": "C",
    "status": "Assigned to Contractor",
    "contractor": "IV Waste",
    "rowid": "1271519",
    "final_x": "3683599.29589",
    "final_y": "534845.281414",
    "longitude": "-90.06132494810703",
    "latitude": "29.96457516089759",
    "geocoded_column": {
      "latitude": "29.96457516089759",
      "longitude": "-90.06132494810703"
    }
  },
  {
    "service_request": "2026-1271518",
    "request_type": "Trash/Recycling",
    "request_reason": "Order Trash Cart",
    "date_created": "2026-04-06T17:09:49.000",
    "date_modified": "2026-04-06T17:09:51.000",
    "request_status": "Pending",
    "responsible_agency": "Department of Sanitation",
    "final_address": "1833 Esplanade Ave",
    "address_councildis": "D",
    "status": "Assigned to Contractor",
    "contractor": "IV Waste",
    "rowid": "1271518",
    "final_x": "3680594.65295",
    "final_y": "537309.57332",
    "longitude": "-90.07072763702172",
    "latitude": "29.97144249019576",
    "geocoded_column": {
      "latitude": "29.97144249019576",
      "longitude": "-90.07072763702172"
    }
  },
  {
    "service_request": "2026-1271517",
    "request_type": "Trash/Recycling",
    "request_reason": "Request a Large Item Pick Up",
    "date_created": "2026-04-06T17:08:03.000",
    "date_modified": "2026-04-06T17:08:05.000",
    "request_status": "Pending",
    "responsible_agency": "Department of Sanitation",
    "final_address": "304 River Oaks Dr",
    "address_councildis": "C",
    "status": "Assigned to Contractor",
    "contractor": "Richards Disposal",
    "rowid": "1271517",
    "final_x": "3701628.88829",
    "final_y": "522687.721082",
    "longitude": "-90.00483432769673",
    "latitude": "29.93058350947907",
    "geocoded_column": {
      "latitude": "29.93058350947907",
      "longitude": "-90.00483432769673"
    }
  },
  {
    "service_request": "2026-1271516",
    "request_type": "Trash/Recycling",
    "request_reason": "Order Recycling Cart",
    "date_created": "2026-04-06T16:58:49.000",
    "date_modified": "2026-04-06T16:58:51.000",
    "request_status": "Pending",
    "responsible_agency": "Department of Sanitation",
    "final_address": "6944 Foch Rd",
    "address_councildis": "D",
    "status": "Pending",
    "rowid": "1271516",
    "final_x": "3696475.82365",
    "final_y": "556607.435866",
    "longitude": "-90.01987426705585",
    "latitude": "30.024013762167378",
    "geocoded_column": {
      "latitude": "30.024013762167378",
      "longitude": "-90.01987426705585"
    }
  },
  {
    "service_request": "2026-1271515",
    "request_type": "Trash/Recycling",
    "request_reason": "Repair Trash Cart",
    "date_created": "2026-04-06T16:53:14.000",
    "date_modified": "2026-04-06T16:53:28.000",
    "request_status": "Pending",
    "responsible_agency": "Department of Sanitation",
    "final_address": "7525 Oak St",
    "address_councildis": "A",
    "status": "Assigned to Contractor",
    "contractor": "IV Waste",
    "rowid": "1271515",
    "final_x": "3663549.58375",
    "final_y": "526991.159806",
    "longitude": "-90.12490235463582",
    "latitude": "29.943575641848692",
    "geocoded_column": {
      "latitude": "29.943575641848692",
      "longitude": "-90.12490235463582"
    }
  },
  {
    "service_request": "2026-1271514",
    "request_type": "Trash/Recycling",
    "request_reason": "Request a Large Item Pick Up",
    "date_created": "2026-04-06T16:50:20.000",
    "date_modified": "2026-04-06T16:50:22.000",
    "request_status": "Pending",
    "responsible_agency": "Department of Sanitation",
    "final_address": "7250 Yorktown Dr",
    "address_councildis": "E",
    "status": "Assigned to Contractor",
    "contractor": "Waste Pro",
    "rowid": "1271514",
    "final_x": "3705692.65047",
    "final_y": "561424.265246",
    "longitude": "-89.99057273367147",
    "latitude": "30.03696443773785",
    "geocoded_column": {
      "latitude": "30.03696443773785",
      "longitude": "-89.99057273367147"
    }
  },
  {
    "service_request": "2026-1271513",
    "request_type": "Trash/Recycling",
    "request_reason": "Request a Large Item Pick Up",
    "date_created": "2026-04-06T16:47:59.000",
    "date_modified": "2026-04-06T16:48:01.000",
    "request_status": "Pending",
    "responsible_agency": "Department of Sanitation",
    "final_address": "6944 Foch Rd",
    "address_councildis": "D",
    "status": "Assigned to Contractor",
    "contractor": "Waste Pro",
    "rowid": "1271513",
    "final_x": "3696475.82365",
    "final_y": "556607.435866",
    "longitude": "-90.01987426705585",
    "latitude": "30.024013762167378",
    "geocoded_column": {
      "latitude": "30.024013762167378",
      "longitude": "-90.01987426705585"
    }
  },
  {
    "service_request": "2026-1271512",
    "request_type": "Trash/Recycling",
    "request_reason": "Request a Large Item Pick Up",
    "date_created": "2026-04-06T16:42:02.000",
    "date_modified": "2026-04-06T16:42:04.000",
    "request_status": "Pending",
    "responsible_agency": "Department of Sanitation",
    "final_address": "7731 Sandpiper Dr",
    "address_councildis": "E",
    "status": "Assigned to Contractor",
    "contractor": "Waste Pro",
    "rowid": "1271512",
    "final_x": "3715693.22124",
    "final_y": "570100.430503",
    "longitude": "-89.95864015187043",
    "latitude": "30.060494323178062",
    "geocoded_column": {
      "latitude": "30.060494323178062",
      "longitude": "-89.95864015187043"
    }
  },
  {
    "service_request": "2026-1271511",
    "request_type": "Trash/Recycling",
    "request_reason": "Damaged Caused By Contractor",
    "date_created": "2026-04-06T16:38:15.000",
    "date_modified": "2026-04-06T16:38:17.000",
    "request_status": "Pending",
    "responsible_agency": "Department of Sanitation",
    "final_address": "2214 Brainard St",
    "address_councildis": "B",
    "status": "Assigned to Contractor",
    "contractor": "IV Waste",
    "rowid": "1271511",
    "final_x": "3677105.07374",
    "final_y": "524111.881212",
    "longitude": "-90.0822033417107",
    "latitude": "29.93525852158967",
    "geocoded_column": {
      "latitude": "29.93525852158967",
      "longitude": "-90.0822033417107"
    }
  },
  {
    "service_request": "2026-1271510",
    "request_type": "Trash/Recycling",
    "request_reason": "Request a Large Item Pick Up",
    "date_created": "2026-04-06T16:37:44.000",
    "date_modified": "2026-04-06T16:37:45.000",
    "request_status": "Pending",
    "responsible_agency": "Department of Sanitation",
    "final_address": "2560 N Galvez St",
    "address_councildis": "D",
    "status": "Assigned to Contractor",
    "contractor": "IV Waste",
    "rowid": "1271510",
    "final_x": "3687422.8726",
    "final_y": "540176.453323",
    "longitude": "-90.04906170810196",
    "latitude": "29.979116749797377",
    "geocoded_column": {
      "latitude": "29.979116749797377",
      "longitude": "-90.04906170810196"
    }
  },
  {
    "service_request": "2026-1271509",
    "request_type": "Drainage",
    "request_reason": "Catch Basin Not Draining",
    "date_created": "2026-04-06T16:35:20.000",
    "date_modified": "2026-04-06T16:35:22.000",
    "request_status": "Pending",
    "responsible_agency": "Sewerage & Water Board",
    "final_address": "ST PETER ST & BOURBON ST",
    "address_councildis": "C",
    "status": "Pending",
    "rowid": "1271509",
    "final_x": "3682250.2",
    "final_y": "532663.48",
    "longitude": "-90.06566151625142",
    "latitude": "29.958617064477945",
    "geocoded_column": {
      "latitude": "29.958617064477945",
      "longitude": "-90.06566151625142"
    }
  },
  {
    "service_request": "2026-1271508",
    "request_type": "Mosquito, Termite & Rodent Control",
    "request_reason": "Mosquito Complaint",
    "date_created": "2026-04-06T16:29:22.000",
    "date_modified": "2026-04-06T16:30:19.000",
    "request_status": "Pending",
    "responsible_agency": "Mosquito, Termite & Rodent Control Board",
    "final_address": "1774 N Tonti St",
    "address_councildis": "D",
    "status": "Pending",
    "rowid": "1271508",
    "final_x": "3681164.48687",
    "final_y": "540411.971915",
    "longitude": "-90.06881989454756",
    "latitude": "29.979955733235236",
    "geocoded_column": {
      "latitude": "29.979955733235236",
      "longitude": "-90.06881989454756"
    }
  },
  {
    "service_request": "2026-1271507",
    "request_type": "Trash/Recycling",
    "request_reason": "Request a Large Item Pick Up",
    "date_created": "2026-04-06T16:29:10.000",
    "date_modified": "2026-04-06T16:29:12.000",
    "request_status": "Pending",
    "responsible_agency": "Department of Sanitation",
    "final_address": "1315 Ferry Pl",
    "address_councildis": "A",
    "status": "Assigned to Contractor",
    "contractor": "IV Waste",
    "rowid": "1271507",
    "final_x": "3660089.57421",
    "final_y": "530721.480002",
    "longitude": "-90.13570347608284",
    "latitude": "29.953932714298965",
    "geocoded_column": {
      "latitude": "29.953932714298965",
      "longitude": "-90.13570347608284"
    }
  },
  {
    "service_request": "2026-1271506",
    "request_type": "Trash/Recycling",
    "request_reason": "Request a Large Item Pick Up",
    "date_created": "2026-04-06T16:28:15.000",
    "date_modified": "2026-04-06T16:28:17.000",
    "request_status": "Pending",
    "responsible_agency": "Department of Sanitation",
    "final_address": "7633 Lady Gray St",
    "address_councildis": "E",
    "status": "Assigned to Contractor",
    "contractor": "Waste Pro",
    "rowid": "1271506",
    "final_x": "3709967.17003",
    "final_y": "565367.27581",
    "longitude": "-89.97691693632764",
    "latitude": "30.047667714060427",
    "geocoded_column": {
      "latitude": "30.047667714060427",
      "longitude": "-89.97691693632764"
    }
  },
  {
    "service_request": "2026-1271505",
    "request_type": "Trash/Recycling",
    "request_reason": "Request a Large Item Pick Up",
    "date_created": "2026-04-06T16:17:48.000",
    "date_modified": "2026-04-06T16:17:50.000",
    "request_status": "Pending",
    "responsible_agency": "Department of Sanitation",
    "final_address": "5265 Laurel St",
    "address_councildis": "B",
    "status": "Assigned to Contractor",
    "contractor": "IV Waste",
    "rowid": "1271505",
    "final_x": "3667475.12129",
    "final_y": "517923.802614",
    "longitude": "-90.11281329617097",
    "latitude": "29.91852887776718",
    "geocoded_column": {
      "latitude": "29.91852887776718",
      "longitude": "-90.11281329617097"
    }
  },
  {
    "service_request": "2026-1271504",
    "request_type": "Trash/Recycling",
    "request_reason": "Request a Large Item Pick Up",
    "date_created": "2026-04-06T16:17:07.000",
    "date_modified": "2026-04-06T16:17:09.000",
    "request_status": "Pending",
    "responsible_agency": "Department of Sanitation",
    "final_address": "5950 Canal Blvd",
    "address_councildis": "A",
    "status": "Assigned to Contractor",
    "contractor": "IV Waste",
    "rowid": "1271504",
    "final_x": "3668293.45466",
    "final_y": "547063.742289",
    "longitude": "-90.10924763875028",
    "latitude": "29.998630113384607",
    "geocoded_column": {
      "latitude": "29.998630113384607",
      "longitude": "-90.10924763875028"
    }
  },
  {
    "service_request": "2026-1271503",
    "request_type": "Drainage",
    "request_reason": "Catch Basin Frame and Cover Missing or Damaged",
    "date_created": "2026-04-06T16:16:23.000",
    "date_modified": "2026-04-06T16:16:25.000",
    "request_status": "Pending",
    "responsible_agency": "Sewerage & Water Board",
    "final_address": "11235 Lake Forest Blvd",
    "address_councildis": "E",
    "status": "Pending",
    "rowid": "1271503",
    "final_x": "3716022.91871",
    "final_y": "561662.083743",
    "longitude": "-89.95791817494204",
    "latitude": "30.037281438664227",
    "geocoded_column": {
      "latitude": "30.037281438664227",
      "longitude": "-89.95791817494204"
    }
  },
  {
    "service_request": "2026-1271502",
    "request_type": "Drainage",
    "request_reason": "Catch Basin Not Draining",
    "date_created": "2026-04-06T16:16:15.000",
    "date_modified": "2026-04-06T16:18:15.000",
    "request_status": "Pending",
    "responsible_agency": "Sewerage & Water Board",
    "final_address": "1520 Audubon St",
    "address_councildis": "A",
    "status": "Pending",
    "rowid": "1271502",
    "final_x": "3665113.35476",
    "final_y": "527436.127679",
    "longitude": "-90.11995022100936",
    "latitude": "29.944753720547435",
    "geocoded_column": {
      "latitude": "29.944753720547435",
      "longitude": "-90.11995022100936"
    }
  },
  {
    "service_request": "2026-1271501",
    "request_type": "Trash/Recycling",
    "request_reason": "Request a Large Item Pick Up",
    "date_created": "2026-04-06T16:15:59.000",
    "date_modified": "2026-04-06T16:16:02.000",
    "request_status": "Pending",
    "responsible_agency": "Department of Sanitation",
    "final_address": "531 Olivier St",
    "address_councildis": "C",
    "status": "Assigned to Contractor",
    "contractor": "Richards Disposal",
    "rowid": "1271501",
    "final_x": "3687234.60278",
    "final_y": "529666.418945",
    "longitude": "-90.0500281062772",
    "latitude": "29.95022360829836",
    "geocoded_column": {
      "latitude": "29.95022360829836",
      "longitude": "-90.0500281062772"
    }
  },
  {
    "service_request": "2026-1271500",
    "request_type": "Trash/Recycling",
    "request_reason": "Request a Large Item Pick Up",
    "date_created": "2026-04-06T16:09:45.000",
    "date_modified": "2026-04-06T16:09:47.000",
    "request_status": "Pending",
    "responsible_agency": "Department of Sanitation",
    "final_address": "212 Verret St",
    "address_councildis": "C",
    "status": "Assigned to Contractor",
    "contractor": "Richards Disposal",
    "rowid": "1271500",
    "final_x": "3686860.54018",
    "final_y": "531055.559874",
    "longitude": "-90.05116011569693",
    "latitude": "29.95405478441526",
    "geocoded_column": {
      "latitude": "29.95405478441526",
      "longitude": "-90.05116011569693"
    }
  },
  {
    "service_request": "2026-1271499",
    "request_type": "Trash/Recycling",
    "request_reason": "Request a Large Item Pick Up",
    "date_created": "2026-04-06T16:04:49.000",
    "date_modified": "2026-04-06T16:04:50.000",
    "request_status": "Pending",
    "responsible_agency": "Department of Sanitation",
    "final_address": "6215 York St",
    "address_councildis": "A",
    "status": "Assigned to Contractor",
    "contractor": "IV Waste",
    "rowid": "1271499",
    "final_x": "3667747.5465",
    "final_y": "529052.435264",
    "longitude": "-90.1115788462339",
    "latitude": "29.94912107789138",
    "geocoded_column": {
      "latitude": "29.94912107789138",
      "longitude": "-90.1115788462339"
    }
  },
  {
    "service_request": "2026-1271498",
    "request_type": "Trash/Recycling",
    "request_reason": "Missed Trash Pick-Up",
    "date_created": "2026-04-06T16:00:10.000",
    "date_modified": "2026-04-06T16:00:11.000",
    "request_status": "Pending",
    "responsible_agency": "Department of Sanitation",
    "final_address": "1729 Lizardi St",
    "address_councildis": "E",
    "status": "Assigned to Contractor",
    "contractor": "Waste Pro",
    "rowid": "1271498",
    "final_x": "3697261.94621",
    "final_y": "536592.806791",
    "longitude": "-90.0181161902846",
    "latitude": "29.968956117873176",
    "geocoded_column": {
      "latitude": "29.968956117873176",
      "longitude": "-90.0181161902846"
    }
  },
  {
    "service_request": "2026-1271497",
    "request_type": "Trash/Recycling",
    "request_reason": "Request a Large Item Pick Up",
    "date_created": "2026-04-06T15:58:15.000",
    "date_modified": "2026-04-06T15:58:16.000",
    "request_status": "Pending",
    "responsible_agency": "Department of Sanitation",
    "final_address": "4920 Palace St",
    "address_councildis": "E",
    "status": "Assigned to Contractor",
    "contractor": "Waste Pro",
    "rowid": "1271497",
    "final_x": "3729094.42739",
    "final_y": "562526.974176",
    "longitude": "-89.91657607148825",
    "latitude": "30.0392216219623",
    "geocoded_column": {
      "latitude": "30.0392216219623",
      "longitude": "-89.91657607148825"
    }
  },
  {
    "service_request": "2026-1271496",
    "request_type": "Mosquito, Termite & Rodent Control",
    "request_reason": "Mosquito Complaint",
    "date_created": "2026-04-06T15:54:56.000",
    "date_modified": "2026-04-06T15:56:07.000",
    "request_status": "Pending",
    "responsible_agency": "Mosquito, Termite & Rodent Control Board",
    "final_address": "13949 My-Viet Dr",
    "address_councildis": "E",
    "status": "Pending",
    "rowid": "1271496",
    "final_x": "3727910.51385",
    "final_y": "563341.316768",
    "longitude": "-89.9202857876459",
    "latitude": "30.041500922064827",
    "geocoded_column": {
      "latitude": "30.041500922064827",
      "longitude": "-89.9202857876459"
    }
  },
  {
    "service_request": "2026-1271495",
    "request_type": "Trash/Recycling",
    "request_reason": "Request a Large Item Pick Up",
    "date_created": "2026-04-06T15:54:14.000",
    "date_modified": "2026-04-06T15:54:16.000",
    "request_status": "Pending",
    "responsible_agency": "Department of Sanitation",
    "final_address": "1030 Josephine St",
    "address_councildis": "B",
    "status": "Assigned to Contractor",
    "contractor": "IV Waste",
    "rowid": "1271495",
    "final_x": "3679212.49583",
    "final_y": "522190.475962",
    "longitude": "-90.07561679203846",
    "latitude": "29.92991184845914",
    "geocoded_column": {
      "latitude": "29.92991184845914",
      "longitude": "-90.07561679203846"
    }
  },
  {
    "service_request": "2026-1271494",
    "request_type": "Roads and Streets",
    "request_reason": "Pothole",
    "date_created": "2026-04-06T15:51:26.000",
    "date_modified": "2026-04-06T15:52:12.000",
    "request_status": "Pending",
    "responsible_agency": "Department of Public Works",
    "final_address": "1400 BLK Filmore Ave",
    "address_councildis": "D",
    "status": "Pending",
    "rowid": "1271494",
    "final_x": "3678096.13098",
    "final_y": "551839.199915",
    "longitude": "-90.0781156646758",
    "latitude": "30.011469333737253",
    "geocoded_column": {
      "latitude": "30.011469333737253",
      "longitude": "-90.0781156646758"
    }
  },
  {
    "service_request": "2026-1271493",
    "request_type": "Trash/Recycling",
    "request_reason": "Request a Large Item Pick Up",
    "date_created": "2026-04-06T15:51:24.000",
    "date_modified": "2026-04-06T15:51:27.000",
    "request_status": "Pending",
    "responsible_agency": "Department of Sanitation",
    "final_address": "1913 Mandeville St",
    "address_councildis": "D",
    "status": "Assigned to Contractor",
    "contractor": "IV Waste",
    "rowid": "1271493",
    "final_x": "3685562.2351",
    "final_y": "539446.353162",
    "longitude": "-90.05496403734149",
    "latitude": "29.977166441633372",
    "geocoded_column": {
      "latitude": "29.977166441633372",
      "longitude": "-90.05496403734149"
    }
  },
  {
    "service_request": "2026-1271492",
    "request_type": "Traffic Signals",
    "request_reason": "Traffic Signal Malfunctioning or Damaged",
    "date_created": "2026-04-06T15:50:30.000",
    "date_modified": "2026-04-06T15:50:31.000",
    "request_status": "Pending",
    "responsible_agency": "Department of Public Works",
    "final_address": "ST CLAUDE AVE & DESIRE ST",
    "address_councildis": "C",
    "status": "Pending",
    "rowid": "1271492",
    "final_x": "3690200.7",
    "final_y": "535781.48",
    "longitude": "-90.04044490620291",
    "latitude": "29.966946225171228",
    "geocoded_column": {
      "latitude": "29.966946225171228",
      "longitude": "-90.04044490620291"
    }
  },
  {
    "service_request": "2026-1271491",
    "request_type": "Safety & Permits",
    "request_reason": "Zoning Enforcement",
    "date_created": "2026-04-06T15:50:23.000",
    "date_modified": "2026-04-06T15:53:30.000",
    "request_status": "Pending",
    "responsible_agency": "Safety and Permits",
    "final_address": "5435 Perrier St",
    "address_councildis": "A",
    "status": "Pending",
    "rowid": "1271491",
    "final_x": "3666770.36397",
    "final_y": "520160.456696",
    "longitude": "-90.11496278193819",
    "latitude": "29.924699595824634",
    "geocoded_column": {
      "latitude": "29.924699595824634",
      "longitude": "-90.11496278193819"
    }
  },
  {
    "service_request": "2026-1271490",
    "request_type": "Health Related Request",
    "request_reason": "Homeless Encampment Complaint",
    "date_created": "2026-04-06T15:49:04.000",
    "date_modified": "2026-04-06T15:49:05.000",
    "request_status": "Pending",
    "responsible_agency": "Office Of Homeless Services And Strategy",
    "final_address": "JACKSON AVE & S DERBIGNY ST",
    "address_councildis": "B",
    "status": "Pending",
    "rowid": "1271490",
    "final_x": "3674339.0",
    "final_y": "527986.58",
    "longitude": "-90.09080320196671",
    "latitude": "29.945995431028756",
    "geocoded_column": {
      "latitude": "29.945995431028756",
      "longitude": "-90.09080320196671"
    }
  },
  {
    "service_request": "2026-1271489",
    "request_type": "Safety & Permits",
    "request_reason": "Zoning Enforcement",
    "date_created": "2026-04-06T15:48:24.000",
    "date_modified": "2026-04-06T15:48:26.000",
    "request_status": "Pending",
    "responsible_agency": "Safety and Permits",
    "final_address": "2300 Fats Domino Ave",
    "address_councildis": "E",
    "status": "Pending",
    "rowid": "1271489",
    "final_x": "3699192.72004",
    "final_y": "538305.073929",
    "longitude": "-90.0119563588932",
    "latitude": "29.97360315701651",
    "geocoded_column": {
      "latitude": "29.97360315701651",
      "longitude": "-90.0119563588932"
    }
  },
  {
    "service_request": "2026-1271488",
    "request_type": "Trash/Recycling",
    "request_reason": "Repair Trash Cart",
    "date_created": "2026-04-06T15:47:22.000",
    "date_modified": "2026-04-06T15:47:24.000",
    "request_status": "Pending",
    "responsible_agency": "Department of Sanitation",
    "final_address": "7025 Neptune Ct",
    "address_councildis": "E",
    "status": "Assigned to Contractor",
    "contractor": "Waste Pro",
    "rowid": "1271488",
    "final_x": "3701957.56836",
    "final_y": "559066.240796",
    "longitude": "-90.0024628822824",
    "latitude": "30.03060060985525",
    "geocoded_column": {
      "latitude": "30.03060060985525",
      "longitude": "-90.0024628822824"
    }
  },
  {
    "service_request": "2026-1271487",
    "request_type": "Trash/Recycling",
    "request_reason": "Illegal Dumping",
    "date_created": "2026-04-06T15:45:47.000",
    "date_modified": "2026-04-06T15:50:04.000",
    "request_status": "Pending",
    "responsible_agency": "Department of Sanitation",
    "final_address": "2618 Josephine St",
    "address_councildis": "B",
    "status": "Pending",
    "rowid": "1271487",
    "final_x": "3675592.20488",
    "final_y": "526906.00051",
    "longitude": "-90.08688351782043",
    "latitude": "29.942986767802573",
    "geocoded_column": {
      "latitude": "29.942986767802573",
      "longitude": "-90.08688351782043"
    }
  },
  {
    "service_request": "2026-1271486",
    "request_type": "Street and Traffic Signs",
    "request_reason": "Traffic or Parking Sign Damaged or Missing",
    "date_created": "2026-04-06T15:43:08.000",
    "date_modified": "2026-04-06T15:57:53.000",
    "request_status": "Pending",
    "responsible_agency": "Department of Public Works",
    "final_address": "GENERAL DE GAULLE DR & WALL BLVD",
    "address_councildis": "C",
    "status": "Pending",
    "rowid": "1271486",
    "final_x": "3693440.1",
    "final_y": "522169.68",
    "longitude": "-90.03070359765181",
    "latitude": "29.92941759048404",
    "geocoded_column": {
      "latitude": "29.92941759048404",
      "longitude": "-90.03070359765181"
    }
  },
  {
    "service_request": "2026-1271485",
    "request_type": "Trash/Recycling",
    "request_reason": "Order Second Trash Cart",
    "date_created": "2026-04-06T15:42:27.000",
    "date_modified": "2026-04-06T16:54:59.000",
    "request_status": "Pending",
    "responsible_agency": "Department of Sanitation",
    "final_address": "1920 Pine St",
    "address_councildis": "A",
    "status": "Assigned to Contractor",
    "contractor": "IV Waste",
    "rowid": "1271485",
    "final_x": "3665391.3209",
    "final_y": "528913.212992",
    "longitude": "-90.11902317208435",
    "latitude": "29.948807132087058",
    "geocoded_column": {
      "latitude": "29.948807132087058",
      "longitude": "-90.11902317208435"
    }
  },
  {
    "service_request": "2026-1271484",
    "request_type": "Trash/Recycling",
    "request_reason": "Request a Large Item Pick Up",
    "date_created": "2026-04-06T15:41:49.000",
    "date_modified": "2026-04-06T17:01:19.000",
    "request_status": "Pending",
    "responsible_agency": "Department of Sanitation",
    "final_address": "1448 Aviators St",
    "address_councildis": "D",
    "status": "Assigned to Contractor",
    "contractor": "IV Waste",
    "rowid": "1271484",
    "final_x": "3677951.33416",
    "final_y": "554812.260504",
    "longitude": "-90.07847026918343",
    "latitude": "30.019648538732362",
    "geocoded_column": {
      "latitude": "30.019648538732362",
      "longitude": "-90.07847026918343"
    }
  },
  {
    "service_request": "2026-1271483",
    "request_type": "Trash/Recycling",
    "request_reason": "Repair Recycling Cart",
    "date_created": "2026-04-06T15:41:17.000",
    "date_modified": "2026-04-06T15:55:15.000",
    "request_status": "Pending",
    "responsible_agency": "Department of Sanitation",
    "final_address": "4936 Robin Hood Dr",
    "address_councildis": "E",
    "status": "Pending",
    "rowid": "1271483",
    "final_x": "3717324.09682",
    "final_y": "557902.183963",
    "longitude": "-89.9539492417141",
    "latitude": "30.02690021693735",
    "geocoded_column": {
      "latitude": "30.02690021693735",
      "longitude": "-89.9539492417141"
    }
  },
  {
    "service_request": "2026-1271482",
    "request_type": "Trash/Recycling",
    "request_reason": "Replace Trash Cart",
    "date_created": "2026-04-06T15:40:54.000",
    "date_modified": "2026-04-06T15:40:55.000",
    "request_status": "Pending",
    "responsible_agency": "Department of Sanitation",
    "final_address": "1920 Pine St",
    "address_councildis": "A",
    "status": "Assigned to Contractor",
    "contractor": "IV Waste",
    "rowid": "1271482",
    "final_x": "3665391.3209",
    "final_y": "528913.212992",
    "longitude": "-90.11902317208435",
    "latitude": "29.948807132087058",
    "geocoded_column": {
      "latitude": "29.948807132087058",
      "longitude": "-90.11902317208435"
    }
  },
  {
    "service_request": "2026-1271481",
    "request_type": "Trash/Recycling",
    "request_reason": "Request a Large Item Pick Up",
    "date_created": "2026-04-06T15:33:49.000",
    "date_modified": "2026-04-06T15:33:50.000",
    "request_status": "Pending",
    "responsible_agency": "Department of Sanitation",
    "final_address": "8700 Gervais St",
    "address_councildis": "E",
    "status": "Assigned to Contractor",
    "contractor": "Waste Pro",
    "rowid": "1271481",
    "final_x": "3704305.08958",
    "final_y": "562872.485984",
    "longitude": "-89.99490423745516",
    "latitude": "30.04099111109184",
    "geocoded_column": {
      "latitude": "30.04099111109184",
      "longitude": "-89.99490423745516"
    }
  },
  {
    "service_request": "2026-1271480",
    "request_type": "Trash/Recycling",
    "request_reason": "Order Recycling Cart",
    "date_created": "2026-04-06T15:30:47.000",
    "date_modified": "2026-04-06T15:30:50.000",
    "request_status": "Pending",
    "responsible_agency": "Department of Sanitation",
    "final_address": "605 Sixth St",
    "address_councildis": "B",
    "status": "Pending",
    "rowid": "1271480",
    "final_x": "3677589.04578",
    "final_y": "519140.912759",
    "longitude": "-90.08084698097862",
    "latitude": "29.921575438363462",
    "geocoded_column": {
      "latitude": "29.921575438363462",
      "longitude": "-90.08084698097862"
    }
  },
  {
    "service_request": "2026-1271479",
    "request_type": "Trash/Recycling",
    "request_reason": "Replace Trash Cart",
    "date_created": "2026-04-06T15:30:32.000",
    "date_modified": "2026-04-06T15:30:33.000",
    "request_status": "Pending",
    "responsible_agency": "Department of Sanitation",
    "final_address": "2740 Robert St",
    "address_councildis": "B",
    "status": "Assigned to Contractor",
    "contractor": "IV Waste",
    "rowid": "1271479",
    "final_x": "3668783.0649",
    "final_y": "525609.413885",
    "longitude": "-90.10842546354435",
    "latitude": "29.939623485654458",
    "geocoded_column": {
      "latitude": "29.939623485654458",
      "longitude": "-90.10842546354435"
    }
  },
  {
    "service_request": "2026-1271477",
    "request_type": "Abandoned Vehicles",
    "request_reason": "Abandoned/Junk Vehicles",
    "date_created": "2026-04-06T15:29:39.000",
    "date_modified": "2026-04-06T15:29:41.000",
    "request_status": "Pending",
    "responsible_agency": "Department of Public Works",
    "final_address": "2222 Bienville Ave",
    "address_councildis": "B",
    "status": "Pending",
    "rowid": "1271477",
    "final_x": "3677231.01762",
    "final_y": "534580.492101",
    "longitude": "-90.08144465520404",
    "latitude": "29.96403993016838",
    "geocoded_column": {
      "latitude": "29.96403993016838",
      "longitude": "-90.08144465520404"
    }
  },
  {
    "service_request": "2026-1271478",
    "request_type": "Abandoned Vehicles",
    "request_reason": "Abandoned/Junk Vehicles",
    "date_created": "2026-04-06T15:29:39.000",
    "date_modified": "2026-04-06T15:29:41.000",
    "request_status": "Pending",
    "responsible_agency": "Department of Public Works",
    "final_address": "2222 Bienville Ave",
    "address_councildis": "B",
    "status": "Pending",
    "rowid": "1271478",
    "final_x": "3677231.01762",
    "final_y": "534580.492101",
    "longitude": "-90.08144465520404",
    "latitude": "29.96403993016838",
    "geocoded_column": {
      "latitude": "29.96403993016838",
      "longitude": "-90.08144465520404"
    }
  },
  {
    "service_request": "2026-1271476",
    "request_type": "Trash/Recycling",
    "request_reason": "Repair Trash Cart",
    "date_created": "2026-04-06T15:29:01.000",
    "date_modified": "2026-04-06T15:30:27.000",
    "request_status": "Pending",
    "responsible_agency": "Department of Sanitation",
    "final_address": "1839 Marengo St",
    "address_councildis": "B",
    "status": "Assigned to Contractor",
    "contractor": "IV Waste",
    "rowid": "1271476",
    "final_x": "3671913.81806",
    "final_y": "522009.54041",
    "longitude": "-90.09866368656517",
    "latitude": "29.9296326006124",
    "geocoded_column": {
      "latitude": "29.9296326006124",
      "longitude": "-90.09866368656517"
    }
  },
  {
    "service_request": "2026-1271475",
    "request_type": "Traffic Signals",
    "request_reason": "Traffic Signal Malfunctioning or Damaged",
    "date_created": "2026-04-06T15:28:58.000",
    "date_modified": "2026-04-06T15:29:00.000",
    "request_status": "Pending",
    "responsible_agency": "Department of Public Works",
    "final_address": "341 S Norman C Francis Prkwy",
    "address_councildis": "B",
    "status": "Pending",
    "rowid": "1271475",
    "final_x": "3672406.15265",
    "final_y": "535918.338823",
    "longitude": "-90.09663557891685",
    "latitude": "29.96786262343055",
    "geocoded_column": {
      "latitude": "29.96786262343055",
      "longitude": "-90.09663557891685"
    }
  },
  {
    "service_request": "2026-1271473",
    "request_type": "Roads and Streets",
    "request_reason": "Push-up/Pavement Expansion",
    "date_created": "2026-04-06T15:26:39.000",
    "date_modified": "2026-04-06T15:51:02.000",
    "request_status": "Pending",
    "responsible_agency": "Department of Public Works",
    "final_address": "WALES ST & MAYO RD",
    "address_councildis": "E",
    "status": "Pending",
    "rowid": "1271473",
    "final_x": "3700477.6",
    "final_y": "561517.68",
    "longitude": "-90.00704991331261",
    "latitude": "30.037388298111576",
    "geocoded_column": {
      "latitude": "30.037388298111576",
      "longitude": "-90.00704991331261"
    }
  },
  {
    "service_request": "2026-1271474",
    "request_type": "Trash/Recycling",
    "request_reason": "Repair Trash Cart",
    "date_created": "2026-04-06T15:26:39.000",
    "date_modified": "2026-04-06T15:26:41.000",
    "request_status": "Pending",
    "responsible_agency": "Department of Sanitation",
    "final_address": "2514 Elder St",
    "address_councildis": "D",
    "status": "Assigned to Contractor",
    "contractor": "IV Waste",
    "rowid": "1271474",
    "final_x": "3686696.18486",
    "final_y": "545701.305744",
    "longitude": "-90.05116160672647",
    "latitude": "29.99433050328618",
    "geocoded_column": {
      "latitude": "29.99433050328618",
      "longitude": "-90.05116160672647"
    }
  },
  {
    "service_request": "2026-1271472",
    "request_type": "Trash/Recycling",
    "request_reason": "Request a Large Item Pick Up",
    "date_created": "2026-04-06T15:24:45.000",
    "date_modified": "2026-04-06T15:24:47.000",
    "request_status": "Pending",
    "responsible_agency": "Department of Sanitation",
    "final_address": "85 Fontainebleau Dr",
    "address_councildis": "A",
    "status": "Assigned to Contractor",
    "contractor": "IV Waste",
    "rowid": "1271472",
    "final_x": "3666954.32385",
    "final_y": "530824.753218",
    "longitude": "-90.11402385891815",
    "latitude": "29.954017607303598",
    "geocoded_column": {
      "latitude": "29.954017607303598",
      "longitude": "-90.11402385891815"
    }
  },
  {
    "service_request": "2026-1271471",
    "request_type": "Drainage",
    "request_reason": "Catch Basin Not Draining",
    "date_created": "2026-04-06T15:18:46.000",
    "date_modified": "2026-04-06T15:19:54.000",
    "request_status": "Pending",
    "responsible_agency": "Sewerage & Water Board",
    "final_address": "4802 Banks St",
    "address_councildis": "A",
    "status": "Pending",
    "rowid": "1271471",
    "final_x": "3668017.19457",
    "final_y": "539088.144778",
    "longitude": "-90.11038925232745",
    "latitude": "29.976708050048106",
    "geocoded_column": {
      "latitude": "29.976708050048106",
      "longitude": "-90.11038925232745"
    }
  },
  {
    "service_request": "2026-1271470",
    "request_type": "Trash/Recycling",
    "request_reason": "Illegal Dumping",
    "date_created": "2026-04-06T15:18:07.000",
    "date_modified": "2026-04-06T15:18:09.000",
    "request_status": "Pending",
    "responsible_agency": "Department of Sanitation",
    "final_address": "1943 Montegut St",
    "address_councildis": "D",
    "status": "Pending",
    "rowid": "1271470",
    "final_x": "3689354.62972",
    "final_y": "539461.984586",
    "longitude": "-90.042985901096",
    "latitude": "29.977092539005415",
    "geocoded_column": {
      "latitude": "29.977092539005415",
      "longitude": "-90.042985901096"
    }
  },
  {
    "service_request": "2026-1271469",
    "request_type": "Trash/Recycling",
    "request_reason": "Request a Large Item Pick Up",
    "date_created": "2026-04-06T15:16:56.000",
    "date_modified": "2026-04-06T15:16:58.000",
    "request_status": "Pending",
    "responsible_agency": "Department of Sanitation",
    "final_address": "7742 Arcadia Ln",
    "address_councildis": "E",
    "status": "Assigned to Contractor",
    "contractor": "Waste Pro",
    "rowid": "1271469",
    "final_x": "3712073.32875",
    "final_y": "567473.41418",
    "longitude": "-89.97018117660002",
    "latitude": "30.053390017637405",
    "geocoded_column": {
      "latitude": "30.053390017637405",
      "longitude": "-89.97018117660002"
    }
  },
  {
    "service_request": "2026-1271468",
    "request_type": "Street and Traffic Signs",
    "request_reason": "Stop Sign Missing or Damaged",
    "date_created": "2026-04-06T15:16:47.000",
    "date_modified": "2026-04-06T15:16:48.000",
    "request_status": "Pending",
    "responsible_agency": "Department of Public Works",
    "final_address": "1544 N Derbigny St",
    "address_councildis": "C",
    "status": "Pending",
    "rowid": "1271468",
    "final_x": "3681716.76034",
    "final_y": "537717.970696",
    "longitude": "-90.06716961022633",
    "latitude": "29.972531395852332",
    "geocoded_column": {
      "latitude": "29.972531395852332",
      "longitude": "-90.06716961022633"
    }
  },
  {
    "service_request": "2026-1271467",
    "request_type": "Trash/Recycling",
    "request_reason": "Request a Large Item Pick Up",
    "date_created": "2026-04-06T15:16:12.000",
    "date_modified": "2026-04-06T15:17:33.000",
    "request_status": "Pending",
    "responsible_agency": "Department of Sanitation",
    "final_address": "7432 Ligustrum Dr",
    "address_councildis": "E",
    "status": "Assigned to Contractor",
    "contractor": "Waste Pro",
    "rowid": "1271467",
    "final_x": "3701629.38455",
    "final_y": "560645.170974",
    "longitude": "-90.00344203315537",
    "latitude": "30.034952531323203",
    "geocoded_column": {
      "latitude": "30.034952531323203",
      "longitude": "-90.00344203315537"
    }
  },
  {
    "service_request": "2026-1271466",
    "request_type": "Abandoned Vehicles",
    "request_reason": "Abandoned/Junk Vehicles",
    "date_created": "2026-04-06T15:15:16.000",
    "date_modified": "2026-04-06T15:15:18.000",
    "request_status": "Pending",
    "responsible_agency": "Department of Public Works",
    "final_address": "1244 Annunciation St",
    "address_councildis": "B",
    "status": "Pending",
    "rowid": "1271466",
    "final_x": "3681397.93263",
    "final_y": "525105.309757",
    "longitude": "-90.06861618020831",
    "latitude": "29.937860536405985",
    "geocoded_column": {
      "latitude": "29.937860536405985",
      "longitude": "-90.06861618020831"
    }
  },
  {
    "service_request": "2026-1271465",
    "request_type": "Drainage",
    "request_reason": "Drainage Manhole Cover Missing or Damaged",
    "date_created": "2026-04-06T15:14:09.000",
    "date_modified": "2026-04-06T15:14:10.000",
    "request_status": "Pending",
    "responsible_agency": "Sewerage & Water Board",
    "final_address": "1000 BLK Julia St",
    "address_councildis": "B",
    "status": "Pending",
    "rowid": "1271465",
    "final_x": "3679121.59185",
    "final_y": "528345.39126",
    "longitude": "-90.07569050192613",
    "latitude": "29.946838573578404",
    "geocoded_column": {
      "latitude": "29.946838573578404",
      "longitude": "-90.07569050192613"
    }
  },
  {
    "service_request": "2026-1271464",
    "request_type": "Trash/Recycling",
    "request_reason": "Replace Trash Cart",
    "date_created": "2026-04-06T15:11:24.000",
    "date_modified": "2026-04-06T15:11:26.000",
    "request_status": "Pending",
    "responsible_agency": "Department of Sanitation",
    "final_address": "2915 Bruxelles St",
    "address_councildis": "D",
    "status": "Assigned to Contractor",
    "contractor": "IV Waste",
    "rowid": "1271464",
    "final_x": "3680323.73051",
    "final_y": "543088.221517",
    "longitude": "-90.07138225796115",
    "latitude": "29.987339970398114",
    "geocoded_column": {
      "latitude": "29.987339970398114",
      "longitude": "-90.07138225796115"
    }
  },
  {
    "service_request": "2026-1271463",
    "request_type": "Trash/Recycling",
    "request_reason": "Return Trash Cart",
    "date_created": "2026-04-06T15:08:25.000",
    "date_modified": "2026-04-06T15:08:29.000",
    "request_status": "Pending",
    "responsible_agency": "Department of Sanitation",
    "final_address": "3015 Nashville Ave",
    "address_councildis": "B",
    "status": "Assigned to Contractor",
    "contractor": "IV Waste",
    "rowid": "1271463",
    "final_x": "3667779.94356",
    "final_y": "526975.54547",
    "longitude": "-90.1115464771764",
    "latitude": "29.9434093546211",
    "geocoded_column": {
      "latitude": "29.9434093546211",
      "longitude": "-90.1115464771764"
    }
  },
  {
    "service_request": "2026-1271462",
    "request_type": "Traffic Signals",
    "request_reason": "Traffic Signal Malfunctioning or Damaged",
    "date_created": "2026-04-06T15:07:51.000",
    "date_modified": "2026-04-06T15:07:53.000",
    "request_status": "Pending",
    "responsible_agency": "Department of Public Works",
    "final_address": "EARHART BLVD & HAMILTON ST",
    "address_councildis": "A",
    "status": "Pending",
    "rowid": "1271462",
    "final_x": "3663184.2",
    "final_y": "534965.98",
    "longitude": "-90.12579062775865",
    "latitude": "29.965514406045376",
    "geocoded_column": {
      "latitude": "29.965514406045376",
      "longitude": "-90.12579062775865"
    }
  },
  {
    "service_request": "2026-1271461",
    "request_type": "Trash/Recycling",
    "request_reason": "Request a Large Item Pick Up",
    "date_created": "2026-04-06T15:06:54.000",
    "date_modified": "2026-04-06T15:06:56.000",
    "request_status": "Pending",
    "responsible_agency": "Department of Sanitation",
    "final_address": "3015 Nashville Ave",
    "address_councildis": "B",
    "status": "Assigned to Contractor",
    "contractor": "IV Waste",
    "rowid": "1271461",
    "final_x": "3667779.94356",
    "final_y": "526975.54547",
    "longitude": "-90.1115464771764",
    "latitude": "29.9434093546211",
    "geocoded_column": {
      "latitude": "29.9434093546211",
      "longitude": "-90.1115464771764"
    }
  },
  {
    "service_request": "2026-1271460",
    "request_type": "Trash/Recycling",
    "request_reason": "Request a Large Item Pick Up",
    "date_created": "2026-04-06T15:06:17.000",
    "date_modified": "2026-04-06T15:06:18.000",
    "request_status": "Pending",
    "responsible_agency": "Department of Sanitation",
    "final_address": "6000 Elysian Fields Ave",
    "address_councildis": "D",
    "status": "Assigned to Contractor",
    "contractor": "IV Waste",
    "rowid": "1271460",
    "final_x": "3683342.35292",
    "final_y": "554958.288088",
    "longitude": "-90.06143132289029",
    "latitude": "30.019886621914463",
    "geocoded_column": {
      "latitude": "30.019886621914463",
      "longitude": "-90.06143132289029"
    }
  },
  {
    "service_request": "2026-1271459",
    "request_type": "Trash/Recycling",
    "request_reason": "Illegal Dumping",
    "date_created": "2026-04-06T15:05:28.000",
    "date_modified": "2026-04-06T15:05:30.000",
    "request_status": "Pending",
    "responsible_agency": "Department of Sanitation",
    "final_address": "2225 Fats Domino Ave",
    "address_councildis": "E",
    "status": "Pending",
    "rowid": "1271459",
    "final_x": "3699243.03626",
    "final_y": "538078.106569",
    "longitude": "-90.0118057176973",
    "latitude": "29.972977483196885",
    "geocoded_column": {
      "latitude": "29.972977483196885",
      "longitude": "-90.0118057176973"
    }
  },
  {
    "service_request": "2026-1271458",
    "request_type": "Healthy Homes",
    "request_reason": "Healthy Homes",
    "date_created": "2026-04-06T14:58:13.000",
    "date_modified": "2026-04-06T15:29:47.000",
    "case_close_date": "2026-04-06T10:29:46.000",
    "request_status": "Closed",
    "responsible_agency": "Department of Code Enforcement",
    "final_address": "6868 Milne Blvd",
    "address_councildis": "A",
    "status": "Referred to Code Enforcement",
    "rowid": "1271458",
    "final_x": "3667489.80506",
    "final_y": "553291.347543",
    "longitude": "-90.11157661617497",
    "latitude": "30.015777439482186",
    "geocoded_column": {
      "latitude": "30.015777439482186",
      "longitude": "-90.11157661617497"
    }
  },
  {
    "service_request": "2026-1271457",
    "request_type": "Trash/Recycling",
    "request_reason": "Request a Large Item Pick Up",
    "date_created": "2026-04-06T14:57:05.000",
    "date_modified": "2026-04-06T14:57:07.000",
    "request_status": "Pending",
    "responsible_agency": "Department of Sanitation",
    "final_address": "6200 Stratford Pl",
    "address_councildis": "C",
    "status": "Assigned to Contractor",
    "contractor": "Richards Disposal",
    "rowid": "1271457",
    "final_x": "3706926.2682",
    "final_y": "516215.02322",
    "longitude": "-89.98835127369813",
    "latitude": "29.912615903222868",
    "geocoded_column": {
      "latitude": "29.912615903222868",
      "longitude": "-89.98835127369813"
    }
  },
  {
    "service_request": "2026-1271456",
    "request_type": "Healthy Homes",
    "request_reason": "Healthy Homes",
    "date_created": "2026-04-06T14:53:48.000",
    "date_modified": "2026-04-06T15:25:22.000",
    "case_close_date": "2026-04-06T10:25:21.000",
    "request_status": "Closed",
    "responsible_agency": "Department of Code Enforcement",
    "final_address": "6868 Milne Blvd",
    "address_councildis": "A",
    "status": "Referred to Code Enforcement",
    "rowid": "1271456",
    "final_x": "3667489.80506",
    "final_y": "553291.347543",
    "longitude": "-90.11157661617497",
    "latitude": "30.015777439482186",
    "geocoded_column": {
      "latitude": "30.015777439482186",
      "longitude": "-90.11157661617497"
    }
  },
  {
    "service_request": "2026-1271455",
    "request_type": "Trash/Recycling",
    "request_reason": "Replace Trash Cart",
    "date_created": "2026-04-06T14:52:49.000",
    "date_modified": "2026-04-06T14:52:51.000",
    "request_status": "Pending",
    "responsible_agency": "Department of Sanitation",
    "final_address": "3025 Hamilton St",
    "address_councildis": "A",
    "status": "Assigned to Contractor",
    "contractor": "IV Waste",
    "rowid": "1271455",
    "final_x": "3663851.00538",
    "final_y": "535634.446342",
    "longitude": "-90.12366258962945",
    "latitude": "29.96733312958354",
    "geocoded_column": {
      "latitude": "29.96733312958354",
      "longitude": "-90.12366258962945"
    }
  },
  {
    "service_request": "2026-1271454",
    "request_type": "Trash/Recycling",
    "request_reason": "Replace Trash Cart",
    "date_created": "2026-04-06T14:52:17.000",
    "date_modified": "2026-04-06T14:52:19.000",
    "request_status": "Pending",
    "responsible_agency": "Department of Sanitation",
    "final_address": "1441 Eleonore St",
    "address_councildis": "A",
    "status": "Assigned to Contractor",
    "contractor": "IV Waste",
    "rowid": "1271454",
    "final_x": "3665781.33408",
    "final_y": "521342.836601",
    "longitude": "-90.11804524522694",
    "latitude": "29.927979647159326",
    "geocoded_column": {
      "latitude": "29.927979647159326",
      "longitude": "-90.11804524522694"
    }
  },
  {
    "service_request": "2026-1271453",
    "request_type": "Street and Traffic Signs",
    "request_reason": "Street Name Sign Damaged or Missing",
    "date_created": "2026-04-06T14:48:24.000",
    "date_modified": "2026-04-06T14:48:26.000",
    "request_status": "Pending",
    "responsible_agency": "Department of Public Works",
    "final_address": "GENERAL OGDEN ST & PALMETTO ST",
    "address_councildis": "A",
    "status": "Pending",
    "rowid": "1271453",
    "final_x": "3665999.55",
    "final_y": "537005.89",
    "longitude": "-90.11683144662508",
    "latitude": "29.971041601150382",
    "geocoded_column": {
      "latitude": "29.971041601150382",
      "longitude": "-90.11683144662508"
    }
  },
  {
    "service_request": "2026-1271452",
    "request_type": "Trash/Recycling",
    "request_reason": "Request a Large Item Pick Up",
    "date_created": "2026-04-06T14:42:54.000",
    "date_modified": "2026-04-06T14:43:05.000",
    "request_status": "Pending",
    "responsible_agency": "Department of Sanitation",
    "final_address": "7340 Shubrick Ave",
    "address_councildis": "E",
    "status": "Assigned to Contractor",
    "contractor": "Waste Pro",
    "rowid": "1271452",
    "final_x": "3707087.21976",
    "final_y": "563017.064608",
    "longitude": "-89.98610644422524",
    "latitude": "30.041298995900505",
    "geocoded_column": {
      "latitude": "30.041298995900505",
      "longitude": "-89.98610644422524"
    }
  },
  {
    "service_request": "2026-1271451",
    "request_type": "Trash/Recycling",
    "request_reason": "Order Trash Cart",
    "date_created": "2026-04-06T14:42:42.000",
    "date_modified": "2026-04-06T14:43:03.000",
    "request_status": "Pending",
    "responsible_agency": "Department of Sanitation",
    "final_address": "2908 Audubon St Apt 2A",
    "address_councildis": "B",
    "status": "Assigned to Contractor",
    "contractor": "IV Waste",
    "rowid": "1271451",
    "final_x": "3667718.15252",
    "final_y": "531512.420803",
    "longitude": "-90.11158883834072",
    "latitude": "29.955886096426873",
    "geocoded_column": {
      "latitude": "29.955886096426873",
      "longitude": "-90.11158883834072"
    }
  },
  {
    "service_request": "2026-1271450",
    "request_type": "Trash/Recycling",
    "request_reason": "Request a Large Item Pick Up",
    "date_created": "2026-04-06T14:41:42.000",
    "date_modified": "2026-04-06T14:41:44.000",
    "request_status": "Pending",
    "responsible_agency": "Department of Sanitation",
    "final_address": "7811 Branch Dr",
    "address_councildis": "E",
    "status": "Assigned to Contractor",
    "contractor": "Waste Pro",
    "rowid": "1271450",
    "final_x": "3714328.18296",
    "final_y": "569306.317286",
    "longitude": "-89.96298496286681",
    "latitude": "30.058355797943662",
    "geocoded_column": {
      "latitude": "30.058355797943662",
      "longitude": "-89.96298496286681"
    }
  },
  {
    "service_request": "2026-1271449",
    "request_type": "Trash/Recycling",
    "request_reason": "Request a Large Item Pick Up",
    "date_created": "2026-04-06T14:41:26.000",
    "date_modified": "2026-04-06T14:41:27.000",
    "request_status": "Pending",
    "responsible_agency": "Department of Sanitation",
    "final_address": "4621 Dryades St",
    "address_councildis": "B",
    "status": "Assigned to Contractor",
    "contractor": "IV Waste",
    "rowid": "1271449",
    "final_x": "3669805.87847",
    "final_y": "521892.71737",
    "longitude": "-90.10532204723356",
    "latitude": "29.929373661144226",
    "geocoded_column": {
      "latitude": "29.929373661144226",
      "longitude": "-90.10532204723356"
    }
  },
  {
    "service_request": "2026-1271448",
    "request_type": "Trash/Recycling",
    "request_reason": "Order Second Trash Cart",
    "date_created": "2026-04-06T14:41:21.000",
    "date_modified": "2026-04-06T14:41:23.000",
    "request_status": "Pending",
    "responsible_agency": "Department of Sanitation",
    "final_address": "13225 Willowbrook Dr",
    "address_councildis": "E",
    "status": "Assigned to Contractor",
    "contractor": "Waste Pro",
    "rowid": "1271448",
    "final_x": "3726757.58925",
    "final_y": "564012.137761",
    "longitude": "-89.9239033156921",
    "latitude": "30.043384444096866",
    "geocoded_column": {
      "latitude": "30.043384444096866",
      "longitude": "-89.9239033156921"
    }
  },
  {
    "service_request": "2026-1271447",
    "request_type": "Trash/Recycling",
    "request_reason": "Request a Large Item Pick Up",
    "date_created": "2026-04-06T14:41:08.000",
    "date_modified": "2026-04-06T14:41:09.000",
    "request_status": "Pending",
    "responsible_agency": "Department of Sanitation",
    "final_address": "1333 Hillary St",
    "address_councildis": "A",
    "status": "Assigned to Contractor",
    "contractor": "IV Waste",
    "rowid": "1271447",
    "final_x": "3663768.68307",
    "final_y": "527552.678911",
    "longitude": "-90.12419188927525",
    "latitude": "29.945113284089203",
    "geocoded_column": {
      "latitude": "29.945113284089203",
      "longitude": "-90.12419188927525"
    }
  },
  {
    "service_request": "2026-1271446",
    "request_type": "Trash/Recycling",
    "request_reason": "Request a Large Item Pick Up",
    "date_created": "2026-04-06T14:40:59.000",
    "date_modified": "2026-04-06T14:41:01.000",
    "request_status": "Pending",
    "responsible_agency": "Department of Sanitation",
    "final_address": "4420 Copernicus St",
    "address_councildis": "C",
    "status": "Assigned to Contractor",
    "contractor": "Richards Disposal",
    "rowid": "1271446",
    "final_x": "3700091.78672",
    "final_y": "523011.801339",
    "longitude": "-90.00967487980235",
    "latitude": "29.931523531250022",
    "geocoded_column": {
      "latitude": "29.931523531250022",
      "longitude": "-90.00967487980235"
    }
  },
  {
    "service_request": "2026-1271445",
    "request_type": "Trash/Recycling",
    "request_reason": "Order Second Trash Cart",
    "date_created": "2026-04-06T14:40:19.000",
    "date_modified": "2026-04-06T14:40:21.000",
    "request_status": "Pending",
    "responsible_agency": "Department of Sanitation",
    "final_address": "0 BLK Acadiana Pl",
    "address_councildis": "E",
    "status": "Assigned to Contractor",
    "contractor": "Waste Pro",
    "rowid": "1271445",
    "final_x": "3725131.4083",
    "final_y": "564393.680055",
    "longitude": "-89.92902788187175",
    "latitude": "30.04448842646984",
    "geocoded_column": {
      "latitude": "30.04448842646984",
      "longitude": "-89.92902788187175"
    }
  },
  {
    "service_request": "2026-1271444",
    "request_type": "General Services",
    "request_reason": "General Service Request",
    "date_created": "2026-04-06T14:40:10.000",
    "date_modified": "2026-04-06T14:40:11.000",
    "request_status": "Pending",
    "responsible_agency": "Orleans Parish Communication District",
    "final_address": "MONROE ST & FERN CT",
    "address_councildis": "A",
    "status": "Pending",
    "rowid": "1271444",
    "final_x": "3667443.8",
    "final_y": "537546.18",
    "longitude": "-90.11225211515706",
    "latitude": "29.972484978314505",
    "geocoded_column": {
      "latitude": "29.972484978314505",
      "longitude": "-90.11225211515706"
    }
  },
  {
    "service_request": "2026-1271443",
    "request_type": "Roads and Streets",
    "request_reason": "Pothole",
    "date_created": "2026-04-06T14:39:28.000",
    "date_modified": "2026-04-06T14:39:30.000",
    "request_status": "Pending",
    "responsible_agency": "Department of Public Works",
    "final_address": "1809 Aubry St",
    "address_councildis": "D",
    "status": "Pending",
    "rowid": "1271443",
    "final_x": "3682224.68725",
    "final_y": "539178.27873",
    "longitude": "-90.06551445893541",
    "latitude": "29.97653129343056",
    "geocoded_column": {
      "latitude": "29.97653129343056",
      "longitude": "-90.06551445893541"
    }
  },
  {
    "service_request": "2026-1271442",
    "request_type": "Trash/Recycling",
    "request_reason": "Request a Large Item Pick Up",
    "date_created": "2026-04-06T14:38:08.000",
    "date_modified": "2026-04-06T17:00:51.000",
    "request_status": "Pending",
    "responsible_agency": "Department of Sanitation",
    "final_address": "125 W Harrison Ave",
    "address_councildis": "A",
    "status": "Assigned to Contractor",
    "contractor": "IV Waste",
    "rowid": "1271442",
    "final_x": "3665974.65498",
    "final_y": "549640.422612",
    "longitude": "-90.11648632637593",
    "latitude": "30.00578300379913",
    "geocoded_column": {
      "latitude": "30.00578300379913",
      "longitude": "-90.11648632637593"
    }
  },
  {
    "service_request": "2026-1271441",
    "request_type": "Trash/Recycling",
    "request_reason": "Replace Trash Cart",
    "date_created": "2026-04-06T14:37:47.000",
    "date_modified": "2026-04-06T14:38:28.000",
    "request_status": "Pending",
    "responsible_agency": "Department of Sanitation",
    "final_address": "2821 S Derbigny St",
    "address_councildis": "B",
    "status": "Assigned to Contractor",
    "contractor": "IV Waste",
    "rowid": "1271441",
    "final_x": "3672728.7931",
    "final_y": "526977.607486",
    "longitude": "-90.09592158401674",
    "latitude": "29.943269000489853",
    "geocoded_column": {
      "latitude": "29.943269000489853",
      "longitude": "-90.09592158401674"
    }
  },
  {
    "service_request": "2026-1271440",
    "request_type": "Trash/Recycling",
    "request_reason": "Request a Large Item Pick Up",
    "date_created": "2026-04-06T14:32:44.000",
    "date_modified": "2026-04-06T14:32:46.000",
    "request_status": "Pending",
    "responsible_agency": "Department of Sanitation",
    "final_address": "5417 Marigny St",
    "address_councildis": "D",
    "status": "Assigned to Contractor",
    "contractor": "IV Waste",
    "rowid": "1271440",
    "final_x": "3684126.64732",
    "final_y": "552864.561687",
    "longitude": "-90.05902678031065",
    "latitude": "30.014105680459714",
    "geocoded_column": {
      "latitude": "30.014105680459714",
      "longitude": "-90.05902678031065"
    }
  },
  {
    "service_request": "2026-1271439",
    "request_type": "Trash/Recycling",
    "request_reason": "Request a Large Item Pick Up",
    "date_created": "2026-04-06T14:31:30.000",
    "date_modified": "2026-04-06T14:31:32.000",
    "request_status": "Pending",
    "responsible_agency": "Department of Sanitation",
    "final_address": "12911 Chanelle Ct",
    "address_councildis": "E",
    "status": "Assigned to Contractor",
    "contractor": "Waste Pro",
    "rowid": "1271439",
    "final_x": "3716942.34687",
    "final_y": "567429.837924",
    "longitude": "-89.9547933154668",
    "latitude": "30.05311003222423",
    "geocoded_column": {
      "latitude": "30.05311003222423",
      "longitude": "-89.9547933154668"
    }
  },
  {
    "service_request": "2026-1271438",
    "request_type": "Drainage",
    "request_reason": "Catch Basin Frame and Cover Missing or Damaged",
    "date_created": "2026-04-06T14:30:28.000",
    "date_modified": "2026-04-06T14:30:32.000",
    "request_status": "Pending",
    "responsible_agency": "Sewerage & Water Board",
    "final_address": "1639 N Miro St",
    "address_councildis": "D",
    "status": "Pending",
    "rowid": "1271438",
    "final_x": "3680663.74319",
    "final_y": "539350.333642",
    "longitude": "-90.0704384060336",
    "latitude": "29.977051782040075",
    "geocoded_column": {
      "latitude": "29.977051782040075",
      "longitude": "-90.0704384060336"
    }
  },
  {
    "service_request": "2026-1271437",
    "request_type": "Streetlights",
    "request_reason": "New Streetlight Request",
    "date_created": "2026-04-06T14:28:45.000",
    "date_modified": "2026-04-06T14:30:00.000",
    "request_status": "Pending",
    "responsible_agency": "Department of Public Works",
    "final_address": "5032 Papania Dr",
    "address_councildis": "E",
    "status": "Pending",
    "rowid": "1271437",
    "final_x": "3715361.51954",
    "final_y": "558293.226076",
    "longitude": "-89.96013591203086",
    "latitude": "30.028040243143813",
    "geocoded_column": {
      "latitude": "30.028040243143813",
      "longitude": "-89.96013591203086"
    }
  },
  {
    "service_request": "2026-1271436",
    "request_type": "Trash/Recycling",
    "request_reason": "Request a Large Item Pick Up",
    "date_created": "2026-04-06T14:24:59.000",
    "date_modified": "2026-04-06T17:00:16.000",
    "request_status": "Pending",
    "responsible_agency": "Department of Sanitation",
    "final_address": "432 12Th St",
    "address_councildis": "A",
    "status": "Assigned to Contractor",
    "contractor": "IV Waste",
    "rowid": "1271436",
    "final_x": "3664476.25108",
    "final_y": "547815.918226",
    "longitude": "-90.12128112359436",
    "latitude": "30.000809914000524",
    "geocoded_column": {
      "latitude": "30.000809914000524",
      "longitude": "-90.12128112359436"
    }
  },
  {
    "service_request": "2026-1271435",
    "request_type": "Trash/Recycling",
    "request_reason": "Repair Trash Cart",
    "date_created": "2026-04-06T14:22:29.000",
    "date_modified": "2026-04-06T14:22:31.000",
    "request_status": "Pending",
    "responsible_agency": "Department of Sanitation",
    "final_address": "414 Warrington Dr",
    "address_councildis": "D",
    "status": "Assigned to Contractor",
    "contractor": "IV Waste",
    "rowid": "1271435",
    "final_x": "3681488.56239",
    "final_y": "548201.365906",
    "longitude": "-90.06752455118277",
    "latitude": "30.00136397858688",
    "geocoded_column": {
      "latitude": "30.00136397858688",
      "longitude": "-90.06752455118277"
    }
  },
  {
    "service_request": "2026-1271434",
    "request_type": "Streetlights",
    "request_reason": "Streetlight Outage/Malfunction",
    "date_created": "2026-04-06T14:22:11.000",
    "date_modified": "2026-04-06T14:23:40.000",
    "request_status": "Pending",
    "responsible_agency": "Department of Public Works",
    "final_address": "VANDERKLOOT AVE & HAYNE BLVD",
    "address_councildis": "E",
    "status": "Pending",
    "rowid": "1271434",
    "final_x": "3705186.3",
    "final_y": "564533.18",
    "longitude": "-89.99205789387398",
    "latitude": "30.04552902948684",
    "geocoded_column": {
      "latitude": "30.04552902948684",
      "longitude": "-89.99205789387398"
    }
  },
  {
    "service_request": "2026-1271433",
    "request_type": "Drainage",
    "request_reason": "Catch Basin Not Draining",
    "date_created": "2026-04-06T14:21:15.000",
    "date_modified": "2026-04-06T14:21:16.000",
    "request_status": "Pending",
    "responsible_agency": "Sewerage & Water Board",
    "final_address": "3815 Magazine St",
    "address_councildis": "B",
    "status": "Pending",
    "rowid": "1271433",
    "final_x": "3673234.21172",
    "final_y": "519088.571639",
    "longitude": "-90.09459511723476",
    "latitude": "29.92156168741294",
    "geocoded_column": {
      "latitude": "29.92156168741294",
      "longitude": "-90.09459511723476"
    }
  },
  {
    "service_request": "2026-1271432",
    "request_type": "Trash/Recycling",
    "request_reason": "Request a Large Item Pick Up",
    "date_created": "2026-04-06T14:19:21.000",
    "date_modified": "2026-04-06T14:19:22.000",
    "request_status": "Pending",
    "responsible_agency": "Department of Sanitation",
    "final_address": "5407 Dauphine St",
    "address_councildis": "E",
    "status": "Assigned to Contractor",
    "contractor": "Waste Pro",
    "rowid": "1271432",
    "final_x": "3696962.64355",
    "final_y": "532889.3017",
    "longitude": "-90.01919554008019",
    "latitude": "29.958782238433244",
    "geocoded_column": {
      "latitude": "29.958782238433244",
      "longitude": "-90.01919554008019"
    }
  },
  {
    "service_request": "2026-1271431",
    "request_type": "Streetlights",
    "request_reason": "Streetlight Outage/Malfunction",
    "date_created": "2026-04-06T14:18:38.000",
    "date_modified": "2026-04-06T14:20:07.000",
    "request_status": "Pending",
    "responsible_agency": "Department of Public Works",
    "final_address": "8025 Dorsett Dr",
    "address_councildis": "E",
    "status": "Pending",
    "rowid": "1271431",
    "final_x": "3712087.70302",
    "final_y": "568519.446821",
    "longitude": "-89.970096408678",
    "latitude": "30.056265710492664",
    "geocoded_column": {
      "latitude": "30.056265710492664",
      "longitude": "-89.970096408678"
    }
  },
  {
    "service_request": "2026-1271430",
    "request_type": "Trash/Recycling",
    "request_reason": "Replace Trash Cart",
    "date_created": "2026-04-06T14:18:20.000",
    "date_modified": "2026-04-06T14:18:21.000",
    "request_status": "Pending",
    "responsible_agency": "Department of Sanitation",
    "final_address": "4018 DHemecourt St",
    "address_councildis": "A",
    "status": "Assigned to Contractor",
    "contractor": "IV Waste",
    "rowid": "1271430",
    "final_x": "3670058.33108",
    "final_y": "536593.953863",
    "longitude": "-90.10402720276387",
    "latitude": "29.969789805752296",
    "geocoded_column": {
      "latitude": "29.969789805752296",
      "longitude": "-90.10402720276387"
    }
  },
  {
    "service_request": "2026-1271429",
    "request_type": "Trash/Recycling",
    "request_reason": "Request a Large Item Pick Up",
    "date_created": "2026-04-06T14:16:13.000",
    "date_modified": "2026-04-06T14:16:14.000",
    "request_status": "Pending",
    "responsible_agency": "Department of Sanitation",
    "final_address": "219 Bermuda St",
    "address_councildis": "C",
    "status": "Assigned to Contractor",
    "contractor": "Richards Disposal",
    "rowid": "1271429",
    "final_x": "3686124.8166",
    "final_y": "530935.566658",
    "longitude": "-90.05348745938772",
    "latitude": "29.9537474605183",
    "geocoded_column": {
      "latitude": "29.9537474605183",
      "longitude": "-90.05348745938772"
    }
  },
  {
    "service_request": "2026-1271428",
    "request_type": "Property Maintenance",
    "request_reason": "Property Maintenance",
    "date_created": "2026-04-06T14:15:33.000",
    "date_modified": "2026-04-06T14:15:35.000",
    "request_status": "Pending",
    "responsible_agency": "Department of Code Enforcement",
    "final_address": "6800 Louisville St",
    "address_councildis": "A",
    "status": "Pending",
    "rowid": "1271428",
    "final_x": "3668148.53613",
    "final_y": "552805.757526",
    "longitude": "-90.1095117031839",
    "latitude": "30.014422908835225",
    "geocoded_column": {
      "latitude": "30.014422908835225",
      "longitude": "-90.1095117031839"
    }
  },
  {
    "service_request": "2026-1271427",
    "request_type": "Utility Poles",
    "request_reason": "Utility Pole Leaning",
    "date_created": "2026-04-06T14:14:01.000",
    "date_modified": "2026-04-06T14:14:03.000",
    "request_status": "Pending",
    "responsible_agency": "Utility Company Collective",
    "final_address": "1601 Adams St",
    "address_councildis": "A",
    "status": "Pending",
    "rowid": "1271427",
    "final_x": "3664500.14221",
    "final_y": "528420.683968",
    "longitude": "-90.12185345930345",
    "latitude": "29.947478774690282",
    "geocoded_column": {
      "latitude": "29.947478774690282",
      "longitude": "-90.12185345930345"
    }
  },
  {
    "service_request": "2026-1271426",
    "request_type": "Trash/Recycling",
    "request_reason": "Request a Large Item Pick Up",
    "date_created": "2026-04-06T14:11:36.000",
    "date_modified": "2026-04-06T16:59:47.000",
    "request_status": "Pending",
    "responsible_agency": "Department of Sanitation",
    "final_address": "8718 Apricot St",
    "address_councildis": "A",
    "status": "Assigned to Contractor",
    "contractor": "IV Waste",
    "rowid": "1271426",
    "final_x": "3664127.60583",
    "final_y": "534117.285253",
    "longitude": "-90.12283969313455",
    "latitude": "29.963153403021398",
    "geocoded_column": {
      "latitude": "29.963153403021398",
      "longitude": "-90.12283969313455"
    }
  },
  {
    "service_request": "2026-1271425",
    "request_type": "Trash/Recycling",
    "request_reason": "Order Trash Cart",
    "date_created": "2026-04-06T14:10:22.000",
    "date_modified": "2026-04-06T14:10:23.000",
    "request_status": "Pending",
    "responsible_agency": "Department of Sanitation",
    "final_address": "14043 Wales St",
    "address_councildis": "E",
    "status": "Assigned to Contractor",
    "contractor": "Waste Pro",
    "rowid": "1271425",
    "final_x": "3718305.46098",
    "final_y": "572768.691049",
    "longitude": "-89.95028125141852",
    "latitude": "30.067744493880816",
    "geocoded_column": {
      "latitude": "30.067744493880816",
      "longitude": "-89.95028125141852"
    }
  },
  {
    "service_request": "2026-1271424",
    "request_type": "Trash/Recycling",
    "request_reason": "Request a Large Item Pick Up",
    "date_created": "2026-04-06T14:10:05.000",
    "date_modified": "2026-04-06T14:10:07.000",
    "request_status": "Pending",
    "responsible_agency": "Department of Sanitation",
    "final_address": "13233 St Helena Pl",
    "address_councildis": "E",
    "status": "Assigned to Contractor",
    "contractor": "Waste Pro",
    "rowid": "1271424",
    "final_x": "3726884.47552",
    "final_y": "564227.546529",
    "longitude": "-89.9234939312203",
    "latitude": "30.043972436450172",
    "geocoded_column": {
      "latitude": "30.043972436450172",
      "longitude": "-89.9234939312203"
    }
  },
  {
    "service_request": "2026-1271423",
    "request_type": "Trash/Recycling",
    "request_reason": "Replace Trash Cart",
    "date_created": "2026-04-06T14:09:52.000",
    "date_modified": "2026-04-06T14:09:53.000",
    "request_status": "Pending",
    "responsible_agency": "Department of Sanitation",
    "final_address": "2029 S Carrollton Ave",
    "address_councildis": "A",
    "status": "Assigned to Contractor",
    "contractor": "IV Waste",
    "rowid": "1271423",
    "final_x": "3664137.28352",
    "final_y": "530511.98893",
    "longitude": "-90.1229293982272",
    "latitude": "29.953239732006622",
    "geocoded_column": {
      "latitude": "29.953239732006622",
      "longitude": "-90.1229293982272"
    }
  },
  {
    "service_request": "2026-1271422",
    "request_type": "Trash/Recycling",
    "request_reason": "Request a Large Item Pick Up",
    "date_created": "2026-04-06T14:09:46.000",
    "date_modified": "2026-04-06T14:09:48.000",
    "request_status": "Pending",
    "responsible_agency": "Department of Sanitation",
    "final_address": "228 S Cortez St",
    "address_councildis": "A",
    "status": "Assigned to Contractor",
    "contractor": "IV Waste",
    "rowid": "1271422",
    "final_x": "3671716.04251",
    "final_y": "537043.462472",
    "longitude": "-90.09877669037786",
    "latitude": "29.970976797235696",
    "geocoded_column": {
      "latitude": "29.970976797235696",
      "longitude": "-90.09877669037786"
    }
  },
  {
    "service_request": "2026-1271421",
    "request_type": "Streetlights",
    "request_reason": "Streetlight Outage/Malfunction",
    "date_created": "2026-04-06T14:06:51.000",
    "date_modified": "2026-04-06T14:06:53.000",
    "request_status": "Pending",
    "responsible_agency": "Department of Public Works",
    "final_address": "2415 George Nick Connor Dr",
    "address_councildis": "D",
    "status": "Pending",
    "rowid": "1271421",
    "final_x": "3681244.53436",
    "final_y": "540963.674891",
    "longitude": "-90.06854783770312",
    "latitude": "29.98147029475787",
    "geocoded_column": {
      "latitude": "29.98147029475787",
      "longitude": "-90.06854783770312"
    }
  },
  {
    "service_request": "2026-1271420",
    "request_type": "Trash/Recycling",
    "request_reason": "Order Trash Cart",
    "date_created": "2026-04-06T14:06:33.000",
    "date_modified": "2026-04-06T14:06:35.000",
    "request_status": "Pending",
    "responsible_agency": "Department of Sanitation",
    "final_address": "2908 Audubon St Apt 2B",
    "address_councildis": "B",
    "status": "Assigned to Contractor",
    "contractor": "IV Waste",
    "rowid": "1271420",
    "final_x": "3667727.78573",
    "final_y": "531520.548227",
    "longitude": "-90.111558146266",
    "latitude": "29.9559081617467",
    "geocoded_column": {
      "latitude": "29.9559081617467",
      "longitude": "-90.111558146266"
    }
  },
  {
    "service_request": "2026-1271419",
    "request_type": "Abandoned Vehicles",
    "request_reason": "Abandoned/Junk Vehicles",
    "date_created": "2026-04-06T14:04:07.000",
    "date_modified": "2026-04-06T14:04:09.000",
    "request_status": "Pending",
    "responsible_agency": "Department of Public Works",
    "final_address": "2328 Martin Luther King, Jr. Blvd",
    "address_councildis": "B",
    "status": "Pending",
    "rowid": "1271419",
    "final_x": "3676723.53557",
    "final_y": "527012.697342",
    "longitude": "-90.08330795296357",
    "latitude": "29.943246261115338",
    "geocoded_column": {
      "latitude": "29.943246261115338",
      "longitude": "-90.08330795296357"
    }
  },
  {
    "service_request": "2026-1271418",
    "request_type": "Trash/Recycling",
    "request_reason": "Order Trash Cart",
    "date_created": "2026-04-06T14:03:48.000",
    "date_modified": "2026-04-06T14:03:50.000",
    "request_status": "Pending",
    "responsible_agency": "Department of Sanitation",
    "final_address": "2908 Audubon St Apt 1A",
    "address_councildis": "B",
    "status": "Assigned to Contractor",
    "contractor": "IV Waste",
    "rowid": "1271418",
    "final_x": "3667735.76321",
    "final_y": "531504.094723",
    "longitude": "-90.11153351005308",
    "latitude": "29.955862686112937",
    "geocoded_column": {
      "latitude": "29.955862686112937",
      "longitude": "-90.11153351005308"
    }
  },
  {
    "service_request": "2026-1271417",
    "request_type": "Trash/Recycling",
    "request_reason": "Replace Trash Cart",
    "date_created": "2026-04-06T14:03:07.000",
    "date_modified": "2026-04-06T14:03:09.000",
    "request_status": "Pending",
    "responsible_agency": "Department of Sanitation",
    "final_address": "3630 Rue Andree",
    "address_councildis": "C",
    "status": "Assigned to Contractor",
    "contractor": "Richards Disposal",
    "rowid": "1271417",
    "final_x": "3705063.04279",
    "final_y": "516938.874677",
    "longitude": "-89.9942053935814",
    "latitude": "29.914666250741917",
    "geocoded_column": {
      "latitude": "29.914666250741917",
      "longitude": "-89.9942053935814"
    }
  },