[
  {
    "service_request": "2024-1144979",
    "request_type": "Street and Traffic Signs",
    "request_reason": "Street Name Sign Damaged or Missing",
    "date_created": "2024-10-29T22:41:19.000",
    "date_modified": "2024-10-29T22:41:19.000",
    "request_status": "Pending",
    "responsible_agency": "Department of Public Works",
    "final_address": "ANNUNCIATION ST & LYONS ST",
    "address_councildis": "B",
    "status": "Pending",
    "rowid": "1144979",
    "final_x": "3669347.5",
    "final_y": "517576.08",
    "longitude": "-90.10691491790253",
    "latitude": "29.917517777558064",
    "geocoded_column": {
      "latitude": "29.917517777558064",
      "longitude": "-90.10691491790253"
    }
  },
  {
    "service_request": "2024-1144978",
    "request_type": "Property Maintenance",
    "request_reason": "Property Maintenance",
    "date_created": "2024-10-29T22:40:56.000",
    "date_modified": "2024-10-29T22:40:56.000",
    "request_status": "Pending",
    "responsible_agency": "Department of Code Enforcement",
    "final_address": "2413 Laharpe St",
    "address_councildis": "D",
    "status": "Pending",
    "rowid": "1144978",
    "final_x": "3679631.82587",
    "final_y": "539312.87905",
    "longitude": "-90.07369883331405",
    "latitude": "29.97698002726511",
    "geocoded_column": {
      "latitude": "29.97698002726511",
      "longitude": "-90.07369883331405"
    }
  },
  {
    "service_request": "2024-1144977",
    "request_type": "Health Related Request",
    "request_reason": "Noise Ordinance Complaint",
    "date_created": "2024-10-29T22:20:44.000",
    "date_modified": "2024-10-29T22:20:44.000",
    "request_status": "Pending",
    "responsible_agency": "Health Department",
    "final_address": "1535 Port St",
    "address_councildis": "C",
    "status": "Pending",
    "rowid": "1144977",
    "final_x": "3687917.45225",
    "final_y": "538185.675337",
    "longitude": "-90.04757019257639",
    "latitude": "29.97362756100885",
    "geocoded_column": {
      "latitude": "29.97362756100885",
      "longitude": "-90.04757019257639"
    }
  },
  {
    "service_request": "2024-1144975",
    "request_type": "Trash/Recycling",
    "request_reason": "Request a Large Item Pick Up",
    "date_created": "2024-10-29T21:49:32.000",
    "date_modified": "2024-10-29T21:49:33.000",
    "request_status": "Pending",
    "responsible_agency": "Department of Sanitation",
    "final_address": "4603 Arts St",
    "address_councildis": "D",
    "status": "Assigned to Contractor",
    "contractor": "IV Waste",
    "rowid": "1144975",
    "final_x": "3686075.61398",
    "final_y": "549639.599188",
    "longitude": "-90.05298289541811",
    "latitude": "30.00517846870325",
    "geocoded_column": {
      "latitude": "30.00517846870325",
      "longitude": "-90.05298289541811"
    }
  },
  {
    "service_request": "2024-1144974",
    "request_type": "Streetlights",
    "request_reason": "Streetlight Outage/Malfunction",
    "date_created": "2024-10-29T21:49:13.000",
    "date_modified": "2024-10-29T21:49:14.000",
    "request_status": "Pending",
    "responsible_agency": "Department of Public Works",
    "final_address": "27 Finch St",
    "address_councildis": "D",
    "status": "Pending",
    "contractor": "Legacy Professional Services",
    "rowid": "1144974",
    "final_x": "3672511.04097",
    "final_y": "555084.185113",
    "longitude": "-90.09565056028526",
    "latitude": "30.02055893311357",
    "geocoded_column": {
      "latitude": "30.02055893311357",
      "longitude": "-90.09565056028526"
    }
  },
  {
    "service_request": "2024-1144973",
    "request_type": "Trash/Recycling",
    "request_reason": "Replace Recycling Cart",
    "date_created": "2024-10-29T21:46:02.000",
    "date_modified": "2024-10-29T21:46:02.000",
    "request_status": "Pending",
    "responsible_agency": "Department of Sanitation",
    "final_address": "4910 Press Dr",
    "address_councildis": "D",
    "status": "Pending",
    "rowid": "1144973",
    "final_x": "3689430.57199",
    "final_y": "551381.317717",
    "longitude": "-90.04232190692164",
    "latitude": "30.009864050655995",
    "geocoded_column": {
      "latitude": "30.009864050655995",
      "longitude": "-90.04232190692164"
    }
  },
  {
    "service_request": "2024-1144972",
    "request_type": "Streetlights",
    "request_reason": "Streetlight Outage/Malfunction",
    "date_created": "2024-10-29T21:32:03.000",
    "date_modified": "2024-10-29T21:32:04.000",
    "request_status": "Pending",
    "responsible_agency": "Department of Public Works",
    "final_address": "1110 Allen Toussaint Blvd",
    "address_councildis": "A",
    "status": "Pending",
    "contractor": "Legacy Professional Services",
    "rowid": "1144972",
    "final_x": "3674522.13787",
    "final_y": "553849.808023",
    "longitude": "-90.08933843222029",
    "latitude": "30.017104956054066",
    "geocoded_column": {
      "latitude": "30.017104956054066",
      "longitude": "-90.08933843222029"
    }
  },
  {
    "service_request": "2024-1144971",
    "request_type": "Trash/Recycling",
    "request_reason": "Request a Large Item Pick Up",
    "date_created": "2024-10-29T21:23:39.000",
    "date_modified": "2024-10-29T21:23:40.000",
    "request_status": "Pending",
    "responsible_agency": "Department of Sanitation",
    "final_address": "8032 Gus St",
    "address_councildis": "E",
    "status": "Assigned to Contractor",
    "contractor": "Waste Pro",
    "rowid": "1144971",
    "final_x": "3703269.05911",
    "final_y": "563216.248288",
    "longitude": "-89.99816576993643",
    "latitude": "30.041969556196637",
    "geocoded_column": {
      "latitude": "30.041969556196637",
      "longitude": "-89.99816576993643"
    }
  },
  {
    "service_request": "2024-1144970",
    "request_type": "Trash/Recycling",
    "request_reason": "Request a Large Item Pick Up",
    "date_created": "2024-10-29T21:14:52.000",
    "date_modified": "2024-10-29T21:14:53.000",
    "request_status": "Pending",
    "responsible_agency": "Department of Sanitation",
    "final_address": "5725 General Diaz St",
    "address_councildis": "A",
    "status": "Assigned to Contractor",
    "contractor": "IV Waste",
    "rowid": "1144970",
    "final_x": "3669398.32666",
    "final_y": "545538.721616",
    "longitude": "-90.10580894181041",
    "latitude": "29.99440433255263",
    "geocoded_column": {
      "latitude": "29.99440433255263",
      "longitude": "-90.10580894181041"
    }
  },
  {
    "service_request": "2024-1144969",
    "request_type": "Trash/Recycling",
    "request_reason": "Request a Large Item Pick Up",
    "date_created": "2024-10-29T20:32:35.000",
    "date_modified": "2024-10-29T20:32:37.000",
    "request_status": "Pending",
    "responsible_agency": "Department of Sanitation",
    "final_address": "4910 Eunice Dr",
    "address_councildis": "E",
    "status": "Assigned to Contractor",
    "contractor": "Waste Pro",
    "rowid": "1144969",
    "final_x": "3710368.10353",
    "final_y": "556794.792346",
    "longitude": "-89.97597072732894",
    "latitude": "30.02408373753857",
    "geocoded_column": {
      "latitude": "30.02408373753857",
      "longitude": "-89.97597072732894"
    }
  },
  {
    "service_request": "2024-1144968",
    "request_type": "New Orleans Recreation Development Commission (NORDC)",
    "request_reason": "Facilities and Parks Maintenance/Clean Up",
    "date_created": "2024-10-29T20:09:36.000",
    "date_modified": "2024-10-29T20:09:36.000",
    "request_status": "Pending",
    "responsible_agency": "New Orleans Recreation Development Commission",
    "final_address": "5501 General Diaz St",
    "address_councildis": "A",
    "status": "Pending",
    "rowid": "1144968",
    "final_x": "3669114.5906",
    "final_y": "543392.214606",
    "longitude": "-90.10677781208034",
    "latitude": "29.98851052981889",
    "geocoded_column": {
      "latitude": "29.98851052981889",
      "longitude": "-90.10677781208034"
    }
  },
  {
    "service_request": "2024-1144967",
    "request_type": "Trash/Recycling",
    "request_reason": "Request a Large Item Pick Up",
    "date_created": "2024-10-29T19:56:56.000",
    "date_modified": "2024-10-29T19:56:57.000",
    "request_status": "Pending",
    "responsible_agency": "Department of Sanitation",
    "final_address": "1363 St Anthony St",
    "address_councildis": "C",
    "status": "Assigned to Contractor",
    "contractor": "IV Waste",
    "rowid": "1144967",
    "final_x": "3683477.495",
    "final_y": "537102.621704",
    "longitude": "-90.06163047065368",
    "latitude": "29.970785784155495",
    "geocoded_column": {
      "latitude": "29.970785784155495",
      "longitude": "-90.06163047065368"
    }
  },
  {
    "service_request": "2024-1144966",
    "request_type": "Street and Traffic Signs",
    "request_reason": "Street Name Sign Damaged or Missing",
    "date_created": "2024-10-29T19:56:02.000",
    "date_modified": "2024-10-29T19:56:02.000",
    "request_status": "Pending",
    "responsible_agency": "Department of Public Works",
    "final_address": "18TH ST & FLEUR DE LIS DR",
    "address_councildis": "A",
    "status": "Pending",
    "rowid": "1144966",
    "final_x": "3665180.0",
    "final_y": "548726.68",
    "longitude": "-90.11902742833395",
    "latitude": "30.00329370761558",
    "geocoded_column": {
      "latitude": "30.00329370761558",
      "longitude": "-90.11902742833395"
    }
  },
  {
    "service_request": "2024-1144965",
    "request_type": "Trash/Recycling",
    "request_reason": "Replace Trash Cart",
    "date_created": "2024-10-29T19:54:38.000",
    "date_modified": "2024-10-29T19:54:39.000",
    "request_status": "Pending",
    "responsible_agency": "Department of Sanitation",
    "final_address": "2636 Governor Nicholls St",
    "address_councildis": "D",
    "status": "Assigned to Contractor",
    "contractor": "IV Waste",
    "rowid": "1144965",
    "final_x": "3677976.9675",
    "final_y": "538229.036745",
    "longitude": "-90.07896288076392",
    "latitude": "29.974049751791576",
    "geocoded_column": {
      "latitude": "29.974049751791576",
      "longitude": "-90.07896288076392"
    }
  },
  {
    "service_request": "2024-1144964",
    "request_type": "Healthy Homes",
    "request_reason": "Healthy Homes",
    "date_created": "2024-10-29T19:34:02.000",
    "date_modified": "2024-10-29T19:34:02.000",
    "request_status": "Pending",
    "responsible_agency": "Department of Code Enforcement",
    "final_address": "7001 Lawrence Rd",
    "address_councildis": "E",
    "status": "Pending",
    "rowid": "1144964",
    "final_x": "3704372.84279",
    "final_y": "559124.69238",
    "longitude": "-89.99482847374347",
    "latitude": "30.03068397272477",
    "geocoded_column": {
      "latitude": "30.03068397272477",
      "longitude": "-89.99482847374347"
    }
  },
  {
    "service_request": "2024-1144963",
    "request_type": "Abandoned Vehicles",
    "request_reason": "Abandoned/Junk Vehicles",
    "date_created": "2024-10-29T19:20:23.000",
    "date_modified": "2024-10-29T19:20:23.000",
    "request_status": "Pending",
    "responsible_agency": "Department of Public Works",
    "final_address": "1504 N Broad St",
    "address_councildis": "D",
    "status": "Pending",
    "rowid": "1144963",
    "final_x": "3678764.16821",
    "final_y": "539545.852938",
    "longitude": "-90.0764311028288",
    "latitude": "29.977646823364715",
    "geocoded_column": {
      "latitude": "29.977646823364715",
      "longitude": "-90.0764311028288"
    }
  },
  {
    "service_request": "2024-1144962",
    "request_type": "Abandoned Vehicles",
    "request_reason": "Abandoned/Junk Vehicles",
    "date_created": "2024-10-29T19:19:00.000",
    "date_modified": "2024-10-29T19:19:00.000",
    "request_status": "Pending",
    "responsible_agency": "Department of Public Works",
    "final_address": "1504 N Broad St",
    "address_councildis": "D",
    "status": "Pending",
    "rowid": "1144962",
    "final_x": "3678764.16821",
    "final_y": "539545.852938",
    "longitude": "-90.0764311028288",
    "latitude": "29.977646823364715",
    "geocoded_column": {
      "latitude": "29.977646823364715",
      "longitude": "-90.0764311028288"
    }
  },
  {
    "service_request": "2024-1144961",
    "request_type": "Safety & Permits",
    "request_reason": "Licenses & Permits",
    "date_created": "2024-10-29T19:18:20.000",
    "date_modified": "2024-10-29T19:18:20.000",
    "request_status": "Pending",
    "responsible_agency": "Safety and Permits",
    "final_address": "1442 Nashville Ave",
    "address_councildis": "A",
    "status": "Pending",
    "rowid": "1144961",
    "final_x": "3665990.33383",
    "final_y": "521392.020729",
    "longitude": "-90.11738383096645",
    "latitude": "29.928108791183938",
    "geocoded_column": {
      "latitude": "29.928108791183938",
      "longitude": "-90.11738383096645"
    }
  },
  {
    "service_request": "2024-1144960",
    "request_type": "Safety & Permits",
    "request_reason": "Zoning Enforcement",
    "date_created": "2024-10-29T19:14:13.000",
    "date_modified": "2024-10-29T19:14:13.000",
    "request_status": "Pending",
    "responsible_agency": "Safety and Permits",
    "final_address": "1442 Nashville Ave",
    "address_councildis": "A",
    "status": "Pending",
    "rowid": "1144960",
    "final_x": "3665990.33383",
    "final_y": "521392.020729",
    "longitude": "-90.11738383096645",
    "latitude": "29.928108791183938",
    "geocoded_column": {
      "latitude": "29.928108791183938",
      "longitude": "-90.11738383096645"
    }
  },
  {
    "service_request": "2024-1144959",
    "request_type": "Property Maintenance",
    "request_reason": "Property Maintenance",
    "date_created": "2024-10-29T19:11:33.000",
    "date_modified": "2024-10-29T19:11:33.000",
    "request_status": "Pending",
    "responsible_agency": "Department of Code Enforcement",
    "final_address": "1442 Nashville Ave",
    "address_councildis": "A",
    "status": "Pending",
    "rowid": "1144959",
    "final_x": "3665990.33383",
    "final_y": "521392.020729",
    "longitude": "-90.11738383096645",
    "latitude": "29.928108791183938",
    "geocoded_column": {
      "latitude": "29.928108791183938",
      "longitude": "-90.11738383096645"
    }
  },
  {
    "service_request": "2024-1144958",
    "request_type": "Trash/Recycling",
    "request_reason": "Request a Large Item Pick Up",
    "date_created": "2024-10-29T19:09:39.000",
    "date_modified": "2024-10-29T19:09:40.000",
    "request_status": "Pending",
    "responsible_agency": "Department of Sanitation",
    "final_address": "5910 Chatham Dr",
    "address_councildis": "D",
    "status": "Assigned to Contractor",
    "contractor": "IV Waste",
    "rowid": "1144958",
    "final_x": "3679542.82069",
    "final_y": "554245.711576",
    "longitude": "-90.07346137827535",
    "latitude": "30.018042715328917",
    "geocoded_column": {
      "latitude": "30.018042715328917",
      "longitude": "-90.07346137827535"
    }
  },
  {
    "service_request": "2024-1144957",
    "request_type": "Trash/Recycling",
    "request_reason": "Replace Recycling Cart",
    "date_created": "2024-10-29T19:07:09.000",
    "date_modified": "2024-10-29T19:07:09.000",
    "request_status": "Pending",
    "responsible_agency": "Department of Sanitation",
    "final_address": "814 Florida Blvd",
    "address_councildis": "A",
    "status": "Pending",
    "rowid": "1144957",
    "final_x": "3669071.2939",
    "final_y": "545186.611855",
    "longitude": "-90.10685390487698",
    "latitude": "29.993445781138238",
    "geocoded_column": {
      "latitude": "29.993445781138238",
      "longitude": "-90.10685390487698"
    }
  },
  {
    "service_request": "2024-1144956",
    "request_type": "Trash/Recycling",
    "request_reason": "Repair Trash Cart",
    "date_created": "2024-10-29T18:55:16.000",
    "date_modified": "2024-10-29T18:55:18.000",
    "request_status": "Pending",
    "responsible_agency": "Department of Sanitation",
    "final_address": "1712 Louisa St",
    "address_councildis": "D",
    "status": "Assigned to Contractor",
    "contractor": "IV Waste",
    "rowid": "1144956",
    "final_x": "3690106.94364",
    "final_y": "538215.405769",
    "longitude": "-90.04065427468126",
    "latitude": "29.973641572461844",
    "geocoded_column": {
      "latitude": "29.973641572461844",
      "longitude": "-90.04065427468126"
    }
  },
  {
    "service_request": "2024-1144955",
    "request_type": "Trash/Recycling",
    "request_reason": "Request a Large Item Pick Up",
    "date_created": "2024-10-29T18:52:14.000",
    "date_modified": "2024-10-29T18:52:16.000",
    "request_status": "Pending",
    "responsible_agency": "Department of Sanitation",
    "final_address": "2666 Ramsey Dr",
    "address_councildis": "C",
    "status": "Assigned to Contractor",
    "contractor": "Richards Disposal",
    "rowid": "1144955",
    "final_x": "3703170.13028",
    "final_y": "520983.703801",
    "longitude": "-90.00003148517621",
    "latitude": "29.92584882956618",
    "geocoded_column": {
      "latitude": "29.92584882956618",
      "longitude": "-90.00003148517621"
    }
  },
  {
    "service_request": "2024-1144954",
    "request_type": "Trash/Recycling",
    "request_reason": "Order Recycling Cart",
    "date_created": "2024-10-29T18:42:57.000",
    "date_modified": "2024-10-29T18:42:57.000",
    "request_status": "Pending",
    "responsible_agency": "Department of Sanitation",
    "final_address": "4232 S Roman St",
    "address_councildis": "B",
    "status": "Pending",
    "rowid": "1144954",
    "final_x": "3670768.27252",
    "final_y": "526569.863038",
    "longitude": "-90.10212529194438",
    "latitude": "29.94220590628543",
    "geocoded_column": {
      "latitude": "29.94220590628543",
      "longitude": "-90.10212529194438"
    }
  },
  {
    "service_request": "2024-1144953",
    "request_type": "Roads and Streets",
    "request_reason": "Curb Damage",
    "date_created": "2024-10-29T18:25:53.000",
    "date_modified": "2024-10-29T18:25:53.000",
    "request_status": "Pending",
    "responsible_agency": "Department of Public Works",
    "final_address": "4101 Vincennes Pl",
    "address_councildis": "B",
    "status": "Pending",
    "rowid": "1144953",
    "final_x": "3668589.80769",
    "final_y": "530525.111554",
    "longitude": "-90.10886976068555",
    "latitude": "29.95314573582392",
    "geocoded_column": {
      "latitude": "29.95314573582392",
      "longitude": "-90.10886976068555"
    }
  },
  {
    "service_request": "2024-1144952",
    "request_type": "Property Maintenance",
    "request_reason": "Property Maintenance",
    "date_created": "2024-10-29T18:18:16.000",
    "date_modified": "2024-10-29T18:18:16.000",
    "request_status": "Pending",
    "responsible_agency": "Department of Code Enforcement",
    "final_address": "2037 First St",
    "address_councildis": "B",
    "status": "Pending",
    "rowid": "1144952",
    "final_x": "3676020.40193",
    "final_y": "524683.305148",
    "longitude": "-90.08560800966494",
    "latitude": "29.93686227132431",
    "geocoded_column": {
      "latitude": "29.93686227132431",
      "longitude": "-90.08560800966494"
    }
  },
  {
    "service_request": "2024-1144951",
    "request_type": "Trash/Recycling",
    "request_reason": "Illegal Dumping",
    "date_created": "2024-10-29T18:17:00.000",
    "date_modified": "2024-10-29T18:17:00.000",
    "request_status": "Pending",
    "responsible_agency": "Department of Sanitation",
    "final_address": "2037 First St",
    "address_councildis": "B",
    "status": "Pending",
    "rowid": "1144951",
    "final_x": "3676020.40193",
    "final_y": "524683.305148",
    "longitude": "-90.08560800966494",
    "latitude": "29.93686227132431",
    "geocoded_column": {
      "latitude": "29.93686227132431",
      "longitude": "-90.08560800966494"
    }
  },
  {
    "service_request": "2024-1144950",
    "request_type": "Trash/Recycling",
    "request_reason": "MIssed Recycling Pick-Up",
    "date_created": "2024-10-29T17:38:27.000",
    "date_modified": "2024-10-29T17:38:28.000",
    "request_status": "Pending",
    "responsible_agency": "Department of Sanitation",
    "final_address": "7501 E Oak Ridge Ct",
    "address_councildis": "E",
    "status": "Assigned to Contractor",
    "contractor": "Waste Pro",
    "rowid": "1144950",
    "final_x": "3713946.69931",
    "final_y": "567948.791781",
    "longitude": "-89.96424205070028",
    "latitude": "30.05463569891443",
    "geocoded_column": {
      "latitude": "30.05463569891443",
      "longitude": "-89.96424205070028"
    }
  },
  {
    "service_request": "2024-1144949",
    "request_type": "General Services",
    "request_reason": "General Service Request",
    "date_created": "2024-10-29T17:13:20.000",
    "date_modified": "2024-10-29T17:13:20.000",
    "request_status": "Pending",
    "responsible_agency": "Orleans Parish Communication District",
    "final_address": "7300 BLK Vanderkloot Ave",
    "address_councildis": "E",
    "status": "Pending",
    "rowid": "1144949",
    "final_x": "3706243.98971",
    "final_y": "562513.210391",
    "longitude": "-89.98879001466985",
    "latitude": "30.039940830026765",
    "geocoded_column": {
      "latitude": "30.039940830026765",
      "longitude": "-89.98879001466985"
    }
  },
  {
    "service_request": "2024-1144948",
    "request_type": "Parks & Parkways",
    "request_reason": "Request Grass Cutting Service (City Owned Property)",
    "date_created": "2024-10-29T17:07:36.000",
    "date_modified": "2024-10-29T17:07:36.000",
    "request_status": "Pending",
    "responsible_agency": "Department of Parks & Parkway",
    "final_address": "7300 BLK Vanderkloot Ave",
    "address_councildis": "E",
    "status": "Pending",
    "rowid": "1144948",
    "final_x": "3706243.98971",
    "final_y": "562513.210391",
    "longitude": "-89.98879001466985",
    "latitude": "30.039940830026765",
    "geocoded_column": {
      "latitude": "30.039940830026765",
      "longitude": "-89.98879001466985"
    }
  },
  {
    "service_request": "2024-1144947",
    "request_type": "Roads and Streets",
    "request_reason": "Abandoned Service Cut",
    "date_created": "2024-10-29T16:59:39.000",
    "date_modified": "2024-10-29T16:59:39.000",
    "request_status": "Pending",
    "responsible_agency": "Department of Public Works",
    "final_address": "5615 Perrier St",
    "address_councildis": "A",
    "status": "Pending",
    "rowid": "1144947",
    "final_x": "3666299.90919",
    "final_y": "520283.907384",
    "longitude": "-90.1164437175807",
    "latitude": "29.925052792732682",
    "geocoded_column": {
      "latitude": "29.925052792732682",
      "longitude": "-90.1164437175807"
    }
  },
  {
    "service_request": "2024-1144946",
    "request_type": "Property Maintenance",
    "request_reason": "Property Maintenance",
    "date_created": "2024-10-29T16:56:04.000",
    "date_modified": "2024-10-29T16:56:04.000",
    "request_status": "Pending",
    "responsible_agency": "Department of Code Enforcement",
    "final_address": "1202 Arabella St",
    "address_councildis": "A",
    "status": "Pending",
    "rowid": "1144946",
    "final_x": "3666096.34784",
    "final_y": "520318.879416",
    "longitude": "-90.11708512571782",
    "latitude": "29.92515489757499",
    "geocoded_column": {
      "latitude": "29.92515489757499",
      "longitude": "-90.11708512571782"
    }
  },
  {
    "service_request": "2024-1144945",
    "request_type": "Streetlights",
    "request_reason": "Streetlight Outage/Malfunction",
    "date_created": "2024-10-29T16:51:00.000",
    "date_modified": "2024-10-29T16:51:01.000",
    "request_status": "Pending",
    "responsible_agency": "Department of Public Works",
    "final_address": "1224 Nashville Ave",
    "address_councildis": "A",
    "status": "Pending",
    "contractor": "Legacy Professional Services",
    "rowid": "1144945",
    "final_x": "3665770.02343",
    "final_y": "520517.514616",
    "longitude": "-90.11810858165654",
    "latitude": "29.9257106019821",
    "geocoded_column": {
      "latitude": "29.9257106019821",
      "longitude": "-90.11810858165654"
    }
  },
  {
    "service_request": "2024-1144944",
    "request_type": "Trash/Recycling",
    "request_reason": "Request a Large Item Pick Up",
    "date_created": "2024-10-29T16:48:58.000",
    "date_modified": "2024-10-29T16:48:59.000",
    "request_status": "Pending",
    "responsible_agency": "Department of Sanitation",
    "final_address": "1520 Sixth St",
    "address_councildis": "B",
    "status": "Assigned to Contractor",
    "contractor": "IV Waste",
    "rowid": "1144944",
    "final_x": "3675645.86613",
    "final_y": "521943.643258",
    "longitude": "-90.08688452620085",
    "latitude": "29.929340302755303",
    "geocoded_column": {
      "latitude": "29.929340302755303",
      "longitude": "-90.08688452620085"
    }
  },
  {
    "service_request": "2024-1144943",
    "request_type": "Streetlights",
    "request_reason": "Streetlight Outage/Malfunction",
    "date_created": "2024-10-29T16:42:22.000",
    "date_modified": "2024-10-29T16:42:24.000",
    "request_status": "Pending",
    "responsible_agency": "Department of Public Works",
    "final_address": "307 S Olympia St",
    "address_councildis": "A",
    "status": "Pending",
    "contractor": "Legacy Professional Services",
    "rowid": "1144943",
    "final_x": "3668829.3099",
    "final_y": "538940.521994",
    "longitude": "-90.10782931795029",
    "latitude": "29.976278279126632",
    "geocoded_column": {
      "latitude": "29.976278279126632",
      "longitude": "-90.10782931795029"
    }
  },
  {
    "service_request": "2024-1144942",
    "request_type": "Trash/Recycling",
    "request_reason": "Request a Large Item Pick Up",
    "date_created": "2024-10-29T16:40:35.000",
    "date_modified": "2024-10-29T16:40:36.000",
    "request_status": "Pending",
    "responsible_agency": "Department of Sanitation",
    "final_address": "5249 Pratt Dr",
    "address_councildis": "D",
    "status": "Assigned to Contractor",
    "contractor": "IV Waste",
    "rowid": "1144942",
    "final_x": "3680473.21461",
    "final_y": "551864.86607",
    "longitude": "-90.07060458746255",
    "latitude": "30.011468091838687",
    "geocoded_column": {
      "latitude": "30.011468091838687",
      "longitude": "-90.07060458746255"
    }
  },
  {
    "service_request": "2024-1144941",
    "request_type": "Trash/Recycling",
    "request_reason": "Replace Recycling Cart",
    "date_created": "2024-10-29T16:39:54.000",
    "date_modified": "2024-10-29T16:39:54.000",
    "request_status": "Pending",
    "responsible_agency": "Department of Sanitation",
    "final_address": "1103 Lowerline St",
    "address_councildis": "A",
    "status": "Pending",
    "rowid": "1144941",
    "final_x": "3663545.82183",
    "final_y": "526546.265662",
    "longitude": "-90.12492904551006",
    "latitude": "29.942352434258467",
    "geocoded_column": {
      "latitude": "29.942352434258467",
      "longitude": "-90.12492904551006"
    }
  },
  {
    "service_request": "2024-1144940",
    "request_type": "Trash/Recycling",
    "request_reason": "Request a Large Item Pick Up",
    "date_created": "2024-10-29T16:37:29.000",
    "date_modified": "2024-10-29T16:37:29.000",
    "request_status": "Pending",
    "responsible_agency": "Department of Sanitation",
    "final_address": "1103 Lowerline St",
    "address_councildis": "A",
    "status": "Assigned to Contractor",
    "contractor": "IV Waste",
    "rowid": "1144940",
    "final_x": "3663545.82183",
    "final_y": "526546.265662",
    "longitude": "-90.12492904551006",
    "latitude": "29.942352434258467",
    "geocoded_column": {
      "latitude": "29.942352434258467",
      "longitude": "-90.12492904551006"
    }
  },
  {
    "service_request": "2024-1144939",
    "request_type": "Roads and Streets",
    "request_reason": "Pothole",
    "date_created": "2024-10-29T16:35:59.000",
    "date_modified": "2024-10-29T21:41:18.000",
    "request_status": "Pending",
    "responsible_agency": "Department of Public Works",
    "final_address": "FRANKLIN AVE & N DORGENOIS ST",
    "address_councildis": "D",
    "status": "Pending",
    "rowid": "1144939",
    "final_x": "3687544.6",
    "final_y": "541696.28",
    "longitude": "-90.04862342724351",
    "latitude": "29.983291982660884",
    "geocoded_column": {
      "latitude": "29.983291982660884",
      "longitude": "-90.04862342724351"
    }
  },
  {
    "service_request": "2024-1144938",
    "request_type": "Traffic Signals",
    "request_reason": "Traffic Signal Malfunctioning or Damaged",
    "date_created": "2024-10-29T16:35:37.000",
    "date_modified": "2024-10-29T16:35:38.000",
    "request_status": "Pending",
    "responsible_agency": "Department of Public Works",
    "final_address": "5729 Franklin Ave",
    "address_councildis": "D",
    "status": "Pending",
    "rowid": "1144938",
    "final_x": "3686582.95586",
    "final_y": "554306.216728",
    "longitude": "-90.05121513585532",
    "latitude": "30.01799436064056",
    "geocoded_column": {
      "latitude": "30.01799436064056",
      "longitude": "-90.05121513585532"
    }
  },
  {
    "service_request": "2024-1144937",
    "request_type": "Trash/Recycling",
    "request_reason": "Order Trash Cart",
    "date_created": "2024-10-29T16:34:52.000",
    "date_modified": "2024-10-29T16:34:53.000",
    "request_status": "Pending",
    "responsible_agency": "Department of Sanitation",
    "final_address": "2649 Ap Tureaud Ave",
    "address_councildis": "D",
    "status": "Assigned to Contractor",
    "contractor": "IV Waste",
    "rowid": "1144937",
    "final_x": "3681589.86229",
    "final_y": "542138.163917",
    "longitude": "-90.0674161501783",
    "latitude": "29.98468924294804",
    "geocoded_column": {
      "latitude": "29.98468924294804",
      "longitude": "-90.0674161501783"
    }
  },
  {
    "service_request": "2024-1144936",
    "request_type": "Trash/Recycling",
    "request_reason": "Replace Recycling Cart",
    "date_created": "2024-10-29T16:32:10.000",
    "date_modified": "2024-10-29T16:32:11.000",
    "request_status": "Pending",
    "responsible_agency": "Department of Sanitation",
    "final_address": "5022 Annunciation St",
    "address_councildis": "B",
    "status": "Pending",
    "rowid": "1144936",
    "final_x": "3668406.08116",
    "final_y": "517469.203766",
    "longitude": "-90.10989006029018",
    "latitude": "29.91725157430246",
    "geocoded_column": {
      "latitude": "29.91725157430246",
      "longitude": "-90.10989006029018"
    }
  },
  {
    "service_request": "2024-1144935",
    "request_type": "Trash/Recycling",
    "request_reason": "Repair Trash Cart",
    "date_created": "2024-10-29T16:31:13.000",
    "date_modified": "2024-10-29T16:31:14.000",
    "request_status": "Pending",
    "responsible_agency": "Department of Sanitation",
    "final_address": "5022 Annunciation St",
    "address_councildis": "B",
    "status": "Assigned to Contractor",
    "contractor": "IV Waste",
    "rowid": "1144935",
    "final_x": "3668406.08116",
    "final_y": "517469.203766",
    "longitude": "-90.10989006029018",
    "latitude": "29.91725157430246",
    "geocoded_column": {
      "latitude": "29.91725157430246",
      "longitude": "-90.10989006029018"
    }
  },
  {
    "service_request": "2024-1144934",
    "request_type": "Property Maintenance",
    "request_reason": "Property Maintenance",
    "date_created": "2024-10-29T16:29:06.000",
    "date_modified": "2024-10-29T16:29:07.000",
    "request_status": "Pending",
    "responsible_agency": "Department of Code Enforcement",
    "final_address": "1446 N Prieur St",
    "address_councildis": "D",
    "status": "Pending",
    "rowid": "1144934",
    "final_x": "3680759.5444",
    "final_y": "537559.560136",
    "longitude": "-90.07019818311748",
    "latitude": "29.972124870736785",
    "geocoded_column": {
      "latitude": "29.972124870736785",
      "longitude": "-90.07019818311748"
    }
  },
  {
    "service_request": "2024-1144933",
    "request_type": "Streetlights",
    "request_reason": "Streetlight Outage/Malfunction",
    "date_created": "2024-10-29T16:28:25.000",
    "date_modified": "2024-10-29T16:28:26.000",
    "request_status": "Pending",
    "responsible_agency": "Department of Public Works",
    "final_address": "307 S Olympia St",
    "address_councildis": "A",
    "status": "Pending",
    "contractor": "Legacy Professional Services",
    "rowid": "1144933",
    "final_x": "3668829.3099",
    "final_y": "538940.521994",
    "longitude": "-90.10782931795029",
    "latitude": "29.976278279126632",
    "geocoded_column": {
      "latitude": "29.976278279126632",
      "longitude": "-90.10782931795029"
    }
  },
  {
    "service_request": "2024-1144932",
    "request_type": "Roads and Streets",
    "request_reason": "Pothole",
    "date_created": "2024-10-29T16:25:48.000",
    "date_modified": "2024-10-29T16:25:48.000",
    "request_status": "Pending",
    "responsible_agency": "Department of Public Works",
    "final_address": "307 S Olympia St",
    "address_councildis": "A",
    "status": "Pending",
    "rowid": "1144932",
    "final_x": "3668829.3099",
    "final_y": "538940.521994",
    "longitude": "-90.10782931795029",
    "latitude": "29.976278279126632",
    "geocoded_column": {
      "latitude": "29.976278279126632",
      "longitude": "-90.10782931795029"
    }
  },
  {
    "service_request": "2024-1144931",
    "request_type": "Roads and Streets",
    "request_reason": "Street Subsidence (Sinking)",
    "date_created": "2024-10-29T16:23:55.000",
    "date_modified": "2024-10-29T16:23:55.000",
    "request_status": "Pending",
    "responsible_agency": "Department of Public Works",
    "final_address": "307 S Olympia St",
    "address_councildis": "A",
    "status": "Pending",
    "rowid": "1144931",
    "final_x": "3668829.3099",
    "final_y": "538940.521994",
    "longitude": "-90.10782931795029",
    "latitude": "29.976278279126632",
    "geocoded_column": {
      "latitude": "29.976278279126632",
      "longitude": "-90.10782931795029"
    }
  },
  {
    "service_request": "2024-1144930",
    "request_type": "Trash/Recycling",
    "request_reason": "Replace Trash Cart",
    "date_created": "2024-10-29T16:22:34.000",
    "date_modified": "2024-10-29T16:22:35.000",
    "request_status": "Pending",
    "responsible_agency": "Department of Sanitation",
    "final_address": "8603 S Claiborne Ave",
    "address_councildis": "A",
    "status": "Assigned to Contractor",
    "contractor": "IV Waste",
    "rowid": "1144930",
    "final_x": "3663561.38695",
    "final_y": "532837.44442",
    "longitude": "-90.12467038576823",
    "latitude": "29.959650694282793",
    "geocoded_column": {
      "latitude": "29.959650694282793",
      "longitude": "-90.12467038576823"
    }
  },
  {
    "service_request": "2024-1144929",
    "request_type": "Trash/Recycling",
    "request_reason": "Replace Trash Cart",
    "date_created": "2024-10-29T16:15:20.000",
    "date_modified": "2024-10-29T16:15:21.000",
    "request_status": "Pending",
    "responsible_agency": "Department of Sanitation",
    "final_address": "123 S St Patrick St",
    "address_councildis": "A",
    "status": "Assigned to Contractor",
    "contractor": "IV Waste",
    "rowid": "1144929",
    "final_x": "3668944.99719",
    "final_y": "539685.63457",
    "longitude": "-90.10743876491577",
    "latitude": "29.978323684722195",
    "geocoded_column": {
      "latitude": "29.978323684722195",
      "longitude": "-90.10743876491577"
    }
  },
  {
    "service_request": "2024-1144928",
    "request_type": "Trash/Recycling",
    "request_reason": "Request a Large Item Pick Up",
    "date_created": "2024-10-29T16:13:25.000",
    "date_modified": "2024-10-29T16:16:23.000",
    "request_status": "Pending",
    "responsible_agency": "Department of Sanitation",
    "final_address": "716 Calhoun St",
    "address_councildis": "A",
    "status": "Assigned to Contractor",
    "contractor": "IV Waste",
    "rowid": "1144928",
    "final_x": "3663333.25715",
    "final_y": "519575.270328",
    "longitude": "-90.12583209695087",
    "latitude": "29.92319056045942",
    "geocoded_column": {
      "latitude": "29.92319056045942",
      "longitude": "-90.12583209695087"
    }
  },
  {
    "service_request": "2024-1144927",
    "request_type": "Parks & Parkways",
    "request_reason": "Request Tree Service (Right of Way/Public Property)",
    "date_created": "2024-10-29T16:12:56.000",
    "date_modified": "2024-10-29T16:12:56.000",
    "request_status": "Pending",
    "responsible_agency": "Department of Parks & Parkway",
    "final_address": "300 BLK N Broad St",
    "address_councildis": "B",
    "status": "Pending",
    "rowid": "1144927",
    "final_x": "3675948.67202",
    "final_y": "535976.673897",
    "longitude": "-90.085446174723",
    "latitude": "29.96791741863317",
    "geocoded_column": {
      "latitude": "29.96791741863317",
      "longitude": "-90.085446174723"
    }
  },
  {
    "service_request": "2024-1144926",
    "request_type": "Trash/Recycling",
    "request_reason": "Repair Trash Cart",
    "date_created": "2024-10-29T16:09:30.000",
    "date_modified": "2024-10-29T16:09:31.000",
    "request_status": "Pending",
    "responsible_agency": "Department of Sanitation",
    "final_address": "4911 Lafaye St",
    "address_councildis": "D",
    "status": "Assigned to Contractor",
    "contractor": "IV Waste",
    "rowid": "1144926",
    "final_x": "3687437.42326",
    "final_y": "551100.717909",
    "longitude": "-90.04862890719164",
    "latitude": "30.00915410106073",
    "geocoded_column": {
      "latitude": "30.00915410106073",
      "longitude": "-90.04862890719164"
    }
  },
  {
    "service_request": "2024-1144925",
    "request_type": "Trash/Recycling",
    "request_reason": "Request a Large Item Pick Up",
    "date_created": "2024-10-29T16:07:16.000",
    "date_modified": "2024-10-29T16:07:17.000",
    "request_status": "Pending",
    "responsible_agency": "Department of Sanitation",
    "final_address": "11283 Winrock Dr",
    "address_councildis": "E",
    "status": "Assigned to Contractor",
    "contractor": "Waste Pro",
    "rowid": "1144925",
    "final_x": "3716712.63884",
    "final_y": "561668.571935",
    "longitude": "-89.95573828024344",
    "latitude": "30.037276496200594",
    "geocoded_column": {
      "latitude": "30.037276496200594",
      "longitude": "-89.95573828024344"
    }
  },
  {
    "service_request": "2024-1144924",
    "request_type": "Trash/Recycling",
    "request_reason": "Replace Trash Cart",
    "date_created": "2024-10-29T16:07:04.000",
    "date_modified": "2024-10-29T16:07:05.000",
    "request_status": "Pending",
    "responsible_agency": "Department of Sanitation",
    "final_address": "4425 Elba St",
    "address_councildis": "B",
    "status": "Assigned to Contractor",
    "contractor": "IV Waste",
    "rowid": "1144924",
    "final_x": "3669625.56519",
    "final_y": "530538.860034",
    "longitude": "-90.10559881397727",
    "latitude": "29.953153064930127",
    "geocoded_column": {
      "latitude": "29.953153064930127",
      "longitude": "-90.10559881397727"
    }
  },
  {
    "service_request": "2024-1144923",
    "request_type": "Abandoned Vehicles",
    "request_reason": "Abandoned/Junk Vehicles",
    "date_created": "2024-10-29T16:02:27.000",
    "date_modified": "2024-10-29T16:02:28.000",
    "request_status": "Pending",
    "responsible_agency": "Department of Public Works",
    "final_address": "1826 Industry St",
    "address_councildis": "D",
    "status": "Pending",
    "rowid": "1144923",
    "final_x": "3681732.27036",
    "final_y": "542674.146125",
    "longitude": "-90.06694763519249",
    "latitude": "29.98615867898932",
    "geocoded_column": {
      "latitude": "29.98615867898932",
      "longitude": "-90.06694763519249"
    }
  },
  {
    "service_request": "2024-1144922",
    "request_type": "Trash/Recycling",
    "request_reason": "Request a Large Item Pick Up",
    "date_created": "2024-10-29T16:01:15.000",
    "date_modified": "2024-10-29T16:01:16.000",
    "request_status": "Pending",
    "responsible_agency": "Department of Sanitation",
    "final_address": "2037 Treasure St",
    "address_councildis": "D",
    "status": "Assigned to Contractor",
    "contractor": "IV Waste",
    "rowid": "1144922",
    "final_x": "3683299.6742",
    "final_y": "543997.87003",
    "longitude": "-90.06195043103297",
    "latitude": "29.9897507265862",
    "geocoded_column": {
      "latitude": "29.9897507265862",
      "longitude": "-90.06195043103297"
    }
  },
  {
    "service_request": "2024-1144921",
    "request_type": "Trash/Recycling",
    "request_reason": "Request a Large Item Pick Up",
    "date_created": "2024-10-29T15:59:33.000",
    "date_modified": "2024-10-29T15:59:34.000",
    "request_status": "Pending",
    "responsible_agency": "Department of Sanitation",
    "final_address": "11283 Winrock Dr",
    "address_councildis": "E",
    "status": "Assigned to Contractor",
    "contractor": "Waste Pro",
    "rowid": "1144921",
    "final_x": "3716712.63884",
    "final_y": "561668.571935",
    "longitude": "-89.95573828024344",
    "latitude": "30.037276496200594",
    "geocoded_column": {
      "latitude": "30.037276496200594",
      "longitude": "-89.95573828024344"
    }
  },
  {
    "service_request": "2024-1144920",
    "request_type": "Trash/Recycling",
    "request_reason": "Request a Large Item Pick Up",
    "date_created": "2024-10-29T15:57:03.000",
    "date_modified": "2024-10-29T15:57:04.000",
    "request_status": "Pending",
    "responsible_agency": "Department of Sanitation",
    "final_address": "7738 Vanderkloot Ave",
    "address_councildis": "E",
    "status": "Assigned to Contractor",
    "contractor": "Waste Pro",
    "rowid": "1144920",
    "final_x": "3705588.38577",
    "final_y": "563555.387872",
    "longitude": "-89.9908233228782",
    "latitude": "30.04282754185251",
    "geocoded_column": {
      "latitude": "30.04282754185251",
      "longitude": "-89.9908233228782"
    }
  },
  {
    "service_request": "2024-1144919",
    "request_type": "Trash/Recycling",
    "request_reason": "Dead Animal Pick Up",
    "date_created": "2024-10-29T15:56:34.000",
    "date_modified": "2024-10-29T15:56:35.000",
    "request_status": "Pending",
    "responsible_agency": "Department of Sanitation",
    "final_address": "3027 Metropolitan St",
    "address_councildis": "D",
    "status": "Assigned to Contractor",
    "contractor": "IV Waste",
    "rowid": "1144919",
    "final_x": "3691268.08297",
    "final_y": "543671.973902",
    "longitude": "-90.03679216697913",
    "latitude": "29.98860911448661",
    "geocoded_column": {
      "latitude": "29.98860911448661",
      "longitude": "-90.03679216697913"
    }
  },
  {
    "service_request": "2024-1144918",
    "request_type": "Safety & Permits",
    "request_reason": "Licenses & Permits",
    "date_created": "2024-10-29T15:56:34.000",
    "date_modified": "2024-10-29T15:56:34.000",
    "request_status": "Pending",
    "responsible_agency": "Safety and Permits",
    "final_address": "6542 Virgilian St",
    "address_councildis": "D",
    "status": "Pending",
    "rowid": "1144918",
    "final_x": "3697214.31504",
    "final_y": "555374.200153",
    "longitude": "-90.01758553408598",
    "latitude": "30.02059953569368",
    "geocoded_column": {
      "latitude": "30.02059953569368",
      "longitude": "-90.01758553408598"
    }
  },
  {
    "service_request": "2024-1144917",
    "request_type": "Trash/Recycling",
    "request_reason": "Request a Large Item Pick Up",
    "date_created": "2024-10-29T15:56:20.000",
    "date_modified": "2024-10-29T15:56:22.000",
    "request_status": "Pending",
    "responsible_agency": "Department of Sanitation",
    "final_address": "5229 Marcia Ave",
    "address_councildis": "A",
    "status": "Assigned to Contractor",
    "contractor": "IV Waste",
    "rowid": "1144917",
    "final_x": "3664262.53178",
    "final_y": "543286.11899",
    "longitude": "-90.12210754744363",
    "latitude": "29.98836072326393",
    "geocoded_column": {
      "latitude": "29.98836072326393",
      "longitude": "-90.12210754744363"
    }
  },
  {
    "service_request": "2024-1144916",
    "request_type": "Abandoned Vehicles",
    "request_reason": "Abandoned/Junk Vehicles",
    "date_created": "2024-10-29T15:55:27.000",
    "date_modified": "2024-10-29T15:55:27.000",
    "request_status": "Pending",
    "responsible_agency": "Department of Public Works",
    "final_address": "6542 Virgilian St",
    "address_councildis": "D",
    "status": "Pending",
    "rowid": "1144916",
    "final_x": "3697214.31504",
    "final_y": "555374.200153",
    "longitude": "-90.01758553408598",
    "latitude": "30.02059953569368",
    "geocoded_column": {
      "latitude": "30.02059953569368",
      "longitude": "-90.01758553408598"
    }
  },
  {
    "service_request": "2024-1144915",
    "request_type": "Trash/Recycling",
    "request_reason": "Missed Trash Pick-Up",
    "date_created": "2024-10-29T15:52:56.000",
    "date_modified": "2024-10-29T16:06:44.000",
    "case_close_date": "2024-10-29T11:06:44.000",
    "request_status": "Closed",
    "responsible_agency": "Department of Sanitation",
    "final_address": "7412 Lakeshore Dr",
    "address_councildis": "D",
    "status": "Invalid Request",
    "contractor": "IV Waste",
    "contractor_action": "Invalid",
    "rowid": "1144915",
    "final_x": "3666834.90644",
    "final_y": "556350.731994",
    "longitude": "-90.11354290644564",
    "latitude": "30.024208849408627",
    "geocoded_column": {
      "latitude": "30.024208849408627",
      "longitude": "-90.11354290644564"
    }
  },
  {
    "service_request": "2024-1144914",
    "request_type": "Trash/Recycling",
    "request_reason": "Replace Recycling Cart",
    "date_created": "2024-10-29T15:52:26.000",
    "date_modified": "2024-10-29T15:52:26.000",
    "request_status": "Pending",
    "responsible_agency": "Department of Sanitation",
    "final_address": "608 Verret St",
    "address_councildis": "C",
    "status": "Pending",
    "rowid": "1144914",
    "final_x": "3687087.83554",
    "final_y": "529390.760897",
    "longitude": "-90.05050126318514",
    "latitude": "29.949470161774954",
    "geocoded_column": {
      "latitude": "29.949470161774954",
      "longitude": "-90.05050126318514"
    }
  },
  {
    "service_request": "2024-1144913",
    "request_type": "Safety & Permits",
    "request_reason": "Licenses & Permits",
    "date_created": "2024-10-29T15:50:49.000",
    "date_modified": "2024-10-29T15:50:50.000",
    "request_status": "Pending",
    "responsible_agency": "Safety and Permits",
    "final_address": "2045 Broadway St",
    "address_councildis": "A",
    "status": "Pending",
    "rowid": "1144913",
    "final_x": "3665940.91584",
    "final_y": "529061.001088",
    "longitude": "-90.11728290639834",
    "latitude": "29.949197474985805",
    "geocoded_column": {
      "latitude": "29.949197474985805",
      "longitude": "-90.11728290639834"
    }
  },
  {
    "service_request": "2024-1144912",
    "request_type": "Drainage",
    "request_reason": "Catch Basin Clogged",
    "date_created": "2024-10-29T15:45:38.000",
    "date_modified": "2024-10-29T15:45:38.000",
    "request_status": "Pending",
    "responsible_agency": "Department of Public Works",
    "final_address": "3400 BLK Touro St",
    "address_councildis": "D",
    "status": "Pending",
    "rowid": "1144912",
    "final_x": "3683504.8111",
    "final_y": "545264.643182",
    "longitude": "-90.0612580389104",
    "latitude": "29.993227642783438",
    "geocoded_column": {
      "latitude": "29.993227642783438",
      "longitude": "-90.0612580389104"
    }
  },
  {
    "service_request": "2024-1144911",
    "request_type": "Trash/Recycling",
    "request_reason": "Request a Large Item Pick Up",
    "date_created": "2024-10-29T15:43:13.000",
    "date_modified": "2024-10-29T15:43:14.000",
    "request_status": "Pending",
    "responsible_agency": "Department of Sanitation",
    "final_address": "4858 Longfellow Dr",
    "address_councildis": "E",
    "status": "Assigned to Contractor",
    "contractor": "Waste Pro",
    "rowid": "1144911",
    "final_x": "3709481.70437",
    "final_y": "556566.471002",
    "longitude": "-89.97878008362603",
    "latitude": "30.023484785292997",
    "geocoded_column": {
      "latitude": "30.023484785292997",
      "longitude": "-89.97878008362603"
    }
  },
  {
    "service_request": "2024-1144910",
    "request_type": "Trash/Recycling",
    "request_reason": "Repair Trash Cart",
    "date_created": "2024-10-29T15:40:52.000",
    "date_modified": "2024-10-29T15:40:53.000",
    "request_status": "Pending",
    "responsible_agency": "Department of Sanitation",
    "final_address": "1562 St Denis St",
    "address_councildis": "D",
    "status": "Assigned to Contractor",
    "contractor": "IV Waste",
    "rowid": "1144910",
    "final_x": "3679437.93",
    "final_y": "545819.450896",
    "longitude": "-90.07408538125772",
    "latitude": "29.994876685798843",
    "geocoded_column": {
      "latitude": "29.994876685798843",
      "longitude": "-90.07408538125772"
    }
  },
  {
    "service_request": "2024-1144909",
    "request_type": "Trash/Recycling",
    "request_reason": "Request a Large Item Pick Up",
    "date_created": "2024-10-29T15:38:19.000",
    "date_modified": "2024-10-29T15:38:21.000",
    "request_status": "Pending",
    "responsible_agency": "Department of Sanitation",
    "final_address": "7524 Daniel Dr",
    "address_councildis": "E",
    "status": "Assigned to Contractor",
    "contractor": "Waste Pro",
    "rowid": "1144909",
    "final_x": "3705177.34084",
    "final_y": "562481.481695",
    "longitude": "-89.9921621064116",
    "latitude": "30.03988796026546",
    "geocoded_column": {
      "latitude": "30.03988796026546",
      "longitude": "-89.9921621064116"
    }
  },
  {
    "service_request": "2024-1144908",
    "request_type": "Roads and Streets",
    "request_reason": "Sidewalk Damaged or Missing",
    "date_created": "2024-10-29T15:32:54.000",
    "date_modified": "2024-10-29T15:32:55.000",
    "request_status": "Pending",
    "responsible_agency": "Department of Public Works",
    "final_address": "725 St Ferdinand St",
    "address_councildis": "C",
    "status": "Pending",
    "rowid": "1144908",
    "final_x": "3687434.33538",
    "final_y": "535049.91175",
    "longitude": "-90.04920696104945",
    "latitude": "29.965020204358737",
    "geocoded_column": {
      "latitude": "29.965020204358737",
      "longitude": "-90.04920696104945"
    }
  },
  {
    "service_request": "2024-1144907",
    "request_type": "Trash/Recycling",
    "request_reason": "Request a Large Item Pick Up",
    "date_created": "2024-10-29T15:31:40.000",
    "date_modified": "2024-10-29T15:31:41.000",
    "request_status": "Pending",
    "responsible_agency": "Department of Sanitation",
    "final_address": "7152 Deanne St",
    "address_councildis": "D",
    "status": "Assigned to Contractor",
    "contractor": "Waste Pro",
    "rowid": "1144907",
    "final_x": "3695386.84451",
    "final_y": "556934.79209",
    "longitude": "-90.02330339035147",
    "latitude": "30.024948145712088",
    "geocoded_column": {
      "latitude": "30.024948145712088",
      "longitude": "-90.02330339035147"
    }
  },
  {
    "service_request": "2024-1144906",
    "request_type": "Abandoned Vehicles",
    "request_reason": "Abandoned/Junk Vehicles",
    "date_created": "2024-10-29T15:27:28.000",
    "date_modified": "2024-10-29T15:27:28.000",
    "request_status": "Pending",
    "responsible_agency": "Department of Public Works",
    "final_address": "3125 Iberville St",
    "address_councildis": "B",
    "status": "Pending",
    "rowid": "1144906",
    "final_x": "3674185.75956",
    "final_y": "536587.153991",
    "longitude": "-90.09099261599852",
    "latitude": "29.969648705777605",
    "geocoded_column": {
      "latitude": "29.969648705777605",
      "longitude": "-90.09099261599852"
    }
  },
  {
    "service_request": "2024-1144905",
    "request_type": "Roads and Streets",
    "request_reason": "Abandoned Service Cut",
    "date_created": "2024-10-29T15:26:10.000",
    "date_modified": "2024-10-29T15:26:10.000",
    "request_status": "Pending",
    "responsible_agency": "Department of Public Works",
    "final_address": "1123 Marengo St",
    "address_councildis": "B",
    "status": "Pending",
    "rowid": "1144905",
    "final_x": "3672168.01422",
    "final_y": "519847.244856",
    "longitude": "-90.09793482789676",
    "latitude": "29.923679447344355",
    "geocoded_column": {
      "latitude": "29.923679447344355",
      "longitude": "-90.09793482789676"
    }
  },
  {
    "service_request": "2024-1144904",
    "request_type": "Trash/Recycling",
    "request_reason": "Replace Recycling Cart",
    "date_created": "2024-10-29T15:20:10.000",
    "date_modified": "2024-10-29T15:20:10.000",
    "request_status": "Pending",
    "responsible_agency": "Department of Sanitation",
    "final_address": "1008 Clouet St",
    "address_councildis": "C",
    "status": "Pending",
    "rowid": "1144904",
    "final_x": "3688888.60131",
    "final_y": "535656.367174",
    "longitude": "-90.04459294833742",
    "latitude": "29.96664285159957",
    "geocoded_column": {
      "latitude": "29.96664285159957",
      "longitude": "-90.04459294833742"
    }
  },
  {
    "service_request": "2024-1144903",
    "request_type": "Streetlights",
    "request_reason": "Streetlight Outage/Malfunction",
    "date_created": "2024-10-29T15:14:39.000",
    "date_modified": "2024-10-29T15:14:40.000",
    "request_status": "Pending",
    "responsible_agency": "Department of Public Works",
    "final_address": "217 N Lopez St",
    "address_councildis": "B",
    "status": "Pending",
    "contractor": "Legacy Professional Services",
    "rowid": "1144903",
    "final_x": "3674144.44936",
    "final_y": "536749.624136",
    "longitude": "-90.09111751492387",
    "latitude": "29.970096675154576",
    "geocoded_column": {
      "latitude": "29.970096675154576",
      "longitude": "-90.09111751492387"
    }
  },
  {
    "service_request": "2024-1144902",
    "request_type": "Roads and Streets",
    "request_reason": "Sidewalk Damaged or Missing",
    "date_created": "2024-10-29T15:13:25.000",
    "date_modified": "2024-10-29T15:13:26.000",
    "request_status": "Pending",
    "responsible_agency": "Department of Public Works",
    "final_address": "1430 St Anthony St",
    "address_councildis": "C",
    "status": "Pending",
    "rowid": "1144902",
    "final_x": "3683321.93916",
    "final_y": "537546.927304",
    "longitude": "-90.06210616746033",
    "latitude": "29.972012216623494",
    "geocoded_column": {
      "latitude": "29.972012216623494",
      "longitude": "-90.06210616746033"
    }
  },
  {
    "service_request": "2024-1144901",
    "request_type": "Trash/Recycling",
    "request_reason": "Request a Large Item Pick Up",
    "date_created": "2024-10-29T15:04:51.000",
    "date_modified": "2024-10-29T15:04:52.000",
    "request_status": "Pending",
    "responsible_agency": "Department of Sanitation",
    "final_address": "7521 Farwood Dr",
    "address_councildis": "E",
    "status": "Assigned to Contractor",
    "contractor": "Waste Pro",
    "rowid": "1144901",
    "final_x": "3701954.87434",
    "final_y": "557059.533466",
    "longitude": "-90.00254504277464",
    "latitude": "30.02508302650678",
    "geocoded_column": {
      "latitude": "30.02508302650678",
      "longitude": "-90.00254504277464"
    }
  },
  {
    "service_request": "2024-1144900",
    "request_type": "Trash/Recycling",
    "request_reason": "Repair Trash Cart",
    "date_created": "2024-10-29T15:04:00.000",
    "date_modified": "2024-10-29T15:04:02.000",
    "request_status": "Pending",
    "responsible_agency": "Department of Sanitation",
    "final_address": "4028 Odin St",
    "address_councildis": "D",
    "status": "Assigned to Contractor",
    "contractor": "IV Waste",
    "rowid": "1144900",
    "final_x": "3688923.89321",
    "final_y": "553778.583639",
    "longitude": "-90.04383744976943",
    "latitude": "30.01647133485234",
    "geocoded_column": {
      "latitude": "30.01647133485234",
      "longitude": "-90.04383744976943"
    }
  },
  {
    "service_request": "2024-1144899",
    "request_type": "Safety & Permits",
    "request_reason": "Licenses & Permits",
    "date_created": "2024-10-29T15:02:10.000",
    "date_modified": "2024-10-29T15:02:10.000",
    "request_status": "Pending",
    "responsible_agency": "Safety and Permits",
    "final_address": "4722 Iberville St",
    "address_councildis": "A",
    "status": "Pending",
    "rowid": "1144899",
    "final_x": "3669180.48865",
    "final_y": "540233.406539",
    "longitude": "-90.10667647446289",
    "latitude": "29.979822942684986",
    "geocoded_column": {
      "latitude": "29.979822942684986",
      "longitude": "-90.10667647446289"
    }
  },
  {
    "service_request": "2024-1144898",
    "request_type": "Safety & Permits",
    "request_reason": "Zoning Enforcement",
    "date_created": "2024-10-29T15:01:27.000",
    "date_modified": "2024-10-29T15:01:27.000",
    "request_status": "Pending",
    "responsible_agency": "Safety and Permits",
    "final_address": "3325 Iberville St",
    "address_councildis": "B",
    "rowid": "1144898",
    "final_x": "3673681.31912",
    "final_y": "536970.707208",
    "longitude": "-90.0925725694529",
    "latitude": "29.970718376243024",
    "geocoded_column": {
      "latitude": "29.970718376243024",
      "longitude": "-90.0925725694529"
    }
  },
  {
    "service_request": "2024-1144897",
    "request_type": "Trash/Recycling",
    "request_reason": "Replace Trash Cart",
    "date_created": "2024-10-29T14:58:41.000",
    "date_modified": "2024-10-29T14:58:42.000",
    "request_status": "Pending",
    "responsible_agency": "Department of Sanitation",
    "final_address": "207 W Kenilworth St",
    "address_councildis": "A",
    "status": "Assigned to Contractor",
    "contractor": "IV Waste",
    "rowid": "1144897",
    "final_x": "3665469.49178",
    "final_y": "546364.03528",
    "longitude": "-90.11819202965873",
    "latitude": "29.99678880818457",
    "geocoded_column": {
      "latitude": "29.99678880818457",
      "longitude": "-90.11819202965873"
    }
  },
  {
    "service_request": "2024-1144896",
    "request_type": "Trash/Recycling",
    "request_reason": "Dead Animal Pick Up",
    "date_created": "2024-10-29T14:54:53.000",
    "date_modified": "2024-10-29T14:54:54.000",
    "request_status": "Pending",
    "responsible_agency": "Department of Sanitation",
    "final_address": "4921 Stephen Girard Ave",
    "address_councildis": "D",
    "status": "Assigned to Contractor",
    "contractor": "IV Waste",
    "rowid": "1144896",
    "final_x": "3692211.71062",
    "final_y": "550991.063829",
    "longitude": "-90.03354930680365",
    "latitude": "30.00870454398264",
    "geocoded_column": {
      "latitude": "30.00870454398264",
      "longitude": "-90.03354930680365"
    }
  },
  {
    "service_request": "2024-1144895",
    "request_type": "Trash/Recycling",
    "request_reason": "Request a Large Item Pick Up",
    "date_created": "2024-10-29T14:54:46.000",
    "date_modified": "2024-10-29T14:54:46.000",
    "request_status": "Pending",
    "responsible_agency": "Department of Sanitation",
    "final_address": "727 Eleonore St",
    "address_councildis": "A",
    "status": "Assigned to Contractor",
    "contractor": "IV Waste",
    "rowid": "1144895",
    "final_x": "3665242.09575",
    "final_y": "518950.240247",
    "longitude": "-90.11982749248142",
    "latitude": "29.921416474284094",
    "geocoded_column": {
      "latitude": "29.921416474284094",
      "longitude": "-90.11982749248142"
    }
  },
  {
    "service_request": "2024-1144894",
    "request_type": "Trash/Recycling",
    "request_reason": "Replace Trash Cart",
    "date_created": "2024-10-29T14:53:37.000",
    "date_modified": "2024-10-29T14:53:38.000",
    "request_status": "Pending",
    "responsible_agency": "Department of Sanitation",
    "final_address": "2420 S Roman St",
    "address_councildis": "B",
    "status": "Assigned to Contractor",
    "contractor": "IV Waste",
    "rowid": "1144894",
    "final_x": "3673653.04532",
    "final_y": "527850.653631",
    "longitude": "-90.09297364294461",
    "latitude": "29.945642113463375",
    "geocoded_column": {
      "latitude": "29.945642113463375",
      "longitude": "-90.09297364294461"
    }
  },
  {
    "service_request": "2024-1144893",
    "request_type": "Trash/Recycling",
    "request_reason": "Request a Large Item Pick Up",
    "date_created": "2024-10-29T14:48:40.000",
    "date_modified": "2024-10-29T14:48:42.000",
    "request_status": "Pending",
    "responsible_agency": "Department of Sanitation",
    "final_address": "6230 Stratford Pl",
    "address_councildis": "C",
    "status": "Assigned to Contractor",
    "contractor": "Richards Disposal",
    "rowid": "1144893",
    "final_x": "3707136.29892",
    "final_y": "516238.682548",
    "longitude": "-89.98768748598104",
    "latitude": "29.912674177682373",
    "geocoded_column": {
      "latitude": "29.912674177682373",
      "longitude": "-89.98768748598104"
    }
  },
  {
    "service_request": "2024-1144892",
    "request_type": "Streetlights",
    "request_reason": "Streetlight Outage/Malfunction",
    "date_created": "2024-10-29T14:43:44.000",
    "date_modified": "2024-10-29T14:43:45.000",
    "request_status": "Pending",
    "responsible_agency": "Department of Public Works",
    "final_address": "2200 Rev. John Raphael, Jr. Way",
    "address_councildis": "B",
    "status": "Pending",
    "contractor": "Legacy Professional Services",
    "rowid": "1144892",
    "final_x": "3675806.4699",
    "final_y": "525980.896061",
    "longitude": "-90.08623881895544",
    "latitude": "29.940436624443848",
    "geocoded_column": {
      "latitude": "29.940436624443848",
      "longitude": "-90.08623881895544"
    }
  },
  {
    "service_request": "2024-1144891",
    "request_type": "Trash/Recycling",
    "request_reason": "Repair Trash Cart",
    "date_created": "2024-10-29T14:43:32.000",
    "date_modified": "2024-10-29T14:43:33.000",
    "request_status": "Pending",
    "responsible_agency": "Department of Sanitation",
    "final_address": "4815 Iberville St",
    "address_councildis": "A",
    "status": "Assigned to Contractor",
    "contractor": "IV Waste",
    "rowid": "1144891",
    "final_x": "3669025.59226",
    "final_y": "540569.094859",
    "longitude": "-90.10715435643844",
    "latitude": "29.980750530519327",
    "geocoded_column": {
      "latitude": "29.980750530519327",
      "longitude": "-90.10715435643844"
    }
  },
  {
    "service_request": "2024-1144890",
    "request_type": "Trash/Recycling",
    "request_reason": "MIssed Recycling Pick-Up",
    "date_created": "2024-10-29T14:43:00.000",
    "date_modified": "2024-10-29T14:43:02.000",
    "request_status": "Pending",
    "responsible_agency": "Department of Sanitation",
    "final_address": "6102 Morrison Rd",
    "address_councildis": "D",
    "status": "Assigned to Contractor",
    "contractor": "Waste Pro",
    "rowid": "1144890",
    "final_x": "3695965.9112",
    "final_y": "557557.563995",
    "longitude": "-90.02145111219285",
    "latitude": "30.02664231510327",
    "geocoded_column": {
      "latitude": "30.02664231510327",
      "longitude": "-90.02145111219285"
    }
  },
  {
    "service_request": "2024-1144889",
    "request_type": "Streetlights",
    "request_reason": "Streetlight Outage/Malfunction",
    "date_created": "2024-10-29T14:42:16.000",
    "date_modified": "2024-10-29T14:42:17.000",
    "request_status": "Pending",
    "responsible_agency": "Department of Public Works",
    "final_address": "2237 Jackson Ave",
    "address_councildis": "B",
    "status": "Pending",
    "contractor": "Legacy Professional Services",
    "rowid": "1144889",
    "final_x": "3675867.23873",
    "final_y": "526051.534846",
    "longitude": "-90.08604453399678",
    "latitude": "29.940629039141943",
    "geocoded_column": {
      "latitude": "29.940629039141943",
      "longitude": "-90.08604453399678"
    }
  },
  {
    "service_request": "2024-1144888",
    "request_type": "Trash/Recycling",
    "request_reason": "Request a Large Item Pick Up",
    "date_created": "2024-10-29T14:41:56.000",
    "date_modified": "2024-10-29T14:41:57.000",
    "request_status": "Pending",
    "responsible_agency": "Department of Sanitation",
    "final_address": "7521 Rochon Ave",
    "address_councildis": "E",
    "status": "Assigned to Contractor",
    "contractor": "Waste Pro",
    "rowid": "1144888",
    "final_x": "3719063.05618",
    "final_y": "571356.349096",
    "longitude": "-89.94794035585014",
    "latitude": "30.06383598087636",
    "geocoded_column": {
      "latitude": "30.06383598087636",
      "longitude": "-89.94794035585014"
    }
  },
  {
    "service_request": "2024-1144887",
    "request_type": "Streetlights",
    "request_reason": "Streetlight Outage/Malfunction",
    "date_created": "2024-10-29T14:40:03.000",
    "date_modified": "2024-10-29T14:40:04.000",
    "request_status": "Pending",
    "responsible_agency": "Department of Public Works",
    "final_address": "1624 Arabella St",
    "address_councildis": "A",
    "status": "Pending",
    "contractor": "Legacy Professional Services",
    "rowid": "1144887",
    "final_x": "3666552.0089",
    "final_y": "522304.782458",
    "longitude": "-90.1155801210589",
    "latitude": "29.93060219535707",
    "geocoded_column": {
      "latitude": "29.93060219535707",
      "longitude": "-90.1155801210589"
    }
  },
  {
    "service_request": "2024-1144886",
    "request_type": "Trash/Recycling",
    "request_reason": "Request a Large Item Pick Up",
    "date_created": "2024-10-29T14:38:04.000",
    "date_modified": "2024-10-29T14:38:05.000",
    "request_status": "Pending",
    "responsible_agency": "Department of Sanitation",
    "final_address": "3721 DHemecourt St",
    "address_councildis": "B",
    "status": "Assigned to Contractor",
    "contractor": "IV Waste",
    "rowid": "1144886",
    "final_x": "3671039.04295",
    "final_y": "536001.315655",
    "longitude": "-90.1009501462857",
    "latitude": "29.968131282645125",
    "geocoded_column": {
      "latitude": "29.968131282645125",
      "longitude": "-90.1009501462857"
    }
  },
  {
    "service_request": "2024-1144885",
    "request_type": "Trash/Recycling",
    "request_reason": "Order Trash Cart",
    "date_created": "2024-10-29T14:37:29.000",
    "date_modified": "2024-10-29T14:37:31.000",
    "request_status": "Pending",
    "responsible_agency": "Department of Sanitation",
    "final_address": "2436 St Roch Ave",
    "address_councildis": "D",
    "status": "Assigned to Contractor",
    "contractor": "IV Waste",
    "rowid": "1144885",
    "final_x": "3686007.86191",
    "final_y": "541508.610252",
    "longitude": "-90.05348385545445",
    "latitude": "29.982823243723473",
    "geocoded_column": {
      "latitude": "29.982823243723473",
      "longitude": "-90.05348385545445"
    }
  },
  {
    "service_request": "2024-1144884",
    "request_type": "Streetlights",
    "request_reason": "Streetlight Outage/Malfunction",
    "date_created": "2024-10-29T14:37:02.000",
    "date_modified": "2024-10-29T14:37:03.000",
    "request_status": "Pending",
    "responsible_agency": "Department of Public Works",
    "final_address": "6311 Rhodes Ave",
    "address_councildis": "C",
    "status": "Pending",
    "contractor": "Legacy Professional Services",
    "rowid": "1144884",
    "final_x": "3707450.86814",
    "final_y": "519335.281079",
    "longitude": "-89.98657974991833",
    "latitude": "29.92117858647133",
    "geocoded_column": {
      "latitude": "29.92117858647133",
      "longitude": "-89.98657974991833"
    }
  },
  {
    "service_request": "2024-1144883",
    "request_type": "Trash/Recycling",
    "request_reason": "Request a Large Item Pick Up",
    "date_created": "2024-10-29T14:36:34.000",
    "date_modified": "2024-10-29T14:36:35.000",
    "request_status": "Pending",
    "responsible_agency": "Department of Sanitation",
    "final_address": "4710 Longfellow Dr",
    "address_councildis": "E",
    "status": "Assigned to Contractor",
    "contractor": "Waste Pro",
    "rowid": "1144883",
    "final_x": "3709574.90174",
    "final_y": "555611.906777",
    "longitude": "-89.97852126502613",
    "latitude": "30.020857077090113",
    "geocoded_column": {
      "latitude": "30.020857077090113",
      "longitude": "-89.97852126502613"
    }
  },
  {
    "service_request": "2024-1144882",
    "request_type": "Roads and Streets",
    "request_reason": "Push-up/Pavement Expansion",
    "date_created": "2024-10-29T14:34:36.000",
    "date_modified": "2024-10-29T14:34:39.000",
    "request_status": "Pending",
    "responsible_agency": "Department of Public Works",
    "final_address": "2600 BLK Gallinghouse St",
    "address_councildis": "C",
    "status": "Pending",
    "rowid": "1144882",
    "final_x": "3700077.81306",
    "final_y": "521076.881518",
    "longitude": "-90.00978954879174",
    "latitude": "29.92620361327685",
    "geocoded_column": {
      "latitude": "29.92620361327685",
      "longitude": "-90.00978954879174"
    }
  },
  {
    "service_request": "2024-1144881",
    "request_type": "Trash/Recycling",
    "request_reason": "Repair Trash Cart",
    "date_created": "2024-10-29T14:34:26.000",
    "date_modified": "2024-10-29T14:34:31.000",
    "request_status": "Pending",
    "responsible_agency": "Department of Sanitation",
    "final_address": "3300 Hamilton St",
    "address_councildis": "A",
    "status": "Assigned to Contractor",
    "contractor": "IV Waste",
    "rowid": "1144881",
    "final_x": "3664402.25959",
    "final_y": "536384.969735",
    "longitude": "-90.12189665466495",
    "latitude": "29.969380807671733",
    "geocoded_column": {
      "latitude": "29.969380807671733",
      "longitude": "-90.12189665466495"
    }
  },
  {
    "service_request": "2024-1144880",
    "request_type": "Trash/Recycling",
    "request_reason": "Repair Recycling Cart",
    "date_created": "2024-10-29T14:33:29.000",
    "date_modified": "2024-10-29T14:33:30.000",
    "request_status": "Pending",
    "responsible_agency": "Department of Sanitation",
    "final_address": "7713 Sycamore St",
    "address_councildis": "A",
    "status": "Pending",
    "rowid": "1144880",
    "final_x": "3665349.39616",
    "final_y": "530085.979137",
    "longitude": "-90.11911630801255",
    "latitude": "29.95203308072887",
    "geocoded_column": {
      "latitude": "29.95203308072887",
      "longitude": "-90.11911630801255"
    }
  },
  {
    "service_request": "2024-1144879",
    "request_type": "Trash/Recycling",
    "request_reason": "Missed Trash Pick-Up",
    "date_created": "2024-10-29T14:33:21.000",
    "date_modified": "2024-10-29T14:33:22.000",
    "request_status": "Pending",
    "responsible_agency": "Department of Sanitation",
    "final_address": "7511 W Sandy Cove Dr",
    "address_councildis": "E",
    "status": "Assigned to Contractor",
    "contractor": "Waste Pro",
    "rowid": "1144879",
    "final_x": "3715503.36255",
    "final_y": "569043.83927",
    "longitude": "-89.95928033195504",
    "latitude": "30.05759539530087",
    "geocoded_column": {
      "latitude": "30.05759539530087",
      "longitude": "-89.95928033195504"
    }
  },
  {
    "service_request": "2024-1144878",
    "request_type": "Trash/Recycling",
    "request_reason": "Request a Large Item Pick Up",
    "date_created": "2024-10-29T14:33:09.000",
    "date_modified": "2024-10-29T14:33:41.000",
    "request_status": "Pending",
    "responsible_agency": "Department of Sanitation",
    "final_address": "2014 N Rampart St",
    "address_councildis": "C",
    "status": "Assigned to Contractor",
    "contractor": "IV Waste",
    "rowid": "1144878",
    "final_x": "3684382.7949",
    "final_y": "535842.118151",
    "longitude": "-90.058815704698",
    "latitude": "29.967292178521415",
    "geocoded_column": {
      "latitude": "29.967292178521415",
      "longitude": "-90.058815704698"
    }
  },
  {
    "service_request": "2024-1144877",
    "request_type": "Abandoned Vehicles",
    "request_reason": "Abandoned/Junk Vehicles",
    "date_created": "2024-10-29T14:27:15.000",
    "date_modified": "2024-10-29T14:29:05.000",
    "request_status": "Pending",
    "responsible_agency": "Department of Public Works",
    "final_address": "2629 Aubry St",
    "address_councildis": "D",
    "status": "Pending",
    "rowid": "1144877",
    "final_x": "3679569.93973",
    "final_y": "541230.658508",
    "longitude": "-90.07382771151954",
    "latitude": "29.982255125883736",
    "geocoded_column": {
      "latitude": "29.982255125883736",
      "longitude": "-90.07382771151954"
    }
  },
  {
    "service_request": "2024-1144876",
    "request_type": "Trash/Recycling",
    "request_reason": "Replace Trash Cart",
    "date_created": "2024-10-29T14:24:04.000",
    "date_modified": "2024-10-29T14:24:06.000",
    "request_status": "Pending",
    "responsible_agency": "Department of Sanitation",
    "final_address": "4622 Bienville Ave",
    "address_councildis": "A",
    "status": "Assigned to Contractor",
    "contractor": "IV Waste",
    "rowid": "1144876",
    "final_x": "3669700.99828",
    "final_y": "540312.923915",
    "longitude": "-90.10502979482459",
    "latitude": "29.980026256579972",
    "geocoded_column": {
      "latitude": "29.980026256579972",
      "longitude": "-90.10502979482459"
    }
  },
  {
    "service_request": "2024-1144875",
    "request_type": "Trash/Recycling",
    "request_reason": "Replace Recycling Cart",
    "date_created": "2024-10-29T14:20:02.000",
    "date_modified": "2024-10-29T14:20:04.000",
    "request_status": "Pending",
    "responsible_agency": "Department of Sanitation",
    "final_address": "6823 General Haig St",
    "address_councildis": "A",
    "status": "Pending",
    "rowid": "1144875",
    "final_x": "3671134.07067",
    "final_y": "552685.771286",
    "longitude": "-90.10008294760571",
    "latitude": "30.014004972998922",
    "geocoded_column": {
      "latitude": "30.014004972998922",
      "longitude": "-90.10008294760571"
    }
  },
  {
    "service_request": "2024-1144874",
    "request_type": "Streetlights",
    "request_reason": "Streetlight Outage/Malfunction",
    "date_created": "2024-10-29T14:18:20.000",
    "date_modified": "2024-10-29T14:18:57.000",
    "request_status": "Pending",
    "responsible_agency": "Department of Public Works",
    "final_address": "3400 Gentilly Blvd",
    "address_councildis": "D",
    "status": "Pending",
    "contractor": "Legacy Professional Services",
    "rowid": "1144874",
    "final_x": "3685111.66697",
    "final_y": "548353.533394",
    "longitude": "-90.056073493024",
    "latitude": "30.001671833921165",
    "geocoded_column": {
      "latitude": "30.001671833921165",
      "longitude": "-90.056073493024"
    }
  },
  {
    "service_request": "2024-1144873",
    "request_type": "Trash/Recycling",
    "request_reason": "Request a Large Item Pick Up",
    "date_created": "2024-10-29T14:16:51.000",
    "date_modified": "2024-10-29T14:16:52.000",
    "request_status": "Pending",
    "responsible_agency": "Department of Sanitation",
    "final_address": "2265 Mithra St",
    "address_councildis": "D",
    "status": "Assigned to Contractor",
    "contractor": "IV Waste",
    "rowid": "1144873",
    "final_x": "3684303.3462",
    "final_y": "552766.215702",
    "longitude": "-90.05847195897289",
    "latitude": "30.013829860442346",
    "geocoded_column": {
      "latitude": "30.013829860442346",
      "longitude": "-90.05847195897289"
    }
  },
  {
    "service_request": "2024-1144872",
    "request_type": "Street and Traffic Signs",
    "request_reason": "Stop Sign Missing or Damaged",
    "date_created": "2024-10-29T14:13:41.000",
    "date_modified": "2024-10-29T14:13:42.000",
    "request_status": "Pending",
    "responsible_agency": "Department of Public Works",
    "final_address": "BACCICH ST & ODIN ST",
    "address_councildis": "D",
    "status": "Pending",
    "rowid": "1144872",
    "final_x": "3687647.0",
    "final_y": "553360.48",
    "longitude": "-90.04788669314595",
    "latitude": "30.01536115398426",
    "geocoded_column": {
      "latitude": "30.01536115398426",
      "longitude": "-90.04788669314595"
    }
  },
  {
    "service_request": "2024-1144871",
    "request_type": "Trash/Recycling",
    "request_reason": "Repair Trash Cart",
    "date_created": "2024-10-29T14:06:03.000",
    "date_modified": "2024-10-29T14:06:05.000",
    "request_status": "Pending",
    "responsible_agency": "Department of Sanitation",
    "final_address": "2558 N Johnson St",
    "address_councildis": "D",
    "status": "Assigned to Contractor",
    "contractor": "IV Waste",
    "rowid": "1144871",
    "final_x": "3687451.94255",
    "final_y": "539804.09857",
    "longitude": "-90.04898307616638",
    "latitude": "29.978092009813658",
    "geocoded_column": {
      "latitude": "29.978092009813658",
      "longitude": "-90.04898307616638"
    }
  },
  {
    "service_request": "2024-1144870",
    "request_type": "Streetlights",
    "request_reason": "Streetlight Outage/Malfunction",
    "date_created": "2024-10-29T14:06:00.000",
    "date_modified": "2024-10-29T14:06:01.000",
    "request_status": "Pending",
    "responsible_agency": "Department of Public Works",
    "final_address": "1217 Franklin Ave",
    "address_councildis": "C",
    "status": "Pending",
    "contractor": "Legacy Professional Services",
    "rowid": "1144870",
    "final_x": "3687285.2415",
    "final_y": "536962.104456",
    "longitude": "-90.04961013730099",
    "latitude": "29.97028266103991",
    "geocoded_column": {
      "latitude": "29.97028266103991",
      "longitude": "-90.04961013730099"
    }
  },
  {
    "service_request": "2024-1144869",
    "request_type": "Abandoned Vehicles",
    "request_reason": "Abandoned/Junk Vehicles",
    "date_created": "2024-10-29T14:05:57.000",
    "date_modified": "2024-10-29T14:05:58.000",
    "request_status": "Pending",
    "responsible_agency": "Department of Public Works",
    "final_address": "1439 L. B. Landry Ave",
    "address_councildis": "C",
    "status": "Pending",
    "rowid": "1144869",
    "final_x": "3690005.68854",
    "final_y": "526024.051774",
    "longitude": "-90.04140817538281",
    "latitude": "29.94012271806885",
    "geocoded_column": {
      "latitude": "29.94012271806885",
      "longitude": "-90.04140817538281"
    }
  },
  {
    "service_request": "2024-1144868",
    "request_type": "Trash/Recycling",
    "request_reason": "Repair Trash Cart",
    "date_created": "2024-10-29T14:04:22.000",
    "date_modified": "2024-10-29T14:04:23.000",
    "request_status": "Pending",
    "responsible_agency": "Department of Sanitation",
    "final_address": "423 Alabo St Apt A",
    "address_councildis": "E",
    "status": "Assigned to Contractor",
    "contractor": "Waste Pro",
    "rowid": "1144868",
    "final_x": "3698326.13514",
    "final_y": "531241.37549",
    "longitude": "-90.01494988137024",
    "latitude": "29.95420795607055",
    "geocoded_column": {
      "latitude": "29.95420795607055",
      "longitude": "-90.01494988137024"
    }
  },
  {
    "service_request": "2024-1144867",
    "request_type": "Property Maintenance",
    "request_reason": "Property Maintenance",
    "date_created": "2024-10-29T14:03:18.000",
    "date_modified": "2024-10-29T14:42:21.000",
    "case_close_date": "2024-10-29T09:42:21.000",
    "request_status": "Closed",
    "responsible_agency": "Department of Code Enforcement",
    "final_address": "7928 Burke Ave",
    "address_councildis": "E",
    "status": "Referred to Code Enforcement",
    "rowid": "1144867",
    "final_x": "3704916.4154",
    "final_y": "563710.643745",
    "longitude": "-89.99294126491526",
    "latitude": "30.043276064800192",
    "geocoded_column": {
      "latitude": "30.043276064800192",
      "longitude": "-89.99294126491526"
    }
  },
  {
    "service_request": "2024-1144866",
    "request_type": "Trash/Recycling",
    "request_reason": "Request a Large Item Pick Up",
    "date_created": "2024-10-29T14:01:39.000",
    "date_modified": "2024-10-29T14:01:40.000",
    "request_status": "Pending",
    "responsible_agency": "Department of Sanitation",
    "final_address": "3015 Laurel St",
    "address_councildis": "B",
    "status": "Assigned to Contractor",
    "contractor": "IV Waste",
    "rowid": "1144866",
    "final_x": "3676642.70837",
    "final_y": "519717.13196",
    "longitude": "-90.08381432620071",
    "latitude": "29.923188264295042",
    "geocoded_column": {
      "latitude": "29.923188264295042",
      "longitude": "-90.08381432620071"
    }
  },
  {
    "service_request": "2024-1144865",
    "request_type": "Safety & Permits",
    "request_reason": "Zoning Enforcement",
    "date_created": "2024-10-29T14:00:46.000",
    "date_modified": "2024-10-29T14:00:46.000",
    "request_status": "Pending",
    "responsible_agency": "Safety and Permits",
    "final_address": "7928 Burke Ave",
    "address_councildis": "E",
    "rowid": "1144865",
    "final_x": "3704916.4154",
    "final_y": "563710.643745",
    "longitude": "-89.99294126491526",
    "latitude": "30.043276064800192",
    "geocoded_column": {
      "latitude": "30.043276064800192",
      "longitude": "-89.99294126491526"
    }
  },
  {
    "service_request": "2024-1144864",
    "request_type": "Trash/Recycling",
    "request_reason": "Replace Recycling Cart",
    "date_created": "2024-10-29T13:57:19.000",
    "date_modified": "2024-10-29T13:57:20.000",
    "request_status": "Pending",
    "responsible_agency": "Department of Sanitation",
    "final_address": "1501 Dufossat St",
    "address_councildis": "B",
    "status": "Pending",
    "rowid": "1144864",
    "final_x": "3668186.71681",
    "final_y": "520463.654776",
    "longitude": "-90.11048160048723",
    "latitude": "29.92549180818648",
    "geocoded_column": {
      "latitude": "29.92549180818648",
      "longitude": "-90.11048160048723"
    }
  },
  {
    "service_request": "2024-1144863",
    "request_type": "Trash/Recycling",
    "request_reason": "Repair Recycling Cart",
    "date_created": "2024-10-29T13:57:15.000",
    "date_modified": "2024-10-29T13:57:15.000",
    "request_status": "Pending",
    "responsible_agency": "Department of Sanitation",
    "final_address": "7033 Marshal Foch St",
    "address_councildis": "A",
    "status": "Pending",
    "rowid": "1144863",
    "final_x": "3670538.64577",
    "final_y": "554106.853208",
    "longitude": "-90.10191594057505",
    "latitude": "30.01793005171055",
    "geocoded_column": {
      "latitude": "30.01793005171055",
      "longitude": "-90.10191594057505"
    }
  },
  {
    "service_request": "2024-1144862",
    "request_type": "Trash/Recycling",
    "request_reason": "Return Trash Cart",
    "date_created": "2024-10-29T13:53:37.000",
    "date_modified": "2024-10-29T13:53:38.000",
    "request_status": "Pending",
    "responsible_agency": "Department of Sanitation",
    "final_address": "7033 Marshal Foch St",
    "address_councildis": "A",
    "status": "Assigned to Contractor",
    "contractor": "IV Waste",
    "rowid": "1144862",
    "final_x": "3670538.64577",
    "final_y": "554106.853208",
    "longitude": "-90.10191594057505",
    "latitude": "30.01793005171055",
    "geocoded_column": {
      "latitude": "30.01793005171055",
      "longitude": "-90.10191594057505"
    }
  },
  {
    "service_request": "2024-1144861",
    "request_type": "Trash/Recycling",
    "request_reason": "Request a Large Item Pick Up",
    "date_created": "2024-10-29T13:53:23.000",
    "date_modified": "2024-10-29T13:53:24.000",
    "request_status": "Pending",
    "responsible_agency": "Department of Sanitation",
    "final_address": "4515 Montegut Dr",
    "address_councildis": "D",
    "status": "Assigned to Contractor",
    "contractor": "IV Waste",
    "rowid": "1144861",
    "final_x": "3690227.86204",
    "final_y": "550162.40322",
    "longitude": "-90.03984646027955",
    "latitude": "30.006487759992172",
    "geocoded_column": {
      "latitude": "30.006487759992172",
      "longitude": "-90.03984646027955"
    }
  },
  {
    "service_request": "2024-1144860",
    "request_type": "Trash/Recycling",
    "request_reason": "Request a Large Item Pick Up",
    "date_created": "2024-10-29T13:53:21.000",
    "date_modified": "2024-10-29T13:53:22.000",
    "request_status": "Pending",
    "responsible_agency": "Department of Sanitation",
    "final_address": "11299 Midpoint Dr",
    "address_councildis": "E",
    "status": "Assigned to Contractor",
    "contractor": "Waste Pro",
    "rowid": "1144860",
    "final_x": "3718522.94738",
    "final_y": "559684.433053",
    "longitude": "-89.95009305512761",
    "latitude": "30.031760948250856",
    "geocoded_column": {
      "latitude": "30.031760948250856",
      "longitude": "-89.95009305512761"
    }
  },
  {
    "service_request": "2024-1144859",
    "request_type": "Trash/Recycling",
    "request_reason": "Replace Trash Cart",
    "date_created": "2024-10-29T13:52:46.000",
    "date_modified": "2024-10-29T13:52:48.000",
    "request_status": "Pending",
    "responsible_agency": "Department of Sanitation",
    "final_address": "3101 Belfort St",
    "address_councildis": "A",
    "status": "Assigned to Contractor",
    "contractor": "IV Waste",
    "rowid": "1144859",
    "final_x": "3678500.25819",
    "final_y": "542559.978829",
    "longitude": "-90.07716025801146",
    "latitude": "29.985942581132964",
    "geocoded_column": {
      "latitude": "29.985942581132964",
      "longitude": "-90.07716025801146"
    }
  },
  {
    "service_request": "2024-1144858",
    "request_type": "Roads and Streets",
    "request_reason": "Pothole",
    "date_created": "2024-10-29T13:51:41.000",
    "date_modified": "2024-10-29T13:52:04.000",
    "case_close_date": "2024-10-29T08:52:04.000",
    "request_status": "Closed",
    "responsible_agency": "Department of Public Works",
    "final_address": "9300 BLK Fig St",
    "address_councildis": "A",
    "status": "Resolved",
    "rowid": "1144858",
    "final_x": "3663045.9885",
    "final_y": "536101.430538",
    "longitude": "-90.12618932032859",
    "latitude": "29.96864052631508",
    "geocoded_column": {
      "latitude": "29.96864052631508",
      "longitude": "-90.12618932032859"
    }
  },
  {
    "service_request": "2024-1144857",
    "request_type": "Trash/Recycling",
    "request_reason": "Repair Trash Cart",
    "date_created": "2024-10-29T13:51:33.000",
    "date_modified": "2024-10-29T13:51:34.000",
    "request_status": "Pending",
    "responsible_agency": "Department of Sanitation",
    "final_address": "9925 E Rockton Cir",
    "address_councildis": "E",
    "status": "Assigned to Contractor",
    "contractor": "Waste Pro",
    "rowid": "1144857",
    "final_x": "3708592.09003",
    "final_y": "562875.443744",
    "longitude": "-89.98135584149506",
    "latitude": "30.040860858485924",
    "geocoded_column": {
      "latitude": "30.040860858485924",
      "longitude": "-89.98135584149506"
    }
  },
  {
    "service_request": "2024-1144856",
    "request_type": "Abandoned Vehicles",
    "request_reason": "Abandoned/Junk Vehicles",
    "date_created": "2024-10-29T13:47:59.000",
    "date_modified": "2024-10-29T13:47:59.000",
    "request_status": "Pending",
    "responsible_agency": "Department of Public Works",
    "final_address": "729 Constantinople St",
    "address_councildis": "B",
    "status": "Pending",
    "rowid": "1144856",
    "final_x": "3672602.84193",
    "final_y": "518458.60799",
    "longitude": "-90.09660954439903",
    "latitude": "29.91984824130188",
    "geocoded_column": {
      "latitude": "29.91984824130188",
      "longitude": "-90.09660954439903"
    }
  },
  {
    "service_request": "2024-1144855",
    "request_type": "Trash/Recycling",
    "request_reason": "Request a Large Item Pick Up",
    "date_created": "2024-10-29T13:46:44.000",
    "date_modified": "2024-10-29T13:46:45.000",
    "request_status": "Pending",
    "responsible_agency": "Department of Sanitation",
    "final_address": "5744 Oxford Pl",
    "address_councildis": "C",
    "status": "Assigned to Contractor",
    "contractor": "Richards Disposal",
    "rowid": "1144855",
    "final_x": "3704760.70538",
    "final_y": "520010.189944",
    "longitude": "-89.99504644557229",
    "latitude": "29.923121018324533",
    "geocoded_column": {
      "latitude": "29.923121018324533",
      "longitude": "-89.99504644557229"
    }
  },
  {
    "service_request": "2024-1144854",
    "request_type": "Trash/Recycling",
    "request_reason": "Order Trash Cart",
    "date_created": "2024-10-29T13:43:23.000",
    "date_modified": "2024-10-29T13:43:24.000",
    "request_status": "Pending",
    "responsible_agency": "Department of Sanitation",
    "final_address": "1500 Dumaine St",
    "address_councildis": "C",
    "status": "Assigned to Contractor",
    "contractor": "IV Waste",
    "rowid": "1144854",
    "final_x": "3680705.39912",
    "final_y": "534764.09927",
    "longitude": "-90.07046648482572",
    "latitude": "29.964439954385064",
    "geocoded_column": {
      "latitude": "29.964439954385064",
      "longitude": "-90.07046648482572"
    }
  },
  {
    "service_request": "2024-1144853",
    "request_type": "Healthy Homes",
    "request_reason": "Healthy Homes",
    "date_created": "2024-10-29T13:43:08.000",
    "date_modified": "2024-10-29T15:03:34.000",
    "case_close_date": "2024-10-29T10:03:34.000",
    "request_status": "Closed",
    "responsible_agency": "Department of Code Enforcement",
    "final_address": "11000 Roger Dr",
    "address_councildis": "E",
    "status": "Referred to Code Enforcement",
    "rowid": "1144853",
    "final_x": "3712182.46053",
    "final_y": "563418.54384",
    "longitude": "-89.96998873451886",
    "latitude": "30.042237195202617",
    "geocoded_column": {
      "latitude": "30.042237195202617",
      "longitude": "-89.96998873451886"
    }
  },
  {
    "service_request": "2024-1144852",
    "request_type": "Roads and Streets",
    "request_reason": "Pothole",
    "date_created": "2024-10-29T13:40:29.000",
    "date_modified": "2024-10-29T13:41:55.000",
    "case_close_date": "2024-10-29T08:41:55.000",
    "request_status": "Closed",
    "responsible_agency": "Department of Public Works",
    "final_address": "4438 Walmsley Ave",
    "address_councildis": "B",
    "status": "Resolved",
    "rowid": "1144852",
    "final_x": "3669354.15514",
    "final_y": "530176.998017",
    "longitude": "-90.10646804558938",
    "latitude": "29.952166056527588",
    "geocoded_column": {
      "latitude": "29.952166056527588",
      "longitude": "-90.10646804558938"
    }
  },
  {
    "service_request": "2024-1144851",
    "request_type": "Trash/Recycling",
    "request_reason": "Request a Large Item Pick Up",
    "date_created": "2024-10-29T13:37:28.000",
    "date_modified": "2024-10-29T13:37:29.000",
    "request_status": "Pending",
    "responsible_agency": "Department of Sanitation",
    "final_address": "4658 Evangeline Dr",
    "address_councildis": "E",
    "status": "Assigned to Contractor",
    "contractor": "Waste Pro",
    "rowid": "1144851",
    "final_x": "3709090.75659",
    "final_y": "555243.422873",
    "longitude": "-89.98006475930586",
    "latitude": "30.019859621024985",
    "geocoded_column": {
      "latitude": "30.019859621024985",
      "longitude": "-89.98006475930586"
    }
  },
  {
    "service_request": "2024-1144850",
    "request_type": "Trash/Recycling",
    "request_reason": "Illegal Dumping",
    "date_created": "2024-10-29T13:36:34.000",
    "date_modified": "2024-10-29T13:36:35.000",
    "request_status": "Pending",
    "responsible_agency": "Department of Sanitation",
    "final_address": "EARHART BLVD & HAMILTON ST",
    "address_councildis": "A",
    "status": "Pending",
    "rowid": "1144850",
    "final_x": "3663184.2",
    "final_y": "534965.98",
    "longitude": "-90.12579062775865",
    "latitude": "29.965514406045376",
    "geocoded_column": {
      "latitude": "29.965514406045376",
      "longitude": "-90.12579062775865"
    }
  },
  {
    "service_request": "2024-1144849",
    "request_type": "Property Maintenance",
    "request_reason": "Property Maintenance",
    "date_created": "2024-10-29T13:36:32.000",
    "date_modified": "2024-10-29T15:35:57.000",
    "case_close_date": "2024-10-29T10:35:57.000",
    "request_status": "Closed",
    "responsible_agency": "Department of Code Enforcement",
    "final_address": "1419 Patterson St",
    "address_councildis": "C",
    "status": "Referred to Code Enforcement",
    "rowid": "1144849",
    "final_x": "3690022.9919",
    "final_y": "531056.128194",
    "longitude": "-90.04117438901683",
    "latitude": "29.953958665343716",
    "geocoded_column": {
      "latitude": "29.953958665343716",
      "longitude": "-90.04117438901683"
    }
  },
  {
    "service_request": "2024-1144848",
    "request_type": "Abandoned Vehicles",
    "request_reason": "Abandoned/Junk Vehicles",
    "date_created": "2024-10-29T13:36:24.000",
    "date_modified": "2024-10-29T13:36:24.000",
    "request_status": "Pending",
    "responsible_agency": "Department of Public Works",
    "final_address": "PINE ST & GARFIELD ST",
    "address_councildis": "A",
    "status": "Inspected",
    "rowid": "1144848",
    "final_x": "3661792.8",
    "final_y": "523488.48",
    "longitude": "-90.13056509451562",
    "latitude": "29.933995209309163",
    "geocoded_column": {
      "latitude": "29.933995209309163",
      "longitude": "-90.13056509451562"
    }
  },
  {
    "service_request": "2024-1144847",
    "request_type": "Trash/Recycling",
    "request_reason": "Request a Large Item Pick Up",
    "date_created": "2024-10-29T13:36:16.000",
    "date_modified": "2024-10-29T13:36:17.000",
    "request_status": "Pending",
    "responsible_agency": "Department of Sanitation",
    "final_address": "7927 Burthe St",
    "address_councildis": "A",
    "status": "Assigned to Contractor",
    "contractor": "IV Waste",
    "rowid": "1144847",
    "final_x": "3661690.00288",
    "final_y": "527253.615423",
    "longitude": "-90.13076487386057",
    "latitude": "29.94435110561763",
    "geocoded_column": {
      "latitude": "29.94435110561763",
      "longitude": "-90.13076487386057"
    }
  },
  {
    "service_request": "2024-1144846",
    "request_type": "Trash/Recycling",
    "request_reason": "Request a Large Item Pick Up",
    "date_created": "2024-10-29T13:34:28.000",
    "date_modified": "2024-10-29T13:34:49.000",
    "request_status": "Pending",
    "responsible_agency": "Department of Sanitation",
    "final_address": "7131 Cove Dr",
    "address_councildis": "E",
    "status": "Assigned to Contractor",
    "contractor": "Waste Pro",
    "rowid": "1144846",
    "final_x": "3700319.29898",
    "final_y": "558756.521948",
    "longitude": "-90.00765113245635",
    "latitude": "30.029801221213713",
    "geocoded_column": {
      "latitude": "30.029801221213713",
      "longitude": "-90.00765113245635"
    }
  },
  {
    "service_request": "2024-1144845",
    "request_type": "Trash/Recycling",
    "request_reason": "Request a Large Item Pick Up",
    "date_created": "2024-10-29T13:32:39.000",
    "date_modified": "2024-10-29T13:33:28.000",
    "request_status": "Pending",
    "responsible_agency": "Department of Sanitation",
    "final_address": "3114 Annunciation St",
    "address_councildis": "B",
    "status": "Assigned to Contractor",
    "contractor": "IV Waste",
    "rowid": "1144845",
    "final_x": "3676623.50849",
    "final_y": "519172.457015",
    "longitude": "-90.0838936807494",
    "latitude": "29.921691159717398",
    "geocoded_column": {
      "latitude": "29.921691159717398",
      "longitude": "-90.0838936807494"
    }
  },
  {
    "service_request": "2024-1144844",
    "request_type": "Trash/Recycling",
    "request_reason": "Return Recycling Cart",
    "date_created": "2024-10-29T13:27:33.000",
    "date_modified": "2024-10-29T13:27:34.000",
    "request_status": "Pending",
    "responsible_agency": "Department of Sanitation",
    "final_address": "4811 St Bernard Ave",
    "address_councildis": "D",
    "status": "Pending",
    "rowid": "1144844",
    "final_x": "3676829.50344",
    "final_y": "549869.868948",
    "longitude": "-90.08218540329223",
    "latitude": "30.006092467666363",
    "geocoded_column": {
      "latitude": "30.006092467666363",
      "longitude": "-90.08218540329223"
    }
  },
  {
    "service_request": "2024-1144843",
    "request_type": "Trash/Recycling",
    "request_reason": "Illegal Dumping",
    "date_created": "2024-10-29T13:26:58.000",
    "date_modified": "2024-10-29T13:27:23.000",
    "request_status": "Pending",
    "responsible_agency": "Department of Sanitation",
    "final_address": "5741 Louis Prima Ct",
    "address_councildis": "E",
    "status": "Pending",
    "rowid": "1144843",
    "final_x": "3716007.04562",
    "final_y": "562014.860255",
    "longitude": "-89.95795495516393",
    "latitude": "30.03825195556653",
    "geocoded_column": {
      "latitude": "30.03825195556653",
      "longitude": "-89.95795495516393"
    }
  },
  {
    "service_request": "2024-1144842",
    "request_type": "Trash/Recycling",
    "request_reason": "Request a Large Item Pick Up",
    "date_created": "2024-10-29T13:26:11.000",
    "date_modified": "2024-10-29T13:26:13.000",
    "request_status": "Pending",
    "responsible_agency": "Department of Sanitation",
    "final_address": "3824 Louisiana Avenue Prkwy",
    "address_councildis": "B",
    "status": "Assigned to Contractor",
    "contractor": "IV Waste",
    "rowid": "1144842",
    "final_x": "3671187.29563",
    "final_y": "528921.23264",
    "longitude": "-90.10072248113252",
    "latitude": "29.948659017581736",
    "geocoded_column": {
      "latitude": "29.948659017581736",
      "longitude": "-90.10072248113252"
    }
  },
  {
    "service_request": "2024-1144841",
    "request_type": "Trash/Recycling",
    "request_reason": "Missed Trash Pick-Up",
    "date_created": "2024-10-29T13:22:10.000",
    "date_modified": "2024-10-29T13:38:06.000",
    "case_close_date": "2024-10-29T08:38:06.000",
    "request_status": "Closed",
    "responsible_agency": "Department of Sanitation",
    "final_address": "2301 Baronne St",
    "address_councildis": "B",
    "status": "Invalid Request",
    "contractor": "IV Waste",
    "contractor_action": "Invalid",
    "rowid": "1144841",
    "final_x": "3676568.23579",
    "final_y": "524003.246204",
    "longitude": "-90.08390187997391",
    "latitude": "29.934975917631345",
    "geocoded_column": {
      "latitude": "29.934975917631345",
      "longitude": "-90.08390187997391"
    }
  },