[
  {
    "service_request": "2024-1127383",
    "request_type": "Traffic Signals/Signs/Striping/Streetlights",
    "request_reason": "Street Light Outage/Malfunction",
    "date_created": "2024-09-03T23:13:25.000",
    "date_modified": "2024-09-03T23:13:26.000",
    "request_status": "Pending",
    "responsible_agency": "Department of Public Works",
    "final_address": "429 Amethyst St",
    "address_councildis": "D",
    "status": "Assigned to Contractor",
    "contractor": "Legacy Professional Services",
    "rowid": "1127383",
    "final_x": "3667631.67284",
    "final_y": "556678.378138",
    "longitude": "-90.11101421883531",
    "latitude": "30.025086413441702",
    "geocoded_column": {
      "latitude": "30.025086413441702",
      "longitude": "-90.11101421883531"
    }
  },
  {
    "service_request": "2024-1127382",
    "request_type": "Traffic Signals/Signs/Striping/Streetlights",
    "request_reason": "Street Light Outage/Malfunction",
    "date_created": "2024-09-03T23:11:36.000",
    "date_modified": "2024-09-03T23:11:37.000",
    "request_status": "Pending",
    "responsible_agency": "Department of Public Works",
    "final_address": "429 Amethyst St",
    "address_councildis": "D",
    "status": "Assigned to Contractor",
    "contractor": "Legacy Professional Services",
    "rowid": "1127382",
    "final_x": "3667631.67284",
    "final_y": "556678.378138",
    "longitude": "-90.11101421883531",
    "latitude": "30.025086413441702",
    "geocoded_column": {
      "latitude": "30.025086413441702",
      "longitude": "-90.11101421883531"
    }
  },
  {
    "service_request": "2024-1127380",
    "request_type": "Health Related Request",
    "request_reason": "Noise Ordinance Complaint",
    "date_created": "2024-09-03T22:58:36.000",
    "date_modified": "2024-09-03T22:58:36.000",
    "request_status": "Pending",
    "responsible_agency": "Health Department",
    "final_address": "8519 Green St",
    "address_councildis": "A",
    "status": "Pending",
    "rowid": "1127380",
    "final_x": "3662013.94131",
    "final_y": "530758.973762",
    "longitude": "-90.12962583829207",
    "latitude": "29.95398036445081",
    "geocoded_column": {
      "latitude": "29.95398036445081",
      "longitude": "-90.12962583829207"
    }
  },
  {
    "service_request": "2024-1127378",
    "request_type": "Property Maintenance",
    "request_reason": "Property Maintenance",
    "date_created": "2024-09-03T22:11:51.000",
    "date_modified": "2024-09-03T22:11:51.000",
    "request_status": "Pending",
    "responsible_agency": "Department of Code Enforcement",
    "final_address": "3151 Mansfield Ave",
    "address_councildis": "C",
    "status": "Pending",
    "rowid": "1127378",
    "final_x": "3709052.01278",
    "final_y": "518604.194103",
    "longitude": "-89.98155292168204",
    "latitude": "29.91911651023944",
    "geocoded_column": {
      "latitude": "29.91911651023944",
      "longitude": "-89.98155292168204"
    }
  },
  {
    "service_request": "2024-1127377",
    "request_type": "Trash/Recycling",
    "request_reason": "Request a Large Item Pick Up",
    "date_created": "2024-09-03T22:02:42.000",
    "date_modified": "2024-09-03T22:02:43.000",
    "request_status": "Pending",
    "responsible_agency": "Department of Sanitation",
    "final_address": "11249 Notaway Ln",
    "address_councildis": "E",
    "status": "Assigned to Contractor",
    "contractor": "Waste Pro",
    "rowid": "1127377",
    "final_x": "3717792.43948",
    "final_y": "559556.574109",
    "longitude": "-89.95240634122577",
    "latitude": "30.031433615111368",
    "geocoded_column": {
      "latitude": "30.031433615111368",
      "longitude": "-89.95240634122577"
    }
  },
  {
    "service_request": "2024-1127376",
    "request_type": "Traffic Signals/Signs/Striping/Streetlights",
    "request_reason": "Street Light Outage/Malfunction",
    "date_created": "2024-09-03T21:52:10.000",
    "date_modified": "2024-09-03T21:52:11.000",
    "request_status": "Pending",
    "responsible_agency": "Department of Public Works",
    "final_address": "7560 Parry St",
    "address_councildis": "E",
    "status": "Assigned to Contractor",
    "contractor": "Legacy Professional Services",
    "rowid": "1127376",
    "final_x": "3714585.76447",
    "final_y": "568131.472549",
    "longitude": "-89.96221521965573",
    "latitude": "30.055116985179676",
    "geocoded_column": {
      "latitude": "30.055116985179676",
      "longitude": "-89.96221521965573"
    }
  },
  {
    "service_request": "2024-1127375",
    "request_type": "Trash/Recycling",
    "request_reason": "Return Trash Cart",
    "date_created": "2024-09-03T21:17:02.000",
    "date_modified": "2024-09-03T21:17:02.000",
    "request_status": "Pending",
    "responsible_agency": "Department of Sanitation",
    "final_address": "4146 Toulouse St",
    "address_councildis": "A",
    "status": "Assigned to Contractor",
    "contractor": "IV Waste",
    "rowid": "1127375",
    "final_x": "3671879.83073",
    "final_y": "539955.569162",
    "longitude": "-90.09816028653898",
    "latitude": "29.97897925082577",
    "geocoded_column": {
      "latitude": "29.97897925082577",
      "longitude": "-90.09816028653898"
    }
  },
  {
    "service_request": "2024-1127374",
    "request_type": "Traffic Signals/Signs/Striping/Streetlights",
    "request_reason": "Street Light Outage/Malfunction",
    "date_created": "2024-09-03T21:16:37.000",
    "date_modified": "2024-09-03T21:16:38.000",
    "request_status": "Pending",
    "responsible_agency": "Department of Public Works",
    "final_address": "4655 St Roch Ave",
    "address_councildis": "D",
    "status": "Assigned to Contractor",
    "contractor": "Legacy Professional Services",
    "rowid": "1127374",
    "final_x": "3685458.99529",
    "final_y": "550057.694228",
    "longitude": "-90.05491618453696",
    "latitude": "30.006347009109668",
    "geocoded_column": {
      "latitude": "30.006347009109668",
      "longitude": "-90.05491618453696"
    }
  },
  {
    "service_request": "2024-1127373",
    "request_type": "Trash/Recycling",
    "request_reason": "Request a Large Item Pick Up",
    "date_created": "2024-09-03T21:16:35.000",
    "date_modified": "2024-09-03T21:16:36.000",
    "request_status": "Pending",
    "responsible_agency": "Department of Sanitation",
    "final_address": "6548 Avenue B",
    "address_councildis": "A",
    "status": "Assigned to Contractor",
    "contractor": "IV Waste",
    "rowid": "1127373",
    "final_x": "3665640.28084",
    "final_y": "551798.098774",
    "longitude": "-90.11747036434234",
    "latitude": "30.01172562270877",
    "geocoded_column": {
      "latitude": "30.01172562270877",
      "longitude": "-90.11747036434234"
    }
  },
  {
    "service_request": "2024-1127372",
    "request_type": "Traffic Signals/Signs/Striping/Streetlights",
    "request_reason": "Street Light Outage/Malfunction",
    "date_created": "2024-09-03T21:16:26.000",
    "date_modified": "2024-09-03T21:16:27.000",
    "request_status": "Pending",
    "responsible_agency": "Department of Public Works",
    "final_address": "4655 St Roch Ave",
    "address_councildis": "D",
    "status": "Assigned to Contractor",
    "contractor": "Legacy Professional Services",
    "rowid": "1127372",
    "final_x": "3685458.99529",
    "final_y": "550057.694228",
    "longitude": "-90.05491618453696",
    "latitude": "30.006347009109668",
    "geocoded_column": {
      "latitude": "30.006347009109668",
      "longitude": "-90.05491618453696"
    }
  },
  {
    "service_request": "2024-1127371",
    "request_type": "Trash/Recycling",
    "request_reason": "Return Recycling Cart",
    "date_created": "2024-09-03T21:16:11.000",
    "date_modified": "2024-09-03T21:16:11.000",
    "request_status": "Pending",
    "responsible_agency": "Department of Sanitation",
    "final_address": "4146 Toulouse St",
    "address_councildis": "A",
    "status": "Pending",
    "rowid": "1127371",
    "final_x": "3671879.83073",
    "final_y": "539955.569162",
    "longitude": "-90.09816028653898",
    "latitude": "29.97897925082577",
    "geocoded_column": {
      "latitude": "29.97897925082577",
      "longitude": "-90.09816028653898"
    }
  },
  {
    "service_request": "2024-1127370",
    "request_type": "Roads/Drainage",
    "request_reason": "Street Subsidence (Sinking)",
    "date_created": "2024-09-03T21:14:02.000",
    "date_modified": "2024-09-03T21:14:02.000",
    "request_status": "Pending",
    "responsible_agency": "Department of Public Works",
    "final_address": "4178 Toulouse St",
    "address_councildis": "A",
    "status": "Pending",
    "rowid": "1127370",
    "final_x": "3671683.16628",
    "final_y": "540100.485963",
    "longitude": "-90.098776498213",
    "latitude": "29.97938355043567",
    "geocoded_column": {
      "latitude": "29.97938355043567",
      "longitude": "-90.098776498213"
    }
  },
  {
    "service_request": "2024-1127369",
    "request_type": "Trash/Recycling",
    "request_reason": "Request a Large Item Pick Up",
    "date_created": "2024-09-03T21:08:06.000",
    "date_modified": "2024-09-03T21:08:07.000",
    "request_status": "Pending",
    "responsible_agency": "Department of Sanitation",
    "final_address": "6737 Deanne St",
    "address_councildis": "D",
    "status": "Assigned to Contractor",
    "contractor": "Waste Pro",
    "rowid": "1127369",
    "final_x": "3695989.65008",
    "final_y": "555561.341145",
    "longitude": "-90.02144831939718",
    "latitude": "30.021152712746023",
    "geocoded_column": {
      "latitude": "30.021152712746023",
      "longitude": "-90.02144831939718"
    }
  },
  {
    "service_request": "2024-1127368",
    "request_type": "Traffic Signals/Signs/Striping/Streetlights",
    "request_reason": "Street Light Knocked Down/Leaning",
    "date_created": "2024-09-03T21:03:58.000",
    "date_modified": "2024-09-03T21:03:59.000",
    "request_status": "Pending",
    "responsible_agency": "Department of Public Works",
    "final_address": "429 Amethyst St",
    "address_councildis": "D",
    "status": "Pending",
    "contractor": "Legacy Professional Services",
    "rowid": "1127368",
    "final_x": "3667631.67284",
    "final_y": "556678.378138",
    "longitude": "-90.11101421883531",
    "latitude": "30.025086413441702",
    "geocoded_column": {
      "latitude": "30.025086413441702",
      "longitude": "-90.11101421883531"
    }
  },
  {
    "service_request": "2024-1127367",
    "request_type": "Trash/Recycling",
    "request_reason": "Replace Trash Cart",
    "date_created": "2024-09-03T21:02:02.000",
    "date_modified": "2024-09-03T21:02:56.000",
    "request_status": "Pending",
    "responsible_agency": "Department of Sanitation",
    "final_address": "7918 Colapissa Street New Orleans  La 70125",
    "address_councildis": "B",
    "status": "Assigned to Contractor",
    "contractor": "IV Waste",
    "rowid": "1127367",
    "final_x": "3666936.78785",
    "final_y": "532899.681028",
    "longitude": "-90.11400951112105",
    "latitude": "29.959723492027273",
    "geocoded_column": {
      "latitude": "29.959723492027273",
      "longitude": "-90.11400951112105"
    }
  },
  {
    "service_request": "2024-1127366",
    "request_type": "Trash/Recycling",
    "request_reason": "Replace Recycling Cart",
    "date_created": "2024-09-03T21:00:43.000",
    "date_modified": "2024-09-03T21:00:43.000",
    "request_status": "Pending",
    "responsible_agency": "Department of Sanitation",
    "final_address": "15 Fontainebleau Dr",
    "address_councildis": "A",
    "status": "Pending",
    "rowid": "1127366",
    "final_x": "3665770.33364",
    "final_y": "531807.173059",
    "longitude": "-90.11772952366935",
    "latitude": "29.956753531546212",
    "geocoded_column": {
      "latitude": "29.956753531546212",
      "longitude": "-90.11772952366935"
    }
  },
  {
    "service_request": "2024-1127365",
    "request_type": "Traffic Signals/Signs/Striping/Streetlights",
    "request_reason": "Street Light Outage/Malfunction",
    "date_created": "2024-09-03T21:00:00.000",
    "date_modified": "2024-09-03T21:00:21.000",
    "request_status": "Pending",
    "responsible_agency": "Department of Public Works",
    "final_address": "429 Amethyst St",
    "address_councildis": "D",
    "status": "Assigned to Contractor",
    "contractor": "Legacy Professional Services",
    "rowid": "1127365",
    "final_x": "3667631.67284",
    "final_y": "556678.378138",
    "longitude": "-90.11101421883531",
    "latitude": "30.025086413441702",
    "geocoded_column": {
      "latitude": "30.025086413441702",
      "longitude": "-90.11101421883531"
    }
  },
  {
    "service_request": "2024-1127364",
    "request_type": "Trash/Recycling",
    "request_reason": "Replace Trash Cart",
    "date_created": "2024-09-03T20:54:55.000",
    "date_modified": "2024-09-03T20:54:56.000",
    "request_status": "Pending",
    "responsible_agency": "Department of Sanitation",
    "final_address": "7918 Colapissa St",
    "address_councildis": "B",
    "status": "Assigned to Contractor",
    "contractor": "IV Waste",
    "rowid": "1127364",
    "final_x": "3666936.78785",
    "final_y": "532899.681028",
    "longitude": "-90.11400951112105",
    "latitude": "29.959723492027273",
    "geocoded_column": {
      "latitude": "29.959723492027273",
      "longitude": "-90.11400951112105"
    }
  },
  {
    "service_request": "2024-1127363",
    "request_type": "Trash/Recycling",
    "request_reason": "Replace Trash Cart",
    "date_created": "2024-09-03T20:51:04.000",
    "date_modified": "2024-09-03T20:51:05.000",
    "request_status": "Pending",
    "responsible_agency": "Department of Sanitation",
    "final_address": "7918 Colapissa St",
    "address_councildis": "B",
    "status": "Assigned to Contractor",
    "contractor": "IV Waste",
    "rowid": "1127363",
    "final_x": "3666936.78785",
    "final_y": "532899.681028",
    "longitude": "-90.11400951112105",
    "latitude": "29.959723492027273",
    "geocoded_column": {
      "latitude": "29.959723492027273",
      "longitude": "-90.11400951112105"
    }
  },
  {
    "service_request": "2024-1127362",
    "request_type": "Roads/Drainage",
    "request_reason": "Catch Basin - Clogged",
    "date_created": "2024-09-03T20:49:51.000",
    "date_modified": "2024-09-03T20:49:51.000",
    "request_status": "Pending",
    "responsible_agency": "Department of Public Works",
    "final_address": "1825 Baronne St",
    "address_councildis": "B",
    "status": "Pending",
    "rowid": "1127362",
    "final_x": "3677699.83714",
    "final_y": "525059.722493",
    "longitude": "-90.08029295013381",
    "latitude": "29.93784690327387",
    "geocoded_column": {
      "latitude": "29.93784690327387",
      "longitude": "-90.08029295013381"
    }
  },
  {
    "service_request": "2024-1127361",
    "request_type": "Trash/Recycling",
    "request_reason": "Order Recycling Cart",
    "date_created": "2024-09-03T20:46:47.000",
    "date_modified": "2024-09-03T20:46:47.000",
    "request_status": "Pending",
    "responsible_agency": "Department of Sanitation",
    "final_address": "2918 Fortin St",
    "address_councildis": "A",
    "status": "Pending",
    "rowid": "1127361",
    "final_x": "3677604.66715",
    "final_y": "541043.933388",
    "longitude": "-90.08004145283263",
    "latitude": "29.981800948747996",
    "geocoded_column": {
      "latitude": "29.981800948747996",
      "longitude": "-90.08004145283263"
    }
  },
  {
    "service_request": "2024-1127360",
    "request_type": "Trash/Recycling",
    "request_reason": "Request a Large Item Pick Up",
    "date_created": "2024-09-03T20:37:01.000",
    "date_modified": "2024-09-03T20:37:02.000",
    "request_status": "Pending",
    "responsible_agency": "Department of Sanitation",
    "final_address": "108 Neil Ave",
    "address_councildis": "C",
    "status": "Assigned to Contractor",
    "contractor": "Richards Disposal",
    "rowid": "1127360",
    "final_x": "3705948.17387",
    "final_y": "518833.316855",
    "longitude": "-89.99134160368092",
    "latitude": "29.91984683768692",
    "geocoded_column": {
      "latitude": "29.91984683768692",
      "longitude": "-89.99134160368092"
    }
  },
  {
    "service_request": "2024-1127359",
    "request_type": "Property Maintenance",
    "request_reason": "Property Maintenance",
    "date_created": "2024-09-03T20:17:13.000",
    "date_modified": "2024-09-03T20:17:13.000",
    "request_status": "Pending",
    "responsible_agency": "Department of Code Enforcement",
    "final_address": "2227 Lizardi St",
    "address_councildis": "E",
    "status": "Pending",
    "rowid": "1127359",
    "final_x": "3697821.06826",
    "final_y": "538429.467401",
    "longitude": "-90.01628378671505",
    "latitude": "29.973988616421902",
    "geocoded_column": {
      "latitude": "29.973988616421902",
      "longitude": "-90.01628378671505"
    }
  },
  {
    "service_request": "2024-1127358",
    "request_type": "Traffic Signals/Signs/Striping/Streetlights",
    "request_reason": "Traffic Sign Missing/Damaged",
    "date_created": "2024-09-03T20:15:24.000",
    "date_modified": "2024-09-03T20:15:24.000",
    "request_status": "Pending",
    "responsible_agency": "Department of Public Works",
    "final_address": "TENNESSEE ST & N GALVEZ ST",
    "address_councildis": "E",
    "status": "Pending",
    "rowid": "1127358",
    "final_x": "3696728.4",
    "final_y": "538078.58",
    "longitude": "-90.01974736450542",
    "latitude": "29.973058290592395",
    "geocoded_column": {
      "latitude": "29.973058290592395",
      "longitude": "-90.01974736450542"
    }
  },
  {
    "service_request": "2024-1127357",
    "request_type": "Trash/Recycling",
    "request_reason": "MIssed Recycling Pick-Up",
    "date_created": "2024-09-03T20:14:54.000",
    "date_modified": "2024-09-03T20:14:54.000",
    "request_status": "Pending",
    "responsible_agency": "Department of Sanitation",
    "final_address": "245 Verret St",
    "address_councildis": "C",
    "status": "Assigned to Contractor",
    "contractor": "Richards Disposal",
    "rowid": "1127357",
    "final_x": "3686813.73218",
    "final_y": "530837.560834",
    "longitude": "-90.0513156176189",
    "latitude": "29.953456801919074",
    "geocoded_column": {
      "latitude": "29.953456801919074",
      "longitude": "-90.0513156176189"
    }
  },
  {
    "service_request": "2024-1127356",
    "request_type": "Property Maintenance",
    "request_reason": "Property Maintenance",
    "date_created": "2024-09-03T20:13:58.000",
    "date_modified": "2024-09-03T20:13:58.000",
    "request_status": "Pending",
    "responsible_agency": "Department of Code Enforcement",
    "final_address": "2412 Choctaw Ct",
    "address_councildis": "E",
    "status": "Pending",
    "rowid": "1127356",
    "final_x": "3698738.61245",
    "final_y": "538921.722378",
    "longitude": "-90.01336808416588",
    "latitude": "29.975313108890738",
    "geocoded_column": {
      "latitude": "29.975313108890738",
      "longitude": "-90.01336808416588"
    }
  },
  {
    "service_request": "2024-1127355",
    "request_type": "Property Maintenance",
    "request_reason": "Property Maintenance",
    "date_created": "2024-09-03T20:12:13.000",
    "date_modified": "2024-09-03T20:12:13.000",
    "request_status": "Pending",
    "responsible_agency": "Department of Code Enforcement",
    "final_address": "5425 Shirley Taylor St",
    "address_councildis": "E",
    "status": "Pending",
    "rowid": "1127355",
    "final_x": "3698708.37373",
    "final_y": "538826.331337",
    "longitude": "-90.01346705579667",
    "latitude": "29.97505177578697",
    "geocoded_column": {
      "latitude": "29.97505177578697",
      "longitude": "-90.01346705579667"
    }
  },
  {
    "service_request": "2024-1127354",
    "request_type": "Property Maintenance",
    "request_reason": "Property Maintenance",
    "date_created": "2024-09-03T20:11:12.000",
    "date_modified": "2024-09-03T20:11:12.000",
    "request_status": "Pending",
    "responsible_agency": "Department of Code Enforcement",
    "final_address": "2343 Lizardi St",
    "address_councildis": "E",
    "status": "Pending",
    "rowid": "1127354",
    "final_x": "3697915.67888",
    "final_y": "538941.559114",
    "longitude": "-90.01596639281776",
    "latitude": "29.975393693459193",
    "geocoded_column": {
      "latitude": "29.975393693459193",
      "longitude": "-90.01596639281776"
    }
  },
  {
    "service_request": "2024-1127353",
    "request_type": "Property Maintenance",
    "request_reason": "Property Maintenance",
    "date_created": "2024-09-03T20:09:33.000",
    "date_modified": "2024-09-03T20:09:33.000",
    "request_status": "Pending",
    "responsible_agency": "Department of Code Enforcement",
    "final_address": "2322 Lizardi St",
    "address_councildis": "E",
    "status": "Pending",
    "rowid": "1127353",
    "final_x": "3697765.52291",
    "final_y": "538825.948297",
    "longitude": "-90.0164448194803",
    "latitude": "29.975080551377516",
    "geocoded_column": {
      "latitude": "29.975080551377516",
      "longitude": "-90.0164448194803"
    }
  },
  {
    "service_request": "2024-1127352",
    "request_type": "Property Maintenance",
    "request_reason": "Property Maintenance",
    "date_created": "2024-09-03T20:08:16.000",
    "date_modified": "2024-09-03T20:08:16.000",
    "request_status": "Pending",
    "responsible_agency": "Department of Code Enforcement",
    "final_address": "6157 Bellaire Dr",
    "address_councildis": "A",
    "status": "Pending",
    "rowid": "1127352",
    "final_x": "3664378.40704",
    "final_y": "548727.323859",
    "longitude": "-90.12155977279876",
    "latitude": "30.003318811608633",
    "geocoded_column": {
      "latitude": "30.003318811608633",
      "longitude": "-90.12155977279876"
    }
  },
  {
    "service_request": "2024-1127351",
    "request_type": "Property Maintenance",
    "request_reason": "Property Maintenance",
    "date_created": "2024-09-03T20:08:10.000",
    "date_modified": "2024-09-03T20:08:10.000",
    "request_status": "Pending",
    "responsible_agency": "Department of Code Enforcement",
    "final_address": "2144 Lizardi St",
    "address_councildis": "E",
    "status": "Pending",
    "rowid": "1127351",
    "final_x": "3697629.27562",
    "final_y": "538207.494409",
    "longitude": "-90.01689756171498",
    "latitude": "29.9733843308042",
    "geocoded_column": {
      "latitude": "29.9733843308042",
      "longitude": "-90.01689756171498"
    }
  },
  {
    "service_request": "2024-1127350",
    "request_type": "Parks & Parkways",
    "request_reason": "Request Tree Service (Right of Way/Public Property)",
    "date_created": "2024-09-03T20:06:39.000",
    "date_modified": "2024-09-03T20:06:39.000",
    "request_status": "Pending",
    "responsible_agency": "Department of Parks & Parkway",
    "final_address": "5317 N Galvez St",
    "address_councildis": "E",
    "status": "Pending",
    "rowid": "1127350",
    "final_x": "3698006.73469",
    "final_y": "537789.050376",
    "longitude": "-90.01572067154606",
    "latitude": "29.972221830903802",
    "geocoded_column": {
      "latitude": "29.972221830903802",
      "longitude": "-90.01572067154606"
    }
  },
  {
    "service_request": "2024-1127349",
    "request_type": "Property Maintenance",
    "request_reason": "Property Maintenance",
    "date_created": "2024-09-03T20:04:15.000",
    "date_modified": "2024-09-03T20:04:15.000",
    "request_status": "Pending",
    "responsible_agency": "Department of Code Enforcement",
    "final_address": "2012 Lizardi St",
    "address_councildis": "E",
    "status": "Pending",
    "rowid": "1127349",
    "final_x": "3697472.45635",
    "final_y": "537621.521544",
    "longitude": "-90.01741407957489",
    "latitude": "29.971778069045772",
    "geocoded_column": {
      "latitude": "29.971778069045772",
      "longitude": "-90.01741407957489"
    }
  },
  {
    "service_request": "2024-1127348",
    "request_type": "Abandoned Vehicles",
    "request_reason": "Abandoned/Junk Vehicles",
    "date_created": "2024-09-03T20:00:00.000",
    "date_modified": "2024-09-03T20:00:00.000",
    "request_status": "Pending",
    "responsible_agency": "Department of Public Works",
    "final_address": "1827 Lizardi St",
    "address_councildis": "E",
    "status": "Pending",
    "rowid": "1127348",
    "final_x": "3697379.3569",
    "final_y": "536965.153736",
    "longitude": "-90.01773190060428",
    "latitude": "29.96997623252094",
    "geocoded_column": {
      "latitude": "29.96997623252094",
      "longitude": "-90.01773190060428"
    }
  },
  {
    "service_request": "2024-1127347",
    "request_type": "Property Maintenance",
    "request_reason": "Property Maintenance",
    "date_created": "2024-09-03T19:56:10.000",
    "date_modified": "2024-09-03T19:56:10.000",
    "request_status": "Pending",
    "responsible_agency": "Department of Code Enforcement",
    "final_address": "1827 Lizardi St",
    "address_councildis": "E",
    "status": "Pending",
    "rowid": "1127347",
    "final_x": "3697379.3569",
    "final_y": "536965.153736",
    "longitude": "-90.01773190060428",
    "latitude": "29.96997623252094",
    "geocoded_column": {
      "latitude": "29.96997623252094",
      "longitude": "-90.01773190060428"
    }
  },
  {
    "service_request": "2024-1127346",
    "request_type": "Property Maintenance",
    "request_reason": "Property Maintenance",
    "date_created": "2024-09-03T19:54:15.000",
    "date_modified": "2024-09-03T19:54:15.000",
    "request_status": "Pending",
    "responsible_agency": "Department of Code Enforcement",
    "final_address": "1700 BLK Lizardi St",
    "address_councildis": "E",
    "status": "Pending",
    "rowid": "1127346",
    "final_x": "3697209.10423",
    "final_y": "536548.366652",
    "longitude": "-90.01828467850342",
    "latitude": "29.968835591028448",
    "geocoded_column": {
      "latitude": "29.968835591028448",
      "longitude": "-90.01828467850342"
    }
  },
  {
    "service_request": "2024-1127345",
    "request_type": "Trash/Recycling",
    "request_reason": "MIssed Recycling Pick-Up",
    "date_created": "2024-09-03T19:34:46.000",
    "date_modified": "2024-09-03T19:34:46.000",
    "request_status": "Pending",
    "responsible_agency": "Department of Sanitation",
    "final_address": "7360 Heather Ct",
    "address_councildis": "E",
    "status": "Assigned to Contractor",
    "contractor": "Waste Pro",
    "rowid": "1127345",
    "final_x": "3705425.873",
    "final_y": "562455.273183",
    "longitude": "-89.99137764361129",
    "latitude": "30.039807896243417",
    "geocoded_column": {
      "latitude": "30.039807896243417",
      "longitude": "-89.99137764361129"
    }
  },
  {
    "service_request": "2024-1127344",
    "request_type": "Property Maintenance",
    "request_reason": "Property Maintenance",
    "date_created": "2024-09-03T19:20:53.000",
    "date_modified": "2024-09-03T19:20:53.000",
    "request_status": "Pending",
    "responsible_agency": "Department of Code Enforcement",
    "final_address": "4877 Cardenas Dr",
    "address_councildis": "E",
    "status": "Pending",
    "rowid": "1127344",
    "final_x": "3713678.60088",
    "final_y": "557105.752602",
    "longitude": "-89.96549856401236",
    "latitude": "30.024830510035788",
    "geocoded_column": {
      "latitude": "30.024830510035788",
      "longitude": "-89.96549856401236"
    }
  },
  {
    "service_request": "2024-1127343",
    "request_type": "Roads/Drainage",
    "request_reason": "Catch Basin - Clogged",
    "date_created": "2024-09-03T19:16:59.000",
    "date_modified": "2024-09-03T19:16:59.000",
    "request_status": "Pending",
    "responsible_agency": "Department of Public Works",
    "final_address": "5534 Willow St, New Orleans, Louisiana, 70115",
    "address_councildis": "A",
    "status": "Pending",
    "rowid": "1127343",
    "final_x": "3667601.70605",
    "final_y": "525390.607485",
    "longitude": "-90.11216255126764",
    "latitude": "29.939056510528175",
    "geocoded_column": {
      "latitude": "29.939056510528175",
      "longitude": "-90.11216255126764"
    }
  },
  {
    "service_request": "2024-1127341",
    "request_type": "Trash/Recycling",
    "request_reason": "Start Trash Service",
    "date_created": "2024-09-03T19:09:05.000",
    "date_modified": "2024-09-03T19:09:06.000",
    "request_status": "Pending",
    "responsible_agency": "Department of Sanitation",
    "final_address": "2101 Burgundy St Unit 4",
    "address_councildis": "C",
    "status": "Assigned to Contractor",
    "contractor": "IV Waste",
    "rowid": "1127341",
    "final_x": "3684674.41052",
    "final_y": "535625.785734",
    "longitude": "-90.05790238470993",
    "latitude": "29.966688417155204",
    "geocoded_column": {
      "latitude": "29.966688417155204",
      "longitude": "-90.05790238470993"
    }
  },
  {
    "service_request": "2024-1127340",
    "request_type": "Property Maintenance",
    "request_reason": "Property Maintenance",
    "date_created": "2024-09-03T18:50:02.000",
    "date_modified": "2024-09-03T18:50:02.000",
    "request_status": "Pending",
    "responsible_agency": "Department of Code Enforcement",
    "final_address": "2718 Cadiz St",
    "address_councildis": "B",
    "status": "Pending",
    "rowid": "1127340",
    "final_x": "3669657.79041",
    "final_y": "524809.85222",
    "longitude": "-90.10569087212826",
    "latitude": "29.937399208529243",
    "geocoded_column": {
      "latitude": "29.937399208529243",
      "longitude": "-90.10569087212826"
    }
  },
  {
    "service_request": "2024-1127339",
    "request_type": "Health Related Request",
    "request_reason": "Noise Ordinance Complaint",
    "date_created": "2024-09-03T18:44:25.000",
    "date_modified": "2024-09-03T18:44:25.000",
    "request_status": "Pending",
    "responsible_agency": "Health Department",
    "final_address": "3900 BLK Saint Claude Ave",
    "address_councildis": "C",
    "status": "Pending",
    "rowid": "1127339",
    "final_x": "3691661.52346",
    "final_y": "535409.563483",
    "longitude": "-90.03584493962522",
    "latitude": "29.965878182379576",
    "geocoded_column": {
      "latitude": "29.965878182379576",
      "longitude": "-90.03584493962522"
    }
  },
  {
    "service_request": "2024-1127338",
    "request_type": "Trash/Recycling",
    "request_reason": "Request a Large Item Pick Up",
    "date_created": "2024-09-03T18:32:26.000",
    "date_modified": "2024-09-03T18:32:27.000",
    "request_status": "Pending",
    "responsible_agency": "Department of Sanitation",
    "final_address": "4744 Cardenas Dr",
    "address_councildis": "E",
    "status": "Assigned to Contractor",
    "contractor": "Waste Pro",
    "rowid": "1127338",
    "final_x": "3713611.42341",
    "final_y": "556371.594778",
    "longitude": "-89.9657385190626",
    "latitude": "30.02281407098994",
    "geocoded_column": {
      "latitude": "30.02281407098994",
      "longitude": "-89.9657385190626"
    }
  },
  {
    "service_request": "2024-1127337",
    "request_type": "Trash/Recycling",
    "request_reason": "Request a Large Item Pick Up",
    "date_created": "2024-09-03T18:20:58.000",
    "date_modified": "2024-09-03T18:20:59.000",
    "request_status": "Pending",
    "responsible_agency": "Department of Sanitation",
    "final_address": "1526 N Miro St",
    "address_councildis": "D",
    "status": "Assigned to Contractor",
    "contractor": "IV Waste",
    "rowid": "1127337",
    "final_x": "3680250.00597",
    "final_y": "538621.938697",
    "longitude": "-90.07177044944933",
    "latitude": "29.97506148005349",
    "geocoded_column": {
      "latitude": "29.97506148005349",
      "longitude": "-90.07177044944933"
    }
  },
  {
    "service_request": "2024-1127336",
    "request_type": "Trash/Recycling",
    "request_reason": "Request a Large Item Pick Up",
    "date_created": "2024-09-03T18:19:33.000",
    "date_modified": "2024-09-03T18:19:34.000",
    "request_status": "Pending",
    "responsible_agency": "Department of Sanitation",
    "final_address": "1031 Henriette Delille St, New Orleans, Louisiana, 70116",
    "address_councildis": "C",
    "status": "Assigned to Contractor",
    "contractor": "IV Waste",
    "rowid": "1127336",
    "final_x": "3681851.85519",
    "final_y": "534737.509574",
    "longitude": "-90.0668469959105",
    "latitude": "29.964332048849617",
    "geocoded_column": {
      "latitude": "29.964332048849617",
      "longitude": "-90.0668469959105"
    }
  },
  {
    "service_request": "2024-1127335",
    "request_type": "Trash/Recycling",
    "request_reason": "Request a Large Item Pick Up",
    "date_created": "2024-09-03T18:19:18.000",
    "date_modified": "2024-09-03T18:19:19.000",
    "request_status": "Pending",
    "responsible_agency": "Department of Sanitation",
    "final_address": "87 Versailles Blvd",
    "address_councildis": "B",
    "status": "Assigned to Contractor",
    "contractor": "IV Waste",
    "rowid": "1127335",
    "final_x": "3668050.54829",
    "final_y": "530823.966274",
    "longitude": "-90.11056244315029",
    "latitude": "29.953983322741575",
    "geocoded_column": {
      "latitude": "29.953983322741575",
      "longitude": "-90.11056244315029"
    }
  },
  {
    "service_request": "2024-1127334",
    "request_type": "Trash/Recycling",
    "request_reason": "Request a Large Item Pick Up",
    "date_created": "2024-09-03T18:18:57.000",
    "date_modified": "2024-09-03T18:18:58.000",
    "request_status": "Pending",
    "responsible_agency": "Department of Sanitation",
    "final_address": "1526 N Miro St",
    "address_councildis": "D",
    "status": "Assigned to Contractor",
    "contractor": "IV Waste",
    "rowid": "1127334",
    "final_x": "3680250.00597",
    "final_y": "538621.938697",
    "longitude": "-90.07177044944933",
    "latitude": "29.97506148005349",
    "geocoded_column": {
      "latitude": "29.97506148005349",
      "longitude": "-90.07177044944933"
    }
  },
  {
    "service_request": "2024-1127333",
    "request_type": "Trash/Recycling",
    "request_reason": "Replace Trash Cart",
    "date_created": "2024-09-03T18:14:11.000",
    "date_modified": "2024-09-03T18:14:11.000",
    "request_status": "Pending",
    "responsible_agency": "Department of Sanitation",
    "final_address": "4816 Coliseum St",
    "address_councildis": "B",
    "status": "Assigned to Contractor",
    "contractor": "IV Waste",
    "rowid": "1127333",
    "final_x": "3669328.24039",
    "final_y": "519615.026936",
    "longitude": "-90.10690682543013",
    "latitude": "29.923124803926513",
    "geocoded_column": {
      "latitude": "29.923124803926513",
      "longitude": "-90.10690682543013"
    }
  },
  {
    "service_request": "2024-1127332",
    "request_type": "Trash/Recycling",
    "request_reason": "Request a Large Item Pick Up",
    "date_created": "2024-09-03T18:04:05.000",
    "date_modified": "2024-09-03T18:04:06.000",
    "request_status": "Pending",
    "responsible_agency": "Department of Sanitation",
    "final_address": "4711 Cardenas Dr",
    "address_councildis": "E",
    "status": "Assigned to Contractor",
    "contractor": "Waste Pro",
    "rowid": "1127332",
    "final_x": "3713775.31416",
    "final_y": "556144.764122",
    "longitude": "-89.96522922499813",
    "latitude": "30.022184996715154",
    "geocoded_column": {
      "latitude": "30.022184996715154",
      "longitude": "-89.96522922499813"
    }
  },
  {
    "service_request": "2024-1127331",
    "request_type": "Trash/Recycling",
    "request_reason": "Illegal Dumping",
    "date_created": "2024-09-03T17:53:39.000",
    "date_modified": "2024-09-03T17:53:39.000",
    "request_status": "Pending",
    "responsible_agency": "Department of Sanitation",
    "final_address": "5213 N Rampart St",
    "address_councildis": "E",
    "status": "Pending",
    "rowid": "1127331",
    "final_x": "3696553.56093",
    "final_y": "533705.921605",
    "longitude": "-90.02045776551066",
    "latitude": "29.9610405485503",
    "geocoded_column": {
      "latitude": "29.9610405485503",
      "longitude": "-90.02045776551066"
    }
  },
  {
    "service_request": "2024-1127330",
    "request_type": "Trash/Recycling",
    "request_reason": "Request a Large Item Pick Up",
    "date_created": "2024-09-03T17:52:10.000",
    "date_modified": "2024-09-03T17:52:11.000",
    "request_status": "Pending",
    "responsible_agency": "Department of Sanitation",
    "final_address": "5213 N Rampart St",
    "address_councildis": "E",
    "status": "Assigned to Contractor",
    "contractor": "Waste Pro",
    "rowid": "1127330",
    "final_x": "3696553.56093",
    "final_y": "533705.921605",
    "longitude": "-90.02045776551066",
    "latitude": "29.9610405485503",
    "geocoded_column": {
      "latitude": "29.9610405485503",
      "longitude": "-90.02045776551066"
    }
  },
  {
    "service_request": "2024-1127329",
    "request_type": "Roads/Drainage",
    "request_reason": "Street Flooding / Drainage",
    "date_created": "2024-09-03T17:36:17.000",
    "date_modified": "2024-09-03T17:36:17.000",
    "request_status": "Pending",
    "responsible_agency": "Department of Public Works",
    "final_address": "1916 Marigny St",
    "address_councildis": "D",
    "status": "Pending",
    "rowid": "1127329",
    "final_x": "3685128.77116",
    "final_y": "539447.097674",
    "longitude": "-90.05633302898109",
    "latitude": "29.977181778945464",
    "geocoded_column": {
      "latitude": "29.977181778945464",
      "longitude": "-90.05633302898109"
    }
  },
  {
    "service_request": "2024-1127327",
    "request_type": "Parks & Parkways",
    "request_reason": "Request Tree Service (Right of Way/Public Property)",
    "date_created": "2024-09-03T17:26:34.000",
    "date_modified": "2024-09-03T17:26:34.000",
    "request_status": "Pending",
    "responsible_agency": "Department of Parks & Parkway",
    "final_address": "5853 Macarthur Blvd",
    "address_councildis": "C",
    "status": "Pending",
    "rowid": "1127327",
    "final_x": "3705050.20484",
    "final_y": "519077.647479",
    "longitude": "-89.99416701760889",
    "latitude": "29.920547549679334",
    "geocoded_column": {
      "latitude": "29.920547549679334",
      "longitude": "-89.99416701760889"
    }
  },
  {
    "service_request": "2024-1127326",
    "request_type": "Parks & Parkways",
    "request_reason": "Request Tree Service (Right of Way/Public Property)",
    "date_created": "2024-09-03T17:21:13.000",
    "date_modified": "2024-09-03T17:21:13.000",
    "request_status": "Pending",
    "responsible_agency": "Department of Parks & Parkway",
    "final_address": "5853 Macarthur Blvd",
    "address_councildis": "C",
    "status": "Pending",
    "rowid": "1127326",
    "final_x": "3705050.20484",
    "final_y": "519077.647479",
    "longitude": "-89.99416701760889",
    "latitude": "29.920547549679334",
    "geocoded_column": {
      "latitude": "29.920547549679334",
      "longitude": "-89.99416701760889"
    }
  },
  {
    "service_request": "2024-1127325",
    "request_type": "Parks & Parkways",
    "request_reason": "Request Tree Service (Right of Way/Public Property)",
    "date_created": "2024-09-03T17:17:45.000",
    "date_modified": "2024-09-03T17:17:45.000",
    "request_status": "Pending",
    "responsible_agency": "Department of Parks & Parkway",
    "final_address": "3300 BLK Eton St",
    "address_councildis": "C",
    "status": "Pending",
    "rowid": "1127325",
    "final_x": "3703816.30165",
    "final_y": "518766.864157",
    "longitude": "-89.9980732773626",
    "latitude": "29.919732597786783",
    "geocoded_column": {
      "latitude": "29.919732597786783",
      "longitude": "-89.9980732773626"
    }
  },
  {
    "service_request": "2024-1127324",
    "request_type": "Traffic Signals/Signs/Striping/Streetlights",
    "request_reason": "Street Light Outage/Malfunction",
    "date_created": "2024-09-03T17:17:32.000",
    "date_modified": "2024-09-03T17:17:32.000",
    "request_status": "Pending",
    "responsible_agency": "Department of Public Works",
    "final_address": "5500 BLK Burgundy St",
    "address_councildis": "E",
    "status": "Assigned to Contractor",
    "contractor": "Legacy Professional Services",
    "rowid": "1127324",
    "final_x": "3697651.06693",
    "final_y": "533014.766763",
    "longitude": "-90.01701713647563",
    "latitude": "29.959105495413137",
    "geocoded_column": {
      "latitude": "29.959105495413137",
      "longitude": "-90.01701713647563"
    }
  },
  {
    "service_request": "2024-1127323",
    "request_type": "Trash/Recycling",
    "request_reason": "Return Trash Cart",
    "date_created": "2024-09-03T17:02:21.000",
    "date_modified": "2024-09-03T17:02:22.000",
    "request_status": "Pending",
    "responsible_agency": "Department of Sanitation",
    "final_address": "2238 Octavia St",
    "address_councildis": "A",
    "status": "Assigned to Contractor",
    "contractor": "IV Waste",
    "rowid": "1127323",
    "final_x": "3667525.90497",
    "final_y": "524035.669052",
    "longitude": "-90.11244744390633",
    "latitude": "29.935333085488466",
    "geocoded_column": {
      "latitude": "29.935333085488466",
      "longitude": "-90.11244744390633"
    }
  },
  {
    "service_request": "2024-1127322",
    "request_type": "Traffic Signals/Signs/Striping/Streetlights",
    "request_reason": "Traffic Signal Malfunctioning/Damaged",
    "date_created": "2024-09-03T16:57:19.000",
    "date_modified": "2024-09-03T16:57:20.000",
    "request_status": "Pending",
    "responsible_agency": "Department of Public Works",
    "final_address": "3400 BLK S Claiborne Ave",
    "address_councildis": "B",
    "status": "Pending",
    "rowid": "1127322",
    "final_x": "3672043.06598",
    "final_y": "526143.524272",
    "longitude": "-90.09811499098736",
    "latitude": "29.940995888001208",
    "geocoded_column": {
      "latitude": "29.940995888001208",
      "longitude": "-90.09811499098736"
    }
  },
  {
    "service_request": "2024-1127321",
    "request_type": "Trash/Recycling",
    "request_reason": "Order Trash Cart",
    "date_created": "2024-09-03T16:49:00.000",
    "date_modified": "2024-09-03T16:49:01.000",
    "request_status": "Pending",
    "responsible_agency": "Department of Sanitation",
    "final_address": "3703 Meadow Park Ln",
    "address_councildis": "C",
    "status": "Assigned to Contractor",
    "contractor": "Richards Disposal",
    "rowid": "1127321",
    "final_x": "3703736.83191",
    "final_y": "510870.392751",
    "longitude": "-89.99861446085397",
    "latitude": "29.89802254225601",
    "geocoded_column": {
      "latitude": "29.89802254225601",
      "longitude": "-89.99861446085397"
    }
  },
  {
    "service_request": "2024-1127320",
    "request_type": "Traffic Signals/Signs/Striping/Streetlights",
    "request_reason": "Request for Traffic Calming due to Speeding",
    "date_created": "2024-09-03T16:44:04.000",
    "date_modified": "2024-09-03T16:44:05.000",
    "request_status": "Pending",
    "responsible_agency": "Department of Public Works",
    "final_address": "1400 BLK Magazine St",
    "address_councildis": "B",
    "status": "Pending",
    "rowid": "1127320",
    "final_x": "3680328.50709",
    "final_y": "524368.924475",
    "longitude": "-90.07201803438208",
    "latitude": "29.935868133776005",
    "geocoded_column": {
      "latitude": "29.935868133776005",
      "longitude": "-90.07201803438208"
    }
  },
  {
    "service_request": "2024-1127319",
    "request_type": "Traffic Signals/Signs/Striping/Streetlights",
    "request_reason": "Crosswalks and Signage",
    "date_created": "2024-09-03T16:43:33.000",
    "date_modified": "2024-09-03T16:43:34.000",
    "request_status": "Pending",
    "responsible_agency": "Department of Public Works",
    "final_address": "1400 BLK Magazine St",
    "address_councildis": "B",
    "status": "Pending",
    "rowid": "1127319",
    "final_x": "3680328.50709",
    "final_y": "524368.924475",
    "longitude": "-90.07201803438208",
    "latitude": "29.935868133776005",
    "geocoded_column": {
      "latitude": "29.935868133776005",
      "longitude": "-90.07201803438208"
    }
  },
  {
    "service_request": "2024-1127318",
    "request_type": "Trash/Recycling",
    "request_reason": "Request a Large Item Pick Up",
    "date_created": "2024-09-03T16:41:32.000",
    "date_modified": "2024-09-03T16:41:33.000",
    "request_status": "Pending",
    "responsible_agency": "Department of Sanitation",
    "final_address": "604 Seguin St",
    "address_councildis": "C",
    "status": "Assigned to Contractor",
    "contractor": "Richards Disposal",
    "rowid": "1127318",
    "final_x": "3686708.46825",
    "final_y": "529610.665281",
    "longitude": "-90.05169132713765",
    "latitude": "29.95008649677135",
    "geocoded_column": {
      "latitude": "29.95008649677135",
      "longitude": "-90.05169132713765"
    }
  },
  {
    "service_request": "2024-1127317",
    "request_type": "Trash/Recycling",
    "request_reason": "Request a Large Item Pick Up",
    "date_created": "2024-09-03T16:39:55.000",
    "date_modified": "2024-09-03T16:39:56.000",
    "request_status": "Pending",
    "responsible_agency": "Department of Sanitation",
    "final_address": "7011 Manchester St",
    "address_councildis": "E",
    "status": "Assigned to Contractor",
    "contractor": "Waste Pro",
    "rowid": "1127317",
    "final_x": "3699020.87517",
    "final_y": "560167.390173",
    "longitude": "-90.01170269402078",
    "latitude": "30.033721805905493",
    "geocoded_column": {
      "latitude": "30.033721805905493",
      "longitude": "-90.01170269402078"
    }
  },
  {
    "service_request": "2024-1127316",
    "request_type": "Roads/Drainage",
    "request_reason": "Pothole",
    "date_created": "2024-09-03T16:39:34.000",
    "date_modified": "2024-09-03T16:39:35.000",
    "request_status": "Pending",
    "responsible_agency": "Department of Public Works",
    "final_address": "200 BLK S Solomon St",
    "address_councildis": "A",
    "status": "Pending",
    "rowid": "1127316",
    "final_x": "3670219.33374",
    "final_y": "538242.937737",
    "longitude": "-90.10346284464782",
    "latitude": "29.974319206480768",
    "geocoded_column": {
      "latitude": "29.974319206480768",
      "longitude": "-90.10346284464782"
    }
  },
  {
    "service_request": "2024-1127315",
    "request_type": "Trash/Recycling",
    "request_reason": "Request a Large Item Pick Up",
    "date_created": "2024-09-03T16:36:49.000",
    "date_modified": "2024-09-03T16:36:50.000",
    "request_status": "Pending",
    "responsible_agency": "Department of Sanitation",
    "final_address": "4650 Marigny St",
    "address_councildis": "D",
    "status": "Assigned to Contractor",
    "contractor": "IV Waste",
    "rowid": "1127315",
    "final_x": "3684365.38402",
    "final_y": "549854.593812",
    "longitude": "-90.0583783096619",
    "latitude": "30.005822060747025",
    "geocoded_column": {
      "latitude": "30.005822060747025",
      "longitude": "-90.0583783096619"
    }
  },
  {
    "service_request": "2024-1127314",
    "request_type": "Property Maintenance",
    "request_reason": "Property Maintenance",
    "date_created": "2024-09-03T16:34:45.000",
    "date_modified": "2024-09-03T16:34:45.000",
    "request_status": "Pending",
    "responsible_agency": "Department of Code Enforcement",
    "final_address": "436 Tupelo St",
    "address_councildis": "E",
    "status": "Pending",
    "rowid": "1127314",
    "final_x": "3698607.29373",
    "final_y": "531231.44621",
    "longitude": "-90.0140624615626",
    "latitude": "29.95417175602894",
    "geocoded_column": {
      "latitude": "29.95417175602894",
      "longitude": "-90.0140624615626"
    }
  },
  {
    "service_request": "2024-1127313",
    "request_type": "Abandoned Vehicles",
    "request_reason": "Abandoned/Junk Vehicles",
    "date_created": "2024-09-03T16:34:11.000",
    "date_modified": "2024-09-03T16:34:12.000",
    "request_status": "Pending",
    "responsible_agency": "Department of Public Works",
    "final_address": "5737 Franklin Ave",
    "address_councildis": "D",
    "status": "Pending",
    "rowid": "1127313",
    "final_x": "3686574.49462",
    "final_y": "554408.182552",
    "longitude": "-90.05123826525464",
    "latitude": "30.018274989350015",
    "geocoded_column": {
      "latitude": "30.018274989350015",
      "longitude": "-90.05123826525464"
    }
  },
  {
    "service_request": "2024-1127312",
    "request_type": "Trash/Recycling",
    "request_reason": "Return Recycling Cart",
    "date_created": "2024-09-03T16:33:04.000",
    "date_modified": "2024-09-03T16:33:05.000",
    "request_status": "Pending",
    "responsible_agency": "Department of Sanitation",
    "final_address": "359 Millaudon St",
    "address_councildis": "A",
    "status": "Pending",
    "rowid": "1127312",
    "final_x": "3661803.33741",
    "final_y": "524466.093692",
    "longitude": "-90.13049943013837",
    "latitude": "29.936683034422643",
    "geocoded_column": {
      "latitude": "29.936683034422643",
      "longitude": "-90.13049943013837"
    }
  },
  {
    "service_request": "2024-1127311",
    "request_type": "Abandoned Vehicles",
    "request_reason": "Abandoned/Junk Vehicles",
    "date_created": "2024-09-03T16:32:47.000",
    "date_modified": "2024-09-03T16:32:48.000",
    "request_status": "Pending",
    "responsible_agency": "Department of Public Works",
    "final_address": "2523 Gravier St",
    "address_councildis": "B",
    "status": "Pending",
    "rowid": "1127311",
    "final_x": "3674753.67995",
    "final_y": "533009.331396",
    "longitude": "-90.08932174257129",
    "latitude": "29.959793956332224",
    "geocoded_column": {
      "latitude": "29.959793956332224",
      "longitude": "-90.08932174257129"
    }
  },
  {
    "service_request": "2024-1127310",
    "request_type": "Trash/Recycling",
    "request_reason": "Request a Large Item Pick Up",
    "date_created": "2024-09-03T16:30:27.000",
    "date_modified": "2024-09-03T16:30:28.000",
    "request_status": "Pending",
    "responsible_agency": "Department of Sanitation",
    "final_address": "9141 Dixon St",
    "address_councildis": "A",
    "status": "Assigned to Contractor",
    "contractor": "IV Waste",
    "rowid": "1127310",
    "final_x": "3665643.96397",
    "final_y": "538094.516873",
    "longitude": "-90.1179179708501",
    "latitude": "29.974045338400888",
    "geocoded_column": {
      "latitude": "29.974045338400888",
      "longitude": "-90.1179179708501"
    }
  },
  {
    "service_request": "2024-1127309",
    "request_type": "Abandoned Vehicles",
    "request_reason": "Abandoned/Junk Vehicles",
    "date_created": "2024-09-03T16:25:38.000",
    "date_modified": "2024-09-03T16:25:39.000",
    "request_status": "Pending",
    "responsible_agency": "Department of Public Works",
    "final_address": "7820 Redfish St",
    "address_councildis": "E",
    "status": "Pending",
    "rowid": "1127309",
    "final_x": "3698567.96592",
    "final_y": "560668.72611",
    "longitude": "-90.01311567787609",
    "latitude": "30.035114641998124",
    "geocoded_column": {
      "latitude": "30.035114641998124",
      "longitude": "-90.01311567787609"
    }
  },
  {
    "service_request": "2024-1127308",
    "request_type": "Trash/Recycling",
    "request_reason": "Request a Large Item Pick Up",
    "date_created": "2024-09-03T16:23:40.000",
    "date_modified": "2024-09-03T16:23:41.000",
    "request_status": "Pending",
    "responsible_agency": "Department of Sanitation",
    "final_address": "937 France St",
    "address_councildis": "C",
    "status": "Assigned to Contractor",
    "contractor": "IV Waste",
    "rowid": "1127308",
    "final_x": "3692288.57814",
    "final_y": "534642.14119",
    "longitude": "-90.033892212322",
    "latitude": "29.963748502443654",
    "geocoded_column": {
      "latitude": "29.963748502443654",
      "longitude": "-90.033892212322"
    }
  },
  {
    "service_request": "2024-1127307",
    "request_type": "Abandoned Vehicles",
    "request_reason": "Abandoned/Junk Vehicles",
    "date_created": "2024-09-03T16:15:41.000",
    "date_modified": "2024-09-03T16:15:41.000",
    "request_status": "Pending",
    "responsible_agency": "Department of Public Works",
    "final_address": "756 City Park Ave",
    "address_councildis": "A",
    "status": "Pending",
    "rowid": "1127307",
    "final_x": "3670912.04942",
    "final_y": "541671.772428",
    "longitude": "-90.10115862988687",
    "latitude": "29.983726875180324",
    "geocoded_column": {
      "latitude": "29.983726875180324",
      "longitude": "-90.10115862988687"
    }
  },
  {
    "service_request": "2024-1127306",
    "request_type": "Trash/Recycling",
    "request_reason": "Illegal Dumping",
    "date_created": "2024-09-03T16:15:12.000",
    "date_modified": "2024-09-03T16:15:12.000",
    "request_status": "Pending",
    "responsible_agency": "Department of Sanitation",
    "final_address": "2733 Baronne St",
    "address_councildis": "B",
    "status": "Pending",
    "rowid": "1127306",
    "final_x": "3675536.63201",
    "final_y": "523200.872123",
    "longitude": "-90.08718619553441",
    "latitude": "29.932800540360336",
    "geocoded_column": {
      "latitude": "29.932800540360336",
      "longitude": "-90.08718619553441"
    }
  },
  {
    "service_request": "2024-1127305",
    "request_type": "Abandoned Vehicles",
    "request_reason": "Abandoned/Junk Vehicles",
    "date_created": "2024-09-03T16:14:32.000",
    "date_modified": "2024-09-03T16:14:33.000",
    "request_status": "Pending",
    "responsible_agency": "Department of Public Works",
    "final_address": "3310 Cleveland Ave",
    "address_councildis": "B",
    "status": "Pending",
    "rowid": "1127305",
    "final_x": "3673214.19739",
    "final_y": "536147.703239",
    "longitude": "-90.0940759098453",
    "latitude": "29.96846929325206",
    "geocoded_column": {
      "latitude": "29.96846929325206",
      "longitude": "-90.0940759098453"
    }
  },
  {
    "service_request": "2024-1127304",
    "request_type": "Traffic Signals/Signs/Striping/Streetlights",
    "request_reason": "Street Light Outage/Malfunction",
    "date_created": "2024-09-03T16:13:17.000",
    "date_modified": "2024-09-03T16:13:18.000",
    "request_status": "Pending",
    "responsible_agency": "Department of Public Works",
    "final_address": "6464 Canal Blvd",
    "address_councildis": "A",
    "status": "Assigned to Contractor",
    "contractor": "Legacy Professional Services",
    "rowid": "1127304",
    "final_x": "3668612.18145",
    "final_y": "550567.877716",
    "longitude": "-90.10812241228263",
    "latitude": "30.00825590088546",
    "geocoded_column": {
      "latitude": "30.00825590088546",
      "longitude": "-90.10812241228263"
    }
  },
  {
    "service_request": "2024-1127303",
    "request_type": "Trash/Recycling",
    "request_reason": "Request a Large Item Pick Up",
    "date_created": "2024-09-03T16:11:41.000",
    "date_modified": "2024-09-03T16:11:42.000",
    "request_status": "Pending",
    "responsible_agency": "Department of Sanitation",
    "final_address": "7620 Oak St",
    "address_councildis": "A",
    "status": "Assigned to Contractor",
    "contractor": "IV Waste",
    "rowid": "1127303",
    "final_x": "3663133.39975",
    "final_y": "527262.984191",
    "longitude": "-90.12620732190256",
    "latitude": "29.944335134237356",
    "geocoded_column": {
      "latitude": "29.944335134237356",
      "longitude": "-90.12620732190256"
    }
  },
  {
    "service_request": "2024-1127302",
    "request_type": "Trash/Recycling",
    "request_reason": "Request a Large Item Pick Up",
    "date_created": "2024-09-03T16:11:31.000",
    "date_modified": "2024-09-03T16:11:31.000",
    "request_status": "Pending",
    "responsible_agency": "Department of Sanitation",
    "final_address": "1020 Eighth St",
    "address_councildis": "B",
    "status": "Assigned to Contractor",
    "contractor": "IV Waste",
    "rowid": "1127302",
    "final_x": "3676186.44699",
    "final_y": "519996.200824",
    "longitude": "-90.08524497517512",
    "latitude": "29.923969286558986",
    "geocoded_column": {
      "latitude": "29.923969286558986",
      "longitude": "-90.08524497517512"
    }
  },
  {
    "service_request": "2024-1127301",
    "request_type": "Trash/Recycling",
    "request_reason": "Request a Large Item Pick Up",
    "date_created": "2024-09-03T16:10:46.000",
    "date_modified": "2024-09-03T16:10:46.000",
    "request_status": "Pending",
    "responsible_agency": "Department of Sanitation",
    "final_address": "5225 Chestnut St",
    "address_councildis": "B",
    "status": "Assigned to Contractor",
    "contractor": "IV Waste",
    "rowid": "1127301",
    "final_x": "3667837.95565",
    "final_y": "519402.932023",
    "longitude": "-90.11161823636263",
    "latitude": "29.922585385754452",
    "geocoded_column": {
      "latitude": "29.922585385754452",
      "longitude": "-90.11161823636263"
    }
  },
  {
    "service_request": "2024-1127300",
    "request_type": "Trash/Recycling",
    "request_reason": "Repair Trash Cart",
    "date_created": "2024-09-03T16:09:59.000",
    "date_modified": "2024-09-03T16:10:00.000",
    "request_status": "Pending",
    "responsible_agency": "Department of Sanitation",
    "final_address": "2838 Upperline St",
    "address_councildis": "B",
    "status": "Assigned to Contractor",
    "contractor": "IV Waste",
    "rowid": "1127300",
    "final_x": "3669166.46836",
    "final_y": "525259.894397",
    "longitude": "-90.10722681018119",
    "latitude": "29.938651144508786",
    "geocoded_column": {
      "latitude": "29.938651144508786",
      "longitude": "-90.10722681018119"
    }
  },
  {
    "service_request": "2024-1127299",
    "request_type": "Trash/Recycling",
    "request_reason": "Request a Large Item Pick Up",
    "date_created": "2024-09-03T16:07:44.000",
    "date_modified": "2024-09-03T16:07:45.000",
    "request_status": "Pending",
    "responsible_agency": "Department of Sanitation",
    "final_address": "4423 Arts St",
    "address_councildis": "D",
    "status": "Assigned to Contractor",
    "contractor": "IV Waste",
    "rowid": "1127299",
    "final_x": "3686088.0861",
    "final_y": "549046.049491",
    "longitude": "-90.0529644464407",
    "latitude": "30.003546039102535",
    "geocoded_column": {
      "latitude": "30.003546039102535",
      "longitude": "-90.0529644464407"
    }
  },
  {
    "service_request": "2024-1127298",
    "request_type": "Trash/Recycling",
    "request_reason": "Request a Large Item Pick Up",
    "date_created": "2024-09-03T16:06:32.000",
    "date_modified": "2024-09-03T16:06:33.000",
    "request_status": "Pending",
    "responsible_agency": "Department of Sanitation",
    "final_address": "7650 Arbor Dr",
    "address_councildis": "E",
    "status": "Assigned to Contractor",
    "contractor": "Waste Pro",
    "rowid": "1127298",
    "final_x": "3702329.72925",
    "final_y": "558247.101212",
    "longitude": "-90.00131694627899",
    "latitude": "30.028336402823026",
    "geocoded_column": {
      "latitude": "30.028336402823026",
      "longitude": "-90.00131694627899"
    }
  },
  {
    "service_request": "2024-1127296",
    "request_type": "Trash/Recycling",
    "request_reason": "Request a Large Item Pick Up",
    "date_created": "2024-09-03T16:06:23.000",
    "date_modified": "2024-09-03T16:06:24.000",
    "request_status": "Pending",
    "responsible_agency": "Department of Sanitation",
    "final_address": "5961 Eastover Dr",
    "address_councildis": "E",
    "status": "Assigned to Contractor",
    "contractor": "Waste Pro",
    "rowid": "1127296",
    "final_x": "3718968.45829",
    "final_y": "564949.12605",
    "longitude": "-89.94848416547583",
    "latitude": "30.046221916475794",
    "geocoded_column": {
      "latitude": "30.046221916475794",
      "longitude": "-89.94848416547583"
    }
  },
  {
    "service_request": "2024-1127295",
    "request_type": "Parks & Parkways",
    "request_reason": "Request Tree Service (Right of Way/Public Property)",
    "date_created": "2024-09-03T16:01:28.000",
    "date_modified": "2024-09-03T16:01:30.000",
    "request_status": "Pending",
    "responsible_agency": "Department of Parks & Parkway",
    "final_address": "4729 Duplessis St",
    "address_councildis": "D",
    "status": "Pending",
    "rowid": "1127295",
    "final_x": "3678237.74702",
    "final_y": "550073.143252",
    "longitude": "-90.07772938310634",
    "latitude": "30.00660904392372",
    "geocoded_column": {
      "latitude": "30.00660904392372",
      "longitude": "-90.07772938310634"
    }
  },
  {
    "service_request": "2024-1127294",
    "request_type": "Property Maintenance",
    "request_reason": "Property Maintenance",
    "date_created": "2024-09-03T16:00:06.000",
    "date_modified": "2024-09-03T16:00:06.000",
    "request_status": "Pending",
    "responsible_agency": "Department of Code Enforcement",
    "final_address": "LOUISVILLE ST & CHAPELLE ST",
    "address_councildis": "A",
    "status": "Pending",
    "rowid": "1127294",
    "final_x": "3668237.0",
    "final_y": "552739.58",
    "longitude": "-90.10923443386902",
    "latitude": "30.014238345665575",
    "geocoded_column": {
      "latitude": "30.014238345665575",
      "longitude": "-90.10923443386902"
    }
  },
  {
    "service_request": "2024-1127293",
    "request_type": "Trash/Recycling",
    "request_reason": "Replace Trash Cart",
    "date_created": "2024-09-03T15:58:09.000",
    "date_modified": "2024-09-03T15:58:10.000",
    "request_status": "Pending",
    "responsible_agency": "Department of Sanitation",
    "final_address": "12410 Carmel Pl",
    "address_councildis": "E",
    "status": "Assigned to Contractor",
    "contractor": "Waste Pro",
    "rowid": "1127293",
    "final_x": "3716119.88748",
    "final_y": "566650.621987",
    "longitude": "-89.95742243238769",
    "latitude": "30.050994689469167",
    "geocoded_column": {
      "latitude": "30.050994689469167",
      "longitude": "-89.95742243238769"
    }
  },
  {
    "service_request": "2024-1127292",
    "request_type": "Property Maintenance",
    "request_reason": "Property Maintenance",
    "date_created": "2024-09-03T15:56:45.000",
    "date_modified": "2024-09-03T15:56:46.000",
    "request_status": "Pending",
    "responsible_agency": "Department of Code Enforcement",
    "final_address": "4819 Majestic Oaks Dr",
    "address_councildis": "D",
    "status": "Pending",
    "rowid": "1127292",
    "final_x": "3697790.14147",
    "final_y": "554788.74652",
    "longitude": "-90.01578737567537",
    "latitude": "30.01897156687911",
    "geocoded_column": {
      "latitude": "30.01897156687911",
      "longitude": "-90.01578737567537"
    }
  },
  {
    "service_request": "2024-1127291",
    "request_type": "Traffic Signals/Signs/Striping/Streetlights",
    "request_reason": "Traffic Sign Missing/Damaged",
    "date_created": "2024-09-03T15:54:52.000",
    "date_modified": "2024-09-03T15:54:52.000",
    "request_status": "Pending",
    "responsible_agency": "Department of Public Works",
    "final_address": "500 BLK Second St",
    "address_councildis": "B",
    "status": "Pending",
    "rowid": "1127291",
    "final_x": "3678890.10905",
    "final_y": "519719.394404",
    "longitude": "-90.07672006177843",
    "latitude": "29.923126906288093",
    "geocoded_column": {
      "latitude": "29.923126906288093",
      "longitude": "-90.07672006177843"
    }
  },
  {
    "service_request": "2024-1127290",
    "request_type": "Trash/Recycling",
    "request_reason": "Repair Trash Cart",
    "date_created": "2024-09-03T15:53:00.000",
    "date_modified": "2024-09-03T15:53:01.000",
    "request_status": "Pending",
    "responsible_agency": "Department of Sanitation",
    "final_address": "5121 Piety Dr",
    "address_councildis": "D",
    "status": "Assigned to Contractor",
    "contractor": "IV Waste",
    "rowid": "1127290",
    "final_x": "3691267.52617",
    "final_y": "552838.00687",
    "longitude": "-90.03646623894392",
    "latitude": "30.013812369689802",
    "geocoded_column": {
      "latitude": "30.013812369689802",
      "longitude": "-90.03646623894392"
    }
  },
  {
    "service_request": "2024-1127289",
    "request_type": "Trash/Recycling",
    "request_reason": "Order Recycling Cart",
    "date_created": "2024-09-03T15:48:55.000",
    "date_modified": "2024-09-03T15:48:56.000",
    "request_status": "Pending",
    "responsible_agency": "Department of Sanitation",
    "final_address": "1238 N Dorgenois St",
    "address_councildis": "D",
    "status": "Pending",
    "rowid": "1127289",
    "final_x": "3678484.55874",
    "final_y": "538310.101769",
    "longitude": "-90.07735698571305",
    "latitude": "29.974257363997644",
    "geocoded_column": {
      "latitude": "29.974257363997644",
      "longitude": "-90.07735698571305"
    }
  },
  {
    "service_request": "2024-1127288",
    "request_type": "Trash/Recycling",
    "request_reason": "Order Trash Cart",
    "date_created": "2024-09-03T15:47:10.000",
    "date_modified": "2024-09-03T15:47:58.000",
    "request_status": "Pending",
    "responsible_agency": "Department of Sanitation",
    "final_address": "1238 N Dorgenois St",
    "address_councildis": "D",
    "status": "Assigned to Contractor",
    "contractor": "IV Waste",
    "rowid": "1127288",
    "final_x": "3678484.55874",
    "final_y": "538310.101769",
    "longitude": "-90.07735698571305",
    "latitude": "29.974257363997644",
    "geocoded_column": {
      "latitude": "29.974257363997644",
      "longitude": "-90.07735698571305"
    }
  },
  {
    "service_request": "2024-1127287",
    "request_type": "Trash/Recycling",
    "request_reason": "Replace Trash Cart",
    "date_created": "2024-09-03T15:44:51.000",
    "date_modified": "2024-09-03T15:44:52.000",
    "request_status": "Pending",
    "responsible_agency": "Department of Sanitation",
    "final_address": "26 N Oak Ridge Ct",
    "address_councildis": "E",
    "status": "Assigned to Contractor",
    "contractor": "Waste Pro",
    "rowid": "1127287",
    "final_x": "3713559.30552",
    "final_y": "568057.648485",
    "longitude": "-89.96546239650077",
    "latitude": "30.05494773178899",
    "geocoded_column": {
      "latitude": "30.05494773178899",
      "longitude": "-89.96546239650077"
    }
  },
  {
    "service_request": "2024-1127286",
    "request_type": "Trash/Recycling",
    "request_reason": "Request a Large Item Pick Up",
    "date_created": "2024-09-03T15:43:41.000",
    "date_modified": "2024-09-03T15:43:42.000",
    "request_status": "Pending",
    "responsible_agency": "Department of Sanitation",
    "final_address": "26 N Oak Ridge Ct",
    "address_councildis": "E",
    "status": "Assigned to Contractor",
    "contractor": "Waste Pro",
    "rowid": "1127286",
    "final_x": "3713559.30552",
    "final_y": "568057.648485",
    "longitude": "-89.96546239650077",
    "latitude": "30.05494773178899",
    "geocoded_column": {
      "latitude": "30.05494773178899",
      "longitude": "-89.96546239650077"
    }
  },
  {
    "service_request": "2024-1127285",
    "request_type": "Trash/Recycling",
    "request_reason": "Request a Large Item Pick Up",
    "date_created": "2024-09-03T15:43:24.000",
    "date_modified": "2024-09-03T15:43:24.000",
    "request_status": "Pending",
    "responsible_agency": "Department of Sanitation",
    "final_address": "4646 Chrysler St",
    "address_councildis": "E",
    "status": "Assigned to Contractor",
    "contractor": "Waste Pro",
    "rowid": "1127285",
    "final_x": "3715263.57848",
    "final_y": "556434.709018",
    "longitude": "-89.9605157570778",
    "latitude": "30.02293328689707",
    "geocoded_column": {
      "latitude": "30.02293328689707",
      "longitude": "-89.9605157570778"
    }
  },
  {
    "service_request": "2024-1127284",
    "request_type": "Trash/Recycling",
    "request_reason": "Request a Large Item Pick Up",
    "date_created": "2024-09-03T15:42:39.000",
    "date_modified": "2024-09-03T15:42:40.000",
    "request_status": "Pending",
    "responsible_agency": "Department of Sanitation",
    "final_address": "919 Andry St",
    "address_councildis": "E",
    "status": "Assigned to Contractor",
    "contractor": "Waste Pro",
    "rowid": "1127284",
    "final_x": "3697036.00912",
    "final_y": "533345.511428",
    "longitude": "-90.01894734675604",
    "latitude": "29.960034339960167",
    "geocoded_column": {
      "latitude": "29.960034339960167",
      "longitude": "-90.01894734675604"
    }
  },
  {
    "service_request": "2024-1127283",
    "request_type": "Traffic Signals/Signs/Striping/Streetlights",
    "request_reason": "Street Name Sign Damaged or Missing",
    "date_created": "2024-09-03T15:38:37.000",
    "date_modified": "2024-09-03T15:38:38.000",
    "request_status": "Pending",
    "responsible_agency": "Department of Public Works",
    "final_address": "BURGUNDY ST & MUSIC ST & FRANKLIN AVE",
    "address_councildis": "C",
    "status": "Pending",
    "rowid": "1127283",
    "final_x": "3686922.7",
    "final_y": "535687.08",
    "longitude": "-90.05080014997277",
    "latitude": "29.966787951634057",
    "geocoded_column": {
      "latitude": "29.966787951634057",
      "longitude": "-90.05080014997277"
    }
  },
  {
    "service_request": "2024-1127281",
    "request_type": "Trash/Recycling",
    "request_reason": "Illegal Dumping",
    "date_created": "2024-09-03T15:34:49.000",
    "date_modified": "2024-09-03T15:34:49.000",
    "request_status": "Pending",
    "responsible_agency": "Department of Sanitation",
    "final_address": "7919 Means Ave",
    "address_councildis": "E",
    "status": "Pending",
    "rowid": "1127281",
    "final_x": "3707621.78769",
    "final_y": "565639.86813",
    "longitude": "-89.98431944650785",
    "latitude": "30.048493365502853",
    "geocoded_column": {
      "latitude": "30.048493365502853",
      "longitude": "-89.98431944650785"
    }
  },
  {
    "service_request": "2024-1127280",
    "request_type": "Healthy Homes",
    "request_reason": "Healthy Homes",
    "date_created": "2024-09-03T15:29:36.000",
    "date_modified": "2024-09-03T15:29:36.000",
    "request_status": "Pending",
    "responsible_agency": "Department of Code Enforcement",
    "final_address": "1422 Peniston St",
    "address_councildis": "B",
    "status": "Pending",
    "rowid": "1127280",
    "final_x": "3672919.60065",
    "final_y": "520751.669753",
    "longitude": "-90.09553149983255",
    "latitude": "29.926144022962372",
    "geocoded_column": {
      "latitude": "29.926144022962372",
      "longitude": "-90.09553149983255"
    }
  },
  {
    "service_request": "2024-1127279",
    "request_type": "Abandoned Vehicles",
    "request_reason": "Abandoned/Junk Vehicles",
    "date_created": "2024-09-03T15:25:21.000",
    "date_modified": "2024-09-03T15:25:21.000",
    "request_status": "Pending",
    "responsible_agency": "Department of Public Works",
    "final_address": "4801 Lynhuber Dr",
    "address_councildis": "D",
    "status": "Pending",
    "rowid": "1127279",
    "final_x": "3698066.60048",
    "final_y": "554610.30524",
    "longitude": "-90.01492035442564",
    "latitude": "30.018472177405975",
    "geocoded_column": {
      "latitude": "30.018472177405975",
      "longitude": "-90.01492035442564"
    }
  },
  {
    "service_request": "2024-1127278",
    "request_type": "Property Maintenance",
    "request_reason": "Property Maintenance",
    "date_created": "2024-09-03T15:23:40.000",
    "date_modified": "2024-09-03T15:23:41.000",
    "request_status": "Pending",
    "responsible_agency": "Department of Code Enforcement",
    "final_address": "8705 Apricot St",
    "address_councildis": "A",
    "status": "Pending",
    "rowid": "1127278",
    "final_x": "3664241.11124",
    "final_y": "534121.595013",
    "longitude": "-90.12248111100676",
    "latitude": "29.963161955841667",
    "geocoded_column": {
      "latitude": "29.963161955841667",
      "longitude": "-90.12248111100676"
    }
  },
  {
    "service_request": "2024-1127277",
    "request_type": "Trash/Recycling",
    "request_reason": "Order Trash Cart",
    "date_created": "2024-09-03T15:22:04.000",
    "date_modified": "2024-09-03T15:22:05.000",
    "request_status": "Pending",
    "responsible_agency": "Department of Sanitation",
    "final_address": "2829 S Derbigny St",
    "address_councildis": "B",
    "status": "Assigned to Contractor",
    "contractor": "IV Waste",
    "rowid": "1127277",
    "final_x": "3672675.48577",
    "final_y": "526941.296062",
    "longitude": "-90.09609112697268",
    "latitude": "29.943170738759598",
    "geocoded_column": {
      "latitude": "29.943170738759598",
      "longitude": "-90.09609112697268"
    }
  },
  {
    "service_request": "2024-1127276",
    "request_type": "Trash/Recycling",
    "request_reason": "Request a Large Item Pick Up",
    "date_created": "2024-09-03T15:21:43.000",
    "date_modified": "2024-09-03T15:21:43.000",
    "request_status": "Pending",
    "responsible_agency": "Department of Sanitation",
    "final_address": "327 Newton St",
    "address_councildis": "C",
    "status": "Assigned to Contractor",
    "contractor": "Richards Disposal",
    "rowid": "1127276",
    "final_x": "3686424.0278",
    "final_y": "527858.427967",
    "longitude": "-90.0526512740584",
    "latitude": "29.945277185401412",
    "geocoded_column": {
      "latitude": "29.945277185401412",
      "longitude": "-90.0526512740584"
    }
  },
  {
    "service_request": "2024-1127275",
    "request_type": "Trash/Recycling",
    "request_reason": "Illegal Dumping",
    "date_created": "2024-09-03T15:20:00.000",
    "date_modified": "2024-09-03T15:20:00.000",
    "request_status": "Pending",
    "responsible_agency": "Department of Sanitation",
    "final_address": "1402 Mandeville St",
    "address_councildis": "C",
    "status": "Pending",
    "rowid": "1127275",
    "final_x": "3685655.46927",
    "final_y": "537518.425928",
    "longitude": "-90.05473751886817",
    "latitude": "29.971862456096517",
    "geocoded_column": {
      "latitude": "29.971862456096517",
      "longitude": "-90.05473751886817"
    }
  },
  {
    "service_request": "2024-1127274",
    "request_type": "Traffic Signals/Signs/Striping/Streetlights",
    "request_reason": "Traffic Sign Missing/Damaged",
    "date_created": "2024-09-03T15:19:47.000",
    "date_modified": "2024-09-03T15:19:48.000",
    "request_status": "Pending",
    "responsible_agency": "Department of Public Works",
    "final_address": "PORT ST & N CLAIBORNE AV OVERPASS & N CLAIBORNE AVE",
    "address_councildis": "D",
    "status": "Pending",
    "rowid": "1127274",
    "final_x": "3687906.7",
    "final_y": "538256.58",
    "longitude": "-90.04760163768081",
    "latitude": "29.973822855649107",
    "geocoded_column": {
      "latitude": "29.973822855649107",
      "longitude": "-90.04760163768081"
    }
  },
  {
    "service_request": "2024-1127273",
    "request_type": "Trash/Recycling",
    "request_reason": "Request a Large Item Pick Up",
    "date_created": "2024-09-03T15:17:53.000",
    "date_modified": "2024-09-03T15:17:54.000",
    "request_status": "Pending",
    "responsible_agency": "Department of Sanitation",
    "final_address": "7900 Lehigh St",
    "address_councildis": "E",
    "status": "Assigned to Contractor",
    "contractor": "Waste Pro",
    "rowid": "1127273",
    "final_x": "3709934.26885",
    "final_y": "566604.271011",
    "longitude": "-89.97697464276442",
    "latitude": "30.051070022664042",
    "geocoded_column": {
      "latitude": "30.051070022664042",
      "longitude": "-89.97697464276442"
    }
  },
  {
    "service_request": "2024-1127272",
    "request_type": "Trash/Recycling",
    "request_reason": "Request a Large Item Pick Up",
    "date_created": "2024-09-03T15:17:10.000",
    "date_modified": "2024-09-03T15:17:11.000",
    "request_status": "Pending",
    "responsible_agency": "Department of Sanitation",
    "final_address": "4965 Wright Rd",
    "address_councildis": "E",
    "status": "Assigned to Contractor",
    "contractor": "Waste Pro",
    "rowid": "1127272",
    "final_x": "3716630.49957",
    "final_y": "558056.753563",
    "longitude": "-89.9561350438242",
    "latitude": "30.027348161752464",
    "geocoded_column": {
      "latitude": "30.027348161752464",
      "longitude": "-89.9561350438242"
    }
  },
  {
    "service_request": "2024-1127271",
    "request_type": "Trash/Recycling",
    "request_reason": "Missed Trash Pick-Up",
    "date_created": "2024-09-03T15:13:28.000",
    "date_modified": "2024-09-03T15:13:29.000",
    "request_status": "Pending",
    "responsible_agency": "Department of Sanitation",
    "final_address": "7311 Camberley Dr",
    "address_councildis": "E",
    "status": "Assigned to Contractor",
    "contractor": "Waste Pro",
    "rowid": "1127271",
    "final_x": "3712995.56696",
    "final_y": "565308.13725",
    "longitude": "-89.96734783941376",
    "latitude": "30.04740618722115",
    "geocoded_column": {
      "latitude": "30.04740618722115",
      "longitude": "-89.96734783941376"
    }
  },
  {
    "service_request": "2024-1127270",
    "request_type": "Parks & Parkways",
    "request_reason": "Request Tree Service (Right of Way/Public Property)",
    "date_created": "2024-09-03T15:12:33.000",
    "date_modified": "2024-09-03T15:12:34.000",
    "request_status": "Pending",
    "responsible_agency": "Department of Parks & Parkway",
    "final_address": "1228 Merrill St",
    "address_councildis": "C",
    "status": "Pending",
    "rowid": "1127270",
    "final_x": "3694994.60368",
    "final_y": "527078.291775",
    "longitude": "-90.02561949496192",
    "latitude": "29.94286590376582",
    "geocoded_column": {
      "latitude": "29.94286590376582",
      "longitude": "-90.02561949496192"
    }
  },
  {
    "service_request": "2024-1127269",
    "request_type": "Traffic Signals/Signs/Striping/Streetlights",
    "request_reason": "Street Name Sign Damaged or Missing",
    "date_created": "2024-09-03T15:09:52.000",
    "date_modified": "2024-09-03T15:09:53.000",
    "request_status": "Pending",
    "responsible_agency": "Department of Public Works",
    "final_address": "ATLANTIC AVE & OPELOUSAS AVE",
    "address_councildis": "C",
    "status": "Pending",
    "rowid": "1127269",
    "final_x": "3688776.7",
    "final_y": "529055.58",
    "longitude": "-90.04518067253991",
    "latitude": "29.94849643112494",
    "geocoded_column": {
      "latitude": "29.94849643112494",
      "longitude": "-90.04518067253991"
    }
  },
  {
    "service_request": "2024-1127268",
    "request_type": "Traffic Signals/Signs/Striping/Streetlights",
    "request_reason": "Street Name Sign Damaged or Missing",
    "date_created": "2024-09-03T15:09:07.000",
    "date_modified": "2024-09-03T15:09:40.000",
    "request_status": "Pending",
    "responsible_agency": "Department of Public Works",
    "final_address": "GALAHAD DR & GRANT ST",
    "address_councildis": "E",
    "status": "Pending",
    "rowid": "1127268",
    "final_x": "3707321.8",
    "final_y": "554392.78",
    "longitude": "-89.98568565405277",
    "latitude": "30.017578008815892",
    "geocoded_column": {
      "latitude": "30.017578008815892",
      "longitude": "-89.98568565405277"
    }
  },
  {
    "service_request": "2024-1127267",
    "request_type": "Traffic Signals/Signs/Striping/Streetlights",
    "request_reason": "Street Light Outage/Malfunction",
    "date_created": "2024-09-03T15:08:58.000",
    "date_modified": "2024-09-03T15:08:59.000",
    "request_status": "Pending",
    "responsible_agency": "Department of Public Works",
    "final_address": "900 BLK Navarre St",
    "address_councildis": "A",
    "status": "Assigned to Contractor",
    "contractor": "Legacy Professional Services",
    "rowid": "1127267",
    "final_x": "3669842.5192",
    "final_y": "543712.162691",
    "longitude": "-90.10446767014864",
    "latitude": "29.989368831875005",
    "geocoded_column": {
      "latitude": "29.989368831875005",
      "longitude": "-90.10446767014864"
    }
  },
  {
    "service_request": "2024-1127266",
    "request_type": "Trash/Recycling",
    "request_reason": "Request a Large Item Pick Up",
    "date_created": "2024-09-03T15:07:53.000",
    "date_modified": "2024-09-03T15:07:54.000",
    "request_status": "Pending",
    "responsible_agency": "Department of Sanitation",
    "final_address": "9743 W Rockton Cir",
    "address_councildis": "E",
    "status": "Assigned to Contractor",
    "contractor": "Waste Pro",
    "rowid": "1127266",
    "final_x": "3708009.57105",
    "final_y": "562542.67824",
    "longitude": "-89.98320917620073",
    "latitude": "30.039964771321085",
    "geocoded_column": {
      "latitude": "30.039964771321085",
      "longitude": "-89.98320917620073"
    }
  },
  {
    "service_request": "2024-1127265",
    "request_type": "Abandoned Vehicles",
    "request_reason": "Abandoned/Junk Vehicles",
    "date_created": "2024-09-03T15:06:22.000",
    "date_modified": "2024-09-03T15:09:16.000",
    "request_status": "Pending",
    "responsible_agency": "Department of Public Works",
    "final_address": "2535 St Philip St",
    "address_councildis": "D",
    "status": "Pending",
    "rowid": "1127265",
    "final_x": "3677993.14184",
    "final_y": "537440.444488",
    "longitude": "-90.07893906352678",
    "latitude": "29.97188090668525",
    "geocoded_column": {
      "latitude": "29.97188090668525",
      "longitude": "-90.07893906352678"
    }
  },
  {
    "service_request": "2024-1127263",
    "request_type": "Trash/Recycling",
    "request_reason": "Request a Large Item Pick Up",
    "date_created": "2024-09-03T15:04:39.000",
    "date_modified": "2024-09-03T15:05:48.000",
    "request_status": "Pending",
    "responsible_agency": "Department of Sanitation",
    "final_address": "14042 Linden St",
    "address_councildis": "E",
    "status": "Assigned to Contractor",
    "contractor": "Waste Pro",
    "rowid": "1127263",
    "final_x": "3718542.82386",
    "final_y": "572527.581609",
    "longitude": "-89.94954011504302",
    "latitude": "30.067073664328007",
    "geocoded_column": {
      "latitude": "30.067073664328007",
      "longitude": "-89.94954011504302"
    }
  },
  {
    "service_request": "2024-1127262",
    "request_type": "Trash/Recycling",
    "request_reason": "Repair Trash Cart",
    "date_created": "2024-09-03T15:02:34.000",
    "date_modified": "2024-09-03T15:02:35.000",
    "request_status": "Pending",
    "responsible_agency": "Department of Sanitation",
    "final_address": "6853 Mayo Rd Apt D",
    "address_councildis": "E",
    "status": "Assigned to Contractor",
    "contractor": "Waste Pro",
    "rowid": "1127262",
    "final_x": "3702102.55415",
    "final_y": "557594.496795",
    "longitude": "-90.00205876148013",
    "latitude": "30.02654925237004",
    "geocoded_column": {
      "latitude": "30.02654925237004",
      "longitude": "-90.00205876148013"
    }
  },
  {
    "service_request": "2024-1127261",
    "request_type": "Trash/Recycling",
    "request_reason": "Repair Trash Cart",
    "date_created": "2024-09-03T14:59:54.000",
    "date_modified": "2024-09-03T14:59:55.000",
    "request_status": "Pending",
    "responsible_agency": "Department of Sanitation",
    "final_address": "4920 Dreux Ave",
    "address_councildis": "D",
    "status": "Assigned to Contractor",
    "contractor": "IV Waste",
    "rowid": "1127261",
    "final_x": "3691561.03158",
    "final_y": "553143.933143",
    "longitude": "-90.03552796859951",
    "latitude": "30.01464441596726",
    "geocoded_column": {
      "latitude": "30.01464441596726",
      "longitude": "-90.03552796859951"
    }
  },
  {
    "service_request": "2024-1127260",
    "request_type": "Abandoned Vehicles",
    "request_reason": "Abandoned/Junk Vehicles",
    "date_created": "2024-09-03T14:57:47.000",
    "date_modified": "2024-09-03T14:57:47.000",
    "request_status": "Pending",
    "responsible_agency": "Department of Public Works",
    "final_address": "HAYNE BLVD & CURTIS DR",
    "address_councildis": "E",
    "status": "Inspected",
    "rowid": "1127260",
    "final_x": "3698059.2",
    "final_y": "561229.48",
    "longitude": "-90.01470305784038",
    "latitude": "30.036672606551214",
    "geocoded_column": {
      "latitude": "30.036672606551214",
      "longitude": "-90.01470305784038"
    }
  },
  {
    "service_request": "2024-1127259",
    "request_type": "Trash/Recycling",
    "request_reason": "Request a Large Item Pick Up",
    "date_created": "2024-09-03T14:56:43.000",
    "date_modified": "2024-09-03T14:56:44.000",
    "request_status": "Pending",
    "responsible_agency": "Department of Sanitation",
    "final_address": "3532 Elysian Fields Ave",
    "address_councildis": "D",
    "status": "Assigned to Contractor",
    "contractor": "IV Waste",
    "rowid": "1127259",
    "final_x": "3684134.6541",
    "final_y": "545787.984912",
    "longitude": "-90.0592500905706",
    "latitude": "29.994647404463972",
    "geocoded_column": {
      "latitude": "29.994647404463972",
      "longitude": "-90.0592500905706"
    }
  },
  {
    "service_request": "2024-1127258",
    "request_type": "Roads/Drainage",
    "request_reason": "Debris in Roadway",
    "date_created": "2024-09-03T14:54:51.000",
    "date_modified": "2024-09-03T14:54:51.000",
    "request_status": "Pending",
    "responsible_agency": "Department of Public Works",
    "final_address": "FRANKLIN AVE & PRENTISS AVE",
    "address_councildis": "D",
    "status": "Pending",
    "rowid": "1127258",
    "final_x": "3686542.6",
    "final_y": "554026.98",
    "longitude": "-90.05135251576947",
    "latitude": "30.017227804159862",
    "geocoded_column": {
      "latitude": "30.017227804159862",
      "longitude": "-90.05135251576947"
    }
  },
  {
    "service_request": "2024-1127257",
    "request_type": "Trash/Recycling",
    "request_reason": "Request a Large Item Pick Up",
    "date_created": "2024-09-03T14:54:02.000",
    "date_modified": "2024-09-03T14:54:03.000",
    "request_status": "Pending",
    "responsible_agency": "Department of Sanitation",
    "final_address": "2715 Philip St",
    "address_councildis": "B",
    "status": "Assigned to Contractor",
    "contractor": "IV Waste",
    "rowid": "1127257",
    "final_x": "3674921.13576",
    "final_y": "526769.322942",
    "longitude": "-90.08900693575457",
    "latitude": "29.942631004726373",
    "geocoded_column": {
      "latitude": "29.942631004726373",
      "longitude": "-90.08900693575457"
    }
  },
  {
    "service_request": "2024-1127256",
    "request_type": "Trash/Recycling",
    "request_reason": "Missed Trash Pick-Up",
    "date_created": "2024-09-03T14:51:00.000",
    "date_modified": "2024-09-03T15:45:38.000",
    "case_close_date": "2024-09-03T10:45:38.000",
    "request_status": "Closed",
    "responsible_agency": "Department of Sanitation",
    "final_address": "1828 Cambronne St",
    "address_councildis": "A",
    "status": "Invalid Request",
    "contractor": "IV Waste",
    "contractor_action": "Invalid",
    "rowid": "1127256",
    "final_x": "3662697.47789",
    "final_y": "530847.980354",
    "longitude": "-90.12746454042471",
    "latitude": "29.954205341945066",
    "geocoded_column": {
      "latitude": "29.954205341945066",
      "longitude": "-90.12746454042471"
    }
  },
  {
    "service_request": "2024-1127255",
    "request_type": "Trash/Recycling",
    "request_reason": "Request a Large Item Pick Up",
    "date_created": "2024-09-03T14:50:33.000",
    "date_modified": "2024-09-03T16:40:20.000",
    "request_status": "Pending",
    "responsible_agency": "Department of Sanitation",
    "final_address": "7401 Means Ave",
    "address_councildis": "E",
    "status": "Assigned to Contractor",
    "contractor": "Waste Pro",
    "rowid": "1127255",
    "final_x": "3708467.12203",
    "final_y": "564100.622049",
    "longitude": "-89.98170510602958",
    "latitude": "30.04423366369418",
    "geocoded_column": {
      "latitude": "30.04423366369418",
      "longitude": "-89.98170510602958"
    }
  },
  {
    "service_request": "2024-1127254",
    "request_type": "Roads/Drainage",
    "request_reason": "Pothole",
    "date_created": "2024-09-03T14:50:11.000",
    "date_modified": "2024-09-03T14:50:11.000",
    "request_status": "Pending",
    "responsible_agency": "Department of Public Works",
    "final_address": "2) 217 S. Solomon st.",
    "status": "Pending",
    "rowid": "1127254",
    "longitude": "0.0",
    "latitude": "0.0",
    "geocoded_column": {
      "latitude": "0.0",
      "longitude": "0.0"
    }
  },
  {
    "service_request": "2024-1127253",
    "request_type": "Trash/Recycling",
    "request_reason": "Request a Large Item Pick Up",
    "date_created": "2024-09-03T14:41:54.000",
    "date_modified": "2024-09-03T14:41:55.000",
    "request_status": "Pending",
    "responsible_agency": "Department of Sanitation",
    "final_address": "6020 N Miro St",
    "address_councildis": "E",
    "status": "Assigned to Contractor",
    "contractor": "Waste Pro",
    "rowid": "1127253",
    "final_x": "3700918.25444",
    "final_y": "537257.916552",
    "longitude": "-90.00654508450253",
    "latitude": "29.97066902605115",
    "geocoded_column": {
      "latitude": "29.97066902605115",
      "longitude": "-90.00654508450253"
    }
  },
  {
    "service_request": "2024-1127252",
    "request_type": "Abandoned Vehicles",
    "request_reason": "Abandoned/Junk Vehicles",
    "date_created": "2024-09-03T14:41:33.000",
    "date_modified": "2024-09-03T14:41:33.000",
    "request_status": "Pending",
    "responsible_agency": "Department of Public Works",
    "final_address": "4219 Dumaine St",
    "address_councildis": "A",
    "status": "Pending",
    "rowid": "1127252",
    "final_x": "3672278.91937",
    "final_y": "541266.74638",
    "longitude": "-90.09685512131438",
    "latitude": "29.982572705406657",
    "geocoded_column": {
      "latitude": "29.982572705406657",
      "longitude": "-90.09685512131438"
    }
  },
  {
    "service_request": "2024-1127251",
    "request_type": "Trash/Recycling",
    "request_reason": "Request a Large Item Pick Up",
    "date_created": "2024-09-03T14:37:27.000",
    "date_modified": "2024-09-03T14:37:28.000",
    "request_status": "Pending",
    "responsible_agency": "Department of Sanitation",
    "final_address": "11251 S Parkwood Ct",
    "address_councildis": "E",
    "status": "Assigned to Contractor",
    "contractor": "Waste Pro",
    "rowid": "1127251",
    "final_x": "3716809.82904",
    "final_y": "559174.723612",
    "longitude": "-89.95552590628999",
    "latitude": "30.03041620408868",
    "geocoded_column": {
      "latitude": "30.03041620408868",
      "longitude": "-89.95552590628999"
    }
  },
  {
    "service_request": "2024-1127250",
    "request_type": "Abandoned Vehicles",
    "request_reason": "Abandoned/Junk Vehicles",
    "date_created": "2024-09-03T14:36:40.000",
    "date_modified": "2024-09-03T14:36:40.000",
    "request_status": "Pending",
    "responsible_agency": "Department of Public Works",
    "final_address": "4219 Dumaine St",
    "address_councildis": "A",
    "status": "Pending",
    "rowid": "1127250",
    "final_x": "3672278.91937",
    "final_y": "541266.74638",
    "longitude": "-90.09685512131438",
    "latitude": "29.982572705406657",
    "geocoded_column": {
      "latitude": "29.982572705406657",
      "longitude": "-90.09685512131438"
    }
  },
  {
    "service_request": "2024-1127249",
    "request_type": "Trash/Recycling",
    "request_reason": "Request a Large Item Pick Up",
    "date_created": "2024-09-03T14:30:26.000",
    "date_modified": "2024-09-03T14:30:27.000",
    "request_status": "Pending",
    "responsible_agency": "Department of Sanitation",
    "final_address": "10139 Seawood St",
    "address_councildis": "E",
    "status": "Assigned to Contractor",
    "contractor": "Waste Pro",
    "rowid": "1127249",
    "final_x": "3712996.3955",
    "final_y": "557491.502747",
    "longitude": "-89.96763966987905",
    "latitude": "30.02591354504789",
    "geocoded_column": {
      "latitude": "30.02591354504789",
      "longitude": "-89.96763966987905"
    }
  },
  {
    "service_request": "2024-1127248",
    "request_type": "Trash/Recycling",
    "request_reason": "Request a Large Item Pick Up",
    "date_created": "2024-09-03T14:27:49.000",
    "date_modified": "2024-09-03T14:27:50.000",
    "request_status": "Pending",
    "responsible_agency": "Department of Sanitation",
    "final_address": "4846 Warren Dr",
    "address_councildis": "E",
    "status": "Assigned to Contractor",
    "contractor": "Waste Pro",
    "rowid": "1127248",
    "final_x": "3713329.30494",
    "final_y": "556826.516378",
    "longitude": "-89.9666127939708",
    "latitude": "30.02407418122198",
    "geocoded_column": {
      "latitude": "30.02407418122198",
      "longitude": "-89.9666127939708"
    }
  },
  {
    "service_request": "2024-1127247",
    "request_type": "Roads/Drainage",
    "request_reason": "Street Subsidence (Sinking)",
    "date_created": "2024-09-03T14:27:33.000",
    "date_modified": "2024-09-03T14:27:33.000",
    "request_status": "Pending",
    "responsible_agency": "Department of Public Works",
    "final_address": "3900 BLK Hollygrove St",
    "address_councildis": "A",
    "status": "Pending",
    "rowid": "1127247",
    "final_x": "3666192.61673",
    "final_y": "537739.522734",
    "longitude": "-90.11619710333784",
    "latitude": "29.97305320942453",
    "geocoded_column": {
      "latitude": "29.97305320942453",
      "longitude": "-90.11619710333784"
    }
  },
  {
    "service_request": "2024-1127246",
    "request_type": "Abandoned Vehicles",
    "request_reason": "Abandoned/Junk Vehicles",
    "date_created": "2024-09-03T14:26:39.000",
    "date_modified": "2024-09-03T14:26:39.000",
    "request_status": "Pending",
    "responsible_agency": "Department of Public Works",
    "final_address": "736 Third St",
    "address_councildis": "B",
    "status": "Pending",
    "rowid": "1127246",
    "final_x": "3678182.20046",
    "final_y": "520150.07276",
    "longitude": "-90.07893977528884",
    "latitude": "29.924332459959427",
    "geocoded_column": {
      "latitude": "29.924332459959427",
      "longitude": "-90.07893977528884"
    }
  },
  {
    "service_request": "2024-1127245",
    "request_type": "Abandoned Vehicles",
    "request_reason": "Abandoned/Junk Vehicles",
    "date_created": "2024-09-03T14:24:33.000",
    "date_modified": "2024-09-03T14:24:33.000",
    "request_status": "Pending",
    "responsible_agency": "Department of Public Works",
    "final_address": "226 S Scott St",
    "address_councildis": "A",
    "status": "Pending",
    "rowid": "1127245",
    "final_x": "3671413.20097",
    "final_y": "537274.195784",
    "longitude": "-90.09972526049519",
    "latitude": "29.971620204464692",
    "geocoded_column": {
      "latitude": "29.971620204464692",
      "longitude": "-90.09972526049519"
    }
  },
  {
    "service_request": "2024-1127244",
    "request_type": "Property Maintenance",
    "request_reason": "Property Maintenance",
    "date_created": "2024-09-03T14:22:18.000",
    "date_modified": "2024-09-03T14:22:19.000",
    "request_status": "Pending",
    "responsible_agency": "Department of Code Enforcement",
    "final_address": "2126 Pleasure St",
    "address_councildis": "D",
    "status": "Pending",
    "rowid": "1127244",
    "final_x": "3683749.60853",
    "final_y": "545049.995919",
    "longitude": "-90.06049229733298",
    "latitude": "29.992629964321477",
    "geocoded_column": {
      "latitude": "29.992629964321477",
      "longitude": "-90.06049229733298"
    }
  },
  {
    "service_request": "2024-1127243",
    "request_type": "Trash/Recycling",
    "request_reason": "Request a Large Item Pick Up",
    "date_created": "2024-09-03T14:21:28.000",
    "date_modified": "2024-09-03T14:21:29.000",
    "request_status": "Pending",
    "responsible_agency": "Department of Sanitation",
    "final_address": "1453 N Dorgenois St",
    "address_councildis": "D",
    "status": "Assigned to Contractor",
    "contractor": "IV Waste",
    "rowid": "1127243",
    "final_x": "3678991.46792",
    "final_y": "539123.080138",
    "longitude": "-90.07572786781746",
    "latitude": "29.97647748651307",
    "geocoded_column": {
      "latitude": "29.97647748651307",
      "longitude": "-90.07572786781746"
    }
  },
  {
    "service_request": "2024-1127242",
    "request_type": "Trash/Recycling",
    "request_reason": "Request a Large Item Pick Up",
    "date_created": "2024-09-03T14:21:20.000",
    "date_modified": "2024-09-03T14:21:21.000",
    "request_status": "Pending",
    "responsible_agency": "Department of Sanitation",
    "final_address": "4449 Woodland Dr",
    "address_councildis": "C",
    "status": "Assigned to Contractor",
    "contractor": "Richards Disposal",
    "rowid": "1127242",
    "final_x": "3705445.01879",
    "final_y": "513656.422514",
    "longitude": "-89.99312093424625",
    "latitude": "29.905628353450297",
    "geocoded_column": {
      "latitude": "29.905628353450297",
      "longitude": "-89.99312093424625"
    }
  },
  {
    "service_request": "2024-1127241",
    "request_type": "Abandoned Vehicles",
    "request_reason": "Abandoned/Junk Vehicles",
    "date_created": "2024-09-03T14:21:02.000",
    "date_modified": "2024-09-03T14:23:34.000",
    "request_status": "Pending",
    "responsible_agency": "Department of Public Works",
    "final_address": "2401 Seventh St",
    "address_councildis": "B",
    "status": "Pending",
    "rowid": "1127241",
    "final_x": "3673655.96072",
    "final_y": "524583.851196",
    "longitude": "-90.09307608078532",
    "latitude": "29.93665938880822",
    "geocoded_column": {
      "latitude": "29.93665938880822",
      "longitude": "-90.09307608078532"
    }
  },
  {
    "service_request": "2024-1127240",
    "request_type": "Trash/Recycling",
    "request_reason": "Order Trash Cart",
    "date_created": "2024-09-03T14:19:25.000",
    "date_modified": "2024-09-03T14:19:26.000",
    "request_status": "Pending",
    "responsible_agency": "Department of Sanitation",
    "final_address": "1618 N Dorgenois St",
    "address_councildis": "D",
    "status": "Assigned to Contractor",
    "contractor": "IV Waste",
    "rowid": "1127240",
    "final_x": "3679692.986",
    "final_y": "539922.874314",
    "longitude": "-90.07348448760935",
    "latitude": "29.978655454134092",
    "geocoded_column": {
      "latitude": "29.978655454134092",
      "longitude": "-90.07348448760935"
    }
  },