[
  {
    "service_request": "2023-1021703",
    "request_type": "Traffic Signals/Signs/Striping/Streetlights",
    "request_reason": "Street Light Outage/Malfunction",
    "date_created": "2023-07-29T00:57:59.000",
    "date_modified": "2023-07-29T00:57:59.000",
    "request_status": "Pending",
    "responsible_agency": "Department of Public Works",
    "final_address": "BEHRMAN HWY & TULLIS DR",
    "address_councildis": "C",
    "status": "Assigned to Contractor",
    "contractor": "Legacy Professional Services",
    "rowid": "1021703",
    "final_x": "3697481.2",
    "final_y": "514235.98",
    "longitude": "-90.01823411181259",
    "latitude": "29.90747566580172",
    "geocoded_column": {
      "latitude": "29.90747566580172",
      "longitude": "-90.01823411181259"
    }
  },
  {
    "service_request": "2023-1021702",
    "request_type": "Traffic Signals/Signs/Striping/Streetlights",
    "request_reason": "Street Light Outage/Malfunction",
    "date_created": "2023-07-29T00:22:18.000",
    "date_modified": "2023-07-29T00:22:19.000",
    "request_status": "Pending",
    "responsible_agency": "Department of Public Works",
    "final_address": "5551 Milne St",
    "address_councildis": "A",
    "status": "Assigned to Contractor",
    "contractor": "Legacy Professional Services",
    "rowid": "1021702",
    "final_x": "3666775.40154",
    "final_y": "544017.854798",
    "longitude": "-90.11414557352033",
    "latitude": "29.990299470321233",
    "geocoded_column": {
      "latitude": "29.990299470321233",
      "longitude": "-90.11414557352033"
    }
  },
  {
    "service_request": "2023-1021701",
    "request_type": "Roads/Drainage",
    "request_reason": "Street Subsidence (Sinking)",
    "date_created": "2023-07-29T00:22:09.000",
    "date_modified": "2023-07-29T00:22:09.000",
    "request_status": "Pending",
    "responsible_agency": "Department of Public Works",
    "status": "Pending",
    "rowid": "1021701",
    "longitude": "0.0",
    "latitude": "0.0",
    "geocoded_column": {
      "latitude": "0.0",
      "longitude": "0.0"
    }
  },
  {
    "service_request": "2023-1021700",
    "request_type": "Property Maintenance",
    "request_reason": "Property Maintenance",
    "date_created": "2023-07-29T00:20:05.000",
    "date_modified": "2023-07-29T00:20:05.000",
    "request_status": "Pending",
    "responsible_agency": "Department of Code Enforcement",
    "status": "Pending",
    "rowid": "1021700",
    "longitude": "0.0",
    "latitude": "0.0",
    "geocoded_column": {
      "latitude": "0.0",
      "longitude": "0.0"
    }
  },
  {
    "service_request": "2023-1021699",
    "request_type": "Property Maintenance",
    "request_reason": "Property Maintenance",
    "date_created": "2023-07-29T00:18:25.000",
    "date_modified": "2023-07-29T00:18:25.000",
    "request_status": "Pending",
    "responsible_agency": "Department of Code Enforcement",
    "final_address": "3113 N Derbigny St",
    "address_councildis": "D",
    "status": "Pending",
    "rowid": "1021699",
    "final_x": "3689740.78582",
    "final_y": "538246.844169",
    "longitude": "-90.0418095566294",
    "latitude": "29.97373937016249",
    "geocoded_column": {
      "latitude": "29.97373937016249",
      "longitude": "-90.0418095566294"
    }
  },
  {
    "service_request": "2023-1021698",
    "request_type": "Property Maintenance",
    "request_reason": "Property Maintenance",
    "date_created": "2023-07-29T00:17:45.000",
    "date_modified": "2023-07-29T00:17:45.000",
    "request_status": "Pending",
    "responsible_agency": "Department of Code Enforcement",
    "status": "Pending",
    "rowid": "1021698",
    "longitude": "0.0",
    "latitude": "0.0",
    "geocoded_column": {
      "latitude": "0.0",
      "longitude": "0.0"
    }
  },
  {
    "service_request": "2023-1021697",
    "request_type": "Roads/Drainage",
    "request_reason": "Debris in Roadway",
    "date_created": "2023-07-29T00:16:06.000",
    "date_modified": "2023-07-29T00:16:06.000",
    "request_status": "Pending",
    "responsible_agency": "Department of Public Works",
    "final_address": "3015 N Claiborne Ave",
    "address_councildis": "D",
    "status": "Pending",
    "rowid": "1021697",
    "final_x": "3689032.88329",
    "final_y": "538034.169929",
    "longitude": "-90.04405281741319",
    "latitude": "29.973176511618792",
    "geocoded_column": {
      "latitude": "29.973176511618792",
      "longitude": "-90.04405281741319"
    }
  },
  {
    "service_request": "2023-1021696",
    "request_type": "Roads/Drainage",
    "request_reason": "Debris in Roadway",
    "date_created": "2023-07-29T00:12:42.000",
    "date_modified": "2023-07-29T00:12:42.000",
    "request_status": "Pending",
    "responsible_agency": "Department of Public Works",
    "final_address": "1400 BLK Feliciana St",
    "address_councildis": "C",
    "status": "Pending",
    "rowid": "1021696",
    "final_x": "3689050.40336",
    "final_y": "537335.896244",
    "longitude": "-90.04402229979392",
    "latitude": "29.971255962709318",
    "geocoded_column": {
      "latitude": "29.971255962709318",
      "longitude": "-90.04402229979392"
    }
  },
  {
    "service_request": "2023-1021695",
    "request_type": "Roads/Drainage",
    "request_reason": "Pothole",
    "date_created": "2023-07-28T23:56:43.000",
    "date_modified": "2023-07-28T23:56:43.000",
    "request_status": "Pending",
    "responsible_agency": "Department of Public Works",
    "final_address": "1579 Henry Clay Ave",
    "address_councildis": "A",
    "status": "Pending",
    "rowid": "1021695",
    "final_x": "3665125.97453",
    "final_y": "522693.49369",
    "longitude": "-90.12006892685164",
    "latitude": "29.931712623369517",
    "geocoded_column": {
      "latitude": "29.931712623369517",
      "longitude": "-90.12006892685164"
    }
  },
  {
    "service_request": "2023-1021694",
    "request_type": "Roads/Drainage",
    "request_reason": "Road Shoulder Repair",
    "date_created": "2023-07-28T23:10:36.000",
    "date_modified": "2023-07-28T23:10:36.000",
    "request_status": "Pending",
    "responsible_agency": "Department of Public Works",
    "final_address": "1110 Marengo St",
    "address_councildis": "B",
    "status": "Pending",
    "rowid": "1021694",
    "final_x": "3672024.80711",
    "final_y": "519735.74412",
    "longitude": "-90.09839067460052",
    "latitude": "29.92337710066283",
    "geocoded_column": {
      "latitude": "29.92337710066283",
      "longitude": "-90.09839067460052"
    }
  },
  {
    "service_request": "2023-1021693",
    "request_type": "Roads/Drainage",
    "request_reason": "Pothole",
    "date_created": "2023-07-28T23:09:02.000",
    "date_modified": "2023-07-28T23:09:02.000",
    "request_status": "Pending",
    "responsible_agency": "Department of Public Works",
    "final_address": "3430 Coliseum St",
    "address_councildis": "B",
    "status": "Pending",
    "rowid": "1021693",
    "final_x": "3674364.17492",
    "final_y": "520427.713272",
    "longitude": "-90.090982476753",
    "latitude": "29.925210258964285",
    "geocoded_column": {
      "latitude": "29.925210258964285",
      "longitude": "-90.090982476753"
    }
  },
  {
    "service_request": "2023-1021692",
    "request_type": "Trash/Recycling",
    "request_reason": "Repair Trash Cart",
    "date_created": "2023-07-28T23:08:00.000",
    "date_modified": "2023-07-28T23:08:00.000",
    "request_status": "Pending",
    "responsible_agency": "Department of Sanitation",
    "final_address": "6038 Stratford Pl",
    "address_councildis": "C",
    "status": "Assigned to Contractor",
    "contractor": "Richards Disposal",
    "rowid": "1021692",
    "final_x": "3706226.3274",
    "final_y": "516245.19378",
    "longitude": "-89.9905593508636",
    "latitude": "29.912721434248297",
    "geocoded_column": {
      "latitude": "29.912721434248297",
      "longitude": "-89.9905593508636"
    }
  },
  {
    "service_request": "2023-1021691",
    "request_type": "Roads/Drainage",
    "request_reason": "Ditch Issue",
    "date_created": "2023-07-28T22:23:46.000",
    "date_modified": "2023-07-28T22:23:46.000",
    "request_status": "Pending",
    "responsible_agency": "Department of Public Works",
    "final_address": "3430 Coliseum St",
    "address_councildis": "B",
    "status": "Pending",
    "rowid": "1021691",
    "final_x": "3674364.17492",
    "final_y": "520427.713272",
    "longitude": "-90.090982476753",
    "latitude": "29.925210258964285",
    "geocoded_column": {
      "latitude": "29.925210258964285",
      "longitude": "-90.090982476753"
    }
  },
  {
    "service_request": "2023-1021690",
    "request_type": "Trash/Recycling",
    "request_reason": "Request a Large Item Pick Up",
    "date_created": "2023-07-28T22:16:55.000",
    "date_modified": "2023-07-28T22:16:55.000",
    "request_status": "Pending",
    "responsible_agency": "Department of Sanitation",
    "final_address": "919 Fourth St",
    "address_councildis": "B",
    "status": "Assigned to Contractor",
    "contractor": "Richards Disposal",
    "rowid": "1021690",
    "final_x": "3677664.15278",
    "final_y": "520534.55564",
    "longitude": "-90.08056180400247",
    "latitude": "29.925405247045102",
    "geocoded_column": {
      "latitude": "29.925405247045102",
      "longitude": "-90.08056180400247"
    }
  },
  {
    "service_request": "2023-1021689",
    "request_type": "Traffic Signals/Signs/Striping/Streetlights",
    "request_reason": "Street Light Outage/Malfunction",
    "date_created": "2023-07-28T22:06:36.000",
    "date_modified": "2023-07-28T22:06:37.000",
    "request_status": "Pending",
    "responsible_agency": "Department of Public Works",
    "final_address": "980 Lane St",
    "address_councildis": "A",
    "status": "Assigned to Contractor",
    "contractor": "Legacy Professional Services",
    "rowid": "1021689",
    "final_x": "3671130.7346",
    "final_y": "550437.709844",
    "longitude": "-90.10016992820773",
    "latitude": "30.007823696416043",
    "geocoded_column": {
      "latitude": "30.007823696416043",
      "longitude": "-90.10016992820773"
    }
  },
  {
    "service_request": "2023-1021688",
    "request_type": "Safety & Permits",
    "request_reason": "Licenses & Permits",
    "date_created": "2023-07-28T21:32:50.000",
    "date_modified": "2023-07-28T21:32:50.000",
    "request_status": "Pending",
    "responsible_agency": "Safety and Permits",
    "final_address": "520 Chartres St",
    "address_councildis": "C",
    "status": "Pending",
    "rowid": "1021688",
    "final_x": "3682511.09749",
    "final_y": "531775.745027",
    "longitude": "-90.064868703256",
    "latitude": "29.956168156586347",
    "geocoded_column": {
      "latitude": "29.956168156586347",
      "longitude": "-90.064868703256"
    }
  },
  {
    "service_request": "2023-1021687",
    "request_type": "Trash/Recycling",
    "request_reason": "Illegal Dumping",
    "date_created": "2023-07-28T21:29:22.000",
    "date_modified": "2023-07-28T21:29:22.000",
    "request_status": "Pending",
    "responsible_agency": "Department of Sanitation",
    "final_address": "1400 BLK Lafreniere St",
    "address_councildis": "D",
    "status": "Pending",
    "rowid": "1021687",
    "final_x": "3678864.41192",
    "final_y": "545075.307931",
    "longitude": "-90.07592285540798",
    "latitude": "29.992847872775286",
    "geocoded_column": {
      "latitude": "29.992847872775286",
      "longitude": "-90.07592285540798"
    }
  },
  {
    "service_request": "2023-1021686",
    "request_type": "Trash/Recycling",
    "request_reason": "Replace Trash Cart",
    "date_created": "2023-07-28T21:13:44.000",
    "date_modified": "2023-07-28T21:13:44.000",
    "request_status": "Pending",
    "responsible_agency": "Department of Sanitation",
    "final_address": "2434 Delachaise St",
    "address_councildis": "B",
    "status": "Assigned to Contractor",
    "contractor": "Richards Disposal",
    "rowid": "1021686",
    "final_x": "3672551.60199",
    "final_y": "524243.640956",
    "longitude": "-90.09657418968915",
    "latitude": "29.935756743234176",
    "geocoded_column": {
      "latitude": "29.935756743234176",
      "longitude": "-90.09657418968915"
    }
  },
  {
    "service_request": "2023-1021685",
    "request_type": "Traffic Signals/Signs/Striping/Streetlights",
    "request_reason": "Street Light Outage/Malfunction",
    "date_created": "2023-07-28T21:09:58.000",
    "date_modified": "2023-07-28T21:09:59.000",
    "request_status": "Pending",
    "responsible_agency": "Department of Public Works",
    "final_address": "WAVERLY DR & BULLARD AVE",
    "address_councildis": "E",
    "status": "Assigned to Contractor",
    "contractor": "Legacy Professional Services",
    "rowid": "1021685",
    "final_x": "3718066.6",
    "final_y": "560636.68",
    "longitude": "-89.95149883113162",
    "latitude": "30.034394382853606",
    "geocoded_column": {
      "latitude": "30.034394382853606",
      "longitude": "-89.95149883113162"
    }
  },
  {
    "service_request": "2023-1021684",
    "request_type": "Traffic Signals/Signs/Striping/Streetlights",
    "request_reason": "Street Light Outage/Malfunction",
    "date_created": "2023-07-28T20:46:31.000",
    "date_modified": "2023-07-28T20:46:32.000",
    "request_status": "Pending",
    "responsible_agency": "Department of Public Works",
    "final_address": "2500 BLK Lapeyrouse St",
    "address_councildis": "D",
    "status": "Assigned to Contractor",
    "contractor": "Legacy Professional Services",
    "rowid": "1021684",
    "final_x": "3679236.45219",
    "final_y": "540047.921004",
    "longitude": "-90.07492205415079",
    "latitude": "29.979013083423148",
    "geocoded_column": {
      "latitude": "29.979013083423148",
      "longitude": "-90.07492205415079"
    }
  },
  {
    "service_request": "2023-1021683",
    "request_type": "Traffic Signals/Signs/Striping/Streetlights",
    "request_reason": "Street Light Outage/Malfunction",
    "date_created": "2023-07-28T20:29:58.000",
    "date_modified": "2023-07-28T20:29:59.000",
    "request_status": "Pending",
    "responsible_agency": "Department of Public Works",
    "final_address": "0 BLK Camellia Trce",
    "address_councildis": "C",
    "status": "Assigned to Contractor",
    "contractor": "Legacy Professional Services",
    "rowid": "1021683",
    "final_x": "3697162.68602",
    "final_y": "523554.016984",
    "longitude": "-90.0189020169267",
    "latitude": "29.933107152105695",
    "geocoded_column": {
      "latitude": "29.933107152105695",
      "longitude": "-90.0189020169267"
    }
  },
  {
    "service_request": "2023-1021682",
    "request_type": "Property Maintenance",
    "request_reason": "Property Maintenance",
    "date_created": "2023-07-28T19:51:49.000",
    "date_modified": "2023-07-28T19:51:49.000",
    "request_status": "Pending",
    "responsible_agency": "Department of Code Enforcement",
    "status": "Pending",
    "rowid": "1021682",
    "longitude": "0.0",
    "latitude": "0.0",
    "geocoded_column": {
      "latitude": "0.0",
      "longitude": "0.0"
    }
  },
  {
    "service_request": "2023-1021681",
    "request_type": "Trash/Recycling",
    "request_reason": "Request a Large Item Pick Up",
    "date_created": "2023-07-28T19:34:39.000",
    "date_modified": "2023-07-28T19:34:40.000",
    "request_status": "Pending",
    "responsible_agency": "Department of Sanitation",
    "final_address": "623 Egania St",
    "address_councildis": "E",
    "status": "Assigned to Contractor",
    "contractor": "Waste Pro",
    "rowid": "1021681",
    "final_x": "3696388.05399",
    "final_y": "532380.035971",
    "longitude": "-90.0210283546438",
    "latitude": "29.957400044605542",
    "geocoded_column": {
      "latitude": "29.957400044605542",
      "longitude": "-90.0210283546438"
    }
  },
  {
    "service_request": "2023-1021680",
    "request_type": "Roads/Drainage",
    "request_reason": "Catch Basin - Clogged",
    "date_created": "2023-07-28T19:32:22.000",
    "date_modified": "2023-07-28T19:32:22.000",
    "request_status": "Pending",
    "responsible_agency": "Department of Public Works",
    "final_address": "4133 S Carrollton Ave",
    "address_councildis": "A",
    "status": "Pending",
    "rowid": "1021680",
    "final_x": "3669296.41102",
    "final_y": "536637.131911",
    "longitude": "-90.1064319636555",
    "latitude": "29.969930985210816",
    "geocoded_column": {
      "latitude": "29.969930985210816",
      "longitude": "-90.1064319636555"
    }
  },
  {
    "service_request": "2023-1021679",
    "request_type": "Property Maintenance",
    "request_reason": "Property Maintenance",
    "date_created": "2023-07-28T19:22:27.000",
    "date_modified": "2023-07-28T19:22:27.000",
    "request_status": "Pending",
    "responsible_agency": "Department of Code Enforcement",
    "final_address": "714 Seventh St",
    "address_councildis": "B",
    "status": "Pending",
    "rowid": "1021679",
    "final_x": "3677095.29851",
    "final_y": "519210.183287",
    "longitude": "-90.08240314119541",
    "latitude": "29.92178074075092",
    "geocoded_column": {
      "latitude": "29.92178074075092",
      "longitude": "-90.08240314119541"
    }
  },
  {
    "service_request": "2023-1021678",
    "request_type": "Trash/Recycling",
    "request_reason": "Dead Animal Pick Up",
    "date_created": "2023-07-28T19:16:33.000",
    "date_modified": "2023-07-28T19:16:34.000",
    "request_status": "Pending",
    "responsible_agency": "Department of Sanitation",
    "final_address": "3021 Annunciation St",
    "address_councildis": "B",
    "status": "Assigned to Contractor",
    "contractor": "Richards Disposal",
    "rowid": "1021678",
    "final_x": "3676792.11835",
    "final_y": "519383.183287",
    "longitude": "-90.08335419516564",
    "latitude": "29.92226553246649",
    "geocoded_column": {
      "latitude": "29.92226553246649",
      "longitude": "-90.08335419516564"
    }
  },
  {
    "service_request": "2023-1021677",
    "request_type": "Trash/Recycling",
    "request_reason": "Request a Large Item Pick Up",
    "date_created": "2023-07-28T18:59:27.000",
    "date_modified": "2023-07-28T18:59:27.000",
    "request_status": "Pending",
    "responsible_agency": "Department of Sanitation",
    "final_address": "1519 Governor Nicholls St, New Orleans, Louisiana, 70116",
    "address_councildis": "C",
    "status": "Assigned to Contractor",
    "contractor": "Richards Disposal",
    "rowid": "1021677",
    "final_x": "3681367.60706",
    "final_y": "535836.836423",
    "longitude": "-90.06833788560158",
    "latitude": "29.967369528873355",
    "geocoded_column": {
      "latitude": "29.967369528873355",
      "longitude": "-90.06833788560158"
    }
  },
  {
    "service_request": "2023-1021676",
    "request_type": "Trash/Recycling",
    "request_reason": "Illegal Dumping",
    "date_created": "2023-07-28T18:10:07.000",
    "date_modified": "2023-07-28T18:10:07.000",
    "request_status": "Pending",
    "responsible_agency": "Department of Sanitation",
    "final_address": "2200 BLK Humanity St",
    "address_councildis": "D",
    "status": "Pending",
    "rowid": "1021676",
    "final_x": "3684915.01563",
    "final_y": "544819.835673",
    "longitude": "-90.05681909740292",
    "latitude": "29.99196145797308",
    "geocoded_column": {
      "latitude": "29.99196145797308",
      "longitude": "-90.05681909740292"
    }
  },
  {
    "service_request": "2023-1021675",
    "request_type": "Trash/Recycling",
    "request_reason": "Request a Large Item Pick Up",
    "date_created": "2023-07-28T18:00:23.000",
    "date_modified": "2023-07-28T18:00:24.000",
    "request_status": "Pending",
    "responsible_agency": "Department of Sanitation",
    "final_address": "2439 Danbury Dr",
    "address_councildis": "C",
    "status": "Assigned to Contractor",
    "contractor": "Richards Disposal",
    "rowid": "1021675",
    "final_x": "3703716.08023",
    "final_y": "522008.38553",
    "longitude": "-89.99827040933401",
    "latitude": "29.928648869006345",
    "geocoded_column": {
      "latitude": "29.928648869006345",
      "longitude": "-89.99827040933401"
    }
  },
  {
    "service_request": "2023-1021674",
    "request_type": "Trash/Recycling",
    "request_reason": "Missed Trash Pick-Up",
    "date_created": "2023-07-28T17:52:45.000",
    "date_modified": "2023-07-28T17:52:46.000",
    "request_status": "Pending",
    "responsible_agency": "Department of Sanitation",
    "final_address": "7601 Dogwood Dr",
    "address_councildis": "E",
    "status": "Assigned to Contractor",
    "contractor": "Waste Pro",
    "rowid": "1021674",
    "final_x": "3701390.5505",
    "final_y": "560966.267806",
    "longitude": "-90.0041850103556",
    "latitude": "30.035843042257614",
    "geocoded_column": {
      "latitude": "30.035843042257614",
      "longitude": "-90.0041850103556"
    }
  },
  {
    "service_request": "2023-1021673",
    "request_type": "Trash/Recycling",
    "request_reason": "MIssed Recycling Pick-Up",
    "date_created": "2023-07-28T17:44:28.000",
    "date_modified": "2023-07-28T17:44:28.000",
    "request_status": "Pending",
    "responsible_agency": "Department of Sanitation",
    "final_address": "5023 Prytania St",
    "address_councildis": "B",
    "status": "Assigned to Contractor",
    "contractor": "Richards Disposal",
    "rowid": "1021673",
    "final_x": "3668498.03169",
    "final_y": "520195.830264",
    "longitude": "-90.10950790231975",
    "latitude": "29.924746236566715",
    "geocoded_column": {
      "latitude": "29.924746236566715",
      "longitude": "-90.10950790231975"
    }
  },
  {
    "service_request": "2023-1021672",
    "request_type": "Abandoned Vehicles",
    "request_reason": "Abandoned/Junk Vehicles",
    "date_created": "2023-07-28T17:37:52.000",
    "date_modified": "2023-07-28T17:37:52.000",
    "request_status": "Pending",
    "responsible_agency": "Department of Public Works",
    "final_address": "2529 Lincoln Ct",
    "address_councildis": "D",
    "status": "Pending",
    "rowid": "1021672",
    "final_x": "3682883.34952",
    "final_y": "541555.114508",
    "longitude": "-90.06335100387574",
    "latitude": "29.983046705070592",
    "geocoded_column": {
      "latitude": "29.983046705070592",
      "longitude": "-90.06335100387574"
    }
  },
  {
    "service_request": "2023-1021670",
    "request_type": "Trash/Recycling",
    "request_reason": "MIssed Recycling Pick-Up",
    "date_created": "2023-07-28T17:24:38.000",
    "date_modified": "2023-07-28T17:24:39.000",
    "request_status": "Pending",
    "responsible_agency": "Department of Sanitation",
    "final_address": "1023 Dufossat St",
    "address_councildis": "B",
    "status": "Assigned to Contractor",
    "contractor": "Richards Disposal",
    "rowid": "1021670",
    "final_x": "3668147.42925",
    "final_y": "519194.491511",
    "longitude": "-90.11064837000087",
    "latitude": "29.92200316354626",
    "geocoded_column": {
      "latitude": "29.92200316354626",
      "longitude": "-90.11064837000087"
    }
  },
  {
    "service_request": "2023-1021669",
    "request_type": "Roads/Drainage",
    "request_reason": "Street Subsidence (Sinking)",
    "date_created": "2023-07-28T17:11:44.000",
    "date_modified": "2023-07-28T17:11:45.000",
    "request_status": "Pending",
    "responsible_agency": "Department of Public Works",
    "final_address": "BUNDY RD & I 10 E SERVICE RD",
    "address_councildis": "E",
    "status": "Pending",
    "rowid": "1021669",
    "final_x": "3707412.6",
    "final_y": "560003.18",
    "longitude": "-89.98519020141723",
    "latitude": "30.033001482370505",
    "geocoded_column": {
      "latitude": "30.033001482370505",
      "longitude": "-89.98519020141723"
    }
  },
  {
    "service_request": "2023-1021668",
    "request_type": "Trash/Recycling",
    "request_reason": "Missed Trash Pick-Up",
    "date_created": "2023-07-28T17:05:15.000",
    "date_modified": "2023-07-28T17:05:16.000",
    "request_status": "Pending",
    "responsible_agency": "Department of Sanitation",
    "final_address": "5019 Piety Dr",
    "address_councildis": "D",
    "status": "Assigned to Contractor",
    "contractor": "IV Waste",
    "rowid": "1021668",
    "final_x": "3691316.14851",
    "final_y": "552574.491606",
    "longitude": "-90.03632204203515",
    "latitude": "30.0130862872447",
    "geocoded_column": {
      "latitude": "30.0130862872447",
      "longitude": "-90.03632204203515"
    }
  },
  {
    "service_request": "2023-1021667",
    "request_type": "Trash/Recycling",
    "request_reason": "Missed Trash Pick-Up",
    "date_created": "2023-07-28T17:03:40.000",
    "date_modified": "2023-07-28T17:03:41.000",
    "request_status": "Pending",
    "responsible_agency": "Department of Sanitation",
    "final_address": "2820 Palmyra St",
    "address_councildis": "B",
    "status": "Assigned to Contractor",
    "contractor": "Richards Disposal",
    "rowid": "1021667",
    "final_x": "3674212.31668",
    "final_y": "534878.76583",
    "longitude": "-90.09096724353456",
    "latitude": "29.964950423365845",
    "geocoded_column": {
      "latitude": "29.964950423365845",
      "longitude": "-90.09096724353456"
    }
  },
  {
    "service_request": "2023-1021666",
    "request_type": "Trash/Recycling",
    "request_reason": "Missed Trash Pick-Up",
    "date_created": "2023-07-28T17:02:16.000",
    "date_modified": "2023-07-28T17:02:17.000",
    "request_status": "Pending",
    "responsible_agency": "Department of Sanitation",
    "final_address": "6059 Airway St",
    "address_councildis": "D",
    "status": "Assigned to Contractor",
    "contractor": "Waste Pro",
    "rowid": "1021666",
    "final_x": "3696767.91626",
    "final_y": "552678.834006",
    "longitude": "-90.01909369494551",
    "latitude": "30.013202382417344",
    "geocoded_column": {
      "latitude": "30.013202382417344",
      "longitude": "-90.01909369494551"
    }
  },
  {
    "service_request": "2023-1021665",
    "request_type": "Traffic Signals/Signs/Striping/Streetlights",
    "request_reason": "Street Light Outage/Malfunction",
    "date_created": "2023-07-28T17:00:09.000",
    "date_modified": "2023-07-28T17:00:10.000",
    "request_status": "Pending",
    "responsible_agency": "Department of Public Works",
    "final_address": "2203 Esplanade Ave",
    "address_councildis": "D",
    "status": "Assigned to Contractor",
    "contractor": "Legacy Professional Services",
    "rowid": "1021665",
    "final_x": "3679582.64303",
    "final_y": "537986.188041",
    "longitude": "-90.07390022344131",
    "latitude": "29.973333571505414",
    "geocoded_column": {
      "latitude": "29.973333571505414",
      "longitude": "-90.07390022344131"
    }
  },
  {
    "service_request": "2023-1021664",
    "request_type": "Property Maintenance",
    "request_reason": "Property Maintenance",
    "date_created": "2023-07-28T16:56:03.000",
    "date_modified": "2023-07-28T16:56:03.000",
    "request_status": "Pending",
    "responsible_agency": "Department of Code Enforcement",
    "status": "Pending",
    "rowid": "1021664",
    "longitude": "0.0",
    "latitude": "0.0",
    "geocoded_column": {
      "latitude": "0.0",
      "longitude": "0.0"
    }
  },
  {
    "service_request": "2023-1021663",
    "request_type": "Trash/Recycling",
    "request_reason": "Order Recycling Cart",
    "date_created": "2023-07-28T16:52:03.000",
    "date_modified": "2023-07-28T16:52:03.000",
    "request_status": "Pending",
    "responsible_agency": "Department of Sanitation",
    "final_address": "5490 S Eastover Dr",
    "address_councildis": "E",
    "status": "Pending",
    "rowid": "1021663",
    "final_x": "3719820.97996",
    "final_y": "561409.71875",
    "longitude": "-89.94592524036057",
    "latitude": "30.03646163495566",
    "geocoded_column": {
      "latitude": "30.03646163495566",
      "longitude": "-89.94592524036057"
    }
  },
  {
    "service_request": "2023-1021662",
    "request_type": "Traffic Signals/Signs/Striping/Streetlights",
    "request_reason": "Street Light Outage/Malfunction",
    "date_created": "2023-07-28T16:51:50.000",
    "date_modified": "2023-07-28T16:51:51.000",
    "request_status": "Pending",
    "responsible_agency": "Department of Public Works",
    "final_address": "7724 Nelson St",
    "address_councildis": "A",
    "status": "Assigned to Contractor",
    "contractor": "Legacy Professional Services",
    "rowid": "1021662",
    "final_x": "3666014.62183",
    "final_y": "530969.338754",
    "longitude": "-90.11698622085756",
    "latitude": "29.954442632351967",
    "geocoded_column": {
      "latitude": "29.954442632351967",
      "longitude": "-90.11698622085756"
    }
  },
  {
    "service_request": "2023-1021661",
    "request_type": "Trash/Recycling",
    "request_reason": "Order Recycling Cart",
    "date_created": "2023-07-28T16:50:41.000",
    "date_modified": "2023-07-28T16:50:41.000",
    "request_status": "Pending",
    "responsible_agency": "Department of Sanitation",
    "final_address": "7801 Haney Dr",
    "address_councildis": "E",
    "status": "Pending",
    "rowid": "1021661",
    "final_x": "3712318.41291",
    "final_y": "567764.826276",
    "longitude": "-89.9693955733758",
    "latitude": "30.05418326292344",
    "geocoded_column": {
      "latitude": "30.05418326292344",
      "longitude": "-89.9693955733758"
    }
  },
  {
    "service_request": "2023-1021660",
    "request_type": "Trash/Recycling",
    "request_reason": "Order Trash Cart",
    "date_created": "2023-07-28T16:50:05.000",
    "date_modified": "2023-07-28T16:50:06.000",
    "request_status": "Pending",
    "responsible_agency": "Department of Sanitation",
    "final_address": "7801 Haney Dr",
    "address_councildis": "E",
    "status": "Assigned to Contractor",
    "contractor": "Waste Pro",
    "rowid": "1021660",
    "final_x": "3712318.41291",
    "final_y": "567764.826276",
    "longitude": "-89.9693955733758",
    "latitude": "30.05418326292344",
    "geocoded_column": {
      "latitude": "30.05418326292344",
      "longitude": "-89.9693955733758"
    }
  },
  {
    "service_request": "2023-1021659",
    "request_type": "Trash/Recycling",
    "request_reason": "Request a Large Item Pick Up",
    "date_created": "2023-07-28T16:45:40.000",
    "date_modified": "2023-07-28T16:45:40.000",
    "request_status": "Pending",
    "responsible_agency": "Department of Sanitation",
    "final_address": "5418 Vicksburg St",
    "address_councildis": "A",
    "status": "Assigned to Contractor",
    "contractor": "IV Waste",
    "rowid": "1021659",
    "final_x": "3668564.67329",
    "final_y": "543034.148365",
    "longitude": "-90.108526922736",
    "latitude": "29.98754214437079",
    "geocoded_column": {
      "latitude": "29.98754214437079",
      "longitude": "-90.108526922736"
    }
  },
  {
    "service_request": "2023-1021658",
    "request_type": "Trash/Recycling",
    "request_reason": "MIssed Recycling Pick-Up",
    "date_created": "2023-07-28T16:45:04.000",
    "date_modified": "2023-07-28T16:45:04.000",
    "request_status": "Pending",
    "responsible_agency": "Department of Sanitation",
    "final_address": "1408 Peniston St",
    "address_councildis": "B",
    "status": "Assigned to Contractor",
    "contractor": "Richards Disposal",
    "rowid": "1021658",
    "final_x": "3672963.21825",
    "final_y": "520630.58508",
    "longitude": "-90.09539794090338",
    "latitude": "29.925809783318766",
    "geocoded_column": {
      "latitude": "29.925809783318766",
      "longitude": "-90.09539794090338"
    }
  },
  {
    "service_request": "2023-1021657",
    "request_type": "Trash/Recycling",
    "request_reason": "Request a Large Item Pick Up",
    "date_created": "2023-07-28T16:44:47.000",
    "date_modified": "2023-07-28T16:44:47.000",
    "request_status": "Pending",
    "responsible_agency": "Department of Sanitation",
    "final_address": "4484 Music St",
    "address_councildis": "D",
    "status": "Assigned to Contractor",
    "contractor": "IV Waste",
    "rowid": "1021657",
    "final_x": "3685629.58383",
    "final_y": "549462.970963",
    "longitude": "-90.05439822498066",
    "latitude": "30.004706501501275",
    "geocoded_column": {
      "latitude": "30.004706501501275",
      "longitude": "-90.05439822498066"
    }
  },
  {
    "service_request": "2023-1021656",
    "request_type": "Trash/Recycling",
    "request_reason": "Replace Trash Cart",
    "date_created": "2023-07-28T16:40:42.000",
    "date_modified": "2023-07-28T16:40:43.000",
    "request_status": "Pending",
    "responsible_agency": "Department of Sanitation",
    "final_address": "1318 Nashville Ave",
    "address_councildis": "A",
    "status": "Assigned to Contractor",
    "contractor": "Richards Disposal",
    "rowid": "1021656",
    "final_x": "3665867.84429",
    "final_y": "520841.413625",
    "longitude": "-90.11778894303781",
    "latitude": "29.926598369111478",
    "geocoded_column": {
      "latitude": "29.926598369111478",
      "longitude": "-90.11778894303781"
    }
  },
  {
    "service_request": "2023-1021655",
    "request_type": "Trash/Recycling",
    "request_reason": "Repair Recycling Cart",
    "date_created": "2023-07-28T16:31:00.000",
    "date_modified": "2023-07-28T16:31:01.000",
    "request_status": "Pending",
    "responsible_agency": "Department of Sanitation",
    "final_address": "2536 State St",
    "address_councildis": "A",
    "status": "Pending",
    "rowid": "1021655",
    "final_x": "3666845.40141",
    "final_y": "526049.44691",
    "longitude": "-90.11452817953138",
    "latitude": "29.940890248728984",
    "geocoded_column": {
      "latitude": "29.940890248728984",
      "longitude": "-90.11452817953138"
    }
  },
  {
    "service_request": "2023-1021654",
    "request_type": "Trash/Recycling",
    "request_reason": "Order Recycling Cart",
    "date_created": "2023-07-28T16:30:14.000",
    "date_modified": "2023-07-28T16:30:14.000",
    "request_status": "Pending",
    "responsible_agency": "Department of Sanitation",
    "status": "Pending",
    "rowid": "1021654",
    "longitude": "0.0",
    "latitude": "0.0",
    "geocoded_column": {
      "latitude": "0.0",
      "longitude": "0.0"
    }
  },
  {
    "service_request": "2023-1021653",
    "request_type": "Trash/Recycling",
    "request_reason": "Repair Trash Cart",
    "date_created": "2023-07-28T16:27:49.000",
    "date_modified": "2023-07-28T16:27:50.000",
    "request_status": "Pending",
    "responsible_agency": "Department of Sanitation",
    "final_address": "16180 Chef Menteur Hwy",
    "address_councildis": "E",
    "status": "Assigned to Contractor",
    "contractor": "Waste Pro",
    "rowid": "1021653",
    "final_x": "3737728.77754",
    "final_y": "565149.457826",
    "longitude": "-89.88918507528953",
    "latitude": "30.046135964417584",
    "geocoded_column": {
      "latitude": "30.046135964417584",
      "longitude": "-89.88918507528953"
    }
  },
  {
    "service_request": "2023-1021652",
    "request_type": "Trash/Recycling",
    "request_reason": "Return Recycling Cart",
    "date_created": "2023-07-28T16:24:22.000",
    "date_modified": "2023-07-28T16:24:22.000",
    "request_status": "Pending",
    "responsible_agency": "Department of Sanitation",
    "final_address": "1528 Harmony St",
    "address_councildis": "B",
    "status": "Pending",
    "rowid": "1021652",
    "final_x": "3674953.61685",
    "final_y": "521579.146745",
    "longitude": "-90.08908232491245",
    "latitude": "29.92835874308816",
    "geocoded_column": {
      "latitude": "29.92835874308816",
      "longitude": "-90.08908232491245"
    }
  },
  {
    "service_request": "2023-1021651",
    "request_type": "Trash/Recycling",
    "request_reason": "Request a Large Item Pick Up",
    "date_created": "2023-07-28T16:22:01.000",
    "date_modified": "2023-07-28T16:22:02.000",
    "request_status": "Pending",
    "responsible_agency": "Department of Sanitation",
    "final_address": "2317 Second St",
    "address_councildis": "B",
    "status": "Assigned to Contractor",
    "contractor": "Richards Disposal",
    "rowid": "1021651",
    "final_x": "3675264.54805",
    "final_y": "525275.213885",
    "longitude": "-90.08797397144585",
    "latitude": "29.938512436527837",
    "geocoded_column": {
      "latitude": "29.938512436527837",
      "longitude": "-90.08797397144585"
    }
  },
  {
    "service_request": "2023-1021650",
    "request_type": "Roads/Drainage",
    "request_reason": "Leaking Hydrant",
    "date_created": "2023-07-28T16:21:12.000",
    "date_modified": "2023-07-28T16:24:26.000",
    "request_status": "Pending",
    "responsible_agency": "Department of Public Works",
    "final_address": "7700 Ebbtide and Ebbtide and Curran",
    "address_councildis": "E",
    "status": "Pending",
    "rowid": "1021650",
    "final_x": "3702069.08631",
    "final_y": "561628.533087",
    "longitude": "-90.00201641099058",
    "latitude": "30.03764235370126",
    "geocoded_column": {
      "latitude": "30.03764235370126",
      "longitude": "-90.00201641099058"
    }
  },
  {
    "service_request": "2023-1021649",
    "request_type": "Parks & Parkways",
    "request_reason": "Request Tree Service (Right of Way/Public Property)",
    "date_created": "2023-07-28T16:16:37.000",
    "date_modified": "2023-07-28T16:16:38.000",
    "request_status": "Pending",
    "responsible_agency": "Department of Parks & Parkway",
    "final_address": "5800 Canal Blvd",
    "address_councildis": "A",
    "status": "Pending",
    "rowid": "1021649",
    "final_x": "3668224.89261",
    "final_y": "546060.446608",
    "longitude": "-90.10949807889433",
    "latitude": "29.99587341005522",
    "geocoded_column": {
      "latitude": "29.99587341005522",
      "longitude": "-90.10949807889433"
    }
  },
  {
    "service_request": "2023-1021648",
    "request_type": "Trash/Recycling",
    "request_reason": "Request a Large Item Pick Up",
    "date_created": "2023-07-28T16:16:35.000",
    "date_modified": "2023-07-28T16:16:35.000",
    "request_status": "Pending",
    "responsible_agency": "Department of Sanitation",
    "final_address": "5210 De Montluzin St",
    "address_councildis": "D",
    "status": "Assigned to Contractor",
    "contractor": "IV Waste",
    "rowid": "1021648",
    "final_x": "3686947.94908",
    "final_y": "552405.02383",
    "longitude": "-90.05012917084312",
    "latitude": "30.012755545423722",
    "geocoded_column": {
      "latitude": "30.012755545423722",
      "longitude": "-90.05012917084312"
    }
  },
  {
    "service_request": "2023-1021647",
    "request_type": "Roads/Drainage",
    "request_reason": "Catch Basin - Clogged",
    "date_created": "2023-07-28T16:13:32.000",
    "date_modified": "2023-07-28T16:13:32.000",
    "request_status": "Pending",
    "responsible_agency": "Department of Public Works",
    "final_address": "3127 Martin Luther King, Jr. Blvd",
    "address_councildis": "B",
    "status": "Pending",
    "rowid": "1021647",
    "final_x": "3674610.52782",
    "final_y": "528548.446272",
    "longitude": "-90.08992664475367",
    "latitude": "29.947532278911957",
    "geocoded_column": {
      "latitude": "29.947532278911957",
      "longitude": "-90.08992664475367"
    }
  },
  {
    "service_request": "2023-1021646",
    "request_type": "Trash/Recycling",
    "request_reason": "Replace Trash Cart",
    "date_created": "2023-07-28T16:10:48.000",
    "date_modified": "2023-07-28T16:10:48.000",
    "request_status": "Pending",
    "responsible_agency": "Department of Sanitation",
    "final_address": "2814 Orleans Ave, New Orleans, Louisiana, 70119",
    "address_councildis": "A",
    "status": "Assigned to Contractor",
    "contractor": "Richards Disposal",
    "rowid": "1021646",
    "final_x": "3676174.58209",
    "final_y": "537395.622472",
    "longitude": "-90.08468391114884",
    "latitude": "29.971812277523174",
    "geocoded_column": {
      "latitude": "29.971812277523174",
      "longitude": "-90.08468391114884"
    }
  },
  {
    "service_request": "2023-1021645",
    "request_type": "Roads/Drainage",
    "request_reason": "Pothole",
    "date_created": "2023-07-28T16:09:59.000",
    "date_modified": "2023-07-28T16:09:59.000",
    "request_status": "Pending",
    "responsible_agency": "Department of Public Works",
    "final_address": "1426 S Derbigny St",
    "address_councildis": "B",
    "status": "Pending",
    "rowid": "1021645",
    "final_x": "3674859.41877",
    "final_y": "528423.939904",
    "longitude": "-90.08914506700175",
    "latitude": "29.947182498801222",
    "geocoded_column": {
      "latitude": "29.947182498801222",
      "longitude": "-90.08914506700175"
    }
  },
  {
    "service_request": "2023-1021644",
    "request_type": "Trash/Recycling",
    "request_reason": "Request a Large Item Pick Up",
    "date_created": "2023-07-28T16:08:22.000",
    "date_modified": "2023-07-28T16:08:22.000",
    "request_status": "Pending",
    "responsible_agency": "Department of Sanitation",
    "final_address": "13026 Laval St",
    "address_councildis": "E",
    "status": "Assigned to Contractor",
    "contractor": "Waste Pro",
    "rowid": "1021644",
    "final_x": "3723818.83411",
    "final_y": "562361.092319",
    "longitude": "-89.93325465065008",
    "latitude": "30.038943815142815",
    "geocoded_column": {
      "latitude": "30.038943815142815",
      "longitude": "-89.93325465065008"
    }
  },
  {
    "service_request": "2023-1021643",
    "request_type": "Trash/Recycling",
    "request_reason": "Order Recycling Cart",
    "date_created": "2023-07-28T16:08:13.000",
    "date_modified": "2023-07-28T16:08:13.000",
    "request_status": "Pending",
    "responsible_agency": "Department of Sanitation",
    "final_address": "1033 Montegut St",
    "address_councildis": "C",
    "status": "Pending",
    "rowid": "1021643",
    "final_x": "3688423.53692",
    "final_y": "535976.119687",
    "longitude": "-90.04605026989805",
    "latitude": "29.967536433529038",
    "geocoded_column": {
      "latitude": "29.967536433529038",
      "longitude": "-90.04605026989805"
    }
  },
  {
    "service_request": "2023-1021642",
    "request_type": "Traffic Signals/Signs/Striping/Streetlights",
    "request_reason": "Additional signage",
    "date_created": "2023-07-28T16:02:14.000",
    "date_modified": "2023-07-28T16:02:14.000",
    "request_status": "Pending",
    "responsible_agency": "Department of Public Works",
    "final_address": "1323 S Derbigny St",
    "address_councildis": "B",
    "status": "Pending",
    "rowid": "1021642",
    "final_x": "3674920.98037",
    "final_y": "528685.855808",
    "longitude": "-90.08894171264667",
    "latitude": "29.947900842776853",
    "geocoded_column": {
      "latitude": "29.947900842776853",
      "longitude": "-90.08894171264667"
    }
  },
  {
    "service_request": "2023-1021641",
    "request_type": "Property Maintenance",
    "request_reason": "Property Maintenance",
    "date_created": "2023-07-28T15:58:35.000",
    "date_modified": "2023-07-28T15:58:36.000",
    "request_status": "Pending",
    "responsible_agency": "Department of Code Enforcement",
    "final_address": "8526 Edinburgh St",
    "address_councildis": "A",
    "status": "Pending",
    "rowid": "1021641",
    "final_x": "3666217.23917",
    "final_y": "535533.89287",
    "longitude": "-90.11619333320854",
    "latitude": "29.966987740804008",
    "geocoded_column": {
      "latitude": "29.966987740804008",
      "longitude": "-90.11619333320854"
    }
  },
  {
    "service_request": "2023-1021640",
    "request_type": "Trash/Recycling",
    "request_reason": "Return Trash Cart",
    "date_created": "2023-07-28T15:57:29.000",
    "date_modified": "2023-07-28T15:57:30.000",
    "request_status": "Pending",
    "responsible_agency": "Department of Sanitation",
    "final_address": "4624 Prytania St",
    "address_councildis": "B",
    "status": "Assigned to Contractor",
    "contractor": "Richards Disposal",
    "rowid": "1021640",
    "final_x": "3669958.3131",
    "final_y": "520149.32556",
    "longitude": "-90.10489984088076",
    "latitude": "29.924575396857495",
    "geocoded_column": {
      "latitude": "29.924575396857495",
      "longitude": "-90.10489984088076"
    }
  },
  {
    "service_request": "2023-1021639",
    "request_type": "Property Maintenance",
    "request_reason": "Property Maintenance",
    "date_created": "2023-07-28T15:54:51.000",
    "date_modified": "2023-07-28T15:54:51.000",
    "request_status": "Pending",
    "responsible_agency": "Department of Code Enforcement",
    "final_address": "6929 Virgilian St",
    "address_councildis": "D",
    "status": "Pending",
    "rowid": "1021639",
    "final_x": "3696992.31946",
    "final_y": "556647.003546",
    "longitude": "-90.01824081280056",
    "latitude": "30.02410626890233",
    "geocoded_column": {
      "latitude": "30.02410626890233",
      "longitude": "-90.01824081280056"
    }
  },
  {
    "service_request": "2023-1021638",
    "request_type": "Roads/Drainage",
    "request_reason": "Catch Basin - Clogged",
    "date_created": "2023-07-28T15:54:38.000",
    "date_modified": "2023-07-28T15:54:38.000",
    "request_status": "Pending",
    "responsible_agency": "Department of Public Works",
    "final_address": "1323 S Derbigny St",
    "address_councildis": "B",
    "status": "Pending",
    "rowid": "1021638",
    "final_x": "3674920.98037",
    "final_y": "528685.855808",
    "longitude": "-90.08894171264667",
    "latitude": "29.947900842776853",
    "geocoded_column": {
      "latitude": "29.947900842776853",
      "longitude": "-90.08894171264667"
    }
  },
  {
    "service_request": "2023-1021637",
    "request_type": "Trash/Recycling",
    "request_reason": "MIssed Recycling Pick-Up",
    "date_created": "2023-07-28T15:54:12.000",
    "date_modified": "2023-07-28T15:54:13.000",
    "request_status": "Pending",
    "responsible_agency": "Department of Sanitation",
    "final_address": "7610 Expedition Dr",
    "address_councildis": "E",
    "status": "Assigned to Contractor",
    "contractor": "Waste Pro",
    "rowid": "1021637",
    "final_x": "3725959.43635",
    "final_y": "571231.51748",
    "longitude": "-89.92614557699355",
    "latitude": "30.06326167688581",
    "geocoded_column": {
      "latitude": "30.06326167688581",
      "longitude": "-89.92614557699355"
    }
  },
  {
    "service_request": "2023-1021636",
    "request_type": "Traffic Signals/Signs/Striping/Streetlights",
    "request_reason": "Traffic Sign Missing/Damaged",
    "date_created": "2023-07-28T15:52:35.000",
    "date_modified": "2023-07-28T15:52:35.000",
    "request_status": "Pending",
    "responsible_agency": "Department of Public Works",
    "final_address": "SAGE ST & FRANKLIN AVE",
    "address_councildis": "D",
    "status": "Pending",
    "rowid": "1021636",
    "final_x": "3687228.5",
    "final_y": "545489.98",
    "longitude": "-90.04948757646946",
    "latitude": "29.993733044429558",
    "geocoded_column": {
      "latitude": "29.993733044429558",
      "longitude": "-90.04948757646946"
    }
  },
  {
    "service_request": "2023-1021635",
    "request_type": "Trash/Recycling",
    "request_reason": "Replace Trash Cart",
    "date_created": "2023-07-28T15:52:26.000",
    "date_modified": "2023-07-28T15:52:27.000",
    "request_status": "Pending",
    "responsible_agency": "Department of Sanitation",
    "final_address": "7212 Maple St",
    "address_councildis": "A",
    "status": "Assigned to Contractor",
    "contractor": "Richards Disposal",
    "rowid": "1021635",
    "final_x": "3663278.04563",
    "final_y": "525345.915837",
    "longitude": "-90.12581441673446",
    "latitude": "29.93905961695891",
    "geocoded_column": {
      "latitude": "29.93905961695891",
      "longitude": "-90.12581441673446"
    }
  },
  {
    "service_request": "2023-1021634",
    "request_type": "Trash/Recycling",
    "request_reason": "Missed Trash Pick-Up",
    "date_created": "2023-07-28T15:52:13.000",
    "date_modified": "2023-07-28T15:52:14.000",
    "request_status": "Pending",
    "responsible_agency": "Department of Sanitation",
    "final_address": "2641 Dumaine St",
    "address_councildis": "D",
    "status": "Assigned to Contractor",
    "contractor": "Richards Disposal",
    "rowid": "1021634",
    "final_x": "3677352.76827",
    "final_y": "537417.819528",
    "longitude": "-90.0809622468126",
    "latitude": "29.97183795646141",
    "geocoded_column": {
      "latitude": "29.97183795646141",
      "longitude": "-90.0809622468126"
    }
  },
  {
    "service_request": "2023-1021633",
    "request_type": "Traffic Signals/Signs/Striping/Streetlights",
    "request_reason": "Traffic Sign Missing/Damaged",
    "date_created": "2023-07-28T15:51:10.000",
    "date_modified": "2023-07-28T15:51:11.000",
    "request_status": "Pending",
    "responsible_agency": "Department of Public Works",
    "final_address": "SAGE ST & FRANKLIN AVE",
    "address_councildis": "D",
    "status": "Pending",
    "rowid": "1021633",
    "final_x": "3687228.5",
    "final_y": "545489.98",
    "longitude": "-90.04948757646946",
    "latitude": "29.993733044429558",
    "geocoded_column": {
      "latitude": "29.993733044429558",
      "longitude": "-90.04948757646946"
    }
  },
  {
    "service_request": "2023-1021632",
    "request_type": "Parks & Parkways",
    "request_reason": "Request Tree Service (Right of Way/Public Property)",
    "date_created": "2023-07-28T15:48:58.000",
    "date_modified": "2023-07-28T15:48:58.000",
    "request_status": "Pending",
    "responsible_agency": "Department of Parks & Parkway",
    "final_address": "9018 Dixon St",
    "address_councildis": "A",
    "status": "Pending",
    "rowid": "1021632",
    "final_x": "3665939.64589",
    "final_y": "537678.788552",
    "longitude": "-90.11699807398419",
    "latitude": "29.972893596870545",
    "geocoded_column": {
      "latitude": "29.972893596870545",
      "longitude": "-90.11699807398419"
    }
  },
  {
    "service_request": "2023-1021631",
    "request_type": "Traffic Signals/Signs/Striping/Streetlights",
    "request_reason": "Street Light Outage/Malfunction",
    "date_created": "2023-07-28T15:48:55.000",
    "date_modified": "2023-07-28T15:48:56.000",
    "request_status": "Pending",
    "responsible_agency": "Department of Public Works",
    "final_address": "1 New Basin Way",
    "address_councildis": "A",
    "status": "Assigned to Contractor",
    "contractor": "Legacy Professional Services",
    "rowid": "1021631",
    "final_x": "3666760.90196",
    "final_y": "554152.871",
    "longitude": "-90.11385065966033",
    "latitude": "30.01816767558739",
    "geocoded_column": {
      "latitude": "30.01816767558739",
      "longitude": "-90.11385065966033"
    }
  },
  {
    "service_request": "2023-1021629",
    "request_type": "Trash/Recycling",
    "request_reason": "Repair Trash Cart",
    "date_created": "2023-07-28T15:41:05.000",
    "date_modified": "2023-07-28T15:41:06.000",
    "request_status": "Pending",
    "responsible_agency": "Department of Sanitation",
    "final_address": "5116 Wentworth Dr",
    "address_councildis": "E",
    "status": "Assigned to Contractor",
    "contractor": "Waste Pro",
    "rowid": "1021629",
    "final_x": "3704783.30705",
    "final_y": "556705.806746",
    "longitude": "-89.99362077849887",
    "latitude": "30.024019787553648",
    "geocoded_column": {
      "latitude": "30.024019787553648",
      "longitude": "-89.99362077849887"
    }
  },
  {
    "service_request": "2023-1021628",
    "request_type": "Trash/Recycling",
    "request_reason": "Request a Large Item Pick Up",
    "date_created": "2023-07-28T15:27:12.000",
    "date_modified": "2023-07-28T15:27:13.000",
    "request_status": "Pending",
    "responsible_agency": "Department of Sanitation",
    "final_address": "800 Crystal St",
    "address_councildis": "D",
    "status": "Assigned to Contractor",
    "contractor": "IV Waste",
    "rowid": "1021628",
    "final_x": "3670405.58254",
    "final_y": "556141.845402",
    "longitude": "-90.10226729009332",
    "latitude": "30.023529485688933",
    "geocoded_column": {
      "latitude": "30.023529485688933",
      "longitude": "-90.10226729009332"
    }
  },
  {
    "service_request": "2023-1021627",
    "request_type": "Trash/Recycling",
    "request_reason": "Missed Trash Pick-Up",
    "date_created": "2023-07-28T15:22:51.000",
    "date_modified": "2023-07-28T15:22:51.000",
    "request_status": "Pending",
    "responsible_agency": "Department of Sanitation",
    "final_address": "4872 Desire Dr",
    "address_councildis": "D",
    "status": "Assigned to Contractor",
    "contractor": "IV Waste",
    "rowid": "1021627",
    "final_x": "3691668.25161",
    "final_y": "551793.311638",
    "longitude": "-90.0352375501108",
    "latitude": "30.010927368379775",
    "geocoded_column": {
      "latitude": "30.010927368379775",
      "longitude": "-90.0352375501108"
    }
  },
  {
    "service_request": "2023-1021626",
    "request_type": "Trash/Recycling",
    "request_reason": "Order Recycling Cart",
    "date_created": "2023-07-28T15:05:37.000",
    "date_modified": "2023-07-28T15:05:37.000",
    "request_status": "Pending",
    "responsible_agency": "Department of Sanitation",
    "final_address": "18 Wax Myrtle Pl",
    "address_councildis": "C",
    "status": "Pending",
    "rowid": "1021626",
    "final_x": "3715973.68856",
    "final_y": "517932.39519",
    "longitude": "-89.95973040062252",
    "latitude": "29.917042958063735",
    "geocoded_column": {
      "latitude": "29.917042958063735",
      "longitude": "-89.95973040062252"
    }
  },
  {
    "service_request": "2023-1021625",
    "request_type": "Property Maintenance",
    "request_reason": "Property Maintenance",
    "date_created": "2023-07-28T15:03:27.000",
    "date_modified": "2023-07-28T15:03:27.000",
    "request_status": "Pending",
    "responsible_agency": "Department of Code Enforcement",
    "final_address": "4000 BLK Hollygrove St",
    "address_councildis": "A",
    "status": "Pending",
    "rowid": "1021625",
    "final_x": "3666428.24421",
    "final_y": "537998.262702",
    "longitude": "-90.11544425751342",
    "latitude": "29.97375777380837",
    "geocoded_column": {
      "latitude": "29.97375777380837",
      "longitude": "-90.11544425751342"
    }
  },
  {
    "service_request": "2023-1021624",
    "request_type": "Trash/Recycling",
    "request_reason": "Replace Trash Cart",
    "date_created": "2023-07-28T15:02:59.000",
    "date_modified": "2023-07-28T15:03:00.000",
    "request_status": "Pending",
    "responsible_agency": "Department of Sanitation",
    "final_address": "4414 Eden St",
    "address_councildis": "B",
    "status": "Assigned to Contractor",
    "contractor": "Richards Disposal",
    "rowid": "1021624",
    "final_x": "3669837.52871",
    "final_y": "530656.051394",
    "longitude": "-90.1049255563034",
    "latitude": "29.953469056113963",
    "geocoded_column": {
      "latitude": "29.953469056113963",
      "longitude": "-90.1049255563034"
    }
  },
  {
    "service_request": "2023-1021623",
    "request_type": "Trash/Recycling",
    "request_reason": "Replace Trash Cart",
    "date_created": "2023-07-28T15:01:16.000",
    "date_modified": "2023-07-28T15:01:16.000",
    "request_status": "Pending",
    "responsible_agency": "Department of Sanitation",
    "final_address": "4307 Woodland Dr",
    "address_councildis": "C",
    "status": "Assigned to Contractor",
    "contractor": "Richards Disposal",
    "rowid": "1021623",
    "final_x": "3705281.50814",
    "final_y": "514660.448755",
    "longitude": "-89.99359993031122",
    "latitude": "29.908394339941307",
    "geocoded_column": {
      "latitude": "29.908394339941307",
      "longitude": "-89.99359993031122"
    }
  },
  {
    "service_request": "2023-1021622",
    "request_type": "Trash/Recycling",
    "request_reason": "Request a Large Item Pick Up",
    "date_created": "2023-07-28T14:58:58.000",
    "date_modified": "2023-07-28T14:58:59.000",
    "request_status": "Pending",
    "responsible_agency": "Department of Sanitation",
    "final_address": "1426 Milan St",
    "address_councildis": "B",
    "status": "Assigned to Contractor",
    "contractor": "Richards Disposal",
    "rowid": "1021622",
    "final_x": "3671573.04615",
    "final_y": "520604.071992",
    "longitude": "-90.09978720943855",
    "latitude": "29.925778105119285",
    "geocoded_column": {
      "latitude": "29.925778105119285",
      "longitude": "-90.09978720943855"
    }
  },
  {
    "service_request": "2023-1021621",
    "request_type": "Roads/Drainage",
    "request_reason": "Pothole",
    "date_created": "2023-07-28T14:57:11.000",
    "date_modified": "2023-07-28T14:57:12.000",
    "request_status": "Pending",
    "responsible_agency": "Department of Public Works",
    "final_address": "4900 BLK Loyola Ave",
    "address_councildis": "B",
    "status": "Pending",
    "rowid": "1021621",
    "final_x": "3668954.58594",
    "final_y": "522849.812356",
    "longitude": "-90.10797711685551",
    "latitude": "29.93203042550474",
    "geocoded_column": {
      "latitude": "29.93203042550474",
      "longitude": "-90.10797711685551"
    }
  },
  {
    "service_request": "2023-1021620",
    "request_type": "Trash/Recycling",
    "request_reason": "Missed Trash Pick-Up",
    "date_created": "2023-07-28T14:57:11.000",
    "date_modified": "2023-07-28T14:57:12.000",
    "request_status": "Pending",
    "responsible_agency": "Department of Sanitation",
    "final_address": "117 Decatur St",
    "address_councildis": "C",
    "status": "Assigned to Contractor",
    "contractor": "Empire Services",
    "rowid": "1021620",
    "final_x": "3681898.97314",
    "final_y": "530397.65325",
    "longitude": "-90.06684968009122",
    "latitude": "29.952397489700672",
    "geocoded_column": {
      "latitude": "29.952397489700672",
      "longitude": "-90.06684968009122"
    }
  },
  {
    "service_request": "2023-1021619",
    "request_type": "Trash/Recycling",
    "request_reason": "MIssed Recycling Pick-Up",
    "date_created": "2023-07-28T14:51:51.000",
    "date_modified": "2023-07-28T14:53:33.000",
    "request_status": "Pending",
    "responsible_agency": "Department of Sanitation",
    "final_address": "7724 Michigan St",
    "address_councildis": "E",
    "status": "Assigned to Contractor",
    "contractor": "Waste Pro",
    "rowid": "1021619",
    "final_x": "3711406.89323",
    "final_y": "567007.971556",
    "longitude": "-89.9723050590839",
    "latitude": "30.052132022374142",
    "geocoded_column": {
      "latitude": "30.052132022374142",
      "longitude": "-89.9723050590839"
    }
  },
  {
    "service_request": "2023-1021618",
    "request_type": "Traffic Signals/Signs/Striping/Streetlights",
    "request_reason": "Traffic Sign Missing/Damaged",
    "date_created": "2023-07-28T14:50:18.000",
    "date_modified": "2023-07-28T14:50:18.000",
    "request_status": "Pending",
    "responsible_agency": "Department of Public Works",
    "final_address": "LAKE FOREST BLVD & WRIGHT RD",
    "address_councildis": "E",
    "status": "Pending",
    "rowid": "1021618",
    "final_x": "3714954.0",
    "final_y": "560822.88",
    "longitude": "-89.96132792080115",
    "latitude": "30.03500920221173",
    "geocoded_column": {
      "latitude": "30.03500920221173",
      "longitude": "-89.96132792080115"
    }
  },
  {
    "service_request": "2023-1021617",
    "request_type": "Trash/Recycling",
    "request_reason": "Request a Large Item Pick Up",
    "date_created": "2023-07-28T14:50:02.000",
    "date_modified": "2023-07-28T16:18:40.000",
    "request_status": "Pending",
    "responsible_agency": "Department of Sanitation",
    "final_address": "5320 bundy road nola, 70127",
    "address_councildis": "E",
    "status": "Assigned to Contractor",
    "contractor": "Waste Pro",
    "rowid": "1021617",
    "final_x": "3708577.13022",
    "final_y": "557690.348699",
    "longitude": "-89.98159643069414",
    "latitude": "30.026604381113792",
    "geocoded_column": {
      "latitude": "30.026604381113792",
      "longitude": "-89.98159643069414"
    }
  },
  {
    "service_request": "2023-1021616",
    "request_type": "Trash/Recycling",
    "request_reason": "MIssed Recycling Pick-Up",
    "date_created": "2023-07-28T14:49:29.000",
    "date_modified": "2023-07-28T14:49:29.000",
    "request_status": "Pending",
    "responsible_agency": "Department of Sanitation",
    "final_address": "4646 Donna Dr",
    "address_councildis": "E",
    "status": "Assigned to Contractor",
    "contractor": "Waste Pro",
    "rowid": "1021616",
    "final_x": "3710978.98891",
    "final_y": "555411.736153",
    "longitude": "-89.97409230475408",
    "latitude": "30.02026096337242",
    "geocoded_column": {
      "latitude": "30.02026096337242",
      "longitude": "-89.97409230475408"
    }
  },
  {
    "service_request": "2023-1021615",
    "request_type": "Trash/Recycling",
    "request_reason": "Request a Large Item Pick Up",
    "date_created": "2023-07-28T14:45:08.000",
    "date_modified": "2023-07-28T14:45:09.000",
    "request_status": "Pending",
    "responsible_agency": "Department of Sanitation",
    "final_address": "1439 Euterpe St",
    "address_councildis": "B",
    "status": "Assigned to Contractor",
    "contractor": "Richards Disposal",
    "rowid": "1021615",
    "final_x": "3679451.9092",
    "final_y": "524690.983548",
    "longitude": "-90.07477430269608",
    "latitude": "29.936780193422173",
    "geocoded_column": {
      "latitude": "29.936780193422173",
      "longitude": "-90.07477430269608"
    }
  },
  {
    "service_request": "2023-1021614",
    "request_type": "Abandoned Vehicles",
    "request_reason": "Abandoned/Junk Vehicles",
    "date_created": "2023-07-28T14:44:15.000",
    "date_modified": "2023-07-28T14:44:15.000",
    "request_status": "Pending",
    "responsible_agency": "Department of Public Works",
    "final_address": "2836 Paris Ave",
    "address_councildis": "D",
    "status": "Pending",
    "rowid": "1021614",
    "final_x": "3679799.86863",
    "final_y": "542884.751693",
    "longitude": "-90.0730440216723",
    "latitude": "29.986796353228836",
    "geocoded_column": {
      "latitude": "29.986796353228836",
      "longitude": "-90.0730440216723"
    }
  },
  {
    "service_request": "2023-1021613",
    "request_type": "Trash/Recycling",
    "request_reason": "Repair Recycling Cart",
    "date_created": "2023-07-28T14:43:34.000",
    "date_modified": "2023-07-28T14:43:34.000",
    "request_status": "Pending",
    "responsible_agency": "Department of Sanitation",
    "final_address": "3033 Octavia St",
    "address_councildis": "A",
    "status": "Pending",
    "rowid": "1021613",
    "final_x": "3668257.89978",
    "final_y": "526832.833214",
    "longitude": "-90.11004225173377",
    "latitude": "29.943002920147734",
    "geocoded_column": {
      "latitude": "29.943002920147734",
      "longitude": "-90.11004225173377"
    }
  },
  {
    "service_request": "2023-1021612",
    "request_type": "Property Maintenance",
    "request_reason": "Property Maintenance",
    "date_created": "2023-07-28T14:43:13.000",
    "date_modified": "2023-07-28T14:43:13.000",
    "request_status": "Pending",
    "responsible_agency": "Department of Code Enforcement",
    "final_address": "14000 Hayne Blvd",
    "address_councildis": "E",
    "status": "Pending",
    "rowid": "1021612",
    "final_x": "3717914.11583",
    "final_y": "573229.521833",
    "longitude": "-89.95150078675579",
    "latitude": "30.069024567408636",
    "geocoded_column": {
      "latitude": "30.069024567408636",
      "longitude": "-89.95150078675579"
    }
  },
  {
    "service_request": "2023-1021611",
    "request_type": "Trash/Recycling",
    "request_reason": "Replace Trash Cart",
    "date_created": "2023-07-28T14:41:37.000",
    "date_modified": "2023-07-28T14:41:37.000",
    "request_status": "Pending",
    "responsible_agency": "Department of Sanitation",
    "final_address": "3204 Camp St",
    "address_councildis": "B",
    "status": "Assigned to Contractor",
    "contractor": "Richards Disposal",
    "rowid": "1021611",
    "final_x": "3675579.49486",
    "final_y": "520251.896696",
    "longitude": "-90.08715213005043",
    "latitude": "29.924690532215475",
    "geocoded_column": {
      "latitude": "29.924690532215475",
      "longitude": "-90.08715213005043"
    }
  },
  {
    "service_request": "2023-1021609",
    "request_type": "Roads/Drainage",
    "request_reason": "Pothole",
    "date_created": "2023-07-28T14:37:19.000",
    "date_modified": "2023-07-28T14:37:19.000",
    "request_status": "Pending",
    "responsible_agency": "Department of Public Works",
    "final_address": "CURRAN BLVD & MAYO RD",
    "address_councildis": "E",
    "status": "Pending",
    "rowid": "1021609",
    "final_x": "3700703.0",
    "final_y": "560958.88",
    "longitude": "-90.00635805244958",
    "latitude": "30.035844640158466",
    "geocoded_column": {
      "latitude": "30.035844640158466",
      "longitude": "-90.00635805244958"
    }
  },
  {
    "service_request": "2023-1021608",
    "request_type": "Trash/Recycling",
    "request_reason": "Missed Trash Pick-Up",
    "date_created": "2023-07-28T14:36:40.000",
    "date_modified": "2023-07-28T14:36:41.000",
    "request_status": "Pending",
    "responsible_agency": "Department of Sanitation",
    "final_address": "1401 S Rendon St",
    "address_councildis": "B",
    "status": "Assigned to Contractor",
    "contractor": "Richards Disposal",
    "rowid": "1021608",
    "final_x": "3670077.35284",
    "final_y": "531554.604995",
    "longitude": "-90.10413785485666",
    "latitude": "29.955932710853986",
    "geocoded_column": {
      "latitude": "29.955932710853986",
      "longitude": "-90.10413785485666"
    }
  },
  {
    "service_request": "2023-1021605",
    "request_type": "Traffic Signals/Signs/Striping/Streetlights",
    "request_reason": "Street Light Outage/Malfunction",
    "date_created": "2023-07-28T14:30:00.000",
    "date_modified": "2023-07-28T14:30:01.000",
    "request_status": "Pending",
    "responsible_agency": "Department of Public Works",
    "final_address": "4640 Dart St",
    "address_councildis": "B",
    "status": "Assigned to Contractor",
    "contractor": "Legacy Professional Services",
    "rowid": "1021605",
    "final_x": "3669015.19854",
    "final_y": "531669.918403",
    "longitude": "-90.10748788511307",
    "latitude": "29.95628107231796",
    "geocoded_column": {
      "latitude": "29.95628107231796",
      "longitude": "-90.10748788511307"
    }
  },
  {
    "service_request": "2023-1021604",
    "request_type": "Property Maintenance",
    "request_reason": "Property Maintenance",
    "date_created": "2023-07-28T14:28:01.000",
    "date_modified": "2023-07-28T14:28:02.000",
    "request_status": "Pending",
    "responsible_agency": "Department of Code Enforcement",
    "final_address": "4420 Laine Ave",
    "address_councildis": "E",
    "status": "Pending",
    "rowid": "1021604",
    "final_x": "3705832.67377",
    "final_y": "553560.961047",
    "longitude": "-89.99042146860113",
    "latitude": "30.015338899735745",
    "geocoded_column": {
      "latitude": "30.015338899735745",
      "longitude": "-89.99042146860113"
    }
  },
  {
    "service_request": "2023-1021603",
    "request_type": "Abandoned Vehicles",
    "request_reason": "Abandoned/Junk Vehicles",
    "date_created": "2023-07-28T14:23:43.000",
    "date_modified": "2023-07-28T14:25:17.000",
    "request_status": "Pending",
    "responsible_agency": "Department of Public Works",
    "final_address": "4613 LaSalle St",
    "address_councildis": "B",
    "status": "Inspected",
    "rowid": "1021603",
    "final_x": "3669689.93518",
    "final_y": "523651.492923",
    "longitude": "-90.10562857160176",
    "latitude": "29.93421314639947",
    "geocoded_column": {
      "latitude": "29.93421314639947",
      "longitude": "-90.10562857160176"
    }
  },
  {
    "service_request": "2023-1021602",
    "request_type": "Trash/Recycling",
    "request_reason": "Missed Trash Pick-Up",
    "date_created": "2023-07-28T14:22:23.000",
    "date_modified": "2023-07-28T14:22:24.000",
    "request_status": "Pending",
    "responsible_agency": "Department of Sanitation",
    "final_address": "1217 St Mary St",
    "address_councildis": "B",
    "status": "Assigned to Contractor",
    "contractor": "Richards Disposal",
    "rowid": "1021602",
    "final_x": "3679407.8349",
    "final_y": "523265.183419",
    "longitude": "-90.07496288117927",
    "latitude": "29.932861044042042",
    "geocoded_column": {
      "latitude": "29.932861044042042",
      "longitude": "-90.07496288117927"
    }
  },
  {
    "service_request": "2023-1021601",
    "request_type": "Parks & Parkways",
    "request_reason": "Request Tree Service (Right of Way/Public Property)",
    "date_created": "2023-07-28T14:21:28.000",
    "date_modified": "2023-07-28T14:21:29.000",
    "request_status": "Pending",
    "responsible_agency": "Department of Parks & Parkway",
    "final_address": "11100 BLK Wales St",
    "address_councildis": "E",
    "status": "Pending",
    "rowid": "1021601",
    "final_x": "3710395.69039",
    "final_y": "566815.411432",
    "longitude": "-89.97550834927601",
    "latitude": "30.051635547011287",
    "geocoded_column": {
      "latitude": "30.051635547011287",
      "longitude": "-89.97550834927601"
    }
  },
  {
    "service_request": "2023-1021600",
    "request_type": "Trash/Recycling",
    "request_reason": "Request a Large Item Pick Up",
    "date_created": "2023-07-28T14:21:05.000",
    "date_modified": "2023-07-28T14:21:06.000",
    "request_status": "Pending",
    "responsible_agency": "Department of Sanitation",
    "final_address": "560 Crystal St",
    "address_councildis": "D",
    "status": "Assigned to Contractor",
    "contractor": "IV Waste",
    "rowid": "1021600",
    "final_x": "3668864.30446",
    "final_y": "556184.637722",
    "longitude": "-90.10713597947917",
    "latitude": "30.023692590918913",
    "geocoded_column": {
      "latitude": "30.023692590918913",
      "longitude": "-90.10713597947917"
    }
  },
  {
    "service_request": "2023-1021599",
    "request_type": "Trash/Recycling",
    "request_reason": "Request a Large Item Pick Up",
    "date_created": "2023-07-28T14:20:20.000",
    "date_modified": "2023-07-28T14:20:21.000",
    "request_status": "Pending",
    "responsible_agency": "Department of Sanitation",
    "final_address": "9402 Palmetto St",
    "address_councildis": "A",
    "status": "Assigned to Contractor",
    "contractor": "Richards Disposal",
    "rowid": "1021599",
    "final_x": "3664656.10874",
    "final_y": "538226.224329",
    "longitude": "-90.12103345445368",
    "latitude": "29.97443626507603",
    "geocoded_column": {
      "latitude": "29.97443626507603",
      "longitude": "-90.12103345445368"
    }
  },
  {
    "service_request": "2023-1021598",
    "request_type": "Trash/Recycling",
    "request_reason": "MIssed Recycling Pick-Up",
    "date_created": "2023-07-28T14:19:37.000",
    "date_modified": "2023-07-28T14:19:38.000",
    "request_status": "Pending",
    "responsible_agency": "Department of Sanitation",
    "final_address": "4600 BLK S Saratoga St",
    "address_councildis": "B",
    "status": "Assigned to Contractor",
    "contractor": "Richards Disposal",
    "rowid": "1021598",
    "final_x": "3669743.32353",
    "final_y": "522551.741102",
    "longitude": "-90.10549722917278",
    "latitude": "29.93118760878003",
    "geocoded_column": {
      "latitude": "29.93118760878003",
      "longitude": "-90.10549722917278"
    }
  },
  {
    "service_request": "2023-1021597",
    "request_type": "Trash/Recycling",
    "request_reason": "Replace Trash Cart",
    "date_created": "2023-07-28T14:18:05.000",
    "date_modified": "2023-07-28T14:23:28.000",
    "request_status": "Pending",
    "responsible_agency": "Department of Sanitation",
    "final_address": "750 City Park Ave",
    "address_councildis": "A",
    "rowid": "1021597",
    "final_x": "3670852.63835",
    "final_y": "541661.680844",
    "longitude": "-90.10134662491689",
    "latitude": "29.983700883319834",
    "geocoded_column": {
      "latitude": "29.983700883319834",
      "longitude": "-90.10134662491689"
    }
  },
  {
    "service_request": "2023-1021596",
    "request_type": "Abandoned Vehicles",
    "request_reason": "Abandoned/Junk Vehicles",
    "date_created": "2023-07-28T14:17:17.000",
    "date_modified": "2023-07-28T14:17:17.000",
    "request_status": "Pending",
    "responsible_agency": "Department of Public Works",
    "final_address": "2400 Valence St",
    "address_councildis": "B",
    "status": "Pending",
    "rowid": "1021596",
    "final_x": "3669410.20314",
    "final_y": "523614.494971",
    "longitude": "-90.10651292946616",
    "latitude": "29.934119652199325",
    "geocoded_column": {
      "latitude": "29.934119652199325",
      "longitude": "-90.10651292946616"
    }
  },
  {
    "service_request": "2023-1021595",
    "request_type": "Trash/Recycling",
    "request_reason": "Request a Large Item Pick Up",
    "date_created": "2023-07-28T14:16:37.000",
    "date_modified": "2023-07-28T14:16:37.000",
    "request_status": "Pending",
    "responsible_agency": "Department of Sanitation",
    "final_address": "37 Spanish Fort Blvd",
    "address_councildis": "D",
    "status": "Assigned to Contractor",
    "contractor": "IV Waste",
    "rowid": "1021595",
    "final_x": "3674095.50177",
    "final_y": "555092.447897",
    "longitude": "-90.09064384876098",
    "latitude": "30.02053449867548",
    "geocoded_column": {
      "latitude": "30.02053449867548",
      "longitude": "-90.09064384876098"
    }
  },
  {
    "service_request": "2023-1021594",
    "request_type": "Trash/Recycling",
    "request_reason": "Replace Recycling Cart",
    "date_created": "2023-07-28T14:16:34.000",
    "date_modified": "2023-07-28T14:16:34.000",
    "request_status": "Pending",
    "responsible_agency": "Department of Sanitation",
    "final_address": "1700 BLK Joseph St",
    "address_councildis": "A",
    "status": "Pending",
    "rowid": "1021594",
    "final_x": "3666935.00107",
    "final_y": "522595.36503",
    "longitude": "-90.11436130813112",
    "latitude": "29.931390007505964",
    "geocoded_column": {
      "latitude": "29.931390007505964",
      "longitude": "-90.11436130813112"
    }
  },
  {
    "service_request": "2023-1021593",
    "request_type": "Roads/Drainage",
    "request_reason": "Catch Basin - Broken/Damage",
    "date_created": "2023-07-28T14:15:34.000",
    "date_modified": "2023-07-28T14:15:35.000",
    "request_status": "Pending",
    "responsible_agency": "Department of Public Works",
    "final_address": "336 16Th St",
    "address_councildis": "A",
    "status": "Pending",
    "rowid": "1021593",
    "final_x": "3664843.15629",
    "final_y": "548358.332178",
    "longitude": "-90.12010389476542",
    "latitude": "30.002290689128237",
    "geocoded_column": {
      "latitude": "30.002290689128237",
      "longitude": "-90.12010389476542"
    }
  },
  {
    "service_request": "2023-1021592",
    "request_type": "Trash/Recycling",
    "request_reason": "Request a Large Item Pick Up",
    "date_created": "2023-07-28T14:15:02.000",
    "date_modified": "2023-07-28T14:15:03.000",
    "request_status": "Pending",
    "responsible_agency": "Department of Sanitation",
    "final_address": "1624 Erie St",
    "address_councildis": "C",
    "status": "Assigned to Contractor",
    "contractor": "Richards Disposal",
    "rowid": "1021592",
    "final_x": "3690144.4879",
    "final_y": "522316.091258",
    "longitude": "-90.04110198799137",
    "latitude": "29.92992277880065",
    "geocoded_column": {
      "latitude": "29.92992277880065",
      "longitude": "-90.04110198799137"
    }
  },
  {
    "service_request": "2023-1021591",
    "request_type": "Abandoned Vehicles",
    "request_reason": "Abandoned/Junk Vehicles",
    "date_created": "2023-07-28T14:11:42.000",
    "date_modified": "2023-07-28T14:11:42.000",
    "request_status": "Pending",
    "responsible_agency": "Department of Public Works",
    "final_address": "2400 BLK Valence St",
    "address_councildis": "B",
    "status": "Pending",
    "rowid": "1021591",
    "final_x": "3669443.1368",
    "final_y": "523757.701616",
    "longitude": "-90.10640411786746",
    "latitude": "29.93451245486386",
    "geocoded_column": {
      "latitude": "29.93451245486386",
      "longitude": "-90.10640411786746"
    }
  },
  {
    "service_request": "2023-1021589",
    "request_type": "Trash/Recycling",
    "request_reason": "Replace Trash Cart",
    "date_created": "2023-07-28T14:09:46.000",
    "date_modified": "2023-07-28T14:09:47.000",
    "request_status": "Pending",
    "responsible_agency": "Department of Sanitation",
    "final_address": "1721 Joseph St",
    "address_councildis": "A",
    "status": "Assigned to Contractor",
    "contractor": "Richards Disposal",
    "rowid": "1021589",
    "final_x": "3667017.29703",
    "final_y": "522578.704698",
    "longitude": "-90.11410206856915",
    "latitude": "29.931341789341555",
    "geocoded_column": {
      "latitude": "29.931341789341555",
      "longitude": "-90.11410206856915"
    }
  },
  {
    "service_request": "2023-1021588",
    "request_type": "Trash/Recycling",
    "request_reason": "Order Trash Cart",
    "date_created": "2023-07-28T14:09:09.000",
    "date_modified": "2023-07-28T14:09:09.000",
    "request_status": "Pending",
    "responsible_agency": "Department of Sanitation",
    "final_address": "4 Oak Alley Dr",
    "address_councildis": "C",
    "status": "Assigned to Contractor",
    "contractor": "Richards Disposal",
    "rowid": "1021588",
    "final_x": "3722036.39667",
    "final_y": "511163.864048",
    "longitude": "-89.94085381418212",
    "latitude": "29.898230683156783",
    "geocoded_column": {
      "latitude": "29.898230683156783",
      "longitude": "-89.94085381418212"
    }
  },
  {
    "service_request": "2023-1021587",
    "request_type": "Property Maintenance",
    "request_reason": "Property Maintenance",
    "date_created": "2023-07-28T14:06:12.000",
    "date_modified": "2023-07-28T14:06:13.000",
    "request_status": "Pending",
    "responsible_agency": "Department of Code Enforcement",
    "final_address": "1768 Shirley Dr",
    "address_councildis": "C",
    "status": "Pending",
    "rowid": "1021587",
    "final_x": "3693053.40553",
    "final_y": "523381.910971",
    "longitude": "-90.03188085050519",
    "latitude": "29.93276289583492",
    "geocoded_column": {
      "latitude": "29.93276289583492",
      "longitude": "-90.03188085050519"
    }
  },
  {
    "service_request": "2023-1021586",
    "request_type": "Property Maintenance",
    "request_reason": "Property Maintenance",
    "date_created": "2023-07-28T14:05:44.000",
    "date_modified": "2023-07-28T14:05:44.000",
    "request_status": "Pending",
    "responsible_agency": "Department of Code Enforcement",
    "final_address": "801 Roosevelt Pl",
    "address_councildis": "A",
    "status": "Pending",
    "rowid": "1021586",
    "final_x": "3673495.3499",
    "final_y": "539668.52929",
    "longitude": "-90.09306766220448",
    "latitude": "29.978142005898846",
    "geocoded_column": {
      "latitude": "29.978142005898846",
      "longitude": "-90.09306766220448"
    }
  },
  {
    "service_request": "2023-1021585",
    "request_type": "Property Maintenance",
    "request_reason": "Property Maintenance",
    "date_created": "2023-07-28T14:03:17.000",
    "date_modified": "2023-07-28T14:03:17.000",
    "request_status": "Pending",
    "responsible_agency": "Department of Code Enforcement",
    "final_address": "805 Roosevelt Pl",
    "address_councildis": "A",
    "status": "Pending",
    "rowid": "1021585",
    "final_x": "3673511.08276",
    "final_y": "539718.969162",
    "longitude": "-90.09301624771327",
    "latitude": "29.97828023006953",
    "geocoded_column": {
      "latitude": "29.97828023006953",
      "longitude": "-90.09301624771327"
    }
  },
  {
    "service_request": "2023-1021583",
    "request_type": "Roads/Drainage",
    "request_reason": "Street Flooding / Drainage",
    "date_created": "2023-07-28T14:00:46.000",
    "date_modified": "2023-07-28T14:00:46.000",
    "request_status": "Pending",
    "responsible_agency": "Department of Public Works",
    "final_address": "2118 DAbadie St",
    "address_councildis": "D",
    "status": "Pending",
    "rowid": "1021583",
    "final_x": "3681069.922",
    "final_y": "539509.737226",
    "longitude": "-90.06915000880372",
    "latitude": "29.97747777084743",
    "geocoded_column": {
      "latitude": "29.97747777084743",
      "longitude": "-90.06915000880372"
    }
  },
  {
    "service_request": "2023-1021582",
    "request_type": "Property Maintenance",
    "request_reason": "Property Maintenance",
    "date_created": "2023-07-28T13:58:21.000",
    "date_modified": "2023-07-28T13:58:22.000",
    "request_status": "Pending",
    "responsible_agency": "Department of Code Enforcement",
    "final_address": "4705 Stemway Dr",
    "address_councildis": "D",
    "status": "Pending",
    "rowid": "1021582",
    "final_x": "3697005.48669",
    "final_y": "553959.817304",
    "longitude": "-90.01829665484335",
    "latitude": "30.016717109586086",
    "geocoded_column": {
      "latitude": "30.016717109586086",
      "longitude": "-90.01829665484335"
    }
  },
  {
    "service_request": "2023-1021581",
    "request_type": "Trash/Recycling",
    "request_reason": "Illegal Dumping",
    "date_created": "2023-07-28T13:57:49.000",
    "date_modified": "2023-07-28T13:57:49.000",
    "request_status": "Pending",
    "responsible_agency": "Department of Sanitation",
    "final_address": "3507 Danneel St",
    "address_councildis": "B",
    "status": "Pending",
    "rowid": "1021581",
    "final_x": "3673178.49019",
    "final_y": "522722.380474",
    "longitude": "-90.09464700833146",
    "latitude": "29.93155514984597",
    "geocoded_column": {
      "latitude": "29.93155514984597",
      "longitude": "-90.09464700833146"
    }
  },
  {
    "service_request": "2023-1021580",
    "request_type": "Trash/Recycling",
    "request_reason": "Repair Trash Cart",
    "date_created": "2023-07-28T13:54:44.000",
    "date_modified": "2023-07-28T13:54:45.000",
    "request_status": "Pending",
    "responsible_agency": "Department of Sanitation",
    "final_address": "5007 S Tonti St",
    "address_councildis": "A",
    "status": "Assigned to Contractor",
    "contractor": "Richards Disposal",
    "rowid": "1021580",
    "final_x": "3668865.28218",
    "final_y": "528024.064575",
    "longitude": "-90.10808437441194",
    "latitude": "29.946260575904617",
    "geocoded_column": {
      "latitude": "29.946260575904617",
      "longitude": "-90.10808437441194"
    }
  },
  {
    "service_request": "2023-1021579",
    "request_type": "Traffic Signals/Signs/Striping/Streetlights",
    "request_reason": "Street Light Outage/Malfunction",
    "date_created": "2023-07-28T13:53:42.000",
    "date_modified": "2023-07-28T13:53:43.000",
    "request_status": "Pending",
    "responsible_agency": "Department of Public Works",
    "final_address": "4869 Ken Ct",
    "address_councildis": "C",
    "status": "Assigned to Contractor",
    "contractor": "Legacy Professional Services",
    "rowid": "1021579",
    "final_x": "3702286.29962",
    "final_y": "518469.553654",
    "longitude": "-90.00291360378802",
    "latitude": "29.918964032016987",
    "geocoded_column": {
      "latitude": "29.918964032016987",
      "longitude": "-90.00291360378802"
    }
  },
  {
    "service_request": "2023-1021578",
    "request_type": "Property Maintenance",
    "request_reason": "Property Maintenance",
    "date_created": "2023-07-28T13:53:19.000",
    "date_modified": "2023-07-28T13:53:19.000",
    "request_status": "Pending",
    "responsible_agency": "Department of Code Enforcement",
    "final_address": "401 Dufossat St",
    "address_councildis": "B",
    "status": "Pending",
    "rowid": "1021578",
    "final_x": "3668032.23092",
    "final_y": "517048.582005",
    "longitude": "-90.11108425842012",
    "latitude": "29.916105967027615",
    "geocoded_column": {
      "latitude": "29.916105967027615",
      "longitude": "-90.11108425842012"
    }
  },
  {
    "service_request": "2023-1021577",
    "request_type": "Traffic Signals/Signs/Striping/Streetlights",
    "request_reason": "Disabled Parking Sign ",
    "date_created": "2023-07-28T13:52:59.000",
    "date_modified": "2023-07-28T13:52:59.000",
    "request_status": "Pending",
    "responsible_agency": "Department of Public Works",
    "final_address": "1727 N Tonti St",
    "address_councildis": "D",
    "status": "Pending",
    "rowid": "1021577",
    "final_x": "3680776.1604",
    "final_y": "540094.438667",
    "longitude": "-90.07005744660904",
    "latitude": "29.97909440506361",
    "geocoded_column": {
      "latitude": "29.97909440506361",
      "longitude": "-90.07005744660904"
    }
  },
  {
    "service_request": "2023-1021576",
    "request_type": "Trash/Recycling",
    "request_reason": "Replace Trash Cart",
    "date_created": "2023-07-28T13:48:07.000",
    "date_modified": "2023-07-28T13:48:08.000",
    "request_status": "Pending",
    "responsible_agency": "Department of Sanitation",
    "final_address": "4710 Evangeline Dr",
    "address_councildis": "E",
    "status": "Assigned to Contractor",
    "contractor": "Waste Pro",
    "rowid": "1021576",
    "final_x": "3709060.3498",
    "final_y": "555545.995673",
    "longitude": "-89.9801495438019",
    "latitude": "30.020692565745186",
    "geocoded_column": {
      "latitude": "30.020692565745186",
      "longitude": "-89.9801495438019"
    }
  },
  {
    "service_request": "2023-1021575",
    "request_type": "Trash/Recycling",
    "request_reason": "MIssed Recycling Pick-Up",
    "date_created": "2023-07-28T13:45:16.000",
    "date_modified": "2023-07-28T13:45:17.000",
    "request_status": "Pending",
    "responsible_agency": "Department of Sanitation",
    "final_address": "1829 Fourth St",
    "address_councildis": "B",
    "status": "Assigned to Contractor",
    "contractor": "Richards Disposal",
    "rowid": "1021575",
    "final_x": "3675667.23169",
    "final_y": "523553.791355",
    "longitude": "-90.08676178126679",
    "latitude": "29.933767047150177",
    "geocoded_column": {
      "latitude": "29.933767047150177",
      "longitude": "-90.08676178126679"
    }
  },
  {
    "service_request": "2023-1021574",
    "request_type": "Traffic Signals/Signs/Striping/Streetlights",
    "request_reason": "Street Light Outage/Malfunction",
    "date_created": "2023-07-28T13:44:27.000",
    "date_modified": "2023-07-28T13:44:28.000",
    "request_status": "Pending",
    "responsible_agency": "Department of Public Works",
    "final_address": "2227 Brainard St",
    "address_councildis": "B",
    "status": "Assigned to Contractor",
    "contractor": "Legacy Professional Services",
    "rowid": "1021574",
    "final_x": "3676988.06734",
    "final_y": "524140.428924",
    "longitude": "-90.08257174735182",
    "latitude": "29.935340530845217",
    "geocoded_column": {
      "latitude": "29.935340530845217",
      "longitude": "-90.08257174735182"
    }
  },
  {
    "service_request": "2023-1021573",
    "request_type": "Property Maintenance",
    "request_reason": "Property Maintenance",
    "date_created": "2023-07-28T13:43:48.000",
    "date_modified": "2023-07-28T13:43:48.000",
    "request_status": "Pending",
    "responsible_agency": "Department of Code Enforcement",
    "final_address": "3101 Palmyra St",
    "address_councildis": "B",
    "status": "Pending",
    "rowid": "1021573",
    "final_x": "3673609.99752",
    "final_y": "535524.36615",
    "longitude": "-90.09284726226402",
    "latitude": "29.966743550110866",
    "geocoded_column": {
      "latitude": "29.966743550110866",
      "longitude": "-90.09284726226402"
    }
  },
  {
    "service_request": "2023-1021572",
    "request_type": "Trash/Recycling",
    "request_reason": "Order Trash Cart",
    "date_created": "2023-07-28T13:43:12.000",
    "date_modified": "2023-07-28T13:43:13.000",
    "request_status": "Pending",
    "responsible_agency": "Department of Sanitation",
    "final_address": "2204 Third St",
    "address_councildis": "B",
    "status": "Assigned to Contractor",
    "contractor": "Richards Disposal",
    "rowid": "1021572",
    "final_x": "3675193.89729",
    "final_y": "524700.24902",
    "longitude": "-90.088216748371",
    "latitude": "29.936933582459005",
    "geocoded_column": {
      "latitude": "29.936933582459005",
      "longitude": "-90.088216748371"
    }
  },
  {
    "service_request": "2023-1021571",
    "request_type": "Abandoned Vehicles",
    "request_reason": "Abandoned/Junk Vehicles",
    "date_created": "2023-07-28T13:40:11.000",
    "date_modified": "2023-07-28T13:40:11.000",
    "request_status": "Pending",
    "responsible_agency": "Department of Public Works",
    "final_address": "3726 S Prieur St",
    "address_councildis": "B",
    "status": "Pending",
    "rowid": "1021571",
    "final_x": "3671429.38209",
    "final_y": "527001.525758",
    "longitude": "-90.10002335018328",
    "latitude": "29.94337328884837",
    "geocoded_column": {
      "latitude": "29.94337328884837",
      "longitude": "-90.10002335018328"
    }
  },
  {
    "service_request": "2023-1021570",
    "request_type": "Health Related Request",
    "request_reason": "Noise Ordinance Complaint",
    "date_created": "2023-07-28T13:39:37.000",
    "date_modified": "2023-07-28T13:39:37.000",
    "request_status": "Pending",
    "responsible_agency": "Health Department",
    "final_address": "804 General Taylor St",
    "address_councildis": "B",
    "status": "Pending",
    "rowid": "1021570",
    "final_x": "3673148.01723",
    "final_y": "518690.203127",
    "longitude": "-90.09488078749975",
    "latitude": "29.920468863205787",
    "geocoded_column": {
      "latitude": "29.920468863205787",
      "longitude": "-90.09488078749975"
    }
  },
  {
    "service_request": "2023-1021569",
    "request_type": "Trash/Recycling",
    "request_reason": "Request a Large Item Pick Up",
    "date_created": "2023-07-28T13:35:59.000",
    "date_modified": "2023-07-28T13:35:59.000",
    "request_status": "Pending",
    "responsible_agency": "Department of Sanitation",
    "final_address": "2227 Baronne St",
    "address_councildis": "B",
    "status": "Assigned to Contractor",
    "contractor": "Richards Disposal",
    "rowid": "1021569",
    "final_x": "3676786.18945",
    "final_y": "524378.920124",
    "longitude": "-90.08320086231508",
    "latitude": "29.936002361204412",
    "geocoded_column": {
      "latitude": "29.936002361204412",
      "longitude": "-90.08320086231508"
    }
  },
  {
    "service_request": "2023-1021568",
    "request_type": "Trash/Recycling",
    "request_reason": "MIssed Recycling Pick-Up",
    "date_created": "2023-07-28T13:35:56.000",
    "date_modified": "2023-07-28T13:35:56.000",
    "request_status": "Pending",
    "responsible_agency": "Department of Sanitation",
    "final_address": "4700 BLK Magazine St",
    "address_councildis": "B",
    "status": "Assigned to Contractor",
    "contractor": "Richards Disposal",
    "rowid": "1021568",
    "final_x": "3669768.69192",
    "final_y": "518659.805316",
    "longitude": "-90.10554879422342",
    "latitude": "29.920485277156327",
    "geocoded_column": {
      "latitude": "29.920485277156327",
      "longitude": "-90.10554879422342"
    }
  },
  {
    "service_request": "2023-1021567",
    "request_type": "Trash/Recycling",
    "request_reason": "Request a Large Item Pick Up",
    "date_created": "2023-07-28T13:35:03.000",
    "date_modified": "2023-07-28T13:35:03.000",
    "request_status": "Pending",
    "responsible_agency": "Department of Sanitation",
    "final_address": "7168 Parkside Ct",
    "address_councildis": "E",
    "status": "Assigned to Contractor",
    "contractor": "Waste Pro",
    "rowid": "1021567",
    "final_x": "3704290.21009",
    "final_y": "560457.148446",
    "longitude": "-89.99504041498102",
    "latitude": "30.034350360127466",
    "geocoded_column": {
      "latitude": "30.034350360127466",
      "longitude": "-89.99504041498102"
    }
  },
  {
    "service_request": "2023-1021566",
    "request_type": "Trash/Recycling",
    "request_reason": "Missed Trash Pick-Up",
    "date_created": "2023-07-28T13:33:12.000",
    "date_modified": "2023-07-28T13:33:13.000",
    "request_status": "Pending",
    "responsible_agency": "Department of Sanitation",
    "final_address": "6821 Bamberry St",
    "address_councildis": "E",
    "status": "Assigned to Contractor",
    "contractor": "Waste Pro",
    "rowid": "1021566",
    "final_x": "3698851.43978",
    "final_y": "559117.760476",
    "longitude": "-90.0122763679941",
    "latitude": "30.03084110172529",
    "geocoded_column": {
      "latitude": "30.03084110172529",
      "longitude": "-90.0122763679941"
    }
  },
  {
    "service_request": "2023-1021565",
    "request_type": "Roads/Drainage",
    "request_reason": "Accessibility Ramps, Curbs and Sidewalk Repair",
    "date_created": "2023-07-28T13:31:17.000",
    "date_modified": "2023-07-28T13:31:17.000",
    "request_status": "Pending",
    "responsible_agency": "Department of Public Works",
    "final_address": "5819 General Diaz St",
    "address_councildis": "A",
    "status": "Pending",
    "rowid": "1021565",
    "final_x": "3669453.79092",
    "final_y": "546067.864848",
    "longitude": "-90.10561582747519",
    "latitude": "29.995857659980423",
    "geocoded_column": {
      "latitude": "29.995857659980423",
      "longitude": "-90.10561582747519"
    }
  },
  {
    "service_request": "2023-1021564",
    "request_type": "Trash/Recycling",
    "request_reason": "Request a Large Item Pick Up",
    "date_created": "2023-07-28T13:30:58.000",
    "date_modified": "2023-07-28T13:30:59.000",
    "request_status": "Pending",
    "responsible_agency": "Department of Sanitation",
    "final_address": "1304 Felicity St Apt 1A",
    "address_councildis": "B",
    "status": "Assigned to Contractor",
    "contractor": "Richards Disposal",
    "rowid": "1021564",
    "final_x": "3679418.16245",
    "final_y": "523565.609211",
    "longitude": "-90.07491986190328",
    "latitude": "29.93368680425314",
    "geocoded_column": {
      "latitude": "29.93368680425314",
      "longitude": "-90.07491986190328"
    }
  },
  {
    "service_request": "2023-1021562",
    "request_type": "Trash/Recycling",
    "request_reason": "Illegal Dumping",
    "date_created": "2023-07-28T13:28:53.000",
    "date_modified": "2023-07-28T13:28:54.000",
    "request_status": "Pending",
    "responsible_agency": "Department of Sanitation",
    "final_address": "5917 Tullis Dr",
    "address_councildis": "C",
    "status": "Pending",
    "rowid": "1021562",
    "final_x": "3706118.13355",
    "final_y": "513326.863922",
    "longitude": "-89.99100874420698",
    "latitude": "29.904700514801803",
    "geocoded_column": {
      "latitude": "29.904700514801803",
      "longitude": "-89.99100874420698"
    }
  },
  {
    "service_request": "2023-1021561",
    "request_type": "Roads/Drainage",
    "request_reason": "Alley Way",
    "date_created": "2023-07-28T13:27:40.000",
    "date_modified": "2023-07-28T13:27:40.000",
    "request_status": "Pending",
    "responsible_agency": "Department of Public Works",
    "final_address": "5819 General Diaz St",
    "address_councildis": "A",
    "status": "Pending",
    "rowid": "1021561",
    "final_x": "3669453.79092",
    "final_y": "546067.864848",
    "longitude": "-90.10561582747519",
    "latitude": "29.995857659980423",
    "geocoded_column": {
      "latitude": "29.995857659980423",
      "longitude": "-90.10561582747519"
    }
  },
  {
    "service_request": "2023-1021560",
    "request_type": "Property Maintenance",
    "request_reason": "Property Maintenance",
    "date_created": "2023-07-28T13:25:44.000",
    "date_modified": "2023-07-28T13:25:44.000",
    "request_status": "Pending",
    "responsible_agency": "Department of Code Enforcement",
    "final_address": "1221 Harrison Ave",
    "address_councildis": "D",
    "status": "Pending",
    "rowid": "1021560",
    "final_x": "3676776.04149",
    "final_y": "547575.517394",
    "longitude": "-90.08243343266811",
    "latitude": "29.999785418738565",
    "geocoded_column": {
      "latitude": "29.999785418738565",
      "longitude": "-90.08243343266811"
    }
  },
  {
    "service_request": "2023-1021559",
    "request_type": "Trash/Recycling",
    "request_reason": "Illegal Dumping",
    "date_created": "2023-07-28T13:22:52.000",
    "date_modified": "2023-07-28T13:22:53.000",
    "request_status": "Pending",
    "responsible_agency": "Department of Sanitation",
    "final_address": "TULLIS DR & WOODLAND DR",
    "address_councildis": "C",
    "status": "Pending",
    "rowid": "1021559",
    "final_x": "3705893.5",
    "final_y": "513292.78",
    "longitude": "-89.99171894879369",
    "latitude": "29.904614029594768",
    "geocoded_column": {
      "latitude": "29.904614029594768",
      "longitude": "-89.99171894879369"
    }
  },
  {
    "service_request": "2023-1021558",
    "request_type": "Trash/Recycling",
    "request_reason": "Order Trash Cart",
    "date_created": "2023-07-28T13:18:30.000",
    "date_modified": "2023-07-28T13:18:30.000",
    "request_status": "Pending",
    "responsible_agency": "Department of Sanitation",
    "final_address": "431 40Th St",
    "address_councildis": "A",
    "status": "Assigned to Contractor",
    "contractor": "IV Waste",
    "rowid": "1021558",
    "final_x": "3664762.66324",
    "final_y": "553425.686871",
    "longitude": "-90.12018869605376",
    "latitude": "30.01622649843815",
    "geocoded_column": {
      "latitude": "30.01622649843815",
      "longitude": "-90.12018869605376"
    }
  },
  {
    "service_request": "2023-1021557",
    "request_type": "Roads/Drainage",
    "request_reason": "Accessibility Ramps, Curbs and Sidewalk Repair",
    "date_created": "2023-07-28T13:18:19.000",
    "date_modified": "2023-07-28T13:18:19.000",
    "request_status": "Pending",
    "responsible_agency": "Department of Public Works",
    "final_address": "6876 Farwood Rd",
    "address_councildis": "E",
    "status": "Pending",
    "rowid": "1021557",
    "final_x": "3700657.08292",
    "final_y": "557353.733147",
    "longitude": "-90.00663506935066",
    "latitude": "30.02593334286755",
    "geocoded_column": {
      "latitude": "30.02593334286755",
      "longitude": "-90.00663506935066"
    }
  },
  {
    "service_request": "2023-1021556",
    "request_type": "Trash/Recycling",
    "request_reason": "Order Trash Cart",
    "date_created": "2023-07-28T13:17:30.000",
    "date_modified": "2023-07-28T13:17:31.000",
    "request_status": "Pending",
    "responsible_agency": "Department of Sanitation",
    "final_address": "429 40Th St",
    "address_councildis": "A",
    "status": "Assigned to Contractor",
    "contractor": "IV Waste",
    "rowid": "1021556",
    "final_x": "3664780.71879",
    "final_y": "553423.603543",
    "longitude": "-90.120131717861",
    "latitude": "30.016220244379195",
    "geocoded_column": {
      "latitude": "30.016220244379195",
      "longitude": "-90.120131717861"
    }
  },