[
  {
    "service_request": "2024-1135201",
    "request_type": "Trash/Recycling",
    "request_reason": "Storm Debris Collection",
    "date_created": "2024-09-24T23:01:16.000",
    "date_modified": "2024-09-24T23:01:16.000",
    "request_status": "Pending",
    "responsible_agency": "Department of Sanitation",
    "final_address": "6 Grand Teton Ct",
    "address_councildis": "C",
    "status": "Pending",
    "rowid": "1135201",
    "final_x": "3699160.89373",
    "final_y": "516518.533493",
    "longitude": "-90.01284980762651",
    "latitude": "29.913698801482454",
    "geocoded_column": {
      "latitude": "29.913698801482454",
      "longitude": "-90.01284980762651"
    }
  },
  {
    "service_request": "2024-1135200",
    "request_type": "Roads and Streets",
    "request_reason": "Street Subsidence (Sinking)",
    "date_created": "2024-09-24T22:32:53.000",
    "date_modified": "2024-09-24T22:32:53.000",
    "request_status": "Pending",
    "responsible_agency": "Department of Public Works",
    "final_address": "5201 Toulon St",
    "address_councildis": "E",
    "status": "Pending",
    "rowid": "1135200",
    "final_x": "3723657.85055",
    "final_y": "562511.322079",
    "longitude": "-89.93375759795696",
    "latitude": "30.039362292773784",
    "geocoded_column": {
      "latitude": "30.039362292773784",
      "longitude": "-89.93375759795696"
    }
  },
  {
    "service_request": "2024-1135199",
    "request_type": "Trash/Recycling",
    "request_reason": "Request a Large Item Pick Up",
    "date_created": "2024-09-24T22:26:34.000",
    "date_modified": "2024-09-24T22:26:35.000",
    "request_status": "Pending",
    "responsible_agency": "Department of Sanitation",
    "final_address": "5201 Toulon St",
    "address_councildis": "E",
    "status": "Assigned to Contractor",
    "contractor": "Waste Pro",
    "rowid": "1135199",
    "final_x": "3723657.85055",
    "final_y": "562511.322079",
    "longitude": "-89.93375759795696",
    "latitude": "30.039362292773784",
    "geocoded_column": {
      "latitude": "30.039362292773784",
      "longitude": "-89.93375759795696"
    }
  },
  {
    "service_request": "2024-1135198",
    "request_type": "Trash/Recycling",
    "request_reason": "Request a Large Item Pick Up",
    "date_created": "2024-09-24T22:16:13.000",
    "date_modified": "2024-09-24T22:16:14.000",
    "request_status": "Pending",
    "responsible_agency": "Department of Sanitation",
    "final_address": "5318 Florida Ave Apt 1A",
    "address_councildis": "E",
    "status": "Assigned to Contractor",
    "contractor": "Waste Pro",
    "rowid": "1135198",
    "final_x": "3698637.88061",
    "final_y": "539947.977418",
    "longitude": "-90.01364889105413",
    "latitude": "29.978138128972887",
    "geocoded_column": {
      "latitude": "29.978138128972887",
      "longitude": "-90.01364889105413"
    }
  },
  {
    "service_request": "2024-1135197",
    "request_type": "Trash/Recycling",
    "request_reason": "Request a Large Item Pick Up",
    "date_created": "2024-09-24T22:12:25.000",
    "date_modified": "2024-09-24T22:12:26.000",
    "request_status": "Pending",
    "responsible_agency": "Department of Sanitation",
    "final_address": "2329 Joseph St",
    "address_councildis": "A",
    "status": "Assigned to Contractor",
    "contractor": "IV Waste",
    "rowid": "1135197",
    "final_x": "3667486.28436",
    "final_y": "524717.849084",
    "longitude": "-90.11254958164352",
    "latitude": "29.9372100227675",
    "geocoded_column": {
      "latitude": "29.9372100227675",
      "longitude": "-90.11254958164352"
    }
  },
  {
    "service_request": "2024-1135196",
    "request_type": "Mosquito, Termite & Rodent Control",
    "request_reason": "Non-Rodent Complaint (Mice, Possums, Snakes)",
    "date_created": "2024-09-24T22:11:16.000",
    "date_modified": "2024-09-24T22:11:16.000",
    "request_status": "Pending",
    "responsible_agency": "Mosquito, Termite & Rodent Control Board",
    "final_address": "5140 St Ferdinand Dr",
    "address_councildis": "D",
    "status": "Pending",
    "rowid": "1135196",
    "final_x": "3688991.95657",
    "final_y": "552344.634326",
    "longitude": "-90.04367339265954",
    "latitude": "30.012526397776128",
    "geocoded_column": {
      "latitude": "30.012526397776128",
      "longitude": "-90.04367339265954"
    }
  },
  {
    "service_request": "2024-1135195",
    "request_type": "Streetlights",
    "request_reason": "Streetlight Outage/Malfunction",
    "date_created": "2024-09-24T22:03:29.000",
    "date_modified": "2024-09-24T22:03:30.000",
    "request_status": "Pending",
    "responsible_agency": "Department of Public Works",
    "final_address": "5800 Pratt Dr",
    "address_councildis": "D",
    "status": "Pending",
    "contractor": "Legacy Professional Services",
    "rowid": "1135195",
    "final_x": "3680164.4324",
    "final_y": "553946.903128",
    "longitude": "-90.0715077188007",
    "latitude": "30.01720229300259",
    "geocoded_column": {
      "latitude": "30.01720229300259",
      "longitude": "-90.0715077188007"
    }
  },
  {
    "service_request": "2024-1135194",
    "request_type": "Parks & Parkways",
    "request_reason": "Park Maintenance/Clean Up",
    "date_created": "2024-09-24T21:57:47.000",
    "date_modified": "2024-09-24T21:57:47.000",
    "request_status": "Pending",
    "responsible_agency": "Department of Parks & Parkway",
    "final_address": "2500 Fats Domino Ave",
    "address_councildis": "E",
    "status": "Pending",
    "rowid": "1135194",
    "final_x": "3699406.48336",
    "final_y": "539214.37601",
    "longitude": "-90.01124811827164",
    "latitude": "29.976096628677436",
    "geocoded_column": {
      "latitude": "29.976096628677436",
      "longitude": "-90.01124811827164"
    }
  },
  {
    "service_request": "2024-1135193",
    "request_type": "Traffic Safety",
    "request_reason": "Request for Traffic Calming due to Speeding",
    "date_created": "2024-09-24T21:54:37.000",
    "date_modified": "2024-09-24T21:54:37.000",
    "request_status": "Pending",
    "responsible_agency": "Department of Public Works",
    "final_address": "2420 Fats Domino Ave",
    "address_councildis": "E",
    "status": "Pending",
    "rowid": "1135193",
    "final_x": "538839.585673",
    "final_y": "538839.585673",
    "longitude": "-99.97792218065928",
    "latitude": "29.69715740819505",
    "geocoded_column": {
      "latitude": "29.69715740819505",
      "longitude": "-99.97792218065928"
    }
  },
  {
    "service_request": "2024-1135192",
    "request_type": "Street and Traffic Signs",
    "request_reason": "Traffic or Parking Sign Damaged or Missing",
    "date_created": "2024-09-24T21:38:45.000",
    "date_modified": "2024-09-24T21:38:45.000",
    "request_status": "Pending",
    "responsible_agency": "Department of Public Works",
    "final_address": "900 BLK N Claiborne Ave",
    "address_councildis": "C",
    "status": "Pending",
    "rowid": "1135192",
    "final_x": "3680387.05126",
    "final_y": "535290.497776",
    "longitude": "-90.07145349577578",
    "latitude": "29.965897013947743",
    "geocoded_column": {
      "latitude": "29.965897013947743",
      "longitude": "-90.07145349577578"
    }
  },
  {
    "service_request": "2024-1135191",
    "request_type": "Trash/Recycling",
    "request_reason": "Request a Large Item Pick Up",
    "date_created": "2024-09-24T21:34:47.000",
    "date_modified": "2024-09-24T21:34:48.000",
    "request_status": "Pending",
    "responsible_agency": "Department of Sanitation",
    "final_address": "4700 Cardenas Dr",
    "address_councildis": "E",
    "status": "Assigned to Contractor",
    "contractor": "Waste Pro",
    "rowid": "1135191",
    "final_x": "3713644.22271",
    "final_y": "556044.230809",
    "longitude": "-89.965647228498",
    "latitude": "30.021912872819005",
    "geocoded_column": {
      "latitude": "30.021912872819005",
      "longitude": "-89.965647228498"
    }
  },
  {
    "service_request": "2024-1135190",
    "request_type": "Streetlights",
    "request_reason": "Streetlight Outage/Malfunction",
    "date_created": "2024-09-24T21:33:53.000",
    "date_modified": "2024-09-24T21:33:55.000",
    "request_status": "Pending",
    "responsible_agency": "Department of Public Works",
    "final_address": "1200 BLK Esplanade Ave",
    "address_councildis": "C",
    "status": "Pending",
    "contractor": "Legacy Professional Services",
    "rowid": "1135190",
    "final_x": "3682199.27861",
    "final_y": "535815.593183",
    "longitude": "-90.0657121983856",
    "latitude": "29.967285844912197",
    "geocoded_column": {
      "latitude": "29.967285844912197",
      "longitude": "-90.0657121983856"
    }
  },
  {
    "service_request": "2024-1135189",
    "request_type": "Trash/Recycling",
    "request_reason": "Replace Trash Cart",
    "date_created": "2024-09-24T21:29:45.000",
    "date_modified": "2024-09-24T21:29:46.000",
    "request_status": "Pending",
    "responsible_agency": "Department of Sanitation",
    "final_address": "6531 Marshal Foch St",
    "address_councildis": "A",
    "status": "Assigned to Contractor",
    "contractor": "IV Waste",
    "rowid": "1135189",
    "final_x": "3670248.5307",
    "final_y": "550827.677525",
    "longitude": "-90.10294385003773",
    "latitude": "30.008922047161853",
    "geocoded_column": {
      "latitude": "30.008922047161853",
      "longitude": "-90.10294385003773"
    }
  },
  {
    "service_request": "2024-1135188",
    "request_type": "Safety & Permits",
    "request_reason": "Zoning Enforcement",
    "date_created": "2024-09-24T21:26:12.000",
    "date_modified": "2024-09-24T21:26:12.000",
    "request_status": "Pending",
    "responsible_agency": "Safety and Permits",
    "final_address": "2128 St Claude Ave",
    "address_councildis": "C",
    "status": "Pending",
    "rowid": "1135188",
    "final_x": "3684860.62908",
    "final_y": "536257.729607",
    "longitude": "-90.0572920842082",
    "latitude": "29.968420343000794",
    "geocoded_column": {
      "latitude": "29.968420343000794",
      "longitude": "-90.0572920842082"
    }
  },
  {
    "service_request": "2024-1135187",
    "request_type": "Street and Traffic Signs",
    "request_reason": "Traffic or Parking Sign Damaged or Missing",
    "date_created": "2024-09-24T21:20:30.000",
    "date_modified": "2024-09-24T21:20:30.000",
    "request_status": "Pending",
    "responsible_agency": "Department of Public Works",
    "final_address": "1005 N Claiborne Ave",
    "address_councildis": "D",
    "status": "Pending",
    "rowid": "1135187",
    "final_x": "3680408.87176",
    "final_y": "535616.227782",
    "longitude": "-90.07137325845567",
    "latitude": "29.966791999173722",
    "geocoded_column": {
      "latitude": "29.966791999173722",
      "longitude": "-90.07137325845567"
    }
  },
  {
    "service_request": "2024-1135186",
    "request_type": "Trash/Recycling",
    "request_reason": "Order Trash Cart",
    "date_created": "2024-09-24T21:17:12.000",
    "date_modified": "2024-09-24T21:17:13.000",
    "request_status": "Pending",
    "responsible_agency": "Department of Sanitation",
    "final_address": "6324 Arts St",
    "address_councildis": "D",
    "status": "Assigned to Contractor",
    "contractor": "IV Waste",
    "rowid": "1135186",
    "final_x": "3685556.71593",
    "final_y": "556499.275418",
    "longitude": "-90.05438031444537",
    "latitude": "30.024055995816934",
    "geocoded_column": {
      "latitude": "30.024055995816934",
      "longitude": "-90.05438031444537"
    }
  },
  {
    "service_request": "2024-1135185",
    "request_type": "General Services",
    "request_reason": "General Service Request",
    "date_created": "2024-09-24T21:16:28.000",
    "date_modified": "2024-09-24T21:16:28.000",
    "request_status": "Pending",
    "responsible_agency": "Orleans Parish Communication District",
    "final_address": "1000 Poland Ave",
    "address_councildis": "C",
    "status": "Pending",
    "rowid": "1135185",
    "final_x": "3692887.71689",
    "final_y": "534630.660166",
    "longitude": "-90.03200061116067",
    "latitude": "29.963698237428737",
    "geocoded_column": {
      "latitude": "29.963698237428737",
      "longitude": "-90.03200061116067"
    }
  },
  {
    "service_request": "2024-1135184",
    "request_type": "Streetlights",
    "request_reason": "Streetlight Outage/Malfunction",
    "date_created": "2024-09-24T21:14:12.000",
    "date_modified": "2024-09-24T21:14:14.000",
    "request_status": "Pending",
    "responsible_agency": "Department of Public Works",
    "final_address": "1941 State St",
    "address_councildis": "A",
    "status": "Pending",
    "contractor": "Legacy Professional Services",
    "rowid": "1135184",
    "final_x": "3666354.81537",
    "final_y": "524046.208316",
    "longitude": "-90.11614423688552",
    "latitude": "29.935396323268407",
    "geocoded_column": {
      "latitude": "29.935396323268407",
      "longitude": "-90.11614423688552"
    }
  },
  {
    "service_request": "2024-1135183",
    "request_type": "Trash/Recycling",
    "request_reason": "Replace Trash Cart",
    "date_created": "2024-09-24T21:03:08.000",
    "date_modified": "2024-09-24T21:03:09.000",
    "request_status": "Pending",
    "responsible_agency": "Department of Sanitation",
    "final_address": "7230 Queensway Dr",
    "address_councildis": "E",
    "status": "Assigned to Contractor",
    "contractor": "Waste Pro",
    "rowid": "1135183",
    "final_x": "3718550.67333",
    "final_y": "570220.805991",
    "longitude": "-89.94960336191922",
    "latitude": "30.060730735147263",
    "geocoded_column": {
      "latitude": "30.060730735147263",
      "longitude": "-89.94960336191922"
    }
  },
  {
    "service_request": "2024-1135182",
    "request_type": "Trash/Recycling",
    "request_reason": "Request a Large Item Pick Up",
    "date_created": "2024-09-24T21:00:19.000",
    "date_modified": "2024-09-24T21:00:20.000",
    "request_status": "Pending",
    "responsible_agency": "Department of Sanitation",
    "final_address": "7230 Queensway Dr",
    "address_councildis": "E",
    "status": "Assigned to Contractor",
    "contractor": "Waste Pro",
    "rowid": "1135182",
    "final_x": "3718550.67333",
    "final_y": "570220.805991",
    "longitude": "-89.94960336191922",
    "latitude": "30.060730735147263",
    "geocoded_column": {
      "latitude": "30.060730735147263",
      "longitude": "-89.94960336191922"
    }
  },
  {
    "service_request": "2024-1135181",
    "request_type": "Trash/Recycling",
    "request_reason": "Illegal Dumping",
    "date_created": "2024-09-24T20:57:07.000",
    "date_modified": "2024-09-24T20:57:07.000",
    "request_status": "Pending",
    "responsible_agency": "Department of Sanitation",
    "final_address": "5790 Eastover Dr",
    "address_councildis": "E",
    "status": "Pending",
    "rowid": "1135181",
    "final_x": "3719548.75199",
    "final_y": "563615.515681",
    "longitude": "-89.94670116919434",
    "latitude": "30.042535737777353",
    "geocoded_column": {
      "latitude": "30.042535737777353",
      "longitude": "-89.94670116919434"
    }
  },
  {
    "service_request": "2024-1135180",
    "request_type": "Trash/Recycling",
    "request_reason": "Replace Trash Cart",
    "date_created": "2024-09-24T20:48:54.000",
    "date_modified": "2024-09-24T20:48:55.000",
    "request_status": "Pending",
    "responsible_agency": "Department of Sanitation",
    "final_address": "4312 State Street Dr",
    "address_councildis": "B",
    "status": "Assigned to Contractor",
    "contractor": "IV Waste",
    "rowid": "1135180",
    "final_x": "3668517.67022",
    "final_y": "531372.909378",
    "longitude": "-90.10906893821529",
    "latitude": "29.955479021257013",
    "geocoded_column": {
      "latitude": "29.955479021257013",
      "longitude": "-90.10906893821529"
    }
  },
  {
    "service_request": "2024-1135179",
    "request_type": "Trash/Recycling",
    "request_reason": "Storm Debris Collection",
    "date_created": "2024-09-24T20:47:59.000",
    "date_modified": "2024-09-24T20:47:59.000",
    "request_status": "Pending",
    "responsible_agency": "Department of Sanitation",
    "final_address": "6 Grand Teton Ct",
    "address_councildis": "C",
    "status": "Pending",
    "rowid": "1135179",
    "final_x": "3699160.89373",
    "final_y": "516518.533493",
    "longitude": "-90.01284980762651",
    "latitude": "29.913698801482454",
    "geocoded_column": {
      "latitude": "29.913698801482454",
      "longitude": "-90.01284980762651"
    }
  },
  {
    "service_request": "2024-1135178",
    "request_type": "Roads and Streets",
    "request_reason": "Pothole",
    "date_created": "2024-09-24T20:45:58.000",
    "date_modified": "2024-09-24T20:45:58.000",
    "request_status": "Pending",
    "responsible_agency": "Department of Public Works",
    "final_address": "4475 Amanda St",
    "address_councildis": "C",
    "status": "Pending",
    "rowid": "1135178",
    "final_x": "3709752.6092",
    "final_y": "513050.891377",
    "longitude": "-89.97954861759402",
    "latitude": "29.903824112455904",
    "geocoded_column": {
      "latitude": "29.903824112455904",
      "longitude": "-89.97954861759402"
    }
  },
  {
    "service_request": "2024-1135177",
    "request_type": "Roads and Streets",
    "request_reason": "Debris in Driving Lanes",
    "date_created": "2024-09-24T20:42:54.000",
    "date_modified": "2024-09-24T20:42:54.000",
    "request_status": "Pending",
    "responsible_agency": "Department of Public Works",
    "final_address": "Highway 406 & Woodland Highway",
    "status": "Pending",
    "rowid": "1135177",
    "final_x": "3709458.13886",
    "final_y": "512707.868081",
    "longitude": "-89.98049074041553",
    "latitude": "29.902890479644427",
    "geocoded_column": {
      "latitude": "29.902890479644427",
      "longitude": "-89.98049074041553"
    }
  },
  {
    "service_request": "2024-1135176",
    "request_type": "Trash/Recycling",
    "request_reason": "Illegal Dumping",
    "date_created": "2024-09-24T20:38:14.000",
    "date_modified": "2024-09-24T20:38:14.000",
    "request_status": "Pending",
    "responsible_agency": "Department of Sanitation",
    "final_address": "5690 Eastover Dr",
    "address_councildis": "E",
    "status": "Pending",
    "rowid": "1135176",
    "final_x": "3719519.67557",
    "final_y": "562639.938592",
    "longitude": "-89.94683036868318",
    "latitude": "30.039854266670755",
    "geocoded_column": {
      "latitude": "30.039854266670755",
      "longitude": "-89.94683036868318"
    }
  },
  {
    "service_request": "2024-1135175",
    "request_type": "Trash/Recycling",
    "request_reason": "Request a Large Item Pick Up",
    "date_created": "2024-09-24T20:32:32.000",
    "date_modified": "2024-09-24T20:32:33.000",
    "request_status": "Pending",
    "responsible_agency": "Department of Sanitation",
    "final_address": "1222 Frenchmen St",
    "address_councildis": "C",
    "status": "Assigned to Contractor",
    "contractor": "IV Waste",
    "rowid": "1135175",
    "final_x": "3684510.02377",
    "final_y": "536832.931464",
    "longitude": "-90.05837909912964",
    "latitude": "29.97001267975877",
    "geocoded_column": {
      "latitude": "29.97001267975877",
      "longitude": "-90.05837909912964"
    }
  },
  {
    "service_request": "2024-1135174",
    "request_type": "Trash/Recycling",
    "request_reason": "Return Trash Cart",
    "date_created": "2024-09-24T20:21:37.000",
    "date_modified": "2024-09-24T20:21:39.000",
    "request_status": "Pending",
    "responsible_agency": "Department of Sanitation",
    "final_address": "356 Pine St",
    "address_councildis": "A",
    "status": "Assigned to Contractor",
    "contractor": "IV Waste",
    "rowid": "1135174",
    "final_x": "3661806.37485",
    "final_y": "523661.655291",
    "longitude": "-90.13051650010839",
    "latitude": "29.934470994983734",
    "geocoded_column": {
      "latitude": "29.934470994983734",
      "longitude": "-90.13051650010839"
    }
  },
  {
    "service_request": "2024-1135173",
    "request_type": "Trash/Recycling",
    "request_reason": "Replace Trash Cart",
    "date_created": "2024-09-24T20:18:35.000",
    "date_modified": "2024-09-24T20:18:36.000",
    "request_status": "Pending",
    "responsible_agency": "Department of Sanitation",
    "final_address": "5042 Savoie Ct",
    "address_councildis": "E",
    "status": "Assigned to Contractor",
    "contractor": "Waste Pro",
    "rowid": "1135173",
    "final_x": "3725711.94092",
    "final_y": "560980.12931",
    "longitude": "-89.92732553872973",
    "latitude": "30.035082997562537",
    "geocoded_column": {
      "latitude": "30.035082997562537",
      "longitude": "-89.92732553872973"
    }
  },
  {
    "service_request": "2024-1135172",
    "request_type": "Streetlights",
    "request_reason": "Streetlight Outage/Malfunction",
    "date_created": "2024-09-24T20:17:25.000",
    "date_modified": "2024-09-24T20:17:26.000",
    "request_status": "Pending",
    "responsible_agency": "Department of Public Works",
    "final_address": "Cambronne Street & South Claiborne Avenue",
    "address_councildis": "A",
    "status": "Pending",
    "contractor": "Legacy Professional Services",
    "rowid": "1135172",
    "final_x": "3664009.87111",
    "final_y": "532222.029827",
    "longitude": "-90.12327469148786",
    "latitude": "29.957945489251532",
    "geocoded_column": {
      "latitude": "29.957945489251532",
      "longitude": "-90.12327469148786"
    }
  },
  {
    "service_request": "2024-1135171",
    "request_type": "Trash/Recycling",
    "request_reason": "Request a Large Item Pick Up",
    "date_created": "2024-09-24T20:06:53.000",
    "date_modified": "2024-09-24T20:06:54.000",
    "request_status": "Pending",
    "responsible_agency": "Department of Sanitation",
    "final_address": "1111 Lyons St",
    "address_councildis": "B",
    "status": "Assigned to Contractor",
    "contractor": "IV Waste",
    "rowid": "1135171",
    "final_x": "3669186.54183",
    "final_y": "519458.615543",
    "longitude": "-90.10735939730678",
    "latitude": "29.92269889167618",
    "geocoded_column": {
      "latitude": "29.92269889167618",
      "longitude": "-90.10735939730678"
    }
  },
  {
    "service_request": "2024-1135170",
    "request_type": "Streetlights",
    "request_reason": "Streetlight Knocked Down/Leaning",
    "date_created": "2024-09-24T19:55:47.000",
    "date_modified": "2024-09-24T19:55:47.000",
    "request_status": "Pending",
    "responsible_agency": "Department of Public Works",
    "final_address": "1100 BLK Chartres St",
    "address_councildis": "C",
    "status": "Pending",
    "contractor": "Legacy Professional Services",
    "rowid": "1135170",
    "final_x": "3683831.78223",
    "final_y": "533546.733547",
    "longitude": "-90.0606363212997",
    "latitude": "29.960997502263087",
    "geocoded_column": {
      "latitude": "29.960997502263087",
      "longitude": "-90.0606363212997"
    }
  },
  {
    "service_request": "2024-1135169",
    "request_type": "Trash/Recycling",
    "request_reason": "Replace Trash Cart",
    "date_created": "2024-09-24T19:53:26.000",
    "date_modified": "2024-09-24T19:53:27.000",
    "request_status": "Pending",
    "responsible_agency": "Department of Sanitation",
    "final_address": "1104 Arabella St",
    "address_councildis": "A",
    "status": "Assigned to Contractor",
    "contractor": "IV Waste",
    "rowid": "1135169",
    "final_x": "3666006.08557",
    "final_y": "520010.418296",
    "longitude": "-90.11738038890164",
    "latitude": "29.92430936077309",
    "geocoded_column": {
      "latitude": "29.92430936077309",
      "longitude": "-90.11738038890164"
    }
  },
  {
    "service_request": "2024-1135168",
    "request_type": "Trash/Recycling",
    "request_reason": "Order Recycling Cart",
    "date_created": "2024-09-24T19:51:49.000",
    "date_modified": "2024-09-24T19:51:49.000",
    "request_status": "Pending",
    "responsible_agency": "Department of Sanitation",
    "final_address": "4733 De Montluzin St",
    "address_councildis": "D",
    "status": "Pending",
    "rowid": "1135168",
    "final_x": "3687203.48322",
    "final_y": "550574.591956",
    "longitude": "-90.04938662671078",
    "latitude": "30.007714656901204",
    "geocoded_column": {
      "latitude": "30.007714656901204",
      "longitude": "-90.04938662671078"
    }
  },
  {
    "service_request": "2024-1135167",
    "request_type": "Trash/Recycling",
    "request_reason": "Request a Large Item Pick Up",
    "date_created": "2024-09-24T19:33:29.000",
    "date_modified": "2024-09-24T19:33:30.000",
    "request_status": "Pending",
    "responsible_agency": "Department of Sanitation",
    "final_address": "203 Audubon Blvd",
    "address_councildis": "A",
    "status": "Assigned to Contractor",
    "contractor": "IV Waste",
    "rowid": "1135167",
    "final_x": "3666360.57639",
    "final_y": "528402.465856",
    "longitude": "-90.11597993864528",
    "latitude": "29.947374463402497",
    "geocoded_column": {
      "latitude": "29.947374463402497",
      "longitude": "-90.11597993864528"
    }
  },
  {
    "service_request": "2024-1135166",
    "request_type": "Streetlights",
    "request_reason": "Streetlight Knocked Down/Leaning",
    "date_created": "2024-09-24T19:31:42.000",
    "date_modified": "2024-09-24T19:31:44.000",
    "request_status": "Pending",
    "responsible_agency": "Department of Public Works",
    "final_address": "2820 Calhoun St",
    "address_councildis": "A",
    "status": "Pending",
    "contractor": "Legacy Professional Services",
    "rowid": "1135166",
    "final_x": "3666603.53844",
    "final_y": "527104.485631",
    "longitude": "-90.1152563774034",
    "latitude": "29.943798337317492",
    "geocoded_column": {
      "latitude": "29.943798337317492",
      "longitude": "-90.1152563774034"
    }
  },
  {
    "service_request": "2024-1135165",
    "request_type": "Roads and Streets",
    "request_reason": "Street Subsidence (Sinking)",
    "date_created": "2024-09-24T19:28:19.000",
    "date_modified": "2024-09-24T19:28:19.000",
    "request_status": "Pending",
    "responsible_agency": "Department of Public Works",
    "final_address": "4508 Dreux Ave",
    "address_councildis": "D",
    "status": "Pending",
    "rowid": "1135165",
    "final_x": "3690395.61148",
    "final_y": "552832.05999",
    "longitude": "-90.03922124410262",
    "latitude": "30.013823123570408",
    "geocoded_column": {
      "latitude": "30.013823123570408",
      "longitude": "-90.03922124410262"
    }
  },
  {
    "service_request": "2024-1135164",
    "request_type": "Streetlights",
    "request_reason": "Streetlight Outage/Malfunction",
    "date_created": "2024-09-24T19:27:43.000",
    "date_modified": "2024-09-24T19:27:45.000",
    "request_status": "Pending",
    "responsible_agency": "Department of Public Works",
    "final_address": "2420 Laharpe St",
    "address_councildis": "D",
    "status": "Pending",
    "contractor": "Legacy Professional Services",
    "rowid": "1135164",
    "final_x": "3679553.10555",
    "final_y": "539292.629578",
    "longitude": "-90.07394816015342",
    "latitude": "29.97692672748405",
    "geocoded_column": {
      "latitude": "29.97692672748405",
      "longitude": "-90.07394816015342"
    }
  },
  {
    "service_request": "2024-1135163",
    "request_type": "General Services",
    "request_reason": "General Service Request",
    "date_created": "2024-09-24T19:27:14.000",
    "date_modified": "2024-09-24T19:27:14.000",
    "request_status": "Pending",
    "responsible_agency": "Orleans Parish Communication District",
    "final_address": "4611 N Robertson St",
    "address_councildis": "D",
    "status": "Pending",
    "rowid": "1135163",
    "final_x": "3694190.5608",
    "final_y": "536348.767815",
    "longitude": "-90.02782456372283",
    "latitude": "29.9683816759696",
    "geocoded_column": {
      "latitude": "29.9683816759696",
      "longitude": "-90.02782456372283"
    }
  },
  {
    "service_request": "2024-1135162",
    "request_type": "Abandoned Vehicles",
    "request_reason": "Abandoned/Junk Vehicles",
    "date_created": "2024-09-24T19:12:29.000",
    "date_modified": "2024-09-24T19:12:29.000",
    "request_status": "Pending",
    "responsible_agency": "Department of Public Works",
    "final_address": "3601 Danneel St",
    "address_councildis": "B",
    "status": "Pending",
    "rowid": "1135162",
    "final_x": "3672939.87508",
    "final_y": "522634.003642",
    "longitude": "-90.0954033038108",
    "latitude": "29.931319232724974",
    "geocoded_column": {
      "latitude": "29.931319232724974",
      "longitude": "-90.0954033038108"
    }
  },
  {
    "service_request": "2024-1135161",
    "request_type": "Trash/Recycling",
    "request_reason": "Illegal Dumping",
    "date_created": "2024-09-24T19:08:08.000",
    "date_modified": "2024-09-24T19:08:08.000",
    "request_status": "Pending",
    "responsible_agency": "Department of Sanitation",
    "final_address": "2900 BLK Vespasian St",
    "address_councildis": "C",
    "status": "Pending",
    "rowid": "1135161",
    "final_x": "3694861.09318",
    "final_y": "522675.000698",
    "longitude": "-90.02619960927481",
    "latitude": "29.930762554587307",
    "geocoded_column": {
      "latitude": "29.930762554587307",
      "longitude": "-90.02619960927481"
    }
  },
  {
    "service_request": "2024-1135160",
    "request_type": "Streetlights",
    "request_reason": "Streetlight Knocked Down/Leaning",
    "date_created": "2024-09-24T18:43:10.000",
    "date_modified": "2024-09-24T18:43:11.000",
    "request_status": "Pending",
    "responsible_agency": "Department of Public Works",
    "final_address": "800 St Charles Ave",
    "address_councildis": "B",
    "status": "Pending",
    "contractor": "Legacy Professional Services",
    "rowid": "1135160",
    "final_x": "3680423.79291",
    "final_y": "527963.034111",
    "longitude": "-90.07159227160511",
    "latitude": "29.945747855274586",
    "geocoded_column": {
      "latitude": "29.945747855274586",
      "longitude": "-90.07159227160511"
    }
  },
  {
    "service_request": "2024-1135159",
    "request_type": "Trash/Recycling",
    "request_reason": "Request a Large Item Pick Up",
    "date_created": "2024-09-24T18:23:08.000",
    "date_modified": "2024-09-24T18:23:09.000",
    "request_status": "Pending",
    "responsible_agency": "Department of Sanitation",
    "final_address": "2205 Arts St",
    "address_councildis": "D",
    "status": "Assigned to Contractor",
    "contractor": "IV Waste",
    "rowid": "1135159",
    "final_x": "3686933.5974",
    "final_y": "540615.103179",
    "longitude": "-90.0505915156004",
    "latitude": "29.98033795158774",
    "geocoded_column": {
      "latitude": "29.98033795158774",
      "longitude": "-90.0505915156004"
    }
  },
  {
    "service_request": "2024-1135158",
    "request_type": "Trash/Recycling",
    "request_reason": "Return Trash Cart",
    "date_created": "2024-09-24T18:18:00.000",
    "date_modified": "2024-09-24T18:18:01.000",
    "request_status": "Pending",
    "responsible_agency": "Department of Sanitation",
    "final_address": "7412 Zimple St",
    "address_councildis": "A",
    "status": "Assigned to Contractor",
    "contractor": "IV Waste",
    "rowid": "1135158",
    "final_x": "3663354.79405",
    "final_y": "526585.026238",
    "longitude": "-90.12553087591728",
    "latitude": "29.942464551519446",
    "geocoded_column": {
      "latitude": "29.942464551519446",
      "longitude": "-90.12553087591728"
    }
  },
  {
    "service_request": "2024-1135157",
    "request_type": "Parks & Parkways",
    "request_reason": "Request Tree Service (Right of Way/Public Property)",
    "date_created": "2024-09-24T18:10:27.000",
    "date_modified": "2024-09-24T18:10:27.000",
    "request_status": "Pending",
    "responsible_agency": "Department of Parks & Parkway",
    "final_address": "2301 Leon C Simon Dr",
    "address_councildis": "D",
    "status": "Pending",
    "rowid": "1135157",
    "final_x": "3684175.97333",
    "final_y": "557075.185114",
    "longitude": "-90.05872295040048",
    "latitude": "30.025681837943758",
    "geocoded_column": {
      "latitude": "30.025681837943758",
      "longitude": "-90.05872295040048"
    }
  },
  {
    "service_request": "2024-1135156",
    "request_type": "Parks & Parkways",
    "request_reason": "Request Grass Cutting Service (City Owned Property)",
    "date_created": "2024-09-24T18:10:18.000",
    "date_modified": "2024-09-24T18:10:18.000",
    "request_status": "Pending",
    "responsible_agency": "Department of Parks & Parkway",
    "final_address": "2639 Fats Domino Ave",
    "address_councildis": "E",
    "status": "Pending",
    "rowid": "1135156",
    "final_x": "3699735.23562",
    "final_y": "539704.193354",
    "longitude": "-90.01019196575811",
    "latitude": "29.977433014530042",
    "geocoded_column": {
      "latitude": "29.977433014530042",
      "longitude": "-90.01019196575811"
    }
  },
  {
    "service_request": "2024-1135155",
    "request_type": "Hurricane Francine Tree-Related Issues or Emergencies\t",
    "request_reason": "Hurricane Francine Tree-Related Issues or Emergencies",
    "date_created": "2024-09-24T18:09:06.000",
    "date_modified": "2024-09-24T18:09:06.000",
    "request_status": "Pending",
    "responsible_agency": "Department of Parks & Parkway",
    "final_address": "7412 Zimple St",
    "address_councildis": "A",
    "status": "Pending",
    "rowid": "1135155",
    "final_x": "3663354.79405",
    "final_y": "526585.026238",
    "longitude": "-90.12553087591728",
    "latitude": "29.942464551519446",
    "geocoded_column": {
      "latitude": "29.942464551519446",
      "longitude": "-90.12553087591728"
    }
  },
  {
    "service_request": "2024-1135154",
    "request_type": "Trash/Recycling",
    "request_reason": "Order Recycling Cart",
    "date_created": "2024-09-24T17:58:51.000",
    "date_modified": "2024-09-24T17:58:51.000",
    "request_status": "Pending",
    "responsible_agency": "Department of Sanitation",
    "final_address": "7521 Shaw Ave",
    "address_councildis": "E",
    "status": "Pending",
    "rowid": "1135154",
    "final_x": "3707385.80542",
    "final_y": "563997.928161",
    "longitude": "-89.98512634187004",
    "latitude": "30.043986323929698",
    "geocoded_column": {
      "latitude": "30.043986323929698",
      "longitude": "-89.98512634187004"
    }
  },
  {
    "service_request": "2024-1135153",
    "request_type": "Abandoned Vehicles",
    "request_reason": "Vehicle Blocking Your Driveway",
    "date_created": "2024-09-24T17:38:41.000",
    "date_modified": "2024-09-24T17:38:41.000",
    "request_status": "Pending",
    "responsible_agency": "Department of Public Works",
    "final_address": "3025 Iberville St",
    "address_councildis": "B",
    "status": "Pending",
    "rowid": "1135153",
    "final_x": "3674476.64884",
    "final_y": "536364.205831",
    "longitude": "-90.09008160027939",
    "latitude": "29.96902699855416",
    "geocoded_column": {
      "latitude": "29.96902699855416",
      "longitude": "-90.09008160027939"
    }
  },
  {
    "service_request": "2024-1135152",
    "request_type": "Trash/Recycling",
    "request_reason": "Repair Trash Cart",
    "date_created": "2024-09-24T17:38:36.000",
    "date_modified": "2024-09-24T17:38:38.000",
    "request_status": "Pending",
    "responsible_agency": "Department of Sanitation",
    "final_address": "330 N St Patrick St",
    "address_councildis": "A",
    "status": "Assigned to Contractor",
    "contractor": "IV Waste",
    "rowid": "1135152",
    "final_x": "3669790.38106",
    "final_y": "540658.637131",
    "longitude": "-90.10473577831225",
    "latitude": "29.980974215737966",
    "geocoded_column": {
      "latitude": "29.980974215737966",
      "longitude": "-90.10473577831225"
    }
  },
  {
    "service_request": "2024-1135151",
    "request_type": "Drainage",
    "request_reason": "Catch Basin Clogged",
    "date_created": "2024-09-24T17:13:05.000",
    "date_modified": "2024-09-24T17:13:05.000",
    "request_status": "Pending",
    "responsible_agency": "Department of Public Works",
    "final_address": "2028 Mandeville St",
    "address_councildis": "D",
    "status": "Pending",
    "rowid": "1135151",
    "final_x": "3685450.93929",
    "final_y": "539943.600906",
    "longitude": "-90.05529802855881",
    "latitude": "29.978537112033457",
    "geocoded_column": {
      "latitude": "29.978537112033457",
      "longitude": "-90.05529802855881"
    }
  },
  {
    "service_request": "2024-1135150",
    "request_type": "Parks & Parkways",
    "request_reason": "Request Tree Service (Right of Way/Public Property)",
    "date_created": "2024-09-24T17:09:42.000",
    "date_modified": "2024-09-24T17:09:42.000",
    "request_status": "Pending",
    "responsible_agency": "Department of Parks & Parkway",
    "final_address": "2301 Leon C Simon Dr",
    "address_councildis": "D",
    "status": "Pending",
    "rowid": "1135150",
    "final_x": "3684175.97333",
    "final_y": "557075.185114",
    "longitude": "-90.05872295040048",
    "latitude": "30.025681837943758",
    "geocoded_column": {
      "latitude": "30.025681837943758",
      "longitude": "-90.05872295040048"
    }
  },
  {
    "service_request": "2024-1135149",
    "request_type": "Trash/Recycling",
    "request_reason": "Replace Recycling Cart",
    "date_created": "2024-09-24T17:06:10.000",
    "date_modified": "2024-09-24T17:06:10.000",
    "request_status": "Pending",
    "responsible_agency": "Department of Sanitation",
    "final_address": "1754 Rousselin Dr",
    "address_councildis": "D",
    "status": "Pending",
    "rowid": "1135149",
    "final_x": "3680111.87426",
    "final_y": "540895.472139",
    "longitude": "-90.07212767162841",
    "latitude": "29.981317089483085",
    "geocoded_column": {
      "latitude": "29.981317089483085",
      "longitude": "-90.07212767162841"
    }
  },
  {
    "service_request": "2024-1135148",
    "request_type": "Property Maintenance",
    "request_reason": "Property Maintenance",
    "date_created": "2024-09-24T16:56:36.000",
    "date_modified": "2024-09-24T16:56:37.000",
    "request_status": "Pending",
    "responsible_agency": "Department of Code Enforcement",
    "final_address": "TOURO ST & N DORGENOIS ST",
    "address_councildis": "D",
    "status": "Pending",
    "rowid": "1135148",
    "final_x": "3683821.2",
    "final_y": "541394.38",
    "longitude": "-90.06039443609096",
    "latitude": "29.98257612691052",
    "geocoded_column": {
      "latitude": "29.98257612691052",
      "longitude": "-90.06039443609096"
    }
  },
  {
    "service_request": "2024-1135147",
    "request_type": "Trash/Recycling",
    "request_reason": "Request a Large Item Pick Up",
    "date_created": "2024-09-24T16:50:54.000",
    "date_modified": "2024-09-24T16:50:55.000",
    "request_status": "Pending",
    "responsible_agency": "Department of Sanitation",
    "final_address": "3601 Franklin Ave",
    "address_councildis": "D",
    "status": "Assigned to Contractor",
    "contractor": "IV Waste",
    "rowid": "1135147",
    "final_x": "3687224.25711",
    "final_y": "546110.127184",
    "longitude": "-90.04947903007469",
    "latitude": "29.995438356936866",
    "geocoded_column": {
      "latitude": "29.995438356936866",
      "longitude": "-90.04947903007469"
    }
  },
  {
    "service_request": "2024-1135146",
    "request_type": "Trash/Recycling",
    "request_reason": "Request a Large Item Pick Up",
    "date_created": "2024-09-24T16:50:14.000",
    "date_modified": "2024-09-24T16:50:15.000",
    "request_status": "Pending",
    "responsible_agency": "Department of Sanitation",
    "final_address": "500 Tupelo St",
    "address_councildis": "E",
    "status": "Assigned to Contractor",
    "contractor": "Waste Pro",
    "rowid": "1135146",
    "final_x": "3698646.29872",
    "final_y": "531292.730946",
    "longitude": "-90.01393707199921",
    "latitude": "29.95433903251166",
    "geocoded_column": {
      "latitude": "29.95433903251166",
      "longitude": "-90.01393707199921"
    }
  },
  {
    "service_request": "2024-1135145",
    "request_type": "Utility Poles",
    "request_reason": "Wires Sagging/Hanging Low",
    "date_created": "2024-09-24T16:48:14.000",
    "date_modified": "2024-09-24T16:48:19.000",
    "request_status": "Pending",
    "responsible_agency": "Utility Company Collective",
    "final_address": "7847 Devine Ave",
    "address_councildis": "E",
    "status": "Pending",
    "rowid": "1135145",
    "final_x": "3705364.93847",
    "final_y": "563750.633121",
    "longitude": "-89.99152227533945",
    "latitude": "30.04337158546476",
    "geocoded_column": {
      "latitude": "30.04337158546476",
      "longitude": "-89.99152227533945"
    }
  },
  {
    "service_request": "2024-1135144",
    "request_type": "Streetlights",
    "request_reason": "Streetlight Outage/Malfunction",
    "date_created": "2024-09-24T16:42:33.000",
    "date_modified": "2024-09-24T16:42:34.000",
    "request_status": "Pending",
    "responsible_agency": "Department of Public Works",
    "final_address": "2181 N Rocheblave St",
    "address_councildis": "D",
    "status": "Pending",
    "contractor": "Legacy Professional Services",
    "rowid": "1135144",
    "final_x": "3684357.4461",
    "final_y": "541115.16462",
    "longitude": "-90.05871051723813",
    "latitude": "29.981791991581165",
    "geocoded_column": {
      "latitude": "29.981791991581165",
      "longitude": "-90.05871051723813"
    }
  },
  {
    "service_request": "2024-1135143",
    "request_type": "Trash/Recycling",
    "request_reason": "Order Second Trash Cart",
    "date_created": "2024-09-24T16:41:35.000",
    "date_modified": "2024-09-24T16:41:36.000",
    "request_status": "Pending",
    "responsible_agency": "Department of Sanitation",
    "final_address": "1921 Independence St",
    "address_councildis": "D",
    "status": "Assigned to Contractor",
    "contractor": "IV Waste",
    "rowid": "1135143",
    "final_x": "3691793.79984",
    "final_y": "538689.441033",
    "longitude": "-90.03530988278393",
    "latitude": "29.974892566674427",
    "geocoded_column": {
      "latitude": "29.974892566674427",
      "longitude": "-90.03530988278393"
    }
  },
  {
    "service_request": "2024-1135142",
    "request_type": "Parks & Parkways",
    "request_reason": "Request Tree Service (Right of Way/Public Property)",
    "date_created": "2024-09-24T16:39:48.000",
    "date_modified": "2024-09-24T16:39:49.000",
    "request_status": "Pending",
    "responsible_agency": "Department of Parks & Parkway",
    "final_address": "3125 Bell St",
    "address_councildis": "A",
    "status": "Pending",
    "rowid": "1135142",
    "final_x": "3676079.78888",
    "final_y": "539526.13409",
    "longitude": "-90.08490997452002",
    "latitude": "29.977673295617663",
    "geocoded_column": {
      "latitude": "29.977673295617663",
      "longitude": "-90.08490997452002"
    }
  },
  {
    "service_request": "2024-1135141",
    "request_type": "Trash/Recycling",
    "request_reason": "Storm Debris Collection",
    "date_created": "2024-09-24T16:36:31.000",
    "date_modified": "2024-09-24T16:36:33.000",
    "request_status": "Pending",
    "responsible_agency": "Department of Sanitation",
    "final_address": "4718 Coronado Dr",
    "address_councildis": "E",
    "status": "Pending",
    "rowid": "1135141",
    "final_x": "3714069.96331",
    "final_y": "556352.880538",
    "longitude": "-89.9642903602971",
    "latitude": "30.022747558075785",
    "geocoded_column": {
      "latitude": "30.022747558075785",
      "longitude": "-89.9642903602971"
    }
  },
  {
    "service_request": "2024-1135140",
    "request_type": "Trash/Recycling",
    "request_reason": "Request a Large Item Pick Up",
    "date_created": "2024-09-24T16:36:11.000",
    "date_modified": "2024-09-24T16:36:13.000",
    "request_status": "Pending",
    "responsible_agency": "Department of Sanitation",
    "final_address": "4718 Coronado Dr",
    "address_councildis": "E",
    "status": "Assigned to Contractor",
    "contractor": "Waste Pro",
    "rowid": "1135140",
    "final_x": "3714069.96331",
    "final_y": "556352.880538",
    "longitude": "-89.9642903602971",
    "latitude": "30.022747558075785",
    "geocoded_column": {
      "latitude": "30.022747558075785",
      "longitude": "-89.9642903602971"
    }
  },
  {
    "service_request": "2024-1135139",
    "request_type": "Trash/Recycling",
    "request_reason": "Storm Debris Collection",
    "date_created": "2024-09-24T16:35:31.000",
    "date_modified": "2024-09-24T16:35:32.000",
    "request_status": "Pending",
    "responsible_agency": "Department of Sanitation",
    "final_address": "3123 Bell St",
    "address_councildis": "A",
    "status": "Pending",
    "rowid": "1135139",
    "final_x": "3676122.0107",
    "final_y": "539509.752714",
    "longitude": "-90.08477718721687",
    "latitude": "29.97762698749954",
    "geocoded_column": {
      "latitude": "29.97762698749954",
      "longitude": "-90.08477718721687"
    }
  },
  {
    "service_request": "2024-1135138",
    "request_type": "Trash/Recycling",
    "request_reason": "Storm Debris Collection",
    "date_created": "2024-09-24T16:33:20.000",
    "date_modified": "2024-09-24T16:33:21.000",
    "request_status": "Pending",
    "responsible_agency": "Department of Sanitation",
    "final_address": "6021 Wright Rd",
    "address_councildis": "E",
    "status": "Pending",
    "rowid": "1135138",
    "final_x": "3713311.47621",
    "final_y": "562694.333856",
    "longitude": "-89.96644794965384",
    "latitude": "30.040208924761295",
    "geocoded_column": {
      "latitude": "30.040208924761295",
      "longitude": "-89.96644794965384"
    }
  },
  {
    "service_request": "2024-1135137",
    "request_type": "Roads and Streets",
    "request_reason": "Abandoned Service Cut",
    "date_created": "2024-09-24T16:33:06.000",
    "date_modified": "2024-09-24T16:33:06.000",
    "request_status": "Pending",
    "responsible_agency": "Department of Public Works",
    "final_address": "7909 Belfast St",
    "address_councildis": "A",
    "status": "Pending",
    "rowid": "1135137",
    "final_x": "3666126.17268",
    "final_y": "531935.584451",
    "longitude": "-90.11660158789124",
    "latitude": "29.957096235987667",
    "geocoded_column": {
      "latitude": "29.957096235987667",
      "longitude": "-90.11660158789124"
    }
  },
  {
    "service_request": "2024-1135136",
    "request_type": "Trash/Recycling",
    "request_reason": "Order Recycling Cart",
    "date_created": "2024-09-24T16:32:34.000",
    "date_modified": "2024-09-24T16:32:35.000",
    "request_status": "Pending",
    "responsible_agency": "Department of Sanitation",
    "final_address": "2932 St Ann St",
    "address_councildis": "A",
    "status": "Pending",
    "rowid": "1135136",
    "final_x": "3675980.32392",
    "final_y": "537895.080649",
    "longitude": "-90.08528022866295",
    "latitude": "29.97319143638507",
    "geocoded_column": {
      "latitude": "29.97319143638507",
      "longitude": "-90.08528022866295"
    }
  },
  {
    "service_request": "2024-1135134",
    "request_type": "Trash/Recycling",
    "request_reason": "Repair Trash Cart",
    "date_created": "2024-09-24T16:30:50.000",
    "date_modified": "2024-09-24T16:30:52.000",
    "request_status": "Pending",
    "responsible_agency": "Department of Sanitation",
    "final_address": "909 Wilson Dr Apt A",
    "address_councildis": "A",
    "status": "Assigned to Contractor",
    "contractor": "IV Waste",
    "rowid": "1135134",
    "final_x": "3674061.2555",
    "final_y": "540009.079243",
    "longitude": "-90.09126866871706",
    "latitude": "29.97906154692585",
    "geocoded_column": {
      "latitude": "29.97906154692585",
      "longitude": "-90.09126866871706"
    }
  },
  {
    "service_request": "2024-1135133",
    "request_type": "Parks & Parkways",
    "request_reason": "Request Tree Service (Right of Way/Public Property)",
    "date_created": "2024-09-24T16:30:17.000",
    "date_modified": "2024-09-24T16:30:17.000",
    "request_status": "Pending",
    "responsible_agency": "Department of Parks & Parkway",
    "final_address": "ST ROCH AVE & HUMANITY ST",
    "address_councildis": "D",
    "status": "Pending",
    "rowid": "1135133",
    "final_x": "3685846.7",
    "final_y": "544896.88",
    "longitude": "-90.05387338677238",
    "latitude": "29.9921447298895",
    "geocoded_column": {
      "latitude": "29.9921447298895",
      "longitude": "-90.05387338677238"
    }
  },
  {
    "service_request": "2024-1135132",
    "request_type": "Property Maintenance",
    "request_reason": "Property Maintenance",
    "date_created": "2024-09-24T16:30:09.000",
    "date_modified": "2024-09-24T16:30:09.000",
    "request_status": "Pending",
    "responsible_agency": "Department of Code Enforcement",
    "final_address": "232 28Th St",
    "address_councildis": "A",
    "status": "Pending",
    "rowid": "1135132",
    "final_x": "3665528.8752",
    "final_y": "550170.05538",
    "longitude": "-90.11787690485842",
    "latitude": "30.007252319739372",
    "geocoded_column": {
      "latitude": "30.007252319739372",
      "longitude": "-90.11787690485842"
    }
  },
  {
    "service_request": "2024-1135130",
    "request_type": "Trash/Recycling",
    "request_reason": "Storm Debris Collection",
    "date_created": "2024-09-24T16:29:38.000",
    "date_modified": "2024-09-24T16:29:40.000",
    "request_status": "Pending",
    "responsible_agency": "Department of Sanitation",
    "final_address": "7808 Woodbine Dr",
    "address_councildis": "E",
    "status": "Pending",
    "rowid": "1135130",
    "final_x": "3701713.2209",
    "final_y": "561833.205855",
    "longitude": "-90.00313351483062",
    "latitude": "30.038216487842366",
    "geocoded_column": {
      "latitude": "30.038216487842366",
      "longitude": "-90.00313351483062"
    }
  },
  {
    "service_request": "2024-1135129",
    "request_type": "Parks & Parkways",
    "request_reason": "Request Tree Service (Right of Way/Public Property)",
    "date_created": "2024-09-24T16:26:08.000",
    "date_modified": "2024-09-24T16:26:09.000",
    "request_status": "Pending",
    "responsible_agency": "Department of Parks & Parkway",
    "final_address": "GENTILLY BLVD & CLEMATIS AVE",
    "address_councildis": "D",
    "status": "Pending",
    "rowid": "1135129",
    "final_x": "3685013.64",
    "final_y": "548431.58",
    "longitude": "-90.05638042194524",
    "latitude": "30.00188943810654",
    "geocoded_column": {
      "latitude": "30.00188943810654",
      "longitude": "-90.05638042194524"
    }
  },
  {
    "service_request": "2024-1135128",
    "request_type": "Trash/Recycling",
    "request_reason": "Storm Debris Collection",
    "date_created": "2024-09-24T16:24:01.000",
    "date_modified": "2024-09-24T16:24:02.000",
    "request_status": "Pending",
    "responsible_agency": "Department of Sanitation",
    "final_address": "2319 Lowerline St",
    "address_councildis": "A",
    "status": "Pending",
    "rowid": "1135128",
    "final_x": "3666007.34868",
    "final_y": "530151.576705",
    "longitude": "-90.11703659618213",
    "latitude": "29.952194265219717",
    "geocoded_column": {
      "latitude": "29.952194265219717",
      "longitude": "-90.11703659618213"
    }
  },
  {
    "service_request": "2024-1135127",
    "request_type": "Trash/Recycling",
    "request_reason": "Order Second Trash Cart",
    "date_created": "2024-09-24T16:18:07.000",
    "date_modified": "2024-09-24T16:18:08.000",
    "request_status": "Pending",
    "responsible_agency": "Department of Sanitation",
    "final_address": "3812 Fourth St",
    "address_councildis": "B",
    "status": "Assigned to Contractor",
    "contractor": "IV Waste",
    "rowid": "1135127",
    "final_x": "3671854.03387",
    "final_y": "529206.0992",
    "longitude": "-90.09860760927495",
    "latitude": "29.949422568776228",
    "geocoded_column": {
      "latitude": "29.949422568776228",
      "longitude": "-90.09860760927495"
    }
  },
  {
    "service_request": "2024-1135126",
    "request_type": "Trash/Recycling",
    "request_reason": "Request a Large Item Pick Up",
    "date_created": "2024-09-24T16:16:56.000",
    "date_modified": "2024-09-24T16:16:57.000",
    "request_status": "Pending",
    "responsible_agency": "Department of Sanitation",
    "final_address": "4700 Coronado Dr",
    "address_councildis": "E",
    "status": "Assigned to Contractor",
    "contractor": "Waste Pro",
    "rowid": "1135126",
    "final_x": "3714081.08824",
    "final_y": "556208.961818",
    "longitude": "-89.96426064189482",
    "latitude": "30.022351472970552",
    "geocoded_column": {
      "latitude": "30.022351472970552",
      "longitude": "-89.96426064189482"
    }
  },
  {
    "service_request": "2024-1135125",
    "request_type": "Streetlights",
    "request_reason": "Streetlight Outage/Malfunction",
    "date_created": "2024-09-24T16:14:22.000",
    "date_modified": "2024-09-24T16:14:23.000",
    "request_status": "Pending",
    "responsible_agency": "Department of Public Works",
    "final_address": "4956 Tynecastle Dr",
    "address_councildis": "E",
    "status": "Pending",
    "contractor": "Legacy Professional Services",
    "rowid": "1135125",
    "final_x": "3718320.06143",
    "final_y": "558261.352732",
    "longitude": "-89.95078843758998",
    "latitude": "30.027854782501937",
    "geocoded_column": {
      "latitude": "30.027854782501937",
      "longitude": "-89.95078843758998"
    }
  },
  {
    "service_request": "2024-1135124",
    "request_type": "Roads and Streets",
    "request_reason": "Abandoned Service Cut",
    "date_created": "2024-09-24T16:13:27.000",
    "date_modified": "2024-09-24T16:13:27.000",
    "request_status": "Pending",
    "responsible_agency": "Department of Public Works",
    "final_address": "1525 Erie St",
    "address_councildis": "C",
    "status": "Pending",
    "rowid": "1135124",
    "final_x": "3690196.41456",
    "final_y": "522393.58777",
    "longitude": "-90.04093530551678",
    "latitude": "29.930134257767932",
    "geocoded_column": {
      "latitude": "29.930134257767932",
      "longitude": "-90.04093530551678"
    }
  },
  {
    "service_request": "2024-1135123",
    "request_type": "Drainage",
    "request_reason": "Catch Basin Damaged",
    "date_created": "2024-09-24T16:12:19.000",
    "date_modified": "2024-09-24T16:12:19.000",
    "request_status": "Pending",
    "responsible_agency": "Department of Public Works",
    "final_address": "3104 Toulouse St",
    "address_councildis": "A",
    "status": "Pending",
    "rowid": "1135123",
    "final_x": "3675107.67336",
    "final_y": "537535.905992",
    "longitude": "-90.08804856491675",
    "latitude": "29.972229934839348",
    "geocoded_column": {
      "latitude": "29.972229934839348",
      "longitude": "-90.08804856491675"
    }
  },
  {
    "service_request": "2024-1135122",
    "request_type": "Trash/Recycling",
    "request_reason": "Request a Large Item Pick Up",
    "date_created": "2024-09-24T16:11:09.000",
    "date_modified": "2024-09-24T16:11:10.000",
    "request_status": "Pending",
    "responsible_agency": "Department of Sanitation",
    "final_address": "6125 Hurst St",
    "address_councildis": "A",
    "status": "Assigned to Contractor",
    "contractor": "IV Waste",
    "rowid": "1135122",
    "final_x": "3664895.78183",
    "final_y": "522126.382394",
    "longitude": "-90.1208145673127",
    "latitude": "29.930159946687763",
    "geocoded_column": {
      "latitude": "29.930159946687763",
      "longitude": "-90.1208145673127"
    }
  },
  {
    "service_request": "2024-1135121",
    "request_type": "Trash/Recycling",
    "request_reason": "Missed Trash Pick-Up",
    "date_created": "2024-09-24T16:09:02.000",
    "date_modified": "2024-09-24T16:09:03.000",
    "request_status": "Pending",
    "responsible_agency": "Department of Sanitation",
    "final_address": "5004 Bienville Ave",
    "address_councildis": "A",
    "status": "Assigned to Contractor",
    "contractor": "IV Waste",
    "rowid": "1135121",
    "final_x": "3668627.69863",
    "final_y": "541150.008524",
    "longitude": "-90.1083914688046",
    "latitude": "29.982359548104895",
    "geocoded_column": {
      "latitude": "29.982359548104895",
      "longitude": "-90.1083914688046"
    }
  },
  {
    "service_request": "2024-1135120",
    "request_type": "Trash/Recycling",
    "request_reason": "Order Recycling Cart",
    "date_created": "2024-09-24T16:07:55.000",
    "date_modified": "2024-09-24T16:07:56.000",
    "request_status": "Pending",
    "responsible_agency": "Department of Sanitation",
    "final_address": "516 Fourth St",
    "address_councildis": "B",
    "status": "Pending",
    "rowid": "1135120",
    "final_x": "3678445.67803",
    "final_y": "519233.064247",
    "longitude": "-90.07813977684566",
    "latitude": "29.921803050413434",
    "geocoded_column": {
      "latitude": "29.921803050413434",
      "longitude": "-90.07813977684566"
    }
  },
  {
    "service_request": "2024-1135119",
    "request_type": "Trash/Recycling",
    "request_reason": "Replace Trash Cart",
    "date_created": "2024-09-24T16:07:38.000",
    "date_modified": "2024-09-24T16:07:39.000",
    "request_status": "Pending",
    "responsible_agency": "Department of Sanitation",
    "final_address": "7209 W Tamaron Blvd",
    "address_councildis": "E",
    "status": "Assigned to Contractor",
    "contractor": "Waste Pro",
    "rowid": "1135119",
    "final_x": "3717925.52204",
    "final_y": "569385.89559",
    "longitude": "-89.95161124812182",
    "latitude": "30.05845582148128",
    "geocoded_column": {
      "latitude": "30.05845582148128",
      "longitude": "-89.95161124812182"
    }
  },
  {
    "service_request": "2024-1135118",
    "request_type": "Streetlights",
    "request_reason": "Streetlight Outage/Malfunction",
    "date_created": "2024-09-24T16:06:37.000",
    "date_modified": "2024-09-24T16:06:38.000",
    "request_status": "Pending",
    "responsible_agency": "Department of Public Works",
    "final_address": "6464 Canal Blvd",
    "address_councildis": "A",
    "status": "Pending",
    "contractor": "Legacy Professional Services",
    "rowid": "1135118",
    "final_x": "3668612.18145",
    "final_y": "550567.877716",
    "longitude": "-90.10812241228263",
    "latitude": "30.00825590088546",
    "geocoded_column": {
      "latitude": "30.00825590088546",
      "longitude": "-90.10812241228263"
    }
  },
  {
    "service_request": "2024-1135117",
    "request_type": "Abandoned Vehicles",
    "request_reason": "Abandoned/Junk Vehicles",
    "date_created": "2024-09-24T16:06:22.000",
    "date_modified": "2024-09-24T16:06:23.000",
    "request_status": "Pending",
    "responsible_agency": "Department of Public Works",
    "final_address": "2129 Laurel St",
    "address_councildis": "B",
    "status": "Pending",
    "rowid": "1135117",
    "final_x": "3679355.41237",
    "final_y": "521572.098425",
    "longitude": "-90.07518706318035",
    "latitude": "29.928207198526273",
    "geocoded_column": {
      "latitude": "29.928207198526273",
      "longitude": "-90.07518706318035"
    }
  },
  {
    "service_request": "2024-1135116",
    "request_type": "Parks & Parkways",
    "request_reason": "Request Tree Service (Right of Way/Public Property)",
    "date_created": "2024-09-24T16:05:25.000",
    "date_modified": "2024-09-24T16:05:26.000",
    "request_status": "Pending",
    "responsible_agency": "Department of Parks & Parkway",
    "final_address": "5730 Vermillion Blvd",
    "address_councildis": "D",
    "status": "Pending",
    "rowid": "1135116",
    "final_x": "3683040.88949",
    "final_y": "554233.243992",
    "longitude": "-90.06240925921837",
    "latitude": "30.017902213925662",
    "geocoded_column": {
      "latitude": "30.017902213925662",
      "longitude": "-90.06240925921837"
    }
  },
  {
    "service_request": "2024-1135115",
    "request_type": "Property Maintenance",
    "request_reason": "Property Maintenance",
    "date_created": "2024-09-24T16:04:12.000",
    "date_modified": "2024-09-24T16:04:13.000",
    "request_status": "Pending",
    "responsible_agency": "Department of Code Enforcement",
    "final_address": "4218 Baudin St",
    "address_councildis": "A",
    "status": "Pending",
    "rowid": "1135115",
    "final_x": "3669473.45588",
    "final_y": "537515.696392",
    "longitude": "-90.10584311418887",
    "latitude": "29.972341529275763",
    "geocoded_column": {
      "latitude": "29.972341529275763",
      "longitude": "-90.10584311418887"
    }
  },
  {
    "service_request": "2024-1135114",
    "request_type": "Trash/Recycling",
    "request_reason": "Request a Large Item Pick Up",
    "date_created": "2024-09-24T16:02:29.000",
    "date_modified": "2024-09-24T16:06:33.000",
    "request_status": "Pending",
    "responsible_agency": "Department of Sanitation",
    "final_address": "623 France St",
    "address_councildis": "C",
    "status": "Assigned to Contractor",
    "contractor": "IV Waste",
    "rowid": "1135114",
    "final_x": "3692003.29629",
    "final_y": "533498.447236",
    "longitude": "-90.03483402908854",
    "latitude": "29.96061263772952",
    "geocoded_column": {
      "latitude": "29.96061263772952",
      "longitude": "-90.03483402908854"
    }
  },
  {
    "service_request": "2024-1135113",
    "request_type": "Drainage",
    "request_reason": "Catch Basin Clogged",
    "date_created": "2024-09-24T16:01:36.000",
    "date_modified": "2024-09-24T16:01:38.000",
    "request_status": "Pending",
    "responsible_agency": "Department of Public Works",
    "final_address": "637 Burgundy St",
    "address_councildis": "C",
    "status": "Pending",
    "rowid": "1135113",
    "final_x": "3681631.4164",
    "final_y": "533076.50362",
    "longitude": "-90.06760106487329",
    "latitude": "29.95977154775246",
    "geocoded_column": {
      "latitude": "29.95977154775246",
      "longitude": "-90.06760106487329"
    }
  },
  {
    "service_request": "2024-1135112",
    "request_type": "Abandoned Vehicles",
    "request_reason": "Abandoned/Junk Vehicles",
    "date_created": "2024-09-24T15:56:28.000",
    "date_modified": "2024-09-24T15:58:56.000",
    "request_status": "Pending",
    "responsible_agency": "Department of Public Works",
    "final_address": "4225 St Charles Ave",
    "address_councildis": "B",
    "status": "Pending",
    "rowid": "1135112",
    "final_x": "3671364.05467",
    "final_y": "521032.619769",
    "longitude": "-90.10043237854002",
    "latitude": "29.92696265920326",
    "geocoded_column": {
      "latitude": "29.92696265920326",
      "longitude": "-90.10043237854002"
    }
  },
  {
    "service_request": "2024-1135111",
    "request_type": "Parks & Parkways",
    "request_reason": "Tree Stump (removal, grind)",
    "date_created": "2024-09-24T15:54:10.000",
    "date_modified": "2024-09-24T15:54:10.000",
    "request_status": "Pending",
    "responsible_agency": "Department of Parks & Parkway",
    "final_address": "1654 Prentiss Ave",
    "address_councildis": "D",
    "status": "Pending",
    "rowid": "1135111",
    "final_x": "3679599.91375",
    "final_y": "553400.328599",
    "longitude": "-90.07331035853066",
    "latitude": "30.015716492477274",
    "geocoded_column": {
      "latitude": "30.015716492477274",
      "longitude": "-90.07331035853066"
    }
  },
  {
    "service_request": "2024-1135110",
    "request_type": "Trash/Recycling",
    "request_reason": "Illegal Dumping",
    "date_created": "2024-09-24T15:53:14.000",
    "date_modified": "2024-09-24T15:53:14.000",
    "request_status": "Pending",
    "responsible_agency": "Department of Sanitation",
    "final_address": "SUNSET AVE & LAMARQUE ST",
    "address_councildis": "C",
    "status": "Pending",
    "rowid": "1135110",
    "final_x": "3688961.9",
    "final_y": "526749.78",
    "longitude": "-90.04467779815948",
    "latitude": "29.94215054247674",
    "geocoded_column": {
      "latitude": "29.94215054247674",
      "longitude": "-90.04467779815948"
    }
  },
  {
    "service_request": "2024-1135109",
    "request_type": "Trash/Recycling",
    "request_reason": "Storm Debris Collection",
    "date_created": "2024-09-24T15:53:11.000",
    "date_modified": "2024-09-24T15:53:12.000",
    "request_status": "Pending",
    "responsible_agency": "Department of Sanitation",
    "final_address": "5315 Marigny St",
    "address_councildis": "D",
    "status": "Pending",
    "rowid": "1135109",
    "final_x": "3684161.82889",
    "final_y": "552491.456406",
    "longitude": "-90.05892873535495",
    "latitude": "30.01307870125284",
    "geocoded_column": {
      "latitude": "30.01307870125284",
      "longitude": "-90.05892873535495"
    }
  },
  {
    "service_request": "2024-1135108",
    "request_type": "Roads and Streets",
    "request_reason": "Debris in Driving Lanes",
    "date_created": "2024-09-24T15:52:47.000",
    "date_modified": "2024-09-24T15:58:27.000",
    "request_status": "Pending",
    "responsible_agency": "Department of Public Works",
    "final_address": "5847 W Deer Park Blvd",
    "address_councildis": "E",
    "status": "Pending",
    "rowid": "1135108",
    "final_x": "3712208.16293",
    "final_y": "561009.343838",
    "longitude": "-89.96999809789565",
    "latitude": "30.035612019696746",
    "geocoded_column": {
      "latitude": "30.035612019696746",
      "longitude": "-89.96999809789565"
    }
  },
  {
    "service_request": "2024-1135107",
    "request_type": "Property Maintenance",
    "request_reason": "Property Maintenance",
    "date_created": "2024-09-24T15:51:55.000",
    "date_modified": "2024-09-24T15:51:55.000",
    "request_status": "Pending",
    "responsible_agency": "Department of Code Enforcement",
    "final_address": "6636 Pauline Dr",
    "address_councildis": "D",
    "status": "Pending",
    "rowid": "1135107",
    "final_x": "3690762.76336",
    "final_y": "558202.727515",
    "longitude": "-90.03786939404772",
    "latitude": "30.028579044197006",
    "geocoded_column": {
      "latitude": "30.028579044197006",
      "longitude": "-90.03786939404772"
    }
  },
  {
    "service_request": "2024-1135106",
    "request_type": "Trash/Recycling",
    "request_reason": "Illegal Dumping",
    "date_created": "2024-09-24T15:51:16.000",
    "date_modified": "2024-09-24T15:51:16.000",
    "request_status": "Pending",
    "responsible_agency": "Department of Sanitation",
    "final_address": "1400 BLK Thayer St",
    "address_councildis": "C",
    "status": "Pending",
    "rowid": "1135106",
    "final_x": "3689363.44932",
    "final_y": "526189.4146",
    "longitude": "-90.0434299397693",
    "latitude": "29.940597304843344",
    "geocoded_column": {
      "latitude": "29.940597304843344",
      "longitude": "-90.0434299397693"
    }
  },
  {
    "service_request": "2024-1135105",
    "request_type": "Trash/Recycling",
    "request_reason": "Illegal Dumping",
    "date_created": "2024-09-24T15:48:50.000",
    "date_modified": "2024-09-24T15:48:50.000",
    "request_status": "Pending",
    "responsible_agency": "Department of Sanitation",
    "final_address": "1500 BLK Thayer St",
    "address_councildis": "C",
    "status": "Pending",
    "rowid": "1135105",
    "final_x": "3689348.99955",
    "final_y": "525833.493724",
    "longitude": "-90.04348820922013",
    "latitude": "29.939619090683152",
    "geocoded_column": {
      "latitude": "29.939619090683152",
      "longitude": "-90.04348820922013"
    }
  },
  {
    "service_request": "2024-1135104",
    "request_type": "Parks & Parkways",
    "request_reason": "Request Tree Service (Right of Way/Public Property)",
    "date_created": "2024-09-24T15:48:31.000",
    "date_modified": "2024-09-24T15:48:32.000",
    "request_status": "Pending",
    "responsible_agency": "Department of Parks & Parkway",
    "final_address": "3026 St Roch Ave",
    "address_councildis": "D",
    "status": "Pending",
    "rowid": "1135104",
    "final_x": "3685792.33622",
    "final_y": "544008.176334",
    "longitude": "-90.05407645170199",
    "latitude": "29.989702780912072",
    "geocoded_column": {
      "latitude": "29.989702780912072",
      "longitude": "-90.05407645170199"
    }
  },
  {
    "service_request": "2024-1135103",
    "request_type": "Trash/Recycling",
    "request_reason": "Storm Debris Collection",
    "date_created": "2024-09-24T15:47:10.000",
    "date_modified": "2024-09-24T15:47:11.000",
    "request_status": "Pending",
    "responsible_agency": "Department of Sanitation",
    "final_address": "5370 Chatham Dr",
    "address_councildis": "D",
    "status": "Pending",
    "rowid": "1135103",
    "final_x": "3679701.21154",
    "final_y": "552148.522966",
    "longitude": "-90.07303380570323",
    "latitude": "30.012271416166918",
    "geocoded_column": {
      "latitude": "30.012271416166918",
      "longitude": "-90.07303380570323"
    }
  },
  {
    "service_request": "2024-1135102",
    "request_type": "Property Maintenance",
    "request_reason": "Property Maintenance",
    "date_created": "2024-09-24T15:46:32.000",
    "date_modified": "2024-09-24T15:46:32.000",
    "request_status": "Pending",
    "responsible_agency": "Department of Code Enforcement",
    "final_address": "4030 Mithra St",
    "address_councildis": "D",
    "status": "Pending",
    "rowid": "1135102",
    "final_x": "3688980.40476",
    "final_y": "552983.629975",
    "longitude": "-90.04368716743427",
    "latitude": "30.014283757509595",
    "geocoded_column": {
      "latitude": "30.014283757509595",
      "longitude": "-90.04368716743427"
    }
  },
  {
    "service_request": "2024-1135101",
    "request_type": "Roads and Streets",
    "request_reason": "Pothole",
    "date_created": "2024-09-24T15:46:30.000",
    "date_modified": "2024-09-24T15:46:49.000",
    "case_close_date": "2024-09-24T10:46:49.000",
    "request_status": "Closed",
    "responsible_agency": "Department of Public Works",
    "final_address": "1335 Moss St",
    "address_councildis": "A",
    "status": "Resolved",
    "rowid": "1135101",
    "final_x": "3674863.10683",
    "final_y": "540438.253131",
    "longitude": "-90.0887213862002",
    "latitude": "29.980217703837184",
    "geocoded_column": {
      "latitude": "29.980217703837184",
      "longitude": "-90.0887213862002"
    }
  },
  {
    "service_request": "2024-1135100",
    "request_type": "Property Maintenance",
    "request_reason": "Property Maintenance",
    "date_created": "2024-09-24T15:46:21.000",
    "date_modified": "2024-09-24T15:46:21.000",
    "request_status": "Pending",
    "responsible_agency": "Department of Code Enforcement",
    "final_address": "5901 Debore Dr",
    "address_councildis": "D",
    "status": "Pending",
    "rowid": "1135100",
    "final_x": "3691407.80022",
    "final_y": "555729.259289",
    "longitude": "-90.03591961436547",
    "latitude": "30.021757869287633",
    "geocoded_column": {
      "latitude": "30.021757869287633",
      "longitude": "-90.03591961436547"
    }
  },
  {
    "service_request": "2024-1135099",
    "request_type": "General Services",
    "request_reason": "General Service Request",
    "date_created": "2024-09-24T15:46:15.000",
    "date_modified": "2024-09-24T15:49:57.000",
    "case_close_date": "2024-09-24T10:49:57.000",
    "request_status": "Closed",
    "responsible_agency": "Orleans Parish Communication District",
    "final_address": "2360 Treasure St",
    "address_councildis": "D",
    "status": "Duplicate Request",
    "rowid": "1135099",
    "final_x": "3685678.55657",
    "final_y": "544105.75611",
    "longitude": "-90.05443240914583",
    "latitude": "29.98997458285399",
    "geocoded_column": {
      "latitude": "29.98997458285399",
      "longitude": "-90.05443240914583"
    }
  },
  {
    "service_request": "2024-1135098",
    "request_type": "Abandoned Vehicles",
    "request_reason": "Abandoned/Junk Vehicles",
    "date_created": "2024-09-24T15:45:48.000",
    "date_modified": "2024-09-24T15:48:18.000",
    "request_status": "Pending",
    "responsible_agency": "Department of Public Works",
    "final_address": "2235 Pine St",
    "address_councildis": "A",
    "status": "Pending",
    "rowid": "1135098",
    "final_x": "3666137.97057",
    "final_y": "529881.231425",
    "longitude": "-90.11663321547826",
    "latitude": "29.95144709041965",
    "geocoded_column": {
      "latitude": "29.95144709041965",
      "longitude": "-90.11663321547826"
    }
  },
  {
    "service_request": "2024-1135097",
    "request_type": "Property Maintenance",
    "request_reason": "Property Maintenance",
    "date_created": "2024-09-24T15:45:14.000",
    "date_modified": "2024-09-24T15:51:33.000",
    "request_status": "Pending",
    "responsible_agency": "Department of Code Enforcement",
    "final_address": "6641 Pauline Dr",
    "address_councildis": "D",
    "rowid": "1135097",
    "final_x": "3690901.21948",
    "final_y": "558276.285468",
    "longitude": "-90.03742925183799",
    "latitude": "30.028776995932734",
    "geocoded_column": {
      "latitude": "30.028776995932734",
      "longitude": "-90.03742925183799"
    }
  },
  {
    "service_request": "2024-1135096",
    "request_type": "Property Maintenance",
    "request_reason": "Property Maintenance",
    "date_created": "2024-09-24T15:44:24.000",
    "date_modified": "2024-09-24T15:44:24.000",
    "request_status": "Pending",
    "responsible_agency": "Department of Code Enforcement",
    "final_address": "6415 N Galvez St",
    "address_councildis": "E",
    "status": "Pending",
    "rowid": "1135096",
    "final_x": "3702040.10916",
    "final_y": "536529.775047",
    "longitude": "-90.00302885524863",
    "latitude": "29.968631134600997",
    "geocoded_column": {
      "latitude": "29.968631134600997",
      "longitude": "-90.00302885524863"
    }
  },
  {
    "service_request": "2024-1135095",
    "request_type": "Property Maintenance",
    "request_reason": "Property Maintenance",
    "date_created": "2024-09-24T15:44:22.000",
    "date_modified": "2024-09-24T15:44:23.000",
    "request_status": "Pending",
    "responsible_agency": "Department of Code Enforcement",
    "final_address": "2655 Lavender St",
    "address_councildis": "D",
    "status": "Pending",
    "rowid": "1135095",
    "final_x": "3687562.50774",
    "final_y": "547048.960913",
    "longitude": "-90.04837727401376",
    "latitude": "29.998009385770935",
    "geocoded_column": {
      "latitude": "29.998009385770935",
      "longitude": "-90.04837727401376"
    }
  },
  {
    "service_request": "2024-1135094",
    "request_type": "Trash/Recycling",
    "request_reason": "Illegal Dumping",
    "date_created": "2024-09-24T15:44:15.000",
    "date_modified": "2024-09-24T15:44:15.000",
    "request_status": "Pending",
    "responsible_agency": "Department of Sanitation",
    "final_address": "1500 BLK Leboeuf St",
    "address_councildis": "C",
    "status": "Pending",
    "rowid": "1135094",
    "final_x": "3689672.40704",
    "final_y": "525820.014093",
    "longitude": "-90.04246764997222",
    "latitude": "29.93957201210385",
    "geocoded_column": {
      "latitude": "29.93957201210385",
      "longitude": "-90.04246764997222"
    }
  },
  {
    "service_request": "2024-1135093",
    "request_type": "Trash/Recycling",
    "request_reason": "Storm Debris Collection",
    "date_created": "2024-09-24T15:44:13.000",
    "date_modified": "2024-09-24T15:47:52.000",
    "request_status": "Pending",
    "responsible_agency": "Department of Sanitation",
    "final_address": "2360 Treasure St",
    "address_councildis": "D",
    "rowid": "1135093",
    "final_x": "3685678.55657",
    "final_y": "544105.75611",
    "longitude": "-90.05443240914583",
    "latitude": "29.98997458285399",
    "geocoded_column": {
      "latitude": "29.98997458285399",
      "longitude": "-90.05443240914583"
    }
  },
  {
    "service_request": "2024-1135092",
    "request_type": "Trash/Recycling",
    "request_reason": "Storm Debris Collection",
    "date_created": "2024-09-24T15:40:41.000",
    "date_modified": "2024-09-24T15:40:42.000",
    "request_status": "Pending",
    "responsible_agency": "Department of Sanitation",
    "final_address": "2943 Lancaster St",
    "address_councildis": "C",
    "status": "Pending",
    "rowid": "1135092",
    "final_x": "3709976.76696",
    "final_y": "519444.145271",
    "longitude": "-89.97860262701197",
    "latitude": "29.92139605121461",
    "geocoded_column": {
      "latitude": "29.92139605121461",
      "longitude": "-89.97860262701197"
    }
  },
  {
    "service_request": "2024-1135091",
    "request_type": "Property Maintenance",
    "request_reason": "Property Maintenance",
    "date_created": "2024-09-24T15:40:31.000",
    "date_modified": "2024-09-24T15:40:59.000",
    "request_status": "Pending",
    "responsible_agency": "Department of Code Enforcement",
    "final_address": "6415 N Galvez St",
    "address_councildis": "E",
    "status": "Pending",
    "rowid": "1135091",
    "final_x": "3702040.10916",
    "final_y": "536529.775047",
    "longitude": "-90.00302885524863",
    "latitude": "29.968631134600997",
    "geocoded_column": {
      "latitude": "29.968631134600997",
      "longitude": "-90.00302885524863"
    }
  },
  {
    "service_request": "2024-1135090",
    "request_type": "Street and Traffic Signs",
    "request_reason": "Street Name Sign Damaged or Missing",
    "date_created": "2024-09-24T15:40:19.000",
    "date_modified": "2024-09-24T15:40:20.000",
    "request_status": "Pending",
    "responsible_agency": "Department of Public Works",
    "final_address": "LOMBARD ST & PAINTERS ST",
    "address_councildis": "D",
    "status": "Pending",
    "rowid": "1135090",
    "final_x": "3686280.6",
    "final_y": "549613.88",
    "longitude": "-90.05233621074248",
    "latitude": "30.00510145065112",
    "geocoded_column": {
      "latitude": "30.00510145065112",
      "longitude": "-90.05233621074248"
    }
  },
  {
    "service_request": "2024-1135089",
    "request_type": "Streetlights",
    "request_reason": "Streetlight Outage/Malfunction",
    "date_created": "2024-09-24T15:40:11.000",
    "date_modified": "2024-09-24T15:40:12.000",
    "request_status": "Pending",
    "responsible_agency": "Department of Public Works",
    "final_address": "6544 Pauline Dr",
    "address_councildis": "D",
    "status": "Pending",
    "contractor": "Legacy Professional Services",
    "rowid": "1135089",
    "final_x": "3690857.62992",
    "final_y": "557902.838875",
    "longitude": "-90.03758033729049",
    "latitude": "30.027751514086514",
    "geocoded_column": {
      "latitude": "30.027751514086514",
      "longitude": "-90.03758033729049"
    }
  },
  {
    "service_request": "2024-1135088",
    "request_type": "Trash/Recycling",
    "request_reason": "Request a Large Item Pick Up",
    "date_created": "2024-09-24T15:38:25.000",
    "date_modified": "2024-09-24T15:38:26.000",
    "request_status": "Pending",
    "responsible_agency": "Department of Sanitation",
    "final_address": "712 Flood St",
    "address_councildis": "E",
    "status": "Assigned to Contractor",
    "contractor": "Waste Pro",
    "rowid": "1135088",
    "final_x": "3697292.7384",
    "final_y": "532490.602948",
    "longitude": "-90.0181676412299",
    "latitude": "29.957675544121685",
    "geocoded_column": {
      "latitude": "29.957675544121685",
      "longitude": "-90.0181676412299"
    }
  },
  {
    "service_request": "2024-1135087",
    "request_type": "Roads and Streets",
    "request_reason": "Pothole",
    "date_created": "2024-09-24T15:36:48.000",
    "date_modified": "2024-09-24T15:37:10.000",
    "case_close_date": "2024-09-24T10:37:10.000",
    "request_status": "Closed",
    "responsible_agency": "Department of Public Works",
    "final_address": "2012 Law St",
    "address_councildis": "D",
    "status": "Resolved",
    "rowid": "1135087",
    "final_x": "3682505.53141",
    "final_y": "541625.776844",
    "longitude": "-90.06454187430789",
    "latitude": "29.98325251049605",
    "geocoded_column": {
      "latitude": "29.98325251049605",
      "longitude": "-90.06454187430789"
    }
  },
  {
    "service_request": "2024-1135086",
    "request_type": "Trash/Recycling",
    "request_reason": "Repair Trash Cart",
    "date_created": "2024-09-24T15:36:02.000",
    "date_modified": "2024-09-24T15:36:04.000",
    "request_status": "Pending",
    "responsible_agency": "Department of Sanitation",
    "final_address": "2241 Hyman Pl",
    "address_councildis": "C",
    "status": "Assigned to Contractor",
    "contractor": "Richards Disposal",
    "rowid": "1135086",
    "final_x": "3701042.47338",
    "final_y": "522491.94841",
    "longitude": "-90.00669269553917",
    "latitude": "29.930063884280766",
    "geocoded_column": {
      "latitude": "29.930063884280766",
      "longitude": "-90.00669269553917"
    }
  },
  {
    "service_request": "2024-1135085",
    "request_type": "Street and Traffic Signs",
    "request_reason": "Stop Sign Missing or Damaged",
    "date_created": "2024-09-24T15:35:41.000",
    "date_modified": "2024-09-24T15:35:42.000",
    "request_status": "Pending",
    "responsible_agency": "Department of Public Works",
    "final_address": "LOMBARD ST & PAINTERS ST",
    "address_councildis": "D",
    "status": "Pending",
    "rowid": "1135085",
    "final_x": "3686280.6",
    "final_y": "549613.88",
    "longitude": "-90.05233621074248",
    "latitude": "30.00510145065112",
    "geocoded_column": {
      "latitude": "30.00510145065112",
      "longitude": "-90.05233621074248"
    }
  },
  {
    "service_request": "2024-1135084",
    "request_type": "Safety & Permits",
    "request_reason": "Zoning Enforcement",
    "date_created": "2024-09-24T15:34:02.000",
    "date_modified": "2024-09-24T15:35:30.000",
    "request_status": "Pending",
    "responsible_agency": "Safety and Permits",
    "final_address": "1471 Henry Clay Ave",
    "address_councildis": "A",
    "rowid": "1135084",
    "final_x": "3664824.93293",
    "final_y": "522014.845114",
    "longitude": "-90.12104195205383",
    "latitude": "29.929855315694933",
    "geocoded_column": {
      "latitude": "29.929855315694933",
      "longitude": "-90.12104195205383"
    }
  },
  {
    "service_request": "2024-1135083",
    "request_type": "Streetlights",
    "request_reason": "Streetlight Outage/Malfunction",
    "date_created": "2024-09-24T15:32:56.000",
    "date_modified": "2024-09-24T15:32:57.000",
    "request_status": "Pending",
    "responsible_agency": "Department of Public Works",
    "final_address": "7600 Willow St",
    "address_councildis": "A",
    "status": "Pending",
    "contractor": "Legacy Professional Services",
    "rowid": "1135083",
    "final_x": "3663717.51891",
    "final_y": "527671.602559",
    "longitude": "-90.12434946949453",
    "latitude": "29.945441770453694",
    "geocoded_column": {
      "latitude": "29.945441770453694",
      "longitude": "-90.12434946949453"
    }
  },
  {
    "service_request": "2024-1135082",
    "request_type": "Streetlights",
    "request_reason": "Streetlight Outage/Malfunction",
    "date_created": "2024-09-24T15:31:56.000",
    "date_modified": "2024-09-24T15:31:57.000",
    "request_status": "Pending",
    "responsible_agency": "Department of Public Works",
    "final_address": "7614 Willow St",
    "address_councildis": "A",
    "status": "Pending",
    "contractor": "Legacy Professional Services",
    "rowid": "1135082",
    "final_x": "3663614.51962",
    "final_y": "527759.279999",
    "longitude": "-90.12467175286942",
    "latitude": "29.945685843105895",
    "geocoded_column": {
      "latitude": "29.945685843105895",
      "longitude": "-90.12467175286942"
    }
  },
  {
    "service_request": "2024-1135081",
    "request_type": "Streetlights",
    "request_reason": "Streetlight Outage/Malfunction",
    "date_created": "2024-09-24T15:31:23.000",
    "date_modified": "2024-09-24T15:31:24.000",
    "request_status": "Pending",
    "responsible_agency": "Department of Public Works",
    "final_address": "611 Esplanade Ave",
    "address_councildis": "C",
    "status": "Pending",
    "contractor": "Legacy Professional Services",
    "rowid": "1135081",
    "final_x": "3684293.73589",
    "final_y": "534298.427781",
    "longitude": "-90.05915116402679",
    "latitude": "29.96305028636645",
    "geocoded_column": {
      "latitude": "29.96305028636645",
      "longitude": "-90.05915116402679"
    }
  },
  {
    "service_request": "2024-1135080",
    "request_type": "Trash/Recycling",
    "request_reason": "Order Recycling Cart",
    "date_created": "2024-09-24T15:30:27.000",
    "date_modified": "2024-09-24T15:30:28.000",
    "request_status": "Pending",
    "responsible_agency": "Department of Sanitation",
    "final_address": "11610 Morrison Rd",
    "address_councildis": "E",
    "status": "Pending",
    "rowid": "1135080",
    "final_x": "3712891.34488",
    "final_y": "566063.596579",
    "longitude": "-89.96764877745944",
    "latitude": "30.049486809763003",
    "geocoded_column": {
      "latitude": "30.049486809763003",
      "longitude": "-89.96764877745944"
    }
  },
  {
    "service_request": "2024-1135079",
    "request_type": "Trash/Recycling",
    "request_reason": "Request a Large Item Pick Up",
    "date_created": "2024-09-24T15:29:57.000",
    "date_modified": "2024-09-24T15:29:58.000",
    "request_status": "Pending",
    "responsible_agency": "Department of Sanitation",
    "final_address": "547 Esplanade Ave",
    "address_councildis": "C",
    "status": "Assigned to Contractor",
    "contractor": "IV Waste",
    "rowid": "1135079",
    "final_x": "3684418.35465",
    "final_y": "534215.685573",
    "longitude": "-90.05876054014182",
    "latitude": "29.96281896281187",
    "geocoded_column": {
      "latitude": "29.96281896281187",
      "longitude": "-90.05876054014182"
    }
  },
  {
    "service_request": "2024-1135078",
    "request_type": "Trash/Recycling",
    "request_reason": "Repair Trash Cart",
    "date_created": "2024-09-24T15:29:39.000",
    "date_modified": "2024-09-24T15:30:09.000",
    "request_status": "Pending",
    "responsible_agency": "Department of Sanitation",
    "final_address": "11610 Morrison Rd",
    "address_councildis": "E",
    "status": "Assigned to Contractor",
    "contractor": "Waste Pro",
    "rowid": "1135078",
    "final_x": "3712891.34488",
    "final_y": "566063.596579",
    "longitude": "-89.96764877745944",
    "latitude": "30.049486809763003",
    "geocoded_column": {
      "latitude": "30.049486809763003",
      "longitude": "-89.96764877745944"
    }
  },
  {
    "service_request": "2024-1135077",
    "request_type": "Abandoned Vehicles",
    "request_reason": "Abandoned/Junk Vehicles",
    "date_created": "2024-09-24T15:25:55.000",
    "date_modified": "2024-09-24T15:25:55.000",
    "request_status": "Pending",
    "responsible_agency": "Department of Public Works",
    "final_address": "2012 Annette St",
    "address_councildis": "D",
    "status": "Pending",
    "rowid": "1135077",
    "final_x": "3682829.03125",
    "final_y": "539594.001866",
    "longitude": "-90.06359120843166",
    "latitude": "29.977655986926482",
    "geocoded_column": {
      "latitude": "29.977655986926482",
      "longitude": "-90.06359120843166"
    }
  },
  {
    "service_request": "2024-1135076",
    "request_type": "Roads and Streets",
    "request_reason": "Pothole",
    "date_created": "2024-09-24T15:25:51.000",
    "date_modified": "2024-09-24T15:26:13.000",
    "request_status": "Pending",
    "responsible_agency": "Department of Public Works",
    "final_address": "LAMARQUE ST & NUNEZ ST",
    "address_councildis": "C",
    "status": "Pending",
    "rowid": "1135076",
    "final_x": "3687091.7",
    "final_y": "526804.48",
    "longitude": "-90.05058047913366",
    "latitude": "29.94235865009472",
    "geocoded_column": {
      "latitude": "29.94235865009472",
      "longitude": "-90.05058047913366"
    }
  },
  {
    "service_request": "2024-1135075",
    "request_type": "Trash/Recycling",
    "request_reason": "Return Trash Cart",
    "date_created": "2024-09-24T15:24:28.000",
    "date_modified": "2024-09-24T15:24:29.000",
    "request_status": "Pending",
    "responsible_agency": "Department of Sanitation",
    "final_address": "5000 BLK S Prieur St",
    "address_councildis": "B",
    "status": "Assigned to Contractor",
    "contractor": "IV Waste",
    "rowid": "1135075",
    "final_x": "3668710.08512",
    "final_y": "526610.266121",
    "longitude": "-90.1086220981858",
    "latitude": "29.942377650914146",
    "geocoded_column": {
      "latitude": "29.942377650914146",
      "longitude": "-90.1086220981858"
    }
  },
  {
    "service_request": "2024-1135074",
    "request_type": "General Services",
    "request_reason": "General Service Request",
    "date_created": "2024-09-24T15:23:58.000",
    "date_modified": "2024-09-24T15:25:45.000",
    "case_close_date": "2024-09-24T10:25:45.000",
    "request_status": "Closed",
    "responsible_agency": "Orleans Parish Communication District",
    "final_address": "LAMARQUE ST & NUNEZ ST",
    "address_councildis": "C",
    "status": "Referred to Risk Management",
    "rowid": "1135074",
    "final_x": "3687091.7",
    "final_y": "526804.48",
    "longitude": "-90.05058047913366",
    "latitude": "29.94235865009472",
    "geocoded_column": {
      "latitude": "29.94235865009472",
      "longitude": "-90.05058047913366"
    }
  },
  {
    "service_request": "2024-1135073",
    "request_type": "Trash/Recycling",
    "request_reason": "Request a Large Item Pick Up",
    "date_created": "2024-09-24T15:22:46.000",
    "date_modified": "2024-09-24T15:22:47.000",
    "request_status": "Pending",
    "responsible_agency": "Department of Sanitation",
    "final_address": "7930 Wave Dr",
    "address_councildis": "E",
    "status": "Assigned to Contractor",
    "contractor": "Waste Pro",
    "rowid": "1135073",
    "final_x": "3714167.02885",
    "final_y": "569727.654054",
    "longitude": "-89.96347842724394",
    "latitude": "30.05951959889848",
    "geocoded_column": {
      "latitude": "30.05951959889848",
      "longitude": "-89.96347842724394"
    }
  },
  {
    "service_request": "2024-1135072",
    "request_type": "Trash/Recycling",
    "request_reason": "Request a Large Item Pick Up",
    "date_created": "2024-09-24T15:22:34.000",
    "date_modified": "2024-09-24T15:22:35.000",
    "request_status": "Pending",
    "responsible_agency": "Department of Sanitation",
    "final_address": "7741 Symmes Ave",
    "address_councildis": "E",
    "status": "Assigned to Contractor",
    "contractor": "Waste Pro",
    "rowid": "1135072",
    "final_x": "3707678.11102",
    "final_y": "565012.959522",
    "longitude": "-89.98416476329626",
    "latitude": "30.0467677945899",
    "geocoded_column": {
      "latitude": "30.0467677945899",
      "longitude": "-89.98416476329626"
    }
  },
  {
    "service_request": "2024-1135071",
    "request_type": "Roads and Streets",
    "request_reason": "Pothole",
    "date_created": "2024-09-24T15:22:23.000",
    "date_modified": "2024-09-24T15:22:58.000",
    "case_close_date": "2024-09-24T10:22:58.000",
    "request_status": "Closed",
    "responsible_agency": "Department of Public Works",
    "final_address": "5100 BLK Eastern St",
    "address_councildis": "D",
    "status": "Resolved",
    "rowid": "1135071",
    "final_x": "3687900.39614",
    "final_y": "552000.502742",
    "longitude": "-90.04713431359501",
    "latitude": "30.011613898362143",
    "geocoded_column": {
      "latitude": "30.011613898362143",
      "longitude": "-90.04713431359501"
    }
  },
  {
    "service_request": "2024-1135070",
    "request_type": "Roads and Streets",
    "request_reason": "Pothole",
    "date_created": "2024-09-24T15:20:54.000",
    "date_modified": "2024-09-24T15:21:16.000",
    "case_close_date": "2024-09-24T10:21:16.000",
    "request_status": "Closed",
    "responsible_agency": "Department of Public Works",
    "final_address": "1500 BLK General Ogden St",
    "address_councildis": "A",
    "status": "Resolved",
    "rowid": "1135070",
    "final_x": "3660696.6474",
    "final_y": "531186.618517",
    "longitude": "-90.13377120130252",
    "latitude": "29.955194234623463",
    "geocoded_column": {
      "latitude": "29.955194234623463",
      "longitude": "-90.13377120130252"
    }
  },
  {
    "service_request": "2024-1135069",
    "request_type": "Trash/Recycling",
    "request_reason": "Request a Large Item Pick Up",
    "date_created": "2024-09-24T15:18:27.000",
    "date_modified": "2024-09-24T15:18:28.000",
    "request_status": "Pending",
    "responsible_agency": "Department of Sanitation",
    "final_address": "7218 Green St",
    "address_councildis": "A",
    "status": "Assigned to Contractor",
    "contractor": "IV Waste",
    "rowid": "1135069",
    "final_x": "3664958.06516",
    "final_y": "528056.004287",
    "longitude": "-90.12041980192036",
    "latitude": "29.946462702490653",
    "geocoded_column": {
      "latitude": "29.946462702490653",
      "longitude": "-90.12041980192036"
    }
  },
  {
    "service_request": "2024-1135068",
    "request_type": "Streetlights",
    "request_reason": "Streetlight Outage/Malfunction",
    "date_created": "2024-09-24T15:15:38.000",
    "date_modified": "2024-09-24T15:15:39.000",
    "request_status": "Pending",
    "responsible_agency": "Department of Public Works",
    "final_address": "3547 Desaix Blvd",
    "address_councildis": "D",
    "status": "Pending",
    "contractor": "Legacy Professional Services",
    "rowid": "1135068",
    "final_x": "3675929.29825",
    "final_y": "543744.58235",
    "longitude": "-90.08524015329319",
    "latitude": "29.989277078398988",
    "geocoded_column": {
      "latitude": "29.989277078398988",
      "longitude": "-90.08524015329319"
    }
  },
  {
    "service_request": "2024-1135067",
    "request_type": "Trash/Recycling",
    "request_reason": "Storm Debris Collection",
    "date_created": "2024-09-24T15:15:17.000",
    "date_modified": "2024-09-24T15:15:17.000",
    "request_status": "Pending",
    "responsible_agency": "Department of Sanitation",
    "final_address": "4179 Toulouse St",
    "address_councildis": "A",
    "status": "Pending",
    "rowid": "1135067",
    "final_x": "3671737.84411",
    "final_y": "540181.991371",
    "longitude": "-90.0986010296196",
    "latitude": "29.9796060425897",
    "geocoded_column": {
      "latitude": "29.9796060425897",
      "longitude": "-90.0986010296196"
    }
  },
  {
    "service_request": "2024-1135066",
    "request_type": "Trash/Recycling",
    "request_reason": "Request a Large Item Pick Up",
    "date_created": "2024-09-24T15:15:07.000",
    "date_modified": "2024-09-24T15:15:08.000",
    "request_status": "Pending",
    "responsible_agency": "Department of Sanitation",
    "final_address": "1937 Esplanade Ave",
    "address_councildis": "D",
    "status": "Assigned to Contractor",
    "contractor": "IV Waste",
    "rowid": "1135066",
    "final_x": "3680211.75285",
    "final_y": "537480.423816",
    "longitude": "-90.07193095063857",
    "latitude": "29.97192386599881",
    "geocoded_column": {
      "latitude": "29.97192386599881",
      "longitude": "-90.07193095063857"
    }
  },
  {
    "service_request": "2024-1135065",
    "request_type": "Roads and Streets",
    "request_reason": "Pothole",
    "date_created": "2024-09-24T15:15:06.000",
    "date_modified": "2024-09-24T15:15:47.000",
    "case_close_date": "2024-09-24T10:15:47.000",
    "request_status": "Closed",
    "responsible_agency": "Department of Public Works",
    "final_address": "5534 Camp St",
    "address_councildis": "A",
    "status": "Resolved",
    "rowid": "1135065",
    "final_x": "3666233.24756",
    "final_y": "519245.306743",
    "longitude": "-90.11668895880615",
    "latitude": "29.922198914359864",
    "geocoded_column": {
      "latitude": "29.922198914359864",
      "longitude": "-90.11668895880615"
    }
  },
  {
    "service_request": "2024-1135064",
    "request_type": "Trash/Recycling",
    "request_reason": "Storm Debris Collection",
    "date_created": "2024-09-24T15:14:35.000",
    "date_modified": "2024-09-24T15:14:36.000",
    "request_status": "Pending",
    "responsible_agency": "Department of Sanitation",
    "final_address": "4173 Toulouse St",
    "address_councildis": "A",
    "status": "Pending",
    "rowid": "1135064",
    "final_x": "3671760.41172",
    "final_y": "540143.925899",
    "longitude": "-90.09853104745832",
    "latitude": "29.97950070681229",
    "geocoded_column": {
      "latitude": "29.97950070681229",
      "longitude": "-90.09853104745832"
    }
  },
  {
    "service_request": "2024-1135063",
    "request_type": "Trash/Recycling",
    "request_reason": "MIssed Recycling Pick-Up",
    "date_created": "2024-09-24T15:13:53.000",
    "date_modified": "2024-09-24T15:13:55.000",
    "request_status": "Pending",
    "responsible_agency": "Department of Sanitation",
    "final_address": "169 Mary Jane Ln",
    "address_councildis": "E",
    "status": "Assigned to Contractor",
    "contractor": "Waste Pro",
    "rowid": "1135063",
    "final_x": "3718245.36178",
    "final_y": "571218.276072",
    "longitude": "-89.95053038152157",
    "latitude": "30.063483496174094",
    "geocoded_column": {
      "latitude": "30.063483496174094",
      "longitude": "-89.95053038152157"
    }
  },
  {
    "service_request": "2024-1135062",
    "request_type": "Roads and Streets",
    "request_reason": "Road Shoulder Damage",
    "date_created": "2024-09-24T15:13:43.000",
    "date_modified": "2024-09-24T15:13:43.000",
    "request_status": "Pending",
    "responsible_agency": "Department of Public Works",
    "final_address": "6928 Dorian St",
    "address_councildis": "D",
    "status": "Pending",
    "rowid": "1135062",
    "final_x": "3696214.85303",
    "final_y": "556383.801114",
    "longitude": "-90.02070697512308",
    "latitude": "30.023407074363494",
    "geocoded_column": {
      "latitude": "30.023407074363494",
      "longitude": "-90.02070697512308"
    }
  },
  {
    "service_request": "2024-1135061",
    "request_type": "Trash/Recycling",
    "request_reason": "Return Trash Cart",
    "date_created": "2024-09-24T15:11:33.000",
    "date_modified": "2024-09-24T15:11:34.000",
    "request_status": "Pending",
    "responsible_agency": "Department of Sanitation",
    "final_address": "814 Moss St",
    "address_councildis": "A",
    "status": "Assigned to Contractor",
    "contractor": "IV Waste",
    "rowid": "1135061",
    "final_x": "3674617.06587",
    "final_y": "539148.45729",
    "longitude": "-90.08954270810737",
    "latitude": "29.97667855303477",
    "geocoded_column": {
      "latitude": "29.97667855303477",
      "longitude": "-90.08954270810737"
    }
  },