[
  {
    "service_request": "2023-1056478",
    "request_type": "Roads/Drainage",
    "request_reason": "Pothole",
    "date_created": "2023-12-19T01:10:27.000",
    "date_modified": "2023-12-19T01:10:27.000",
    "request_status": "Pending",
    "responsible_agency": "Department of Public Works",
    "final_address": "1523 Antonine St",
    "address_councildis": "B",
    "status": "Pending",
    "rowid": "1056478",
    "final_x": "3673374.72936",
    "final_y": "520875.962873",
    "longitude": "-90.09409054390046",
    "latitude": "29.926472262294165",
    "geocoded_column": {
      "latitude": "29.926472262294165",
      "longitude": "-90.09409054390046"
    }
  },
  {
    "service_request": "2023-1056477",
    "request_type": "Roads/Drainage",
    "request_reason": "Pothole",
    "date_created": "2023-12-18T23:49:48.000",
    "date_modified": "2023-12-18T23:49:48.000",
    "request_status": "Pending",
    "responsible_agency": "Department of Public Works",
    "final_address": "1645 Soniat St",
    "address_councildis": "B",
    "status": "Pending",
    "rowid": "1056477",
    "final_x": "3668510.78727",
    "final_y": "521227.117433",
    "longitude": "-90.10943286497817",
    "latitude": "29.92758157421725",
    "geocoded_column": {
      "latitude": "29.92758157421725",
      "longitude": "-90.10943286497817"
    }
  },
  {
    "service_request": "2023-1056476",
    "request_type": "Roads/Drainage",
    "request_reason": "Pothole",
    "date_created": "2023-12-18T23:31:50.000",
    "date_modified": "2023-12-18T23:31:50.000",
    "request_status": "Pending",
    "responsible_agency": "Department of Public Works",
    "final_address": "1312 Milan St",
    "address_councildis": "B",
    "status": "Pending",
    "rowid": "1056476",
    "final_x": "3671625.82823",
    "final_y": "520286.919608",
    "longitude": "-90.09963137110304",
    "latitude": "29.92490447494246",
    "geocoded_column": {
      "latitude": "29.92490447494246",
      "longitude": "-90.09963137110304"
    }
  },
  {
    "service_request": "2023-1056475",
    "request_type": "Roads/Drainage",
    "request_reason": "Pothole",
    "date_created": "2023-12-18T23:13:35.000",
    "date_modified": "2023-12-18T23:13:35.000",
    "request_status": "Pending",
    "responsible_agency": "Department of Public Works",
    "final_address": "1839 Bordeaux St",
    "address_councildis": "B",
    "status": "Pending",
    "rowid": "1056475",
    "final_x": "3669329.85428",
    "final_y": "521753.37337",
    "longitude": "-90.10682947979618",
    "latitude": "29.92900452881874",
    "geocoded_column": {
      "latitude": "29.92900452881874",
      "longitude": "-90.10682947979618"
    }
  },
  {
    "service_request": "2023-1056474",
    "request_type": "Roads/Drainage",
    "request_reason": "Pothole",
    "date_created": "2023-12-18T23:08:43.000",
    "date_modified": "2023-12-18T23:08:43.000",
    "request_status": "Pending",
    "responsible_agency": "Department of Public Works",
    "final_address": "1939 Bordeaux St",
    "address_councildis": "B",
    "status": "Pending",
    "rowid": "1056474",
    "final_x": "3669345.04295",
    "final_y": "522119.535418",
    "longitude": "-90.1067691586854",
    "latitude": "29.930010910452438",
    "geocoded_column": {
      "latitude": "29.930010910452438",
      "longitude": "-90.1067691586854"
    }
  },
  {
    "service_request": "2023-1056473",
    "request_type": "Roads/Drainage",
    "request_reason": "Pothole",
    "date_created": "2023-12-18T22:44:38.000",
    "date_modified": "2023-12-18T22:44:38.000",
    "request_status": "Pending",
    "responsible_agency": "Department of Public Works",
    "final_address": "1220 State St",
    "address_councildis": "A",
    "status": "Pending",
    "rowid": "1056473",
    "final_x": "3665043.24647",
    "final_y": "520712.994745",
    "longitude": "-90.12039627443846",
    "latitude": "29.926269284939202",
    "geocoded_column": {
      "latitude": "29.926269284939202",
      "longitude": "-90.12039627443846"
    }
  },
  {
    "service_request": "2023-1056472",
    "request_type": "Traffic Signals/Signs/Striping/Streetlights",
    "request_reason": "Request for Stop Sign",
    "date_created": "2023-12-18T22:35:47.000",
    "date_modified": "2023-12-18T22:35:47.000",
    "request_status": "Pending",
    "responsible_agency": "Department of Public Works",
    "final_address": "3490 Vespasian St",
    "address_councildis": "C",
    "status": "Pending",
    "rowid": "1056472",
    "final_x": "3696167.36093",
    "final_y": "522689.657594",
    "longitude": "-90.02207540022494",
    "latitude": "29.930761817414755",
    "geocoded_column": {
      "latitude": "29.930761817414755",
      "longitude": "-90.02207540022494"
    }
  },
  {
    "service_request": "2023-1056471",
    "request_type": "Abandoned Vehicles",
    "request_reason": "Abandoned/Junk Vehicles",
    "date_created": "2023-12-18T20:33:33.000",
    "date_modified": "2023-12-18T20:33:33.000",
    "request_status": "Pending",
    "responsible_agency": "Department of Public Works",
    "final_address": "2825 S Robertson St",
    "address_councildis": "B",
    "status": "Pending",
    "rowid": "1056471",
    "final_x": "3673550.49832",
    "final_y": "525427.187389",
    "longitude": "-90.09338021949723",
    "latitude": "29.938981426929008",
    "geocoded_column": {
      "latitude": "29.938981426929008",
      "longitude": "-90.09338021949723"
    }
  },
  {
    "service_request": "2023-1056470",
    "request_type": "Abandoned Vehicles",
    "request_reason": "Abandoned/Junk Vehicles",
    "date_created": "2023-12-18T20:20:46.000",
    "date_modified": "2023-12-18T20:20:46.000",
    "request_status": "Pending",
    "responsible_agency": "Department of Public Works",
    "final_address": "2819 S Robertson St",
    "address_councildis": "B",
    "status": "Pending",
    "rowid": "1056470",
    "final_x": "3673597.84283",
    "final_y": "525459.199677",
    "longitude": "-90.09322965325732",
    "latitude": "29.939068041447463",
    "geocoded_column": {
      "latitude": "29.939068041447463",
      "longitude": "-90.09322965325732"
    }
  },
  {
    "service_request": "2023-1056469",
    "request_type": "Traffic Signals/Signs/Striping/Streetlights",
    "request_reason": "Street Name Sign Damaged or Missing",
    "date_created": "2023-12-18T20:04:17.000",
    "date_modified": "2023-12-18T20:04:17.000",
    "request_status": "Pending",
    "responsible_agency": "Department of Public Works",
    "final_address": "2400 BLK Sixth St",
    "address_councildis": "B",
    "status": "Pending",
    "rowid": "1056469",
    "final_x": "3673791.78033",
    "final_y": "524825.389769",
    "longitude": "-90.09263903487349",
    "latitude": "29.93731949818298",
    "geocoded_column": {
      "latitude": "29.93731949818298",
      "longitude": "-90.09263903487349"
    }
  },
  {
    "service_request": "2023-1056468",
    "request_type": "Abandoned Vehicles",
    "request_reason": "Abandoned/Junk Vehicles",
    "date_created": "2023-12-18T19:58:55.000",
    "date_modified": "2023-12-18T19:58:55.000",
    "request_status": "Pending",
    "responsible_agency": "Department of Public Works",
    "final_address": "2711 Seventh St",
    "address_councildis": "B",
    "status": "Pending",
    "rowid": "1056468",
    "final_x": "3673020.76641",
    "final_y": "525555.644733",
    "longitude": "-90.09504826571519",
    "latitude": "29.93935039436753",
    "geocoded_column": {
      "latitude": "29.93935039436753",
      "longitude": "-90.09504826571519"
    }
  },
  {
    "service_request": "2023-1056467",
    "request_type": "Trash/Recycling",
    "request_reason": "Order Trash Cart",
    "date_created": "2023-12-18T19:56:14.000",
    "date_modified": "2023-12-18T19:56:15.000",
    "request_status": "Pending",
    "responsible_agency": "Department of Sanitation",
    "final_address": "1602 Ursulines Ave",
    "address_councildis": "D",
    "status": "Assigned to Contractor",
    "contractor": "Richards Disposal",
    "rowid": "1056467",
    "final_x": "3680913.62543",
    "final_y": "535548.700998",
    "longitude": "-90.06978160008182",
    "latitude": "29.96659102852155",
    "geocoded_column": {
      "latitude": "29.96659102852155",
      "longitude": "-90.06978160008182"
    }
  },
  {
    "service_request": "2023-1056466",
    "request_type": "Roads/Drainage",
    "request_reason": "Street Flooding / Drainage",
    "date_created": "2023-12-18T18:57:35.000",
    "date_modified": "2023-12-18T18:57:35.000",
    "request_status": "Pending",
    "responsible_agency": "Department of Public Works",
    "final_address": "514 Natchez St",
    "address_councildis": "B",
    "status": "Pending",
    "rowid": "1056466",
    "final_x": "3681436.60341",
    "final_y": "529418.642241",
    "longitude": "-90.0683437579914",
    "latitude": "29.949719583785864",
    "geocoded_column": {
      "latitude": "29.949719583785864",
      "longitude": "-90.0683437579914"
    }
  },
  {
    "service_request": "2023-1056465",
    "request_type": "Utility Poles",
    "request_reason": "Utility Pole Leaning",
    "date_created": "2023-12-18T18:26:29.000",
    "date_modified": "2023-12-18T18:26:34.000",
    "request_status": "Pending",
    "responsible_agency": "Utility Company Collective",
    "final_address": "BIRCH ST & ADAMS ST",
    "address_councildis": "A",
    "status": "Pending",
    "rowid": "1056465",
    "final_x": "3663999.7",
    "final_y": "528415.78",
    "longitude": "-90.12343371928381",
    "latitude": "29.94747982964708",
    "geocoded_column": {
      "latitude": "29.94747982964708",
      "longitude": "-90.12343371928381"
    }
  },
  {
    "service_request": "2023-1056464",
    "request_type": "Trash/Recycling",
    "request_reason": "Request a Large Item Pick Up",
    "date_created": "2023-12-18T18:23:57.000",
    "date_modified": "2023-12-18T18:23:58.000",
    "request_status": "Pending",
    "responsible_agency": "Department of Sanitation",
    "final_address": "6319 Louisville St",
    "address_councildis": "A",
    "status": "Assigned to Contractor",
    "contractor": "IV Waste",
    "rowid": "1056464",
    "final_x": "3668041.49319",
    "final_y": "549545.756691",
    "longitude": "-90.10995987657189",
    "latitude": "30.005462191082888",
    "geocoded_column": {
      "latitude": "30.005462191082888",
      "longitude": "-90.10995987657189"
    }
  },
  {
    "service_request": "2023-1056463",
    "request_type": "Trash/Recycling",
    "request_reason": "Order Trash Cart",
    "date_created": "2023-12-18T18:23:38.000",
    "date_modified": "2023-12-18T18:23:39.000",
    "request_status": "Pending",
    "responsible_agency": "Department of Sanitation",
    "final_address": "1129 Louisa St",
    "address_councildis": "C",
    "status": "Assigned to Contractor",
    "contractor": "IV Waste",
    "rowid": "1056463",
    "final_x": "3689675.88438",
    "final_y": "536166.084039",
    "longitude": "-90.04208858272726",
    "latitude": "29.968020023510892",
    "geocoded_column": {
      "latitude": "29.968020023510892",
      "longitude": "-90.04208858272726"
    }
  },
  {
    "service_request": "2023-1056462",
    "request_type": "Roads/Drainage",
    "request_reason": "Damaged Sidewalk",
    "date_created": "2023-12-18T18:23:30.000",
    "date_modified": "2023-12-18T18:23:30.000",
    "request_status": "Pending",
    "responsible_agency": "Department of Public Works",
    "final_address": "3339 Belfort St",
    "address_councildis": "A",
    "status": "Pending",
    "rowid": "1056462",
    "final_x": "3677374.97806",
    "final_y": "542672.620109",
    "longitude": "-90.08071068435657",
    "latitude": "29.98628617809371",
    "geocoded_column": {
      "latitude": "29.98628617809371",
      "longitude": "-90.08071068435657"
    }
  },
  {
    "service_request": "2023-1056461",
    "request_type": "Trash/Recycling",
    "request_reason": "Replace Trash Cart",
    "date_created": "2023-12-18T18:23:04.000",
    "date_modified": "2023-12-18T18:23:05.000",
    "request_status": "Pending",
    "responsible_agency": "Department of Sanitation",
    "final_address": "10122 Pressburg St",
    "address_councildis": "E",
    "status": "Assigned to Contractor",
    "contractor": "Waste Pro",
    "rowid": "1056461",
    "final_x": "3712919.15198",
    "final_y": "557087.803162",
    "longitude": "-89.96789894774632",
    "latitude": "30.024806061955424",
    "geocoded_column": {
      "latitude": "30.024806061955424",
      "longitude": "-89.96789894774632"
    }
  },
  {
    "service_request": "2023-1056460",
    "request_type": "Trash/Recycling",
    "request_reason": "Repair Trash Cart",
    "date_created": "2023-12-18T18:19:28.000",
    "date_modified": "2023-12-18T18:19:29.000",
    "request_status": "Pending",
    "responsible_agency": "Department of Sanitation",
    "final_address": "4234 Bienville Ave",
    "address_councildis": "A",
    "status": "Assigned to Contractor",
    "contractor": "Richards Disposal",
    "rowid": "1056460",
    "final_x": "3670785.32308",
    "final_y": "539483.887754",
    "longitude": "-90.10163318356706",
    "latitude": "29.977714683047655",
    "geocoded_column": {
      "latitude": "29.977714683047655",
      "longitude": "-90.10163318356706"
    }
  },
  {
    "service_request": "2023-1056459",
    "request_type": "Roads/Drainage",
    "request_reason": "Street Flooding / Drainage",
    "date_created": "2023-12-18T18:14:45.000",
    "date_modified": "2023-12-18T18:14:45.000",
    "request_status": "Pending",
    "responsible_agency": "Department of Public Works",
    "final_address": "8530 Sycamore St",
    "address_councildis": "A",
    "status": "Pending",
    "rowid": "1056459",
    "final_x": "3663036.48557",
    "final_y": "532090.309315",
    "longitude": "-90.12635276400113",
    "latitude": "29.95761152961566",
    "geocoded_column": {
      "latitude": "29.95761152961566",
      "longitude": "-90.12635276400113"
    }
  },
  {
    "service_request": "2023-1056458",
    "request_type": "Mosquito, Termite & Rodent Control",
    "request_reason": "Mosquito Complaint",
    "date_created": "2023-12-18T18:02:10.000",
    "date_modified": "2023-12-18T18:02:10.000",
    "request_status": "Pending",
    "responsible_agency": "Mosquito, Termite & Rodent Control Board",
    "final_address": "CARNOT ST & DEMONTLUZIN ST",
    "address_councildis": "D",
    "status": "Pending",
    "rowid": "1056458",
    "final_x": "3687162.8",
    "final_y": "550325.08",
    "longitude": "-90.04952398857621",
    "latitude": "30.007029843469425",
    "geocoded_column": {
      "latitude": "30.007029843469425",
      "longitude": "-90.04952398857621"
    }
  },
  {
    "service_request": "2023-1056457",
    "request_type": "Trash/Recycling",
    "request_reason": "Request a Large Item Pick Up",
    "date_created": "2023-12-18T17:52:54.000",
    "date_modified": "2023-12-18T17:52:55.000",
    "request_status": "Pending",
    "responsible_agency": "Department of Sanitation",
    "final_address": "7711 Oak St",
    "address_councildis": "A",
    "status": "Assigned to Contractor",
    "contractor": "Richards Disposal",
    "rowid": "1056457",
    "final_x": "3662989.33056",
    "final_y": "527492.776639",
    "longitude": "-90.12665455140784",
    "latitude": "29.944971162491683",
    "geocoded_column": {
      "latitude": "29.944971162491683",
      "longitude": "-90.12665455140784"
    }
  },
  {
    "service_request": "2023-1056456",
    "request_type": "Roads/Drainage",
    "request_reason": "Pothole",
    "date_created": "2023-12-18T17:48:23.000",
    "date_modified": "2023-12-18T17:48:23.000",
    "request_status": "Pending",
    "responsible_agency": "Department of Public Works",
    "final_address": "6030 Hurst St",
    "address_councildis": "A",
    "status": "Pending",
    "rowid": "1056456",
    "final_x": "3665256.5074",
    "final_y": "521786.983866",
    "longitude": "-90.11968715854152",
    "latitude": "29.92921620713637",
    "geocoded_column": {
      "latitude": "29.92921620713637",
      "longitude": "-90.11968715854152"
    }
  },
  {
    "service_request": "2023-1056455",
    "request_type": "Roads/Drainage",
    "request_reason": "Street Subsidence (Sinking)",
    "date_created": "2023-12-18T17:46:49.000",
    "date_modified": "2023-12-18T17:46:49.000",
    "request_status": "Pending",
    "responsible_agency": "Department of Public Works",
    "final_address": "1624 River Oaks Dr",
    "address_councildis": "C",
    "status": "Pending",
    "rowid": "1056455",
    "final_x": "3701754.20996",
    "final_y": "524565.0135",
    "longitude": "-90.00436997415856",
    "latitude": "29.935741414303262",
    "geocoded_column": {
      "latitude": "29.935741414303262",
      "longitude": "-90.00436997415856"
    }
  },
  {
    "service_request": "2023-1056454",
    "request_type": "Roads/Drainage",
    "request_reason": "Pothole",
    "date_created": "2023-12-18T17:42:18.000",
    "date_modified": "2023-12-18T17:42:18.000",
    "request_status": "Pending",
    "responsible_agency": "Department of Public Works",
    "final_address": "6031 Pitt St",
    "address_councildis": "A",
    "status": "Pending",
    "rowid": "1056454",
    "final_x": "3665074.90548",
    "final_y": "521345.766329",
    "longitude": "-90.12027518893876",
    "latitude": "29.928008285877205",
    "geocoded_column": {
      "latitude": "29.928008285877205",
      "longitude": "-90.12027518893876"
    }
  },
  {
    "service_request": "2023-1056453",
    "request_type": "Roads/Drainage",
    "request_reason": "Street Subsidence (Sinking)",
    "date_created": "2023-12-18T17:30:34.000",
    "date_modified": "2023-12-18T17:30:34.000",
    "request_status": "Pending",
    "responsible_agency": "Department of Public Works",
    "final_address": "4012 Clermont Dr",
    "address_councildis": "D",
    "status": "Pending",
    "rowid": "1056453",
    "final_x": "3684997.44316",
    "final_y": "547089.589073",
    "longitude": "-90.05647883174254",
    "latitude": "29.99819994238771",
    "geocoded_column": {
      "latitude": "29.99819994238771",
      "longitude": "-90.05647883174254"
    }
  },
  {
    "service_request": "2023-1056452",
    "request_type": "Mosquito, Termite & Rodent Control",
    "request_reason": "Mosquito Complaint",
    "date_created": "2023-12-18T17:23:25.000",
    "date_modified": "2023-12-18T17:23:25.000",
    "request_status": "Pending",
    "responsible_agency": "Mosquito, Termite & Rodent Control Board",
    "final_address": "1512 Monroe St",
    "address_councildis": "A",
    "status": "Pending",
    "rowid": "1056452",
    "final_x": "3661157.06842",
    "final_y": "530709.243714",
    "longitude": "-90.13233315354378",
    "latitude": "29.953868346051877",
    "geocoded_column": {
      "latitude": "29.953868346051877",
      "longitude": "-90.13233315354378"
    }
  },
  {
    "service_request": "2023-1056451",
    "request_type": "Roads/Drainage",
    "request_reason": "Pothole",
    "date_created": "2023-12-18T17:20:29.000",
    "date_modified": "2023-12-18T17:20:29.000",
    "request_status": "Pending",
    "responsible_agency": "Department of Public Works",
    "final_address": "1301 Constantinople St",
    "address_councildis": "B",
    "status": "Pending",
    "rowid": "1056451",
    "final_x": "3672430.66305",
    "final_y": "520250.7726",
    "longitude": "-90.09709199725775",
    "latitude": "29.924781230435865",
    "geocoded_column": {
      "latitude": "29.924781230435865",
      "longitude": "-90.09709199725775"
    }
  },
  {
    "service_request": "2023-1056450",
    "request_type": "Trash/Recycling",
    "request_reason": "Return Recycling Cart",
    "date_created": "2023-12-18T17:10:26.000",
    "date_modified": "2023-12-18T17:10:26.000",
    "request_status": "Pending",
    "responsible_agency": "Department of Sanitation",
    "final_address": "3350 Jena St",
    "address_councildis": "B",
    "status": "Pending",
    "rowid": "1056450",
    "final_x": "3669782.02369",
    "final_y": "527100.760127",
    "longitude": "-90.10522113961287",
    "latitude": "29.94369480304219",
    "geocoded_column": {
      "latitude": "29.94369480304219",
      "longitude": "-90.10522113961287"
    }
  },
  {
    "service_request": "2023-1056449",
    "request_type": "Trash/Recycling",
    "request_reason": "Request a Large Item Pick Up",
    "date_created": "2023-12-18T17:09:24.000",
    "date_modified": "2023-12-18T17:09:25.000",
    "request_status": "Pending",
    "responsible_agency": "Department of Sanitation",
    "final_address": "1333 Reynes St",
    "address_councildis": "E",
    "status": "Assigned to Contractor",
    "contractor": "Waste Pro",
    "rowid": "1056449",
    "final_x": "3696336.40547",
    "final_y": "535312.610502",
    "longitude": "-90.02108539425744",
    "latitude": "29.96546521274799",
    "geocoded_column": {
      "latitude": "29.96546521274799",
      "longitude": "-90.02108539425744"
    }
  },
  {
    "service_request": "2023-1056448",
    "request_type": "Parks & Parkways",
    "request_reason": "Request Tree Service (Right of Way/Public Property)",
    "date_created": "2023-12-18T16:57:59.000",
    "date_modified": "2023-12-18T16:57:59.000",
    "request_status": "Pending",
    "responsible_agency": "Department of Parks & Parkway",
    "final_address": "420 Webster St",
    "address_councildis": "A",
    "status": "Pending",
    "rowid": "1056448",
    "final_x": "3663656.29434",
    "final_y": "518285.281078",
    "longitude": "-90.12485533328166",
    "latitude": "29.919634127964148",
    "geocoded_column": {
      "latitude": "29.919634127964148",
      "longitude": "-90.12485533328166"
    }
  },
  {
    "service_request": "2023-1056446",
    "request_type": "Abandoned Vehicles",
    "request_reason": "Abandoned/Junk Vehicles",
    "date_created": "2023-12-18T16:55:35.000",
    "date_modified": "2023-12-18T16:55:36.000",
    "request_status": "Pending",
    "responsible_agency": "Department of Public Works",
    "final_address": "617 Esplanade Ave",
    "address_councildis": "C",
    "status": "Pending",
    "rowid": "1056446",
    "final_x": "3684259.34044",
    "final_y": "534325.602117",
    "longitude": "-90.05925882635927",
    "latitude": "29.963126058077084",
    "geocoded_column": {
      "latitude": "29.963126058077084",
      "longitude": "-90.05925882635927"
    }
  },
  {
    "service_request": "2023-1056445",
    "request_type": "Mosquito, Termite & Rodent Control",
    "request_reason": "Mosquito Complaint",
    "date_created": "2023-12-18T16:55:18.000",
    "date_modified": "2023-12-18T16:55:18.000",
    "request_status": "Pending",
    "responsible_agency": "Mosquito, Termite & Rodent Control Board",
    "final_address": "500 Lakeshore Prkwy",
    "address_councildis": "D",
    "status": "Pending",
    "rowid": "1056445",
    "final_x": "3668365.8569",
    "final_y": "557030.579674",
    "longitude": "-90.10868241020252",
    "latitude": "30.026033286635535",
    "geocoded_column": {
      "latitude": "30.026033286635535",
      "longitude": "-90.10868241020252"
    }
  },
  {
    "service_request": "2023-1056444",
    "request_type": "Roads/Drainage",
    "request_reason": "Pothole",
    "date_created": "2023-12-18T16:51:41.000",
    "date_modified": "2023-12-18T16:51:41.000",
    "request_status": "Pending",
    "responsible_agency": "Department of Public Works",
    "final_address": "2349 S Claiborne Ave",
    "address_councildis": "B",
    "status": "Pending",
    "rowid": "1056444",
    "final_x": "3674168.4043",
    "final_y": "527496.624639",
    "longitude": "-90.09135859873005",
    "latitude": "29.944653300593277",
    "geocoded_column": {
      "latitude": "29.944653300593277",
      "longitude": "-90.09135859873005"
    }
  },
  {
    "service_request": "2023-1056443",
    "request_type": "Trash/Recycling",
    "request_reason": "Missed Trash Pick-Up",
    "date_created": "2023-12-18T16:47:19.000",
    "date_modified": "2023-12-18T16:47:20.000",
    "request_status": "Pending",
    "responsible_agency": "Department of Sanitation",
    "final_address": "3108 Esplanade Ave",
    "address_councildis": "A",
    "status": "Assigned to Contractor",
    "contractor": "Richards Disposal",
    "rowid": "1056443",
    "final_x": "3676451.91112",
    "final_y": "540197.467467",
    "longitude": "-90.08371156091539",
    "latitude": "29.979508078130245",
    "geocoded_column": {
      "latitude": "29.979508078130245",
      "longitude": "-90.08371156091539"
    }
  },
  {
    "service_request": "2023-1056442",
    "request_type": "Trash/Recycling",
    "request_reason": "Request a Large Item Pick Up",
    "date_created": "2023-12-18T16:46:36.000",
    "date_modified": "2023-12-18T16:46:36.000",
    "request_status": "Pending",
    "responsible_agency": "Department of Sanitation",
    "final_address": "4156 St Peter St",
    "address_councildis": "A",
    "status": "Assigned to Contractor",
    "contractor": "Richards Disposal",
    "rowid": "1056442",
    "final_x": "3672071.98753",
    "final_y": "540248.689035",
    "longitude": "-90.0975433958415",
    "latitude": "29.97977953364229",
    "geocoded_column": {
      "latitude": "29.97977953364229",
      "longitude": "-90.0975433958415"
    }
  },
  {
    "service_request": "2023-1056441",
    "request_type": "Trash/Recycling",
    "request_reason": "Order Trash Cart",
    "date_created": "2023-12-18T16:45:34.000",
    "date_modified": "2023-12-18T16:45:34.000",
    "request_status": "Pending",
    "responsible_agency": "Department of Sanitation",
    "final_address": "4020 Coliseum St",
    "address_councildis": "B",
    "status": "Assigned to Contractor",
    "contractor": "Richards Disposal",
    "rowid": "1056441",
    "final_x": "3672263.82606",
    "final_y": "519882.64588",
    "longitude": "-90.09763117928249",
    "latitude": "29.923773948067733",
    "geocoded_column": {
      "latitude": "29.923773948067733",
      "longitude": "-90.09763117928249"
    }
  },
  {
    "service_request": "2023-1056440",
    "request_type": "Mosquito, Termite & Rodent Control",
    "request_reason": "Mosquito Complaint",
    "date_created": "2023-12-18T16:45:31.000",
    "date_modified": "2023-12-18T16:45:32.000",
    "request_status": "Pending",
    "responsible_agency": "Mosquito, Termite & Rodent Control Board",
    "final_address": "462 Lakeshore Prkwy",
    "address_councildis": "D",
    "status": "Pending",
    "rowid": "1056440",
    "final_x": "3668259.40449",
    "final_y": "557024.030746",
    "longitude": "-90.10901900854981",
    "latitude": "30.026018407370135",
    "geocoded_column": {
      "latitude": "30.026018407370135",
      "longitude": "-90.10901900854981"
    }
  },
  {
    "service_request": "2023-1056439",
    "request_type": "Trash/Recycling",
    "request_reason": "Replace Trash Cart",
    "date_created": "2023-12-18T16:45:23.000",
    "date_modified": "2023-12-18T16:45:23.000",
    "request_status": "Pending",
    "responsible_agency": "Department of Sanitation",
    "final_address": "6951 Louisville St",
    "address_councildis": "A",
    "status": "Assigned to Contractor",
    "contractor": "IV Waste",
    "rowid": "1056439",
    "final_x": "3668428.18452",
    "final_y": "553796.663127",
    "longitude": "-90.10859468622132",
    "latitude": "30.017139333909427",
    "geocoded_column": {
      "latitude": "30.017139333909427",
      "longitude": "-90.10859468622132"
    }
  },
  {
    "service_request": "2023-1056438",
    "request_type": "Trash/Recycling",
    "request_reason": "Illegal Dumping",
    "date_created": "2023-12-18T16:44:37.000",
    "date_modified": "2023-12-18T16:44:38.000",
    "request_status": "Pending",
    "responsible_agency": "Department of Sanitation",
    "final_address": "CHEF MENTEUR HWY & LURLINE ST",
    "address_councildis": "E",
    "status": "Pending",
    "rowid": "1056438",
    "final_x": "3712124.4",
    "final_y": "554588.48",
    "longitude": "-89.97050413602334",
    "latitude": "30.017959921708243",
    "geocoded_column": {
      "latitude": "30.017959921708243",
      "longitude": "-89.97050413602334"
    }
  },
  {
    "service_request": "2023-1056437",
    "request_type": "Abandoned Vehicles",
    "request_reason": "Abandoned/Junk Vehicles",
    "date_created": "2023-12-18T16:44:21.000",
    "date_modified": "2023-12-18T16:44:21.000",
    "request_status": "Pending",
    "responsible_agency": "Department of Public Works",
    "final_address": "5800 BLK Canal Blvd",
    "address_councildis": "A",
    "status": "Pending",
    "rowid": "1056437",
    "final_x": "3668446.85205",
    "final_y": "546284.38655",
    "longitude": "-90.10878936498746",
    "latitude": "29.996482647323585",
    "geocoded_column": {
      "latitude": "29.996482647323585",
      "longitude": "-90.10878936498746"
    }
  },
  {
    "service_request": "2023-1056436",
    "request_type": "Trash/Recycling",
    "request_reason": "Request a Large Item Pick Up",
    "date_created": "2023-12-18T16:42:58.000",
    "date_modified": "2023-12-18T16:42:58.000",
    "request_status": "Pending",
    "responsible_agency": "Department of Sanitation",
    "final_address": "5615 Marshal Foch St",
    "address_councildis": "A",
    "status": "Assigned to Contractor",
    "contractor": "IV Waste",
    "rowid": "1056436",
    "final_x": "3669647.66414",
    "final_y": "544369.237327",
    "longitude": "-90.10506091469112",
    "latitude": "29.991181306268338",
    "geocoded_column": {
      "latitude": "29.991181306268338",
      "longitude": "-90.10506091469112"
    }
  },
  {
    "service_request": "2023-1056435",
    "request_type": "Traffic Signals/Signs/Striping/Streetlights",
    "request_reason": "Street Light Knocked Down/Leaning",
    "date_created": "2023-12-18T16:41:25.000",
    "date_modified": "2023-12-18T16:41:26.000",
    "request_status": "Pending",
    "responsible_agency": "Department of Public Works",
    "final_address": "TULANE AVE & S SALCEDO ST",
    "address_councildis": "B",
    "status": "Pending",
    "contractor": "Legacy Professional Services",
    "rowid": "1056435",
    "final_x": "3672855.0",
    "final_y": "534465.58",
    "longitude": "-90.095267673484",
    "latitude": "29.963854696677785",
    "geocoded_column": {
      "latitude": "29.963854696677785",
      "longitude": "-90.095267673484"
    }
  },
  {
    "service_request": "2023-1056434",
    "request_type": "Trash/Recycling",
    "request_reason": "Request a Large Item Pick Up",
    "date_created": "2023-12-18T16:37:57.000",
    "date_modified": "2023-12-18T16:37:58.000",
    "request_status": "Pending",
    "responsible_agency": "Department of Sanitation",
    "final_address": "5705 Wingate Dr",
    "address_councildis": "D",
    "status": "Assigned to Contractor",
    "contractor": "IV Waste",
    "rowid": "1056434",
    "final_x": "3681388.82664",
    "final_y": "553770.651415",
    "longitude": "-90.06764528448025",
    "latitude": "30.01668053392906",
    "geocoded_column": {
      "latitude": "30.01668053392906",
      "longitude": "-90.06764528448025"
    }
  },
  {
    "service_request": "2023-1056433",
    "request_type": "Trash/Recycling",
    "request_reason": "Order Trash Cart",
    "date_created": "2023-12-18T16:33:00.000",
    "date_modified": "2023-12-18T16:33:01.000",
    "request_status": "Pending",
    "responsible_agency": "Department of Sanitation",
    "final_address": "7011 Yorktown Dr",
    "address_councildis": "E",
    "status": "Assigned to Contractor",
    "contractor": "Waste Pro",
    "rowid": "1056433",
    "final_x": "3706261.27326",
    "final_y": "560483.24547",
    "longitude": "-89.98881067055623",
    "latitude": "30.03435866981574",
    "geocoded_column": {
      "latitude": "30.03435866981574",
      "longitude": "-89.98881067055623"
    }
  },
  {
    "service_request": "2023-1056432",
    "request_type": "Trash/Recycling",
    "request_reason": "Request a Large Item Pick Up",
    "date_created": "2023-12-18T16:32:52.000",
    "date_modified": "2023-12-18T16:32:52.000",
    "request_status": "Pending",
    "responsible_agency": "Department of Sanitation",
    "final_address": "4871 Metropolitan Dr",
    "address_councildis": "D",
    "status": "Assigned to Contractor",
    "contractor": "IV Waste",
    "rowid": "1056432",
    "final_x": "3690641.21385",
    "final_y": "551396.126549",
    "longitude": "-90.0384965368346",
    "latitude": "30.00986720823679",
    "geocoded_column": {
      "latitude": "30.00986720823679",
      "longitude": "-90.0384965368346"
    }
  },
  {
    "service_request": "2023-1056431",
    "request_type": "Trash/Recycling",
    "request_reason": "Repair Trash Cart",
    "date_created": "2023-12-18T16:23:00.000",
    "date_modified": "2023-12-18T16:23:00.000",
    "request_status": "Pending",
    "responsible_agency": "Department of Sanitation",
    "final_address": "613 Aurora Oaks Dr",
    "address_councildis": "C",
    "status": "Assigned to Contractor",
    "contractor": "Richards Disposal",
    "rowid": "1056431",
    "final_x": "3701238.34449",
    "final_y": "520720.470649",
    "longitude": "-90.0061391403518",
    "latitude": "29.925186695662415",
    "geocoded_column": {
      "latitude": "29.925186695662415",
      "longitude": "-90.0061391403518"
    }
  },
  {
    "service_request": "2023-1056430",
    "request_type": "Trash/Recycling",
    "request_reason": "Missed Trash Pick-Up",
    "date_created": "2023-12-18T16:15:55.000",
    "date_modified": "2023-12-18T16:15:55.000",
    "request_status": "Pending",
    "responsible_agency": "Department of Sanitation",
    "final_address": "5406 Provincial Pl",
    "address_councildis": "E",
    "status": "Assigned to Contractor",
    "contractor": "Waste Pro",
    "rowid": "1056430",
    "final_x": "3726202.78438",
    "final_y": "564015.491489",
    "longitude": "-89.92565657724954",
    "latitude": "30.043412418027142",
    "geocoded_column": {
      "latitude": "30.043412418027142",
      "longitude": "-89.92565657724954"
    }
  },
  {
    "service_request": "2023-1056429",
    "request_type": "Roads/Drainage",
    "request_reason": "Pothole",
    "date_created": "2023-12-18T16:12:44.000",
    "date_modified": "2023-12-18T16:12:44.000",
    "request_status": "Pending",
    "responsible_agency": "Department of Public Works",
    "final_address": "4216 Chestnut St",
    "address_councildis": "B",
    "status": "Pending",
    "rowid": "1056429",
    "final_x": "3671574.31393",
    "final_y": "519539.203703",
    "longitude": "-90.09981939416457",
    "latitude": "29.922850019854593",
    "geocoded_column": {
      "latitude": "29.922850019854593",
      "longitude": "-90.09981939416457"
    }
  },
  {
    "service_request": "2023-1056428",
    "request_type": "Trash/Recycling",
    "request_reason": "Request a Large Item Pick Up",
    "date_created": "2023-12-18T16:09:20.000",
    "date_modified": "2023-12-18T16:09:21.000",
    "request_status": "Pending",
    "responsible_agency": "Department of Sanitation",
    "final_address": "7509 Dogwood Dr",
    "address_councildis": "E",
    "status": "Assigned to Contractor",
    "contractor": "Waste Pro",
    "rowid": "1056428",
    "final_x": "3701489.33559",
    "final_y": "560709.163614",
    "longitude": "-90.00388226033508",
    "latitude": "30.03513295477828",
    "geocoded_column": {
      "latitude": "30.03513295477828",
      "longitude": "-90.00388226033508"
    }
  },
  {
    "service_request": "2023-1056427",
    "request_type": "Trash/Recycling",
    "request_reason": "Repair Trash Cart",
    "date_created": "2023-12-18T16:08:06.000",
    "date_modified": "2023-12-18T16:08:07.000",
    "request_status": "Pending",
    "responsible_agency": "Department of Sanitation",
    "final_address": "5630 Orleans Ave",
    "address_councildis": "A",
    "status": "Assigned to Contractor",
    "contractor": "IV Waste",
    "rowid": "1056427",
    "final_x": "3670584.94612",
    "final_y": "544689.228495",
    "longitude": "-90.10208938821238",
    "latitude": "29.992033512438606",
    "geocoded_column": {
      "latitude": "29.992033512438606",
      "longitude": "-90.10208938821238"
    }
  },
  {
    "service_request": "2023-1056425",
    "request_type": "Trash/Recycling",
    "request_reason": "Request a Large Item Pick Up",
    "date_created": "2023-12-18T15:57:41.000",
    "date_modified": "2023-12-18T15:57:42.000",
    "request_status": "Pending",
    "responsible_agency": "Department of Sanitation",
    "final_address": "826 Homer St",
    "address_councildis": "C",
    "status": "Assigned to Contractor",
    "contractor": "Richards Disposal",
    "rowid": "1056425",
    "final_x": "3688029.81283",
    "final_y": "528380.91424",
    "longitude": "-90.0475628049154",
    "latitude": "29.946664397146662",
    "geocoded_column": {
      "latitude": "29.946664397146662",
      "longitude": "-90.0475628049154"
    }
  },
  {
    "service_request": "2023-1056424",
    "request_type": "Trash/Recycling",
    "request_reason": "Replace Trash Cart",
    "date_created": "2023-12-18T15:54:46.000",
    "date_modified": "2023-12-18T15:54:47.000",
    "request_status": "Pending",
    "responsible_agency": "Department of Sanitation",
    "final_address": "2823 Constance St",
    "address_councildis": "B",
    "status": "Assigned to Contractor",
    "contractor": "Richards Disposal",
    "rowid": "1056424",
    "final_x": "3677073.46702",
    "final_y": "520431.680248",
    "longitude": "-90.08242996112584",
    "latitude": "29.92514011750468",
    "geocoded_column": {
      "latitude": "29.92514011750468",
      "longitude": "-90.08242996112584"
    }
  },
  {
    "service_request": "2023-1056423",
    "request_type": "Abandoned Vehicles",
    "request_reason": "Abandoned/Junk Vehicles",
    "date_created": "2023-12-18T15:52:59.000",
    "date_modified": "2023-12-18T15:54:11.000",
    "request_status": "Pending",
    "responsible_agency": "Department of Public Works",
    "final_address": "WILTON DR & ROSARY DR",
    "address_councildis": "D",
    "status": "Pending",
    "rowid": "1056423",
    "final_x": "3681713.2",
    "final_y": "555106.78",
    "longitude": "-90.0665737316344",
    "latitude": "30.020344543784244",
    "geocoded_column": {
      "latitude": "30.020344543784244",
      "longitude": "-90.0665737316344"
    }
  },
  {
    "service_request": "2023-1056422",
    "request_type": "Abandoned Vehicles",
    "request_reason": "Abandoned/Junk Vehicles",
    "date_created": "2023-12-18T15:49:19.000",
    "date_modified": "2023-12-18T15:49:20.000",
    "request_status": "Pending",
    "responsible_agency": "Department of Public Works",
    "final_address": "4657 Charlene Dr",
    "address_councildis": "E",
    "status": "Pending",
    "rowid": "1056422",
    "final_x": "3708033.67166",
    "final_y": "554941.56444",
    "longitude": "-89.98341601325508",
    "latitude": "30.019063912800263",
    "geocoded_column": {
      "latitude": "30.019063912800263",
      "longitude": "-89.98341601325508"
    }
  },
  {
    "service_request": "2023-1056421",
    "request_type": "Trash/Recycling",
    "request_reason": "Replace Trash Cart",
    "date_created": "2023-12-18T15:48:34.000",
    "date_modified": "2023-12-18T15:48:35.000",
    "request_status": "Pending",
    "responsible_agency": "Department of Sanitation",
    "final_address": "2032 Congress St",
    "address_councildis": "D",
    "status": "Assigned to Contractor",
    "contractor": "IV Waste",
    "rowid": "1056421",
    "final_x": "3691582.43977",
    "final_y": "539235.220938",
    "longitude": "-90.03595789231707",
    "latitude": "29.976399849216424",
    "geocoded_column": {
      "latitude": "29.976399849216424",
      "longitude": "-90.03595789231707"
    }
  },
  {
    "service_request": "2023-1056420",
    "request_type": "Trash/Recycling",
    "request_reason": "Missed Trash Pick-Up",
    "date_created": "2023-12-18T15:46:29.000",
    "date_modified": "2023-12-18T15:46:30.000",
    "request_status": "Pending",
    "responsible_agency": "Department of Sanitation",
    "final_address": "4401 Dale St",
    "address_councildis": "E",
    "status": "Assigned to Contractor",
    "contractor": "Waste Pro",
    "rowid": "1056420",
    "final_x": "3699699.55364",
    "final_y": "553139.431831",
    "longitude": "-90.00981453380078",
    "latitude": "30.014376070237034",
    "geocoded_column": {
      "latitude": "30.014376070237034",
      "longitude": "-90.00981453380078"
    }
  },
  {
    "service_request": "2023-1056419",
    "request_type": "Trash/Recycling",
    "request_reason": "Replace Trash Cart",
    "date_created": "2023-12-18T15:46:22.000",
    "date_modified": "2023-12-18T15:46:23.000",
    "request_status": "Pending",
    "responsible_agency": "Department of Sanitation",
    "final_address": "2810 General Ogden St",
    "address_councildis": "A",
    "status": "Assigned to Contractor",
    "contractor": "Richards Disposal",
    "rowid": "1056419",
    "final_x": "3663779.02631",
    "final_y": "534622.026694",
    "longitude": "-90.1239236477987",
    "latitude": "29.96455139749847",
    "geocoded_column": {
      "latitude": "29.96455139749847",
      "longitude": "-90.1239236477987"
    }
  },
  {
    "service_request": "2023-1056418",
    "request_type": "Trash/Recycling",
    "request_reason": "Missed Trash Pick-Up",
    "date_created": "2023-12-18T15:45:00.000",
    "date_modified": "2023-12-18T15:45:01.000",
    "request_status": "Pending",
    "responsible_agency": "Department of Sanitation",
    "final_address": "7235 Wales St",
    "address_councildis": "E",
    "status": "Assigned to Contractor",
    "contractor": "Waste Pro",
    "rowid": "1056418",
    "final_x": "3699420.10621",
    "final_y": "561117.603998",
    "longitude": "-90.01040641662448",
    "latitude": "30.03632185814726",
    "geocoded_column": {
      "latitude": "30.03632185814726",
      "longitude": "-90.01040641662448"
    }
  },
  {
    "service_request": "2023-1056417",
    "request_type": "Trash/Recycling",
    "request_reason": "Request a Large Item Pick Up",
    "date_created": "2023-12-18T15:44:41.000",
    "date_modified": "2023-12-18T15:44:42.000",
    "request_status": "Pending",
    "responsible_agency": "Department of Sanitation",
    "final_address": "3439 Constance St",
    "address_councildis": "B",
    "status": "Assigned to Contractor",
    "contractor": "Richards Disposal",
    "rowid": "1056417",
    "final_x": "3674849.07886",
    "final_y": "519192.705463",
    "longitude": "-90.08949410676303",
    "latitude": "29.92179991962535",
    "geocoded_column": {
      "latitude": "29.92179991962535",
      "longitude": "-90.08949410676303"
    }
  },
  {
    "service_request": "2023-1056416",
    "request_type": "Trash/Recycling",
    "request_reason": "Missed Trash Pick-Up",
    "date_created": "2023-12-18T15:44:08.000",
    "date_modified": "2023-12-18T15:44:09.000",
    "request_status": "Pending",
    "responsible_agency": "Department of Sanitation",
    "final_address": "7900 Trout St",
    "address_councildis": "E",
    "status": "Assigned to Contractor",
    "contractor": "Waste Pro",
    "rowid": "1056416",
    "final_x": "3699511.99664",
    "final_y": "561163.623006",
    "longitude": "-90.01011434695715",
    "latitude": "30.036445475105154",
    "geocoded_column": {
      "latitude": "30.036445475105154",
      "longitude": "-90.01011434695715"
    }
  },
  {
    "service_request": "2023-1056415",
    "request_type": "Roads/Drainage",
    "request_reason": "Pothole",
    "date_created": "2023-12-18T15:38:10.000",
    "date_modified": "2023-12-18T15:38:11.000",
    "request_status": "Pending",
    "responsible_agency": "Department of Public Works",
    "final_address": "2606 Elysian Fields Ave",
    "address_councildis": "D",
    "status": "Pending",
    "rowid": "1056415",
    "final_x": "3684458.06185",
    "final_y": "541923.707468",
    "longitude": "-90.05836431019885",
    "latitude": "29.984012121588982",
    "geocoded_column": {
      "latitude": "29.984012121588982",
      "longitude": "-90.05836431019885"
    }
  },
  {
    "service_request": "2023-1056414",
    "request_type": "Property Maintenance",
    "request_reason": "Property Maintenance",
    "date_created": "2023-12-18T15:35:52.000",
    "date_modified": "2023-12-18T15:35:53.000",
    "request_status": "Pending",
    "responsible_agency": "Department of Code Enforcement",
    "final_address": "2612 St Claude Ave",
    "address_councildis": "C",
    "status": "Pending",
    "rowid": "1056414",
    "final_x": "3687232.99996",
    "final_y": "536398.330311",
    "longitude": "-90.04979506550491",
    "latitude": "29.968734088318303",
    "geocoded_column": {
      "latitude": "29.968734088318303",
      "longitude": "-90.04979506550491"
    }
  },
  {
    "service_request": "2023-1056413",
    "request_type": "Property Maintenance",
    "request_reason": "Property Maintenance",
    "date_created": "2023-12-18T15:34:26.000",
    "date_modified": "2023-12-18T15:34:27.000",
    "request_status": "Pending",
    "responsible_agency": "Department of Code Enforcement",
    "final_address": "2608 St Claude Ave",
    "address_councildis": "C",
    "status": "Pending",
    "rowid": "1056413",
    "final_x": "3687203.24374",
    "final_y": "536405.450887",
    "longitude": "-90.04988878529196",
    "latitude": "29.968754583900786",
    "geocoded_column": {
      "latitude": "29.968754583900786",
      "longitude": "-90.04988878529196"
    }
  },
  {
    "service_request": "2023-1056412",
    "request_type": "EMS",
    "request_reason": "EMS Complaint",
    "date_created": "2023-12-18T15:32:44.000",
    "date_modified": "2023-12-18T15:32:45.000",
    "request_status": "Pending",
    "responsible_agency": "Emergency Medical Services",
    "final_address": "3615 Tulane Ave",
    "address_councildis": "B",
    "status": "Pending",
    "rowid": "1056412",
    "final_x": "3671115.90145",
    "final_y": "535545.517702",
    "longitude": "-90.1007229078135",
    "latitude": "29.96687571785411",
    "geocoded_column": {
      "latitude": "29.96687571785411",
      "longitude": "-90.1007229078135"
    }
  },
  {
    "service_request": "2023-1056411",
    "request_type": "Trash/Recycling",
    "request_reason": "Illegal Dumping",
    "date_created": "2023-12-18T15:32:40.000",
    "date_modified": "2023-12-18T15:32:41.000",
    "request_status": "Pending",
    "responsible_agency": "Department of Sanitation",
    "final_address": "TULLIS DR & BENNETT ST",
    "address_councildis": "C",
    "status": "Pending",
    "rowid": "1056411",
    "final_x": "3710360.2",
    "final_y": "517467.18",
    "longitude": "-89.97746615118197",
    "latitude": "29.91594761898075",
    "geocoded_column": {
      "latitude": "29.91594761898075",
      "longitude": "-89.97746615118197"
    }
  },
  {
    "service_request": "2023-1056410",
    "request_type": "Property Maintenance",
    "request_reason": "Property Maintenance",
    "date_created": "2023-12-18T15:31:21.000",
    "date_modified": "2023-12-18T15:31:22.000",
    "request_status": "Pending",
    "responsible_agency": "Department of Code Enforcement",
    "final_address": "7075 Tullis Dr",
    "address_councildis": "C",
    "status": "Pending",
    "rowid": "1056410",
    "final_x": "3710279.00472",
    "final_y": "517252.033141",
    "longitude": "-89.9777304665849",
    "latitude": "29.915358681867886",
    "geocoded_column": {
      "latitude": "29.915358681867886",
      "longitude": "-89.9777304665849"
    }
  },
  {
    "service_request": "2023-1056409",
    "request_type": "Trash/Recycling",
    "request_reason": "Replace Trash Cart",
    "date_created": "2023-12-18T15:30:09.000",
    "date_modified": "2023-12-18T15:30:10.000",
    "request_status": "Pending",
    "responsible_agency": "Department of Sanitation",
    "final_address": "20 Lark St",
    "address_councildis": "D",
    "status": "Assigned to Contractor",
    "contractor": "IV Waste",
    "rowid": "1056409",
    "final_x": "3675895.73928",
    "final_y": "556490.144026",
    "longitude": "-90.0849075173112",
    "latitude": "30.02432385042106",
    "geocoded_column": {
      "latitude": "30.02432385042106",
      "longitude": "-90.0849075173112"
    }
  },
  {
    "service_request": "2023-1056408",
    "request_type": "Trash/Recycling",
    "request_reason": "Order Recycling Cart",
    "date_created": "2023-12-18T15:28:59.000",
    "date_modified": "2023-12-18T15:29:00.000",
    "request_status": "Pending",
    "responsible_agency": "Department of Sanitation",
    "final_address": "2527 Sage St",
    "address_councildis": "D",
    "status": "Pending",
    "rowid": "1056408",
    "final_x": "3686955.79714",
    "final_y": "545502.032464",
    "longitude": "-90.0503485756363",
    "latitude": "29.993774583026745",
    "geocoded_column": {
      "latitude": "29.993774583026745",
      "longitude": "-90.0503485756363"
    }
  },
  {
    "service_request": "2023-1056407",
    "request_type": "Roads/Drainage",
    "request_reason": "Street Subsidence (Sinking)",
    "date_created": "2023-12-18T15:28:01.000",
    "date_modified": "2023-12-18T15:28:02.000",
    "request_status": "Pending",
    "responsible_agency": "Department of Public Works",
    "final_address": "PRIMROSE DR & MORRISON RD",
    "address_councildis": "E",
    "status": "Pending",
    "rowid": "1056407",
    "final_x": "3702159.4",
    "final_y": "560189.08",
    "longitude": "-90.00178386274919",
    "latitude": "30.033681533925595",
    "geocoded_column": {
      "latitude": "30.033681533925595",
      "longitude": "-90.00178386274919"
    }
  },
  {
    "service_request": "2023-1056406",
    "request_type": "Trash/Recycling",
    "request_reason": "Replace Recycling Cart",
    "date_created": "2023-12-18T15:27:34.000",
    "date_modified": "2023-12-18T15:27:34.000",
    "request_status": "Pending",
    "responsible_agency": "Department of Sanitation",
    "final_address": "1314 Seventh St",
    "address_councildis": "B",
    "status": "Pending",
    "rowid": "1056406",
    "final_x": "3675850.30017",
    "final_y": "521071.692089",
    "longitude": "-90.08626912311982",
    "latitude": "29.926936603327576",
    "geocoded_column": {
      "latitude": "29.926936603327576",
      "longitude": "-90.08626912311982"
    }
  },
  {
    "service_request": "2023-1056405",
    "request_type": "Trash/Recycling",
    "request_reason": "Request a Large Item Pick Up",
    "date_created": "2023-12-18T15:27:22.000",
    "date_modified": "2023-12-18T15:27:23.000",
    "request_status": "Pending",
    "responsible_agency": "Department of Sanitation",
    "final_address": "4444 Shalimar Dr",
    "address_councildis": "D",
    "status": "Assigned to Contractor",
    "contractor": "Waste Pro",
    "rowid": "1056405",
    "final_x": "3697223.93322",
    "final_y": "552731.999446",
    "longitude": "-90.0176510037901",
    "latitude": "30.013334177929433",
    "geocoded_column": {
      "latitude": "30.013334177929433",
      "longitude": "-90.0176510037901"
    }
  },
  {
    "service_request": "2023-1056404",
    "request_type": "Trash/Recycling",
    "request_reason": "Repair Recycling Cart",
    "date_created": "2023-12-18T15:26:48.000",
    "date_modified": "2023-12-18T15:26:49.000",
    "request_status": "Pending",
    "responsible_agency": "Department of Sanitation",
    "final_address": "3046 St Peter St",
    "address_councildis": "A",
    "status": "Pending",
    "rowid": "1056404",
    "final_x": "3675279.45032",
    "final_y": "537834.632201",
    "longitude": "-90.08749580591306",
    "latitude": "29.973046195849616",
    "geocoded_column": {
      "latitude": "29.973046195849616",
      "longitude": "-90.08749580591306"
    }
  },
  {
    "service_request": "2023-1056403",
    "request_type": "Trash/Recycling",
    "request_reason": "Return Trash Cart",
    "date_created": "2023-12-18T15:25:30.000",
    "date_modified": "2023-12-18T15:25:31.000",
    "request_status": "Pending",
    "responsible_agency": "Department of Sanitation",
    "final_address": "4417 Laurel St",
    "address_councildis": "B",
    "status": "Assigned to Contractor",
    "contractor": "Richards Disposal",
    "rowid": "1056403",
    "final_x": "3670911.00763",
    "final_y": "518118.294902",
    "longitude": "-90.10196139744998",
    "latitude": "29.918962589574473",
    "geocoded_column": {
      "latitude": "29.918962589574473",
      "longitude": "-90.10196139744998"
    }
  },
  {
    "service_request": "2023-1056402",
    "request_type": "Traffic Signals/Signs/Striping/Streetlights",
    "request_reason": "Street Name Sign Damaged or Missing",
    "date_created": "2023-12-18T15:22:53.000",
    "date_modified": "2023-12-18T15:22:53.000",
    "request_status": "Pending",
    "responsible_agency": "Department of Public Works",
    "final_address": "1400 Audubon St",
    "address_councildis": "A",
    "status": "Pending",
    "rowid": "1056402",
    "final_x": "3664792.93178",
    "final_y": "526965.166974",
    "longitude": "-90.12097762966991",
    "latitude": "29.943468055864233",
    "geocoded_column": {
      "latitude": "29.943468055864233",
      "longitude": "-90.12097762966991"
    }
  },
  {
    "service_request": "2023-1056401",
    "request_type": "Trash/Recycling",
    "request_reason": "Replace Trash Cart",
    "date_created": "2023-12-18T15:21:30.000",
    "date_modified": "2023-12-18T15:21:31.000",
    "request_status": "Pending",
    "responsible_agency": "Department of Sanitation",
    "final_address": "1027 Terpsichore St",
    "address_councildis": "B",
    "status": "Assigned to Contractor",
    "contractor": "Richards Disposal",
    "rowid": "1056401",
    "final_x": "3680537.55087",
    "final_y": "524523.250556",
    "longitude": "-90.07135271353654",
    "latitude": "29.93628615047903",
    "geocoded_column": {
      "latitude": "29.93628615047903",
      "longitude": "-90.07135271353654"
    }
  },
  {
    "service_request": "2023-1056400",
    "request_type": "Roads/Drainage",
    "request_reason": "Street Flooding / Drainage",
    "date_created": "2023-12-18T15:09:44.000",
    "date_modified": "2023-12-18T15:09:44.000",
    "request_status": "Pending",
    "responsible_agency": "Department of Public Works",
    "final_address": "6535 Louisville St",
    "address_councildis": "A",
    "status": "Pending",
    "rowid": "1056400",
    "final_x": "3668175.33069",
    "final_y": "551071.415509",
    "longitude": "-90.10948557252463",
    "latitude": "30.009653290328632",
    "geocoded_column": {
      "latitude": "30.009653290328632",
      "longitude": "-90.10948557252463"
    }
  },
  {
    "service_request": "2023-1056399",
    "request_type": "Trash/Recycling",
    "request_reason": "Request a Large Item Pick Up",
    "date_created": "2023-12-18T15:09:32.000",
    "date_modified": "2023-12-18T15:09:33.000",
    "request_status": "Pending",
    "responsible_agency": "Department of Sanitation",
    "final_address": "5967 Winchester Park Dr",
    "address_councildis": "E",
    "status": "Assigned to Contractor",
    "contractor": "Waste Pro",
    "rowid": "1056399",
    "final_x": "3714575.04927",
    "final_y": "563172.790176",
    "longitude": "-89.96243660526198",
    "latitude": "30.04148298013558",
    "geocoded_column": {
      "latitude": "30.04148298013558",
      "longitude": "-89.96243660526198"
    }
  },
  {
    "service_request": "2023-1056398",
    "request_type": "Roads/Drainage",
    "request_reason": "Pothole",
    "date_created": "2023-12-18T15:06:04.000",
    "date_modified": "2023-12-18T15:06:04.000",
    "request_status": "Pending",
    "responsible_agency": "Department of Public Works",
    "final_address": "1312 Milan St",
    "address_councildis": "B",
    "status": "Pending",
    "rowid": "1056398",
    "final_x": "3671625.82823",
    "final_y": "520286.919608",
    "longitude": "-90.09963137110304",
    "latitude": "29.92490447494246",
    "geocoded_column": {
      "latitude": "29.92490447494246",
      "longitude": "-90.09963137110304"
    }
  },
  {
    "service_request": "2023-1056397",
    "request_type": "Trash/Recycling",
    "request_reason": "Order Recycling Cart",
    "date_created": "2023-12-18T15:05:21.000",
    "date_modified": "2023-12-18T15:05:22.000",
    "request_status": "Pending",
    "responsible_agency": "Department of Sanitation",
    "final_address": "2659 Bruxelles St",
    "address_councildis": "D",
    "status": "Pending",
    "rowid": "1056397",
    "final_x": "3680395.94491",
    "final_y": "542145.907917",
    "longitude": "-90.07118694371509",
    "latitude": "29.98474675100021",
    "geocoded_column": {
      "latitude": "29.98474675100021",
      "longitude": "-90.07118694371509"
    }
  },
  {
    "service_request": "2023-1056396",
    "request_type": "Trash/Recycling",
    "request_reason": "Repair Trash Cart",
    "date_created": "2023-12-18T15:04:50.000",
    "date_modified": "2023-12-18T15:04:51.000",
    "request_status": "Pending",
    "responsible_agency": "Department of Sanitation",
    "final_address": "2659 Bruxelles St",
    "address_councildis": "D",
    "status": "Assigned to Contractor",
    "contractor": "IV Waste",
    "rowid": "1056396",
    "final_x": "3680395.94491",
    "final_y": "542145.907917",
    "longitude": "-90.07118694371509",
    "latitude": "29.98474675100021",
    "geocoded_column": {
      "latitude": "29.98474675100021",
      "longitude": "-90.07118694371509"
    }
  },
  {
    "service_request": "2023-1056395",
    "request_type": "Roads/Drainage",
    "request_reason": "Damaged Sidewalk",
    "date_created": "2023-12-18T15:03:49.000",
    "date_modified": "2023-12-18T15:03:51.000",
    "request_status": "Pending",
    "responsible_agency": "Department of Public Works",
    "final_address": "2659 Bruxelles St",
    "address_councildis": "D",
    "status": "Pending",
    "rowid": "1056395",
    "final_x": "3680395.94491",
    "final_y": "542145.907917",
    "longitude": "-90.07118694371509",
    "latitude": "29.98474675100021",
    "geocoded_column": {
      "latitude": "29.98474675100021",
      "longitude": "-90.07118694371509"
    }
  },
  {
    "service_request": "2023-1056394",
    "request_type": "Traffic Signals/Signs/Striping/Streetlights",
    "request_reason": "Street Light Outage/Malfunction",
    "date_created": "2023-12-18T15:01:29.000",
    "date_modified": "2023-12-18T15:01:30.000",
    "request_status": "Pending",
    "responsible_agency": "Department of Public Works",
    "final_address": "7700 Sandy Cove Dr",
    "address_councildis": "E",
    "status": "Assigned to Contractor",
    "contractor": "Legacy Professional Services",
    "rowid": "1056394",
    "final_x": "3715335.48837",
    "final_y": "569596.912166",
    "longitude": "-89.95978999908155",
    "latitude": "30.059121651749937",
    "geocoded_column": {
      "latitude": "30.059121651749937",
      "longitude": "-89.95978999908155"
    }
  },
  {
    "service_request": "2023-1056393",
    "request_type": "Trash/Recycling",
    "request_reason": "Replace Trash Cart",
    "date_created": "2023-12-18T14:59:53.000",
    "date_modified": "2023-12-18T14:59:54.000",
    "request_status": "Pending",
    "responsible_agency": "Department of Sanitation",
    "final_address": "3632 Napoleon Ave",
    "address_councildis": "B",
    "status": "Assigned to Contractor",
    "contractor": "Richards Disposal",
    "rowid": "1056393",
    "final_x": "3670034.73902",
    "final_y": "528091.161151",
    "longitude": "-90.10438971028104",
    "latitude": "29.946410633129698",
    "geocoded_column": {
      "latitude": "29.946410633129698",
      "longitude": "-90.10438971028104"
    }
  },
  {
    "service_request": "2023-1056392",
    "request_type": "Traffic Signals/Signs/Striping/Streetlights",
    "request_reason": "Street Light Outage/Malfunction",
    "date_created": "2023-12-18T14:56:40.000",
    "date_modified": "2023-12-18T14:56:40.000",
    "request_status": "Pending",
    "responsible_agency": "Department of Public Works",
    "final_address": "3610 Preston Pl",
    "address_councildis": "C",
    "status": "Assigned to Contractor",
    "contractor": "Legacy Professional Services",
    "rowid": "1056392",
    "final_x": "3708539.84932",
    "final_y": "517585.061878",
    "longitude": "-89.98320744915021",
    "latitude": "29.916330855805768",
    "geocoded_column": {
      "latitude": "29.916330855805768",
      "longitude": "-89.98320744915021"
    }
  },
  {
    "service_request": "2023-1056391",
    "request_type": "Traffic Signals/Signs/Striping/Streetlights",
    "request_reason": "Street Light Outage/Malfunction",
    "date_created": "2023-12-18T14:56:05.000",
    "date_modified": "2023-12-18T14:56:06.000",
    "request_status": "Pending",
    "responsible_agency": "Department of Public Works",
    "final_address": "3610 Preston Pl",
    "address_councildis": "C",
    "status": "Assigned to Contractor",
    "contractor": "Legacy Professional Services",
    "rowid": "1056391",
    "final_x": "3708539.84932",
    "final_y": "517585.061878",
    "longitude": "-89.98320744915021",
    "latitude": "29.916330855805768",
    "geocoded_column": {
      "latitude": "29.916330855805768",
      "longitude": "-89.98320744915021"
    }
  },
  {
    "service_request": "2023-1056390",
    "request_type": "Trash/Recycling",
    "request_reason": "Replace Trash Cart",
    "date_created": "2023-12-18T14:55:22.000",
    "date_modified": "2023-12-18T14:55:23.000",
    "request_status": "Pending",
    "responsible_agency": "Department of Sanitation",
    "final_address": "1634 N Prieur St",
    "address_councildis": "D",
    "status": "Assigned to Contractor",
    "contractor": "IV Waste",
    "rowid": "1056390",
    "final_x": "3681552.95567",
    "final_y": "538632.565705",
    "longitude": "-90.067655028895",
    "latitude": "29.975051191435238",
    "geocoded_column": {
      "latitude": "29.975051191435238",
      "longitude": "-90.067655028895"
    }
  },
  {
    "service_request": "2023-1056389",
    "request_type": "Trash/Recycling",
    "request_reason": "Order Recycling Cart",
    "date_created": "2023-12-18T14:53:02.000",
    "date_modified": "2023-12-18T14:53:02.000",
    "request_status": "Pending",
    "responsible_agency": "Department of Sanitation",
    "final_address": "4867 Constance St",
    "address_councildis": "B",
    "status": "Pending",
    "rowid": "1056389",
    "final_x": "3669060.7506",
    "final_y": "518250.103094",
    "longitude": "-90.10779727266686",
    "latitude": "29.919379564642533",
    "geocoded_column": {
      "latitude": "29.919379564642533",
      "longitude": "-90.10779727266686"
    }
  },
  {
    "service_request": "2023-1056388",
    "request_type": "Trash/Recycling",
    "request_reason": "Illegal Dumping",
    "date_created": "2023-12-18T14:33:36.000",
    "date_modified": "2023-12-18T14:33:37.000",
    "request_status": "Pending",
    "responsible_agency": "Department of Sanitation",
    "final_address": "1912 Marigny St",
    "address_councildis": "D",
    "status": "Pending",
    "rowid": "1056388",
    "final_x": "3685131.24533",
    "final_y": "539415.679178",
    "longitude": "-90.05632632064747",
    "latitude": "29.977095313279044",
    "geocoded_column": {
      "latitude": "29.977095313279044",
      "longitude": "-90.05632632064747"
    }
  },
  {
    "service_request": "2023-1056387",
    "request_type": "Trash/Recycling",
    "request_reason": "Request a Large Item Pick Up",
    "date_created": "2023-12-18T14:26:36.000",
    "date_modified": "2023-12-18T14:26:37.000",
    "request_status": "Pending",
    "responsible_agency": "Department of Sanitation",
    "final_address": "3317 Cleveland Ave",
    "address_councildis": "B",
    "status": "Assigned to Contractor",
    "contractor": "Richards Disposal",
    "rowid": "1056387",
    "final_x": "3673218.76174",
    "final_y": "536245.864071",
    "longitude": "-90.09405814262189",
    "latitude": "29.968739066691835",
    "geocoded_column": {
      "latitude": "29.968739066691835",
      "longitude": "-90.09405814262189"
    }
  },
  {
    "service_request": "2023-1056386",
    "request_type": "Traffic Signals/Signs/Striping/Streetlights",
    "request_reason": "Street Light Outage/Malfunction",
    "date_created": "2023-12-18T14:25:55.000",
    "date_modified": "2023-12-18T14:25:56.000",
    "request_status": "Pending",
    "responsible_agency": "Department of Public Works",
    "final_address": "712 Piety St",
    "address_councildis": "C",
    "status": "Assigned to Contractor",
    "contractor": "Legacy Professional Services",
    "rowid": "1056386",
    "final_x": "3689466.36598",
    "final_y": "534427.265669",
    "longitude": "-90.04281209338644",
    "latitude": "29.96324537156749",
    "geocoded_column": {
      "latitude": "29.96324537156749",
      "longitude": "-90.04281209338644"
    }
  },
  {
    "service_request": "2023-1056385",
    "request_type": "Trash/Recycling",
    "request_reason": "Request a Large Item Pick Up",
    "date_created": "2023-12-18T14:25:20.000",
    "date_modified": "2023-12-18T14:31:58.000",
    "request_status": "Pending",
    "responsible_agency": "Department of Sanitation",
    "final_address": "5967 Winchester Park Dr",
    "address_councildis": "E",
    "status": "Assigned to Contractor",
    "contractor": "Waste Pro",
    "rowid": "1056385",
    "final_x": "3714575.04927",
    "final_y": "563172.790176",
    "longitude": "-89.96243660526198",
    "latitude": "30.04148298013558",
    "geocoded_column": {
      "latitude": "30.04148298013558",
      "longitude": "-89.96243660526198"
    }
  },
  {
    "service_request": "2023-1056384",
    "request_type": "Traffic Signals/Signs/Striping/Streetlights",
    "request_reason": "Street Light Outage/Malfunction",
    "date_created": "2023-12-18T14:18:54.000",
    "date_modified": "2023-12-18T14:18:55.000",
    "request_status": "Pending",
    "responsible_agency": "Department of Public Works",
    "final_address": "540 Burgundy St",
    "address_councildis": "C",
    "status": "Assigned to Contractor",
    "contractor": "Legacy Professional Services",
    "rowid": "1056384",
    "final_x": "3681428.20802",
    "final_y": "532730.959428",
    "longitude": "-90.06825479779992",
    "latitude": "29.958827589490276",
    "geocoded_column": {
      "latitude": "29.958827589490276",
      "longitude": "-90.06825479779992"
    }
  },
  {
    "service_request": "2023-1056383",
    "request_type": "Trash/Recycling",
    "request_reason": "Order Recycling Cart",
    "date_created": "2023-12-18T14:17:15.000",
    "date_modified": "2023-12-18T14:17:15.000",
    "request_status": "Pending",
    "responsible_agency": "Department of Sanitation",
    "final_address": "5650 Chamberlain Dr",
    "address_councildis": "D",
    "status": "Pending",
    "rowid": "1056383",
    "final_x": "3679301.18728",
    "final_y": "553375.682135",
    "longitude": "-90.0742550543534",
    "latitude": "30.01565775264509",
    "geocoded_column": {
      "latitude": "30.01565775264509",
      "longitude": "-90.0742550543534"
    }
  },
  {
    "service_request": "2023-1056382",
    "request_type": "Trash/Recycling",
    "request_reason": "Request a Large Item Pick Up",
    "date_created": "2023-12-18T14:15:06.000",
    "date_modified": "2023-12-18T14:15:06.000",
    "request_status": "Pending",
    "responsible_agency": "Department of Sanitation",
    "final_address": "4911 Gawain Dr",
    "address_councildis": "E",
    "status": "Assigned to Contractor",
    "contractor": "Waste Pro",
    "rowid": "1056382",
    "final_x": "3706945.23755",
    "final_y": "556487.572698",
    "longitude": "-89.98679765275841",
    "latitude": "30.02335004873773",
    "geocoded_column": {
      "latitude": "30.02335004873773",
      "longitude": "-89.98679765275841"
    }
  },
  {
    "service_request": "2023-1056381",
    "request_type": "Trash/Recycling",
    "request_reason": "Repair Recycling Cart",
    "date_created": "2023-12-18T14:14:02.000",
    "date_modified": "2023-12-18T14:14:03.000",
    "request_status": "Pending",
    "responsible_agency": "Department of Sanitation",
    "final_address": "7649 Jonlee Dr",
    "address_councildis": "E",
    "status": "Pending",
    "rowid": "1056381",
    "final_x": "3717055.48517",
    "final_y": "570714.901095",
    "longitude": "-89.95431075829408",
    "latitude": "30.062138853645184",
    "geocoded_column": {
      "latitude": "30.062138853645184",
      "longitude": "-89.95431075829408"
    }
  },
  {
    "service_request": "2023-1056380",
    "request_type": "Trash/Recycling",
    "request_reason": "Replace Trash Cart",
    "date_created": "2023-12-18T14:14:00.000",
    "date_modified": "2023-12-18T14:14:01.000",
    "request_status": "Pending",
    "responsible_agency": "Department of Sanitation",
    "final_address": "2744 St Philip St",
    "address_councildis": "A",
    "status": "Assigned to Contractor",
    "contractor": "Richards Disposal",
    "rowid": "1056380",
    "final_x": "3677037.23726",
    "final_y": "538074.417225",
    "longitude": "-90.08193609729108",
    "latitude": "29.973652854374624",
    "geocoded_column": {
      "latitude": "29.973652854374624",
      "longitude": "-90.08193609729108"
    }
  },
  {
    "service_request": "2023-1056379",
    "request_type": "Trash/Recycling",
    "request_reason": "MIssed Recycling Pick-Up",
    "date_created": "2023-12-18T14:13:21.000",
    "date_modified": "2023-12-18T14:13:21.000",
    "request_status": "Pending",
    "responsible_agency": "Department of Sanitation",
    "final_address": "7649 Jonlee Dr",
    "address_councildis": "E",
    "status": "Assigned to Contractor",
    "contractor": "Waste Pro",
    "rowid": "1056379",
    "final_x": "3717055.48517",
    "final_y": "570714.901095",
    "longitude": "-89.95431075829408",
    "latitude": "30.062138853645184",
    "geocoded_column": {
      "latitude": "30.062138853645184",
      "longitude": "-89.95431075829408"
    }
  },
  {
    "service_request": "2023-1056378",
    "request_type": "Trash/Recycling",
    "request_reason": "Replace Trash Cart",
    "date_created": "2023-12-18T14:13:12.000",
    "date_modified": "2023-12-18T14:13:13.000",
    "request_status": "Pending",
    "responsible_agency": "Department of Sanitation",
    "final_address": "2028 Seventh St",
    "address_councildis": "B",
    "status": "Assigned to Contractor",
    "contractor": "Richards Disposal",
    "rowid": "1056378",
    "final_x": "3674299.89729",
    "final_y": "523463.897723",
    "longitude": "-90.09108147411446",
    "latitude": "29.93356070044637",
    "geocoded_column": {
      "latitude": "29.93356070044637",
      "longitude": "-90.09108147411446"
    }
  },
  {
    "service_request": "2023-1056377",
    "request_type": "Safety & Permits",
    "request_reason": "Licenses & Permits",
    "date_created": "2023-12-18T14:11:56.000",
    "date_modified": "2023-12-18T14:11:57.000",
    "request_status": "Pending",
    "responsible_agency": "Safety and Permits",
    "final_address": "1725 Dumaine St",
    "address_councildis": "D",
    "status": "Pending",
    "rowid": "1056377",
    "final_x": "3680003.85781",
    "final_y": "535386.453126",
    "longitude": "-90.07266027461488",
    "latitude": "29.966172456332384",
    "geocoded_column": {
      "latitude": "29.966172456332384",
      "longitude": "-90.07266027461488"
    }
  },
  {
    "service_request": "2023-1056376",
    "request_type": "Trash/Recycling",
    "request_reason": "Order Recycling Cart",
    "date_created": "2023-12-18T14:11:54.000",
    "date_modified": "2023-12-18T14:11:54.000",
    "request_status": "Pending",
    "responsible_agency": "Department of Sanitation",
    "final_address": "2028 Seventh St",
    "address_councildis": "B",
    "status": "Pending",
    "rowid": "1056376",
    "final_x": "3674299.89729",
    "final_y": "523463.897723",
    "longitude": "-90.09108147411446",
    "latitude": "29.93356070044637",
    "geocoded_column": {
      "latitude": "29.93356070044637",
      "longitude": "-90.09108147411446"
    }
  },
  {
    "service_request": "2023-1056375",
    "request_type": "Trash/Recycling",
    "request_reason": "MIssed Recycling Pick-Up",
    "date_created": "2023-12-18T14:03:54.000",
    "date_modified": "2023-12-18T14:03:55.000",
    "request_status": "Pending",
    "responsible_agency": "Department of Sanitation",
    "final_address": "6201 Berkley Dr",
    "address_councildis": "C",
    "status": "Assigned to Contractor",
    "contractor": "Richards Disposal",
    "rowid": "1056375",
    "final_x": "3707025.10321",
    "final_y": "518035.768886",
    "longitude": "-89.98797185070612",
    "latitude": "29.917619132934384",
    "geocoded_column": {
      "latitude": "29.917619132934384",
      "longitude": "-89.98797185070612"
    }
  },
  {
    "service_request": "2023-1056374",
    "request_type": "Roads/Drainage",
    "request_reason": "Damaged Sidewalk",
    "date_created": "2023-12-18T14:02:46.000",
    "date_modified": "2023-12-18T14:02:47.000",
    "request_status": "Pending",
    "responsible_agency": "Department of Public Works",
    "final_address": "7619 Hurst St",
    "address_councildis": "A",
    "status": "Pending",
    "rowid": "1056374",
    "final_x": "3660840.97856",
    "final_y": "524705.78214",
    "longitude": "-90.13352973313323",
    "latitude": "29.93736984492393",
    "geocoded_column": {
      "latitude": "29.93736984492393",
      "longitude": "-90.13352973313323"
    }
  },
  {
    "service_request": "2023-1056373",
    "request_type": "Trash/Recycling",
    "request_reason": "Request a Large Item Pick Up",
    "date_created": "2023-12-18T14:00:32.000",
    "date_modified": "2023-12-18T14:00:33.000",
    "request_status": "Pending",
    "responsible_agency": "Department of Sanitation",
    "final_address": "7140 Salem Dr",
    "address_councildis": "E",
    "status": "Assigned to Contractor",
    "contractor": "Waste Pro",
    "rowid": "1056373",
    "final_x": "3706381.78507",
    "final_y": "561301.009118",
    "longitude": "-89.988399507371",
    "latitude": "30.036603308974556",
    "geocoded_column": {
      "latitude": "30.036603308974556",
      "longitude": "-89.988399507371"
    }
  },
  {
    "service_request": "2023-1056372",
    "request_type": "Abandoned Vehicles",
    "request_reason": "Abandoned/Junk Vehicles",
    "date_created": "2023-12-18T13:55:53.000",
    "date_modified": "2023-12-18T13:55:53.000",
    "request_status": "Pending",
    "responsible_agency": "Department of Public Works",
    "final_address": "N CLAIBORNE AVE & ARTS ST",
    "address_councildis": "C",
    "status": "Pending",
    "rowid": "1056372",
    "final_x": "3687061.4",
    "final_y": "538322.48",
    "longitude": "-90.05026894403744",
    "latitude": "29.974030110889288",
    "geocoded_column": {
      "latitude": "29.974030110889288",
      "longitude": "-90.05026894403744"
    }
  },
  {
    "service_request": "2023-1056371",
    "request_type": "Traffic Signals/Signs/Striping/Streetlights",
    "request_reason": "Traffic Signal Malfunctioning/Damaged",
    "date_created": "2023-12-18T13:54:32.000",
    "date_modified": "2023-12-18T13:54:33.000",
    "request_status": "Pending",
    "responsible_agency": "Department of Public Works",
    "final_address": "ST CHARLES AVE & CANAL ST & ROYAL ST",
    "address_councildis": "B",
    "status": "Pending",
    "rowid": "1056371",
    "final_x": "3681162.9",
    "final_y": "530640.88",
    "longitude": "-90.06916538739762",
    "latitude": "29.9530886310985",
    "geocoded_column": {
      "latitude": "29.9530886310985",
      "longitude": "-90.06916538739762"
    }
  },
  {
    "service_request": "2023-1056370",
    "request_type": "Trash/Recycling",
    "request_reason": "Replace Trash Cart",
    "date_created": "2023-12-18T13:53:09.000",
    "date_modified": "2023-12-18T13:53:11.000",
    "request_status": "Pending",
    "responsible_agency": "Department of Sanitation",
    "final_address": "14528 Duane Rd",
    "address_councildis": "E",
    "status": "Assigned to Contractor",
    "contractor": "Waste Pro",
    "rowid": "1056370",
    "final_x": "3720681.69881",
    "final_y": "573239.350185",
    "longitude": "-89.94275154195391",
    "latitude": "30.068959530479656",
    "geocoded_column": {
      "latitude": "30.068959530479656",
      "longitude": "-89.94275154195391"
    }
  },
  {
    "service_request": "2023-1056369",
    "request_type": "Trash/Recycling",
    "request_reason": "Order Trash Cart",
    "date_created": "2023-12-18T13:49:37.000",
    "date_modified": "2023-12-18T13:49:38.000",
    "request_status": "Pending",
    "responsible_agency": "Department of Sanitation",
    "final_address": "2317 S Roman St",
    "address_councildis": "B",
    "status": "Assigned to Contractor",
    "contractor": "Richards Disposal",
    "rowid": "1056369",
    "final_x": "3673997.96545",
    "final_y": "528174.526464",
    "longitude": "-90.0918735361426",
    "latitude": "29.946522386101446",
    "geocoded_column": {
      "latitude": "29.946522386101446",
      "longitude": "-90.0918735361426"
    }
  },
  {
    "service_request": "2023-1056368",
    "request_type": "Trash/Recycling",
    "request_reason": "MIssed Recycling Pick-Up",
    "date_created": "2023-12-18T13:47:31.000",
    "date_modified": "2023-12-18T13:47:32.000",
    "request_status": "Pending",
    "responsible_agency": "Department of Sanitation",
    "final_address": "11312 Midpoint Dr",
    "address_councildis": "E",
    "status": "Assigned to Contractor",
    "contractor": "Waste Pro",
    "rowid": "1056368",
    "final_x": "3718726.69369",
    "final_y": "559635.258333",
    "longitude": "-89.94945109046446",
    "latitude": "30.031618973087294",
    "geocoded_column": {
      "latitude": "30.031618973087294",
      "longitude": "-89.94945109046446"
    }
  },
  {
    "service_request": "2023-1056367",
    "request_type": "Trash/Recycling",
    "request_reason": "Missed Trash Pick-Up",
    "date_created": "2023-12-18T13:40:29.000",
    "date_modified": "2023-12-18T13:40:30.000",
    "request_status": "Pending",
    "responsible_agency": "Department of Sanitation",
    "final_address": "3720 Aurora Dr",
    "address_councildis": "C",
    "status": "Assigned to Contractor",
    "contractor": "Richards Disposal",
    "rowid": "1056367",
    "final_x": "3706942.85444",
    "final_y": "517246.033717",
    "longitude": "-89.98826072361983",
    "latitude": "29.915450290162113",
    "geocoded_column": {
      "latitude": "29.915450290162113",
      "longitude": "-89.98826072361983"
    }
  },
  {
    "service_request": "2023-1056366",
    "request_type": "Trash/Recycling",
    "request_reason": "Missed Trash Pick-Up",
    "date_created": "2023-12-18T13:39:16.000",
    "date_modified": "2023-12-18T16:49:50.000",
    "case_close_date": "2023-12-18T10:49:50.000",
    "request_status": "Closed",
    "responsible_agency": "Department of Sanitation",
    "final_address": "13310 Dwyer Blvd",
    "address_councildis": "E",
    "status": "Assigned to Contractor",
    "contractor": "Waste Pro",
    "contractor_action": "Completed",
    "rowid": "1056366",
    "final_x": "3725063.29561",
    "final_y": "561552.717983",
    "longitude": "-89.92935316059656",
    "latitude": "30.036679249882237",
    "geocoded_column": {
      "latitude": "30.036679249882237",
      "longitude": "-89.92935316059656"
    }
  },
  {
    "service_request": "2023-1056365",
    "request_type": "Trash/Recycling",
    "request_reason": "Order Trash Cart",
    "date_created": "2023-12-18T13:38:17.000",
    "date_modified": "2023-12-18T13:38:18.000",
    "request_status": "Pending",
    "responsible_agency": "Department of Sanitation",
    "final_address": "2037 Montegut St",
    "address_councildis": "D",
    "status": "Assigned to Contractor",
    "contractor": "IV Waste",
    "rowid": "1056365",
    "final_x": "3689387.687",
    "final_y": "539793.84993",
    "longitude": "-90.04286969155653",
    "latitude": "29.978004027452208",
    "geocoded_column": {
      "latitude": "29.978004027452208",
      "longitude": "-90.04286969155653"
    }
  },
  {
    "service_request": "2023-1056364",
    "request_type": "Trash/Recycling",
    "request_reason": "Return Recycling Cart",
    "date_created": "2023-12-18T13:38:06.000",
    "date_modified": "2023-12-18T13:38:07.000",
    "request_status": "Pending",
    "responsible_agency": "Department of Sanitation",
    "final_address": "3310 State Street Dr",
    "address_councildis": "A",
    "status": "Pending",
    "rowid": "1056364",
    "final_x": "3667629.38977",
    "final_y": "528395.369152",
    "longitude": "-90.11197403391398",
    "latitude": "29.947317823208003",
    "geocoded_column": {
      "latitude": "29.947317823208003",
      "longitude": "-90.11197403391398"
    }
  },
  {
    "service_request": "2023-1056363",
    "request_type": "Trash/Recycling",
    "request_reason": "Order Trash Cart",
    "date_created": "2023-12-18T13:30:57.000",
    "date_modified": "2023-12-18T13:30:58.000",
    "request_status": "Pending",
    "responsible_agency": "Department of Sanitation",
    "final_address": "4627 Coronado Dr",
    "address_councildis": "E",
    "status": "Assigned to Contractor",
    "contractor": "Waste Pro",
    "rowid": "1056363",
    "final_x": "3714255.80203",
    "final_y": "555871.866073",
    "longitude": "-89.96372132641773",
    "latitude": "30.02141885176585",
    "geocoded_column": {
      "latitude": "30.02141885176585",
      "longitude": "-89.96372132641773"
    }
  },
  {
    "service_request": "2023-1056362",
    "request_type": "Trash/Recycling",
    "request_reason": "Request a Large Item Pick Up",
    "date_created": "2023-12-18T13:27:17.000",
    "date_modified": "2023-12-18T13:27:18.000",
    "request_status": "Pending",
    "responsible_agency": "Department of Sanitation",
    "final_address": "1228 Bourbon St",
    "address_councildis": "C",
    "status": "Assigned to Contractor",
    "contractor": "Empire Services",
    "rowid": "1056362",
    "final_x": "3683544.75778",
    "final_y": "534283.299077",
    "longitude": "-90.06151687338611",
    "latitude": "29.963031567418888",
    "geocoded_column": {
      "latitude": "29.963031567418888",
      "longitude": "-90.06151687338611"
    }
  },
  {
    "service_request": "2023-1056361",
    "request_type": "Trash/Recycling",
    "request_reason": "Repair Recycling Cart",
    "date_created": "2023-12-18T13:26:32.000",
    "date_modified": "2023-12-18T13:26:32.000",
    "request_status": "Pending",
    "responsible_agency": "Department of Sanitation",
    "final_address": "1510 Allen Toussaint Blvd",
    "address_councildis": "D",
    "status": "Pending",
    "rowid": "1056361",
    "final_x": "3678379.2301",
    "final_y": "555222.022361",
    "longitude": "-90.0771040639801",
    "latitude": "30.020762343101776",
    "geocoded_column": {
      "latitude": "30.020762343101776",
      "longitude": "-90.0771040639801"
    }
  },
  {
    "service_request": "2023-1056360",
    "request_type": "Traffic Signals/Signs/Striping/Streetlights",
    "request_reason": "Street Light Outage/Malfunction",
    "date_created": "2023-12-18T13:23:24.000",
    "date_modified": "2023-12-18T13:23:25.000",
    "request_status": "Pending",
    "responsible_agency": "Department of Public Works",
    "final_address": "531 Atlantic Ave",
    "address_councildis": "C",
    "status": "Assigned to Contractor",
    "contractor": "Legacy Professional Services",
    "rowid": "1056360",
    "final_x": "3688747.10716",
    "final_y": "529623.014337",
    "longitude": "-90.04525396895237",
    "latitude": "29.95005759574778",
    "geocoded_column": {
      "latitude": "29.95005759574778",
      "longitude": "-90.04525396895237"
    }
  },
  {
    "service_request": "2023-1056359",
    "request_type": "Abandoned Vehicles",
    "request_reason": "Abandoned/Junk Vehicles",
    "date_created": "2023-12-18T13:19:56.000",
    "date_modified": "2023-12-18T13:19:56.000",
    "request_status": "Pending",
    "responsible_agency": "Department of Public Works",
    "final_address": "N CLAIBORNE AVE & CONTI ST",
    "address_councildis": "B",
    "status": "Pending",
    "rowid": "1056359",
    "final_x": "3679045.8",
    "final_y": "533763.38",
    "longitude": "-90.07574205521765",
    "latitude": "29.961738506173695",
    "geocoded_column": {
      "latitude": "29.961738506173695",
      "longitude": "-90.07574205521765"
    }
  },
  {
    "service_request": "2023-1056358",
    "request_type": "Roads/Drainage",
    "request_reason": "Pothole",
    "date_created": "2023-12-18T13:17:34.000",
    "date_modified": "2023-12-18T13:17:34.000",
    "request_status": "Pending",
    "responsible_agency": "Department of Public Works",
    "final_address": "5220 Atlanta St",
    "address_councildis": "B",
    "status": "Pending",
    "rowid": "1056358",
    "final_x": "3667917.40577",
    "final_y": "520685.623161",
    "longitude": "-90.1113242624008",
    "latitude": "29.926110051036336",
    "geocoded_column": {
      "latitude": "29.926110051036336",
      "longitude": "-90.1113242624008"
    }
  },
  {
    "service_request": "2023-1056357",
    "request_type": "Trash/Recycling",
    "request_reason": "Request a Large Item Pick Up",
    "date_created": "2023-12-18T13:16:01.000",
    "date_modified": "2023-12-18T13:16:02.000",
    "request_status": "Pending",
    "responsible_agency": "Department of Sanitation",
    "final_address": "1535 Burdette St",
    "address_councildis": "A",
    "status": "Assigned to Contractor",
    "contractor": "Richards Disposal",
    "rowid": "1056357",
    "final_x": "3663730.10791",
    "final_y": "528571.58112",
    "longitude": "-90.12427973892692",
    "latitude": "29.947916057187477",
    "geocoded_column": {
      "latitude": "29.947916057187477",
      "longitude": "-90.12427973892692"
    }
  },
  {
    "service_request": "2023-1056356",
    "request_type": "Roads/Drainage",
    "request_reason": "Road Shoulder Repair",
    "date_created": "2023-12-18T13:15:09.000",
    "date_modified": "2023-12-18T13:15:09.000",
    "request_status": "Pending",
    "responsible_agency": "Department of Public Works",
    "final_address": "1505 Dufossat St",
    "address_councildis": "B",
    "status": "Pending",
    "rowid": "1056356",
    "final_x": "3668186.71681",
    "final_y": "520463.654776",
    "longitude": "-90.11048160048723",
    "latitude": "29.92549180818648",
    "geocoded_column": {
      "latitude": "29.92549180818648",
      "longitude": "-90.11048160048723"
    }
  },
  {
    "service_request": "2023-1056355",
    "request_type": "Tax and Revenue",
    "request_reason": "Sales Tax Question",
    "date_created": "2023-12-18T13:12:43.000",
    "date_modified": "2023-12-18T13:12:47.000",
    "request_status": "Pending",
    "responsible_agency": "Bureau of Revenue",
    "final_address": " & BALDWIN ST",
    "address_councildis": "D",
    "status": "Pending",
    "rowid": "1056355",
    "final_x": "3687880.8",
    "final_y": "560035.64",
    "longitude": "-90.04691121641319",
    "latitude": "30.03370814054373",
    "geocoded_column": {
      "latitude": "30.03370814054373",
      "longitude": "-90.04691121641319"
    }
  },
  {
    "service_request": "2023-1056354",
    "request_type": "Trash/Recycling",
    "request_reason": "Order Trash Cart",
    "date_created": "2023-12-18T13:12:37.000",
    "date_modified": "2023-12-18T13:12:38.000",
    "request_status": "Pending",
    "responsible_agency": "Department of Sanitation",
    "final_address": "2230 Bienville Ave",
    "address_councildis": "B",
    "status": "Assigned to Contractor",
    "contractor": "Richards Disposal",
    "rowid": "1056354",
    "final_x": "3677181.26555",
    "final_y": "534614.755078",
    "longitude": "-90.08160058588676",
    "latitude": "29.964135636275902",
    "geocoded_column": {
      "latitude": "29.964135636275902",
      "longitude": "-90.08160058588676"
    }
  },
  {
    "service_request": "2023-1056353",
    "request_type": "Trash/Recycling",
    "request_reason": "Repair Trash Cart",
    "date_created": "2023-12-18T13:09:27.000",
    "date_modified": "2023-12-18T13:09:28.000",
    "request_status": "Pending",
    "responsible_agency": "Department of Sanitation",
    "final_address": "136 Danny Dr",
    "address_councildis": "C",
    "status": "Assigned to Contractor",
    "contractor": "Richards Disposal",
    "rowid": "1056353",
    "final_x": "3701990.04983",
    "final_y": "524131.821244",
    "longitude": "-90.00364129966232",
    "latitude": "29.934542763515438",
    "geocoded_column": {
      "latitude": "29.934542763515438",
      "longitude": "-90.00364129966232"
    }
  },
  {
    "service_request": "2023-1056352",
    "request_type": "Trash/Recycling",
    "request_reason": "Request a Large Item Pick Up",
    "date_created": "2023-12-18T13:08:59.000",
    "date_modified": "2023-12-18T13:09:00.000",
    "request_status": "Pending",
    "responsible_agency": "Department of Sanitation",
    "final_address": "136 Danny Dr",
    "address_councildis": "C",
    "status": "Assigned to Contractor",
    "contractor": "Richards Disposal",
    "rowid": "1056352",
    "final_x": "3701990.04983",
    "final_y": "524131.821244",
    "longitude": "-90.00364129966232",
    "latitude": "29.934542763515438",
    "geocoded_column": {
      "latitude": "29.934542763515438",
      "longitude": "-90.00364129966232"
    }
  },
  {
    "service_request": "2023-1056351",
    "request_type": "Trash/Recycling",
    "request_reason": "Repair Trash Cart",
    "date_created": "2023-12-18T13:06:43.000",
    "date_modified": "2023-12-18T13:06:44.000",
    "request_status": "Pending",
    "responsible_agency": "Department of Sanitation",
    "final_address": "1709 Pressburg Dr",
    "address_councildis": "D",
    "status": "Assigned to Contractor",
    "contractor": "IV Waste",
    "rowid": "1056351",
    "final_x": "3679735.5389",
    "final_y": "554228.509336",
    "longitude": "-90.07285305992664",
    "latitude": "30.01798958760748",
    "geocoded_column": {
      "latitude": "30.01798958760748",
      "longitude": "-90.07285305992664"
    }
  },
  {
    "service_request": "2023-1056350",
    "request_type": "Trash/Recycling",
    "request_reason": "Return Trash Cart",
    "date_created": "2023-12-18T12:56:02.000",
    "date_modified": "2023-12-18T12:56:03.000",
    "request_status": "Pending",
    "responsible_agency": "Department of Sanitation",
    "final_address": "4735 Bienville Ave",
    "address_councildis": "A",
    "status": "Assigned to Contractor",
    "contractor": "Richards Disposal",
    "rowid": "1056350",
    "final_x": "3669435.03802",
    "final_y": "540659.837963",
    "longitude": "-90.10585807286333",
    "latitude": "29.98098798922178",
    "geocoded_column": {
      "latitude": "29.98098798922178",
      "longitude": "-90.10585807286333"
    }
  },
  {
    "service_request": "2023-1056349",
    "request_type": "Trash/Recycling",
    "request_reason": "Repair Trash Cart",
    "date_created": "2023-12-18T12:43:25.000",
    "date_modified": "2023-12-18T12:43:26.000",
    "request_status": "Pending",
    "responsible_agency": "Department of Sanitation",
    "final_address": "947 St Mary St",
    "address_councildis": "B",
    "status": "Assigned to Contractor",
    "contractor": "Richards Disposal",
    "rowid": "1056349",
    "final_x": "3680024.14805",
    "final_y": "522565.902074",
    "longitude": "-90.07304150875532",
    "latitude": "29.93091962517862",
    "geocoded_column": {
      "latitude": "29.93091962517862",
      "longitude": "-90.07304150875532"
    }
  },
  {
    "service_request": "2023-1056348",
    "request_type": "Trash/Recycling",
    "request_reason": "Repair Trash Cart",
    "date_created": "2023-12-18T12:32:34.000",
    "date_modified": "2023-12-18T12:32:35.000",
    "request_status": "Pending",
    "responsible_agency": "Department of Sanitation",
    "final_address": "3225 Bringier St",
    "address_councildis": "C",
    "status": "Assigned to Contractor",
    "contractor": "Richards Disposal",
    "rowid": "1056348",
    "final_x": "3696105.25219",
    "final_y": "525078.940157",
    "longitude": "-90.02218515998094",
    "latitude": "29.937333477933628",
    "geocoded_column": {
      "latitude": "29.937333477933628",
      "longitude": "-90.02218515998094"
    }
  },
  {
    "service_request": "2023-1056347",
    "request_type": "Trash/Recycling",
    "request_reason": "Missed Trash Pick-Up",
    "date_created": "2023-12-18T12:30:16.000",
    "date_modified": "2023-12-18T13:29:36.000",
    "case_close_date": "2023-12-18T07:29:36.000",
    "request_status": "Closed",
    "responsible_agency": "Department of Sanitation",
    "final_address": "7200 BLK Wales St",
    "address_councildis": "E",
    "status": "Assigned to Contractor",
    "contractor": "Waste Pro",
    "contractor_action": "Invalid Request",
    "rowid": "1056347",
    "final_x": "3699247.2268",
    "final_y": "560992.651424",
    "longitude": "-90.01095730374522",
    "latitude": "30.035983774087324",
    "geocoded_column": {
      "latitude": "30.035983774087324",
      "longitude": "-90.01095730374522"
    }
  },
  {
    "service_request": "2023-1056346",
    "request_type": "Trash/Recycling",
    "request_reason": "Illegal Dumping",
    "date_created": "2023-12-18T12:28:40.000",
    "date_modified": "2023-12-18T12:29:14.000",
    "case_close_date": "2023-12-18T06:29:14.000",
    "request_status": "Closed",
    "responsible_agency": "Department of Sanitation",
    "final_address": "2800 BLK Eads St",
    "address_councildis": "D",
    "status": "Resolved",
    "rowid": "1056346",
    "final_x": "3687729.20849",
    "final_y": "543376.503914",
    "longitude": "-90.04798080749772",
    "latitude": "29.987906307264502",
    "geocoded_column": {
      "latitude": "29.987906307264502",
      "longitude": "-90.04798080749772"
    }
  },
  {
    "service_request": "2023-1056345",
    "request_type": "Trash/Recycling",
    "request_reason": "Missed Trash Pick-Up",
    "date_created": "2023-12-18T12:27:00.000",
    "date_modified": "2023-12-18T12:27:01.000",
    "request_status": "Pending",
    "responsible_agency": "Department of Sanitation",
    "final_address": "2326 Esplanade Ave",
    "address_councildis": "D",
    "status": "Assigned to Contractor",
    "contractor": "Richards Disposal",
    "rowid": "1056345",
    "final_x": "3679062.98178",
    "final_y": "538129.665161",
    "longitude": "-90.07553644592474",
    "latitude": "29.973743779404096",
    "geocoded_column": {
      "latitude": "29.973743779404096",
      "longitude": "-90.07553644592474"
    }
  },
  {
    "service_request": "2023-1056344",
    "request_type": "Trash/Recycling",
    "request_reason": "Return Recycling Cart",
    "date_created": "2023-12-18T12:26:02.000",
    "date_modified": "2023-12-18T12:26:32.000",
    "request_status": "Pending",
    "responsible_agency": "Department of Sanitation",
    "final_address": "1521 Leda St",
    "address_councildis": "A",
    "rowid": "1056344",
    "final_x": "3675635.21326",
    "final_y": "541640.984524",
    "longitude": "-90.08624140131784",
    "latitude": "29.98350171781003",
    "geocoded_column": {
      "latitude": "29.98350171781003",
      "longitude": "-90.08624140131784"
    }
  },
  {
    "service_request": "2023-1056343",
    "request_type": "Trash/Recycling",
    "request_reason": "Return Recycling Cart",
    "date_created": "2023-12-18T12:25:00.000",
    "date_modified": "2023-12-18T12:25:01.000",
    "request_status": "Pending",
    "responsible_agency": "Department of Sanitation",
    "final_address": "3125 Chippewa St",
    "address_councildis": "B",
    "status": "Pending",
    "rowid": "1056343",
    "final_x": "3676738.63662",
    "final_y": "518867.631095",
    "longitude": "-90.08354076537434",
    "latitude": "29.92084953437421",
    "geocoded_column": {
      "latitude": "29.92084953437421",
      "longitude": "-90.08354076537434"
    }
  },
  {
    "service_request": "2023-1056342",
    "request_type": "Trash/Recycling",
    "request_reason": "Illegal Dumping",
    "date_created": "2023-12-18T12:24:38.000",
    "date_modified": "2023-12-18T12:25:23.000",
    "case_close_date": "2023-12-18T06:25:23.000",
    "request_status": "Closed",
    "responsible_agency": "Department of Sanitation",
    "final_address": "CONSTITUTION PL & FRANKLIN AVE",
    "address_councildis": "D",
    "status": "Resolved",
    "rowid": "1056342",
    "final_x": "3687388.6",
    "final_y": "542941.58",
    "longitude": "-90.04907207052086",
    "latitude": "29.986720923064713",
    "geocoded_column": {
      "latitude": "29.986720923064713",
      "longitude": "-90.04907207052086"
    }
  },
  {
    "service_request": "2023-1056341",
    "request_type": "Trash/Recycling",
    "request_reason": "Return Recycling Cart",
    "date_created": "2023-12-18T12:23:45.000",
    "date_modified": "2023-12-18T12:23:46.000",
    "request_status": "Pending",
    "responsible_agency": "Department of Sanitation",
    "final_address": "3123 Chippewa St",
    "address_councildis": "B",
    "status": "Pending",
    "rowid": "1056341",
    "final_x": "3676744.16565",
    "final_y": "518874.015607",
    "longitude": "-90.08352309291855",
    "latitude": "29.920866923900142",
    "geocoded_column": {
      "latitude": "29.920866923900142",
      "longitude": "-90.08352309291855"
    }
  },
  {
    "service_request": "2023-1056340",
    "request_type": "Trash/Recycling",
    "request_reason": "Illegal Dumping",
    "date_created": "2023-12-18T12:23:16.000",
    "date_modified": "2023-12-18T12:23:51.000",
    "case_close_date": "2023-12-18T06:23:51.000",
    "request_status": "Closed",
    "responsible_agency": "Department of Sanitation",
    "final_address": "2823 Painters St",
    "address_councildis": "D",
    "status": "Resolved",
    "rowid": "1056340",
    "final_x": "3687049.69346",
    "final_y": "543337.864398",
    "longitude": "-90.0501285300045",
    "latitude": "29.987821004052336",
    "geocoded_column": {
      "latitude": "29.987821004052336",
      "longitude": "-90.0501285300045"
    }
  },
  {
    "service_request": "2023-1056339",
    "request_type": "Trash/Recycling",
    "request_reason": "Illegal Dumping",
    "date_created": "2023-12-18T12:22:08.000",
    "date_modified": "2023-12-18T12:22:43.000",
    "case_close_date": "2023-12-18T06:22:43.000",
    "request_status": "Closed",
    "responsible_agency": "Department of Sanitation",
    "final_address": "3220 Rabbits St",
    "address_councildis": "D",
    "status": "Resolved",
    "rowid": "1056339",
    "final_x": "3688277.80732",
    "final_y": "544893.758927",
    "longitude": "-90.04619413717464",
    "latitude": "29.992061282023283",
    "geocoded_column": {
      "latitude": "29.992061282023283",
      "longitude": "-90.04619413717464"
    }
  },
  {
    "service_request": "2023-1056338",
    "request_type": "Trash/Recycling",
    "request_reason": "Request a Large Item Pick Up",
    "date_created": "2023-12-18T12:14:22.000",
    "date_modified": "2023-12-18T12:15:52.000",
    "request_status": "Pending",
    "responsible_agency": "Department of Sanitation",
    "final_address": "13911 Wales St",
    "address_councildis": "E",
    "status": "Assigned to Contractor",
    "contractor": "Waste Pro",
    "rowid": "1056338",
    "final_x": "3717871.8021",
    "final_y": "572396.763113",
    "longitude": "-89.951666292221",
    "latitude": "30.066736233163798",
    "geocoded_column": {
      "latitude": "30.066736233163798",
      "longitude": "-89.951666292221"
    }
  },