[
  {
    "service_request": "2024-1110458",
    "request_type": "Trash/Recycling",
    "request_reason": "Start Trash Service",
    "date_created": "2024-07-08T23:48:25.000",
    "date_modified": "2024-07-08T23:48:26.000",
    "request_status": "Pending",
    "responsible_agency": "Department of Sanitation",
    "final_address": "729 Eighth St",
    "address_councildis": "B",
    "status": "Assigned to Contractor",
    "contractor": "IV Waste",
    "rowid": "1110458",
    "final_x": "3676852.72392",
    "final_y": "519179.752759",
    "longitude": "-90.0831698942741",
    "latitude": "29.921704346141336",
    "geocoded_column": {
      "latitude": "29.921704346141336",
      "longitude": "-90.0831698942741"
    }
  },
  {
    "service_request": "2024-1110457",
    "request_type": "Healthy Homes",
    "request_reason": "Healthy Homes",
    "date_created": "2024-07-08T23:38:50.000",
    "date_modified": "2024-07-08T23:38:50.000",
    "request_status": "Pending",
    "responsible_agency": "Department of Code Enforcement",
    "final_address": "3121 Edith Weston Pl",
    "address_councildis": "D",
    "status": "Pending",
    "rowid": "1110457",
    "final_x": "3693117.1439",
    "final_y": "543578.928846",
    "longitude": "-90.03095492594713",
    "latitude": "29.988295615245626",
    "geocoded_column": {
      "latitude": "29.988295615245626",
      "longitude": "-90.03095492594713"
    }
  },
  {
    "service_request": "2024-1110456",
    "request_type": "Trash/Recycling",
    "request_reason": "Request a Large Item Pick Up",
    "date_created": "2024-07-08T23:33:22.000",
    "date_modified": "2024-07-08T23:33:23.000",
    "request_status": "Pending",
    "responsible_agency": "Department of Sanitation",
    "final_address": "7541 Briarheath Dr",
    "address_councildis": "E",
    "status": "Assigned to Contractor",
    "contractor": "Waste Pro",
    "rowid": "1110456",
    "final_x": "3714914.68735",
    "final_y": "566751.645731",
    "longitude": "-89.96122779905973",
    "latitude": "30.051312200476033",
    "geocoded_column": {
      "latitude": "30.051312200476033",
      "longitude": "-89.96122779905973"
    }
  },
  {
    "service_request": "2024-1110455",
    "request_type": "Roads/Drainage",
    "request_reason": "Pothole",
    "date_created": "2024-07-08T23:16:49.000",
    "date_modified": "2024-07-08T23:16:49.000",
    "request_status": "Pending",
    "responsible_agency": "Department of Public Works",
    "final_address": "1421 Constantinople St",
    "address_councildis": "B",
    "status": "Pending",
    "rowid": "1110455",
    "final_x": "3672433.24257",
    "final_y": "520667.657465",
    "longitude": "-90.09706965638372",
    "latitude": "29.925927453713577",
    "geocoded_column": {
      "latitude": "29.925927453713577",
      "longitude": "-90.09706965638372"
    }
  },
  {
    "service_request": "2024-1110454",
    "request_type": "Roads/Drainage",
    "request_reason": "Pothole",
    "date_created": "2024-07-08T23:15:54.000",
    "date_modified": "2024-07-08T23:15:54.000",
    "request_status": "Pending",
    "responsible_agency": "Department of Public Works",
    "final_address": "1312 Milan St",
    "address_councildis": "B",
    "status": "Pending",
    "rowid": "1110454",
    "final_x": "3671625.82823",
    "final_y": "520286.919608",
    "longitude": "-90.09963137110304",
    "latitude": "29.92490447494246",
    "geocoded_column": {
      "latitude": "29.92490447494246",
      "longitude": "-90.09963137110304"
    }
  },
  {
    "service_request": "2024-1110453",
    "request_type": "Roads/Drainage",
    "request_reason": "Pothole",
    "date_created": "2024-07-08T23:14:51.000",
    "date_modified": "2024-07-08T23:14:51.000",
    "request_status": "Pending",
    "responsible_agency": "Department of Public Works",
    "final_address": "1421 General Taylor St",
    "address_councildis": "B",
    "status": "Pending",
    "rowid": "1110453",
    "final_x": "3672783.68392",
    "final_y": "520716.466425",
    "longitude": "-90.09596175059541",
    "latitude": "29.926051261619584",
    "geocoded_column": {
      "latitude": "29.926051261619584",
      "longitude": "-90.09596175059541"
    }
  },
  {
    "service_request": "2024-1110451",
    "request_type": "Traffic Signals/Signs/Striping/Streetlights",
    "request_reason": "Street Light Outage/Malfunction",
    "date_created": "2024-07-08T23:00:34.000",
    "date_modified": "2024-07-08T23:00:35.000",
    "request_status": "Pending",
    "responsible_agency": "Department of Public Works",
    "final_address": "609 Ricks Pl",
    "address_councildis": "C",
    "status": "Assigned to Contractor",
    "contractor": "Legacy Professional Services",
    "rowid": "1110451",
    "final_x": "3687858.77315",
    "final_y": "524551.129788",
    "longitude": "-90.04823845286734",
    "latitude": "29.936139064938512",
    "geocoded_column": {
      "latitude": "29.936139064938512",
      "longitude": "-90.04823845286734"
    }
  },
  {
    "service_request": "2024-1110450",
    "request_type": "Trash/Recycling",
    "request_reason": "Replace Trash Cart",
    "date_created": "2024-07-08T22:50:37.000",
    "date_modified": "2024-07-08T22:50:38.000",
    "request_status": "Pending",
    "responsible_agency": "Department of Sanitation",
    "final_address": "201 Alix St",
    "address_councildis": "C",
    "status": "Assigned to Contractor",
    "contractor": "Richards Disposal",
    "rowid": "1110450",
    "final_x": "3686171.33679",
    "final_y": "529736.450433",
    "longitude": "-90.05338286286938",
    "latitude": "29.95044887183086",
    "geocoded_column": {
      "latitude": "29.95044887183086",
      "longitude": "-90.05338286286938"
    }
  },
  {
    "service_request": "2024-1110449",
    "request_type": "Traffic Signals/Signs/Striping/Streetlights",
    "request_reason": "Striping/Road Surface Markings",
    "date_created": "2024-07-08T22:27:35.000",
    "date_modified": "2024-07-08T22:27:35.000",
    "request_status": "Pending",
    "responsible_agency": "Department of Public Works",
    "final_address": "10101 Dwyer Rd",
    "address_councildis": "E",
    "status": "Pending",
    "rowid": "1110449",
    "final_x": "3712861.84318",
    "final_y": "558035.777435",
    "longitude": "-89.96804434105468",
    "latitude": "30.027414493874833",
    "geocoded_column": {
      "latitude": "30.027414493874833",
      "longitude": "-89.96804434105468"
    }
  },
  {
    "service_request": "2024-1110448",
    "request_type": "Roads/Drainage",
    "request_reason": "Damaged Sidewalk",
    "date_created": "2024-07-08T22:27:01.000",
    "date_modified": "2024-07-08T22:27:01.000",
    "request_status": "Pending",
    "responsible_agency": "Department of Public Works",
    "final_address": "1725 Dufossat St",
    "address_councildis": "B",
    "status": "Pending",
    "rowid": "1110448",
    "final_x": "3668192.68743",
    "final_y": "522036.060218",
    "longitude": "-90.11040977787289",
    "latitude": "29.92981524824353",
    "geocoded_column": {
      "latitude": "29.92981524824353",
      "longitude": "-90.11040977787289"
    }
  },
  {
    "service_request": "2024-1110447",
    "request_type": "Traffic Signals/Signs/Striping/Streetlights",
    "request_reason": "Striping/Road Surface Markings",
    "date_created": "2024-07-08T22:26:30.000",
    "date_modified": "2024-07-08T22:26:30.000",
    "request_status": "Pending",
    "responsible_agency": "Department of Public Works",
    "final_address": "10101 Dwyer Rd",
    "address_councildis": "E",
    "status": "Pending",
    "rowid": "1110447",
    "final_x": "3712861.84318",
    "final_y": "558035.777435",
    "longitude": "-89.96804434105468",
    "latitude": "30.027414493874833",
    "geocoded_column": {
      "latitude": "30.027414493874833",
      "longitude": "-89.96804434105468"
    }
  },
  {
    "service_request": "2024-1110445",
    "request_type": "Traffic Signals/Signs/Striping/Streetlights",
    "request_reason": "Street Light Outage/Malfunction",
    "date_created": "2024-07-08T22:20:01.000",
    "date_modified": "2024-07-08T22:20:02.000",
    "request_status": "Pending",
    "responsible_agency": "Department of Public Works",
    "final_address": "21 Petit Bayou Ln",
    "address_councildis": "E",
    "status": "Assigned to Contractor",
    "contractor": "Legacy Professional Services",
    "rowid": "1110445",
    "final_x": "3724916.94502",
    "final_y": "564160.515809",
    "longitude": "-89.92971470100946",
    "latitude": "30.043854546814966",
    "geocoded_column": {
      "latitude": "30.043854546814966",
      "longitude": "-89.92971470100946"
    }
  },
  {
    "service_request": "2024-1110444",
    "request_type": "Roads/Drainage",
    "request_reason": "Pothole",
    "date_created": "2024-07-08T22:18:13.000",
    "date_modified": "2024-07-08T22:18:13.000",
    "request_status": "Pending",
    "responsible_agency": "Department of Public Works",
    "final_address": "1400 BLK Valence St",
    "address_councildis": "B",
    "status": "Pending",
    "rowid": "1110444",
    "final_x": "3669784.65285",
    "final_y": "520336.257015",
    "longitude": "-90.1054417057675",
    "latitude": "29.925094517046503",
    "geocoded_column": {
      "latitude": "29.925094517046503",
      "longitude": "-90.1054417057675"
    }
  },
  {
    "service_request": "2024-1110443",
    "request_type": "Traffic Signals/Signs/Striping/Streetlights",
    "request_reason": "Street Light Outage/Malfunction",
    "date_created": "2024-07-08T21:53:04.000",
    "date_modified": "2024-07-08T21:53:05.000",
    "request_status": "Pending",
    "responsible_agency": "Department of Public Works",
    "final_address": "4100 BLK Vendome Pl",
    "address_councildis": "B",
    "status": "Assigned to Contractor",
    "contractor": "Legacy Professional Services",
    "rowid": "1110443",
    "final_x": "3668887.99519",
    "final_y": "530720.296615",
    "longitude": "-90.1079216201178",
    "latitude": "29.95367366561618",
    "geocoded_column": {
      "latitude": "29.95367366561618",
      "longitude": "-90.1079216201178"
    }
  },
  {
    "service_request": "2024-1110442",
    "request_type": "Property Maintenance",
    "request_reason": "Property Maintenance",
    "date_created": "2024-07-08T21:39:18.000",
    "date_modified": "2024-07-08T21:39:18.000",
    "request_status": "Pending",
    "responsible_agency": "Department of Code Enforcement",
    "final_address": "8211 Plum St",
    "address_councildis": "A",
    "status": "Pending",
    "rowid": "1110442",
    "final_x": "3661893.68685",
    "final_y": "528967.767168",
    "longitude": "-90.13006494850951",
    "latitude": "29.94905859534158",
    "geocoded_column": {
      "latitude": "29.94905859534158",
      "longitude": "-90.13006494850951"
    }
  },
  {
    "service_request": "2024-1110441",
    "request_type": "Property Maintenance",
    "request_reason": "Property Maintenance",
    "date_created": "2024-07-08T21:36:09.000",
    "date_modified": "2024-07-08T21:36:09.000",
    "request_status": "Pending",
    "responsible_agency": "Department of Code Enforcement",
    "final_address": "LAKE FOREST BLVD & SIX FLAGS PKWY",
    "address_councildis": "E",
    "status": "Pending",
    "rowid": "1110441",
    "final_x": "3721925.43",
    "final_y": "563937.4",
    "longitude": "-89.93917764980728",
    "latitude": "30.043341490755523",
    "geocoded_column": {
      "latitude": "30.043341490755523",
      "longitude": "-89.93917764980728"
    }
  },
  {
    "service_request": "2024-1110440",
    "request_type": "Trash/Recycling",
    "request_reason": "Repair Trash Cart",
    "date_created": "2024-07-08T21:00:39.000",
    "date_modified": "2024-07-08T21:00:40.000",
    "request_status": "Pending",
    "responsible_agency": "Department of Sanitation",
    "final_address": "548 Huntlee Dr",
    "address_councildis": "C",
    "status": "Assigned to Contractor",
    "contractor": "Richards Disposal",
    "rowid": "1110440",
    "final_x": "3701861.80535",
    "final_y": "520914.716473",
    "longitude": "-90.00416397430428",
    "latitude": "29.925700933500078",
    "geocoded_column": {
      "latitude": "29.925700933500078",
      "longitude": "-90.00416397430428"
    }
  },
  {
    "service_request": "2024-1110438",
    "request_type": "Trash/Recycling",
    "request_reason": "Request a Large Item Pick Up",
    "date_created": "2024-07-08T20:56:52.000",
    "date_modified": "2024-07-08T20:56:53.000",
    "request_status": "Pending",
    "responsible_agency": "Department of Sanitation",
    "final_address": "5020 Schindler Dr",
    "address_councildis": "E",
    "status": "Assigned to Contractor",
    "contractor": "Waste Pro",
    "rowid": "1110438",
    "final_x": "3714143.85343",
    "final_y": "557909.150811",
    "longitude": "-89.96399812137736",
    "latitude": "30.027024257109797",
    "geocoded_column": {
      "latitude": "30.027024257109797",
      "longitude": "-89.96399812137736"
    }
  },
  {
    "service_request": "2024-1110437",
    "request_type": "Trash/Recycling",
    "request_reason": "Order Recycling Cart",
    "date_created": "2024-07-08T20:54:55.000",
    "date_modified": "2024-07-08T20:54:55.000",
    "request_status": "Pending",
    "responsible_agency": "Department of Sanitation",
    "final_address": "340 Elmira Ave",
    "address_councildis": "C",
    "status": "Pending",
    "rowid": "1110437",
    "final_x": "3688272.79503",
    "final_y": "530419.90829",
    "longitude": "-90.04672333726965",
    "latitude": "29.95226343309295",
    "geocoded_column": {
      "latitude": "29.95226343309295",
      "longitude": "-90.04672333726965"
    }
  },
  {
    "service_request": "2024-1110436",
    "request_type": "Abandoned Vehicles",
    "request_reason": "Abandoned/Junk Vehicles",
    "date_created": "2024-07-08T20:28:57.000",
    "date_modified": "2024-07-08T20:28:57.000",
    "request_status": "Pending",
    "responsible_agency": "Department of Public Works",
    "final_address": "1315 Coliseum St",
    "address_councildis": "B",
    "status": "Pending",
    "rowid": "1110436",
    "final_x": "3680014.90267",
    "final_y": "525228.832701",
    "longitude": "-90.07297822867972",
    "latitude": "29.938242085210536",
    "geocoded_column": {
      "latitude": "29.938242085210536",
      "longitude": "-90.07297822867972"
    }
  },
  {
    "service_request": "2024-1110435",
    "request_type": "Roads/Drainage",
    "request_reason": "Pothole",
    "date_created": "2024-07-08T20:27:25.000",
    "date_modified": "2024-07-08T20:27:25.000",
    "request_status": "Pending",
    "responsible_agency": "Department of Public Works",
    "final_address": "1470 Arabella St",
    "address_councildis": "A",
    "status": "Pending",
    "rowid": "1110435",
    "final_x": "3666359.49127",
    "final_y": "521550.248441",
    "longitude": "-90.11621317444016",
    "latitude": "29.928533090433877",
    "geocoded_column": {
      "latitude": "29.928533090433877",
      "longitude": "-90.11621317444016"
    }
  },
  {
    "service_request": "2024-1110434",
    "request_type": "Abandoned Vehicles",
    "request_reason": "Abandoned/Junk Vehicles",
    "date_created": "2024-07-08T20:27:04.000",
    "date_modified": "2024-07-08T20:27:04.000",
    "request_status": "Pending",
    "responsible_agency": "Department of Public Works",
    "final_address": "1307 Coliseum St",
    "address_councildis": "B",
    "status": "Pending",
    "rowid": "1110434",
    "final_x": "3680025.58626",
    "final_y": "525277.575229",
    "longitude": "-90.07294280690304",
    "latitude": "29.938375787883604",
    "geocoded_column": {
      "latitude": "29.938375787883604",
      "longitude": "-90.07294280690304"
    }
  },
  {
    "service_request": "2024-1110433",
    "request_type": "Trash/Recycling",
    "request_reason": "Replace Trash Cart",
    "date_created": "2024-07-08T20:26:06.000",
    "date_modified": "2024-07-08T20:26:07.000",
    "request_status": "Pending",
    "responsible_agency": "Department of Sanitation",
    "final_address": "421 Manassas Pl",
    "address_councildis": "B",
    "status": "Assigned to Contractor",
    "contractor": "IV Waste",
    "rowid": "1110433",
    "final_x": "3674728.57755",
    "final_y": "533794.828549",
    "longitude": "-90.08937408218279",
    "latitude": "29.96195455928395",
    "geocoded_column": {
      "latitude": "29.96195455928395",
      "longitude": "-90.08937408218279"
    }
  },
  {
    "service_request": "2024-1110432",
    "request_type": "Roads/Drainage",
    "request_reason": "Pothole",
    "date_created": "2024-07-08T20:23:10.000",
    "date_modified": "2024-07-08T20:23:10.000",
    "request_status": "Pending",
    "responsible_agency": "Department of Public Works",
    "final_address": "6012 Mandeville St, New Orleans, Louisiana, 70122",
    "address_councildis": "D",
    "status": "Pending",
    "rowid": "1110432",
    "final_x": "3684219.54095",
    "final_y": "555124.463001",
    "longitude": "-90.05865385388755",
    "latitude": "30.020316739607043",
    "geocoded_column": {
      "latitude": "30.020316739607043",
      "longitude": "-90.05865385388755"
    }
  },
  {
    "service_request": "2024-1110431",
    "request_type": "Abandoned Vehicles",
    "request_reason": "Abandoned/Junk Vehicles",
    "date_created": "2024-07-08T20:16:38.000",
    "date_modified": "2024-07-08T20:16:38.000",
    "request_status": "Pending",
    "responsible_agency": "Department of Public Works",
    "final_address": "3100 BLK Chestnut St",
    "address_councildis": "B",
    "status": "Pending",
    "rowid": "1110431",
    "final_x": "3675585.95817",
    "final_y": "520740.402205",
    "longitude": "-90.0871149561649",
    "latitude": "29.926033571290706",
    "geocoded_column": {
      "latitude": "29.926033571290706",
      "longitude": "-90.0871149561649"
    }
  },
  {
    "service_request": "2024-1110430",
    "request_type": "Trash/Recycling",
    "request_reason": "Request a Large Item Pick Up",
    "date_created": "2024-07-08T19:26:57.000",
    "date_modified": "2024-07-08T19:26:58.000",
    "request_status": "Pending",
    "responsible_agency": "Department of Sanitation",
    "final_address": "6012 Mandeville St, New Orleans, Louisiana, 70122",
    "address_councildis": "D",
    "status": "Assigned to Contractor",
    "contractor": "IV Waste",
    "rowid": "1110430",
    "final_x": "3684219.54095",
    "final_y": "555124.463001",
    "longitude": "-90.05865385388755",
    "latitude": "30.020316739607043",
    "geocoded_column": {
      "latitude": "30.020316739607043",
      "longitude": "-90.05865385388755"
    }
  },
  {
    "service_request": "2024-1110429",
    "request_type": "Property Maintenance",
    "request_reason": "Property Maintenance",
    "date_created": "2024-07-08T19:26:55.000",
    "date_modified": "2024-07-08T19:26:55.000",
    "request_status": "Pending",
    "responsible_agency": "Department of Code Enforcement",
    "final_address": "7718 Cohn St",
    "address_councildis": "A",
    "status": "Pending",
    "rowid": "1110429",
    "final_x": "3664551.26765",
    "final_y": "529286.268801",
    "longitude": "-90.12166313581278",
    "latitude": "29.949857367330175",
    "geocoded_column": {
      "latitude": "29.949857367330175",
      "longitude": "-90.12166313581278"
    }
  },
  {
    "service_request": "2024-1110428",
    "request_type": "Traffic Signals/Signs/Striping/Streetlights",
    "request_reason": "Street Light Outage/Malfunction",
    "date_created": "2024-07-08T19:19:26.000",
    "date_modified": "2024-07-08T19:19:27.000",
    "request_status": "Pending",
    "responsible_agency": "Department of Public Works",
    "final_address": "4900 BLK Perrier St",
    "address_councildis": "B",
    "status": "Assigned to Contractor",
    "contractor": "Legacy Professional Services",
    "rowid": "1110428",
    "final_x": "3668859.33219",
    "final_y": "519883.695913",
    "longitude": "-90.10837792669895",
    "latitude": "29.92387735040818",
    "geocoded_column": {
      "latitude": "29.92387735040818",
      "longitude": "-90.10837792669895"
    }
  },
  {
    "service_request": "2024-1110427",
    "request_type": "Trash/Recycling",
    "request_reason": "Replace Trash Cart",
    "date_created": "2024-07-08T19:18:55.000",
    "date_modified": "2024-07-08T19:18:56.000",
    "request_status": "Pending",
    "responsible_agency": "Department of Sanitation",
    "final_address": "8818 Jeannette St",
    "address_councildis": "A",
    "status": "Assigned to Contractor",
    "contractor": "IV Waste",
    "rowid": "1110427",
    "final_x": "3660679.63987",
    "final_y": "530910.327618",
    "longitude": "-90.13383403790138",
    "latitude": "29.954435013140895",
    "geocoded_column": {
      "latitude": "29.954435013140895",
      "longitude": "-90.13383403790138"
    }
  },
  {
    "service_request": "2024-1110426",
    "request_type": "Trash/Recycling",
    "request_reason": "MIssed Recycling Pick-Up",
    "date_created": "2024-07-08T19:17:41.000",
    "date_modified": "2024-07-08T19:17:42.000",
    "request_status": "Pending",
    "responsible_agency": "Department of Sanitation",
    "final_address": "2331 N Rampart St",
    "address_councildis": "C",
    "status": "Assigned to Contractor",
    "contractor": "IV Waste",
    "rowid": "1110426",
    "final_x": "3685701.96918",
    "final_y": "536028.225927",
    "longitude": "-90.05464318444446",
    "latitude": "29.967763498163094",
    "geocoded_column": {
      "latitude": "29.967763498163094",
      "longitude": "-90.05464318444446"
    }
  },
  {
    "service_request": "2024-1110424",
    "request_type": "Abandoned Vehicles",
    "request_reason": "Vehicle Blocking Your Driveway",
    "date_created": "2024-07-08T19:17:14.000",
    "date_modified": "2024-07-08T19:17:14.000",
    "request_status": "Pending",
    "responsible_agency": "Department of Public Works",
    "final_address": "1241 Terry St",
    "address_councildis": "C",
    "status": "Pending",
    "rowid": "1110424",
    "final_x": "3696915.35895",
    "final_y": "526615.657342",
    "longitude": "-90.01957198915673",
    "latitude": "29.941533404549393",
    "geocoded_column": {
      "latitude": "29.941533404549393",
      "longitude": "-90.01957198915673"
    }
  },
  {
    "service_request": "2024-1110423",
    "request_type": "Trash/Recycling",
    "request_reason": "Missed Trash Pick-Up",
    "date_created": "2024-07-08T19:17:08.000",
    "date_modified": "2024-07-08T19:17:09.000",
    "request_status": "Pending",
    "responsible_agency": "Department of Sanitation",
    "final_address": "2331 N Rampart St",
    "address_councildis": "C",
    "status": "Assigned to Contractor",
    "contractor": "IV Waste",
    "rowid": "1110423",
    "final_x": "3685701.96918",
    "final_y": "536028.225927",
    "longitude": "-90.05464318444446",
    "latitude": "29.967763498163094",
    "geocoded_column": {
      "latitude": "29.967763498163094",
      "longitude": "-90.05464318444446"
    }
  },
  {
    "service_request": "2024-1110422",
    "request_type": "Property Maintenance",
    "request_reason": "Property Maintenance",
    "date_created": "2024-07-08T19:16:58.000",
    "date_modified": "2024-07-08T19:16:58.000",
    "request_status": "Pending",
    "responsible_agency": "Department of Code Enforcement",
    "final_address": "1345 Annette St",
    "address_councildis": "C",
    "status": "Pending",
    "rowid": "1110422",
    "final_x": "3683116.75381",
    "final_y": "536920.837256",
    "longitude": "-90.06277610046752",
    "latitude": "29.97029694363221",
    "geocoded_column": {
      "latitude": "29.97029694363221",
      "longitude": "-90.06277610046752"
    }
  },
  {
    "service_request": "2024-1110421",
    "request_type": "Trash/Recycling",
    "request_reason": "Request a Large Item Pick Up",
    "date_created": "2024-07-08T19:11:41.000",
    "date_modified": "2024-07-08T19:11:42.000",
    "request_status": "Pending",
    "responsible_agency": "Department of Sanitation",
    "final_address": "2233 Brainard St",
    "address_councildis": "B",
    "status": "Assigned to Contractor",
    "contractor": "IV Waste",
    "rowid": "1110421",
    "final_x": "3676948.91349",
    "final_y": "524114.076476",
    "longitude": "-90.08269626426647",
    "latitude": "29.935269245374837",
    "geocoded_column": {
      "latitude": "29.935269245374837",
      "longitude": "-90.08269626426647"
    }
  },
  {
    "service_request": "2024-1110420",
    "request_type": "Trash/Recycling",
    "request_reason": "Repair Trash Cart",
    "date_created": "2024-07-08T19:05:21.000",
    "date_modified": "2024-07-08T19:05:22.000",
    "request_status": "Pending",
    "responsible_agency": "Department of Sanitation",
    "final_address": "5848 W Louis Prima Dr",
    "address_councildis": "E",
    "status": "Assigned to Contractor",
    "contractor": "Waste Pro",
    "rowid": "1110420",
    "final_x": "3715265.49573",
    "final_y": "562790.055968",
    "longitude": "-89.96026906311246",
    "latitude": "30.040407884331533",
    "geocoded_column": {
      "latitude": "30.040407884331533",
      "longitude": "-89.96026906311246"
    }
  },
  {
    "service_request": "2024-1110419",
    "request_type": "Abandoned Vehicles",
    "request_reason": "Abandoned/Junk Vehicles",
    "date_created": "2024-07-08T18:51:01.000",
    "date_modified": "2024-07-08T18:51:01.000",
    "request_status": "Pending",
    "responsible_agency": "Department of Public Works",
    "final_address": "7661 Wave Dr",
    "address_councildis": "E",
    "status": "Pending",
    "rowid": "1110419",
    "final_x": "3714906.95352",
    "final_y": "568974.38167",
    "longitude": "-89.9611681134045",
    "latitude": "30.057424067034063",
    "geocoded_column": {
      "latitude": "30.057424067034063",
      "longitude": "-89.9611681134045"
    }
  },
  {
    "service_request": "2024-1110418",
    "request_type": "Trash/Recycling",
    "request_reason": "Replace Trash Cart",
    "date_created": "2024-07-08T18:32:10.000",
    "date_modified": "2024-07-08T18:32:10.000",
    "request_status": "Pending",
    "responsible_agency": "Department of Sanitation",
    "final_address": "1535 Holiday Pl",
    "address_councildis": "C",
    "status": "Assigned to Contractor",
    "contractor": "Richards Disposal",
    "rowid": "1110418",
    "final_x": "3698895.53949",
    "final_y": "525374.336829",
    "longitude": "-90.01336535138645",
    "latitude": "29.93805762902532",
    "geocoded_column": {
      "latitude": "29.93805762902532",
      "longitude": "-90.01336535138645"
    }
  },
  {
    "service_request": "2024-1110417",
    "request_type": "Property Maintenance",
    "request_reason": "Property Maintenance",
    "date_created": "2024-07-08T18:30:42.000",
    "date_modified": "2024-07-08T18:30:42.000",
    "request_status": "Pending",
    "responsible_agency": "Department of Code Enforcement",
    "final_address": "1452 Calhoun St",
    "address_councildis": "A",
    "status": "Pending",
    "rowid": "1110417",
    "final_x": "3664373.1154",
    "final_y": "522022.965882",
    "longitude": "-90.12246799802597",
    "latitude": "29.92989078151107",
    "geocoded_column": {
      "latitude": "29.92989078151107",
      "longitude": "-90.12246799802597"
    }
  },
  {
    "service_request": "2024-1110416",
    "request_type": "Property Maintenance",
    "request_reason": "Property Maintenance",
    "date_created": "2024-07-08T18:28:15.000",
    "date_modified": "2024-07-08T18:28:15.000",
    "request_status": "Pending",
    "responsible_agency": "Department of Code Enforcement",
    "final_address": "1452 Calhoun St",
    "address_councildis": "A",
    "status": "Pending",
    "rowid": "1110416",
    "final_x": "3664373.1154",
    "final_y": "522022.965882",
    "longitude": "-90.12246799802597",
    "latitude": "29.92989078151107",
    "geocoded_column": {
      "latitude": "29.92989078151107",
      "longitude": "-90.12246799802597"
    }
  },
  {
    "service_request": "2024-1110415",
    "request_type": "Trash/Recycling",
    "request_reason": "Request a Large Item Pick Up",
    "date_created": "2024-07-08T18:19:29.000",
    "date_modified": "2024-07-08T18:19:30.000",
    "request_status": "Pending",
    "responsible_agency": "Department of Sanitation",
    "final_address": "3727 Roneagle Way",
    "address_councildis": "D",
    "status": "Assigned to Contractor",
    "contractor": "IV Waste",
    "rowid": "1110415",
    "final_x": "3677048.18446",
    "final_y": "545904.302544",
    "longitude": "-90.0816313929958",
    "latitude": "29.99518199464266",
    "geocoded_column": {
      "latitude": "29.99518199464266",
      "longitude": "-90.0816313929958"
    }
  },
  {
    "service_request": "2024-1110414",
    "request_type": "Property Maintenance",
    "request_reason": "Property Maintenance",
    "date_created": "2024-07-08T17:43:47.000",
    "date_modified": "2024-07-08T17:43:47.000",
    "request_status": "Pending",
    "responsible_agency": "Department of Code Enforcement",
    "final_address": "1224 Thayer St",
    "address_councildis": "C",
    "status": "Pending",
    "rowid": "1110414",
    "final_x": "3689440.38659",
    "final_y": "526849.113662",
    "longitude": "-90.04316358535735",
    "latitude": "29.94240887091106",
    "geocoded_column": {
      "latitude": "29.94240887091106",
      "longitude": "-90.04316358535735"
    }
  },
  {
    "service_request": "2024-1110413",
    "request_type": "Roads/Drainage",
    "request_reason": "Pothole",
    "date_created": "2024-07-08T17:40:46.000",
    "date_modified": "2024-07-08T17:40:46.000",
    "request_status": "Pending",
    "responsible_agency": "Department of Public Works",
    "final_address": "1100 Thayer St",
    "address_councildis": "C",
    "status": "Pending",
    "rowid": "1110413",
    "final_x": "3689475.24873",
    "final_y": "527450.142655",
    "longitude": "-90.04303214987249",
    "latitude": "29.944060416198806",
    "geocoded_column": {
      "latitude": "29.944060416198806",
      "longitude": "-90.04303214987249"
    }
  },
  {
    "service_request": "2024-1110412",
    "request_type": "Trash/Recycling",
    "request_reason": "Request a Large Item Pick Up",
    "date_created": "2024-07-08T17:37:37.000",
    "date_modified": "2024-07-08T17:37:38.000",
    "request_status": "Pending",
    "responsible_agency": "Department of Sanitation",
    "final_address": "5919 Laurel St",
    "address_councildis": "A",
    "status": "Assigned to Contractor",
    "contractor": "IV Waste",
    "rowid": "1110412",
    "final_x": "3664856.04474",
    "final_y": "518142.721398",
    "longitude": "-90.12107305902657",
    "latitude": "29.91920728616994",
    "geocoded_column": {
      "latitude": "29.91920728616994",
      "longitude": "-90.12107305902657"
    }
  },
  {
    "service_request": "2024-1110411",
    "request_type": "Trash/Recycling",
    "request_reason": "Replace Trash Cart",
    "date_created": "2024-07-08T17:26:33.000",
    "date_modified": "2024-07-08T17:26:34.000",
    "request_status": "Pending",
    "responsible_agency": "Department of Sanitation",
    "final_address": "201 26Th St",
    "address_councildis": "A",
    "status": "Assigned to Contractor",
    "contractor": "IV Waste",
    "rowid": "1110411",
    "final_x": "3665732.94061",
    "final_y": "549942.89698",
    "longitude": "-90.11723981941255",
    "latitude": "30.006621759397227",
    "geocoded_column": {
      "latitude": "30.006621759397227",
      "longitude": "-90.11723981941255"
    }
  },
  {
    "service_request": "2024-1110410",
    "request_type": "Trash/Recycling",
    "request_reason": "Request a Large Item Pick Up",
    "date_created": "2024-07-08T17:19:11.000",
    "date_modified": "2024-07-08T17:19:12.000",
    "request_status": "Pending",
    "responsible_agency": "Department of Sanitation",
    "final_address": "1222 Frenchmen St",
    "address_councildis": "C",
    "status": "Assigned to Contractor",
    "contractor": "IV Waste",
    "rowid": "1110410",
    "final_x": "3684510.02377",
    "final_y": "536832.931464",
    "longitude": "-90.05837909912964",
    "latitude": "29.97001267975877",
    "geocoded_column": {
      "latitude": "29.97001267975877",
      "longitude": "-90.05837909912964"
    }
  },
  {
    "service_request": "2024-1110409",
    "request_type": "Property Maintenance",
    "request_reason": "Property Maintenance",
    "date_created": "2024-07-08T17:11:13.000",
    "date_modified": "2024-07-08T17:11:13.000",
    "request_status": "Pending",
    "responsible_agency": "Department of Code Enforcement",
    "final_address": "1345 Annette St",
    "address_councildis": "C",
    "status": "Pending",
    "rowid": "1110409",
    "final_x": "3683116.75381",
    "final_y": "536920.837256",
    "longitude": "-90.06277610046752",
    "latitude": "29.97029694363221",
    "geocoded_column": {
      "latitude": "29.97029694363221",
      "longitude": "-90.06277610046752"
    }
  },
  {
    "service_request": "2024-1110408",
    "request_type": "Roads/Drainage",
    "request_reason": "Damaged Sidewalk",
    "date_created": "2024-07-08T17:04:35.000",
    "date_modified": "2024-07-08T17:04:35.000",
    "request_status": "Pending",
    "responsible_agency": "Department of Public Works",
    "final_address": "4232 Cadiz St",
    "address_councildis": "B",
    "status": "Pending",
    "rowid": "1110408",
    "final_x": "3669169.56878",
    "final_y": "528664.13536",
    "longitude": "-90.10710200579089",
    "latitude": "29.948011611842137",
    "geocoded_column": {
      "latitude": "29.948011611842137",
      "longitude": "-90.10710200579089"
    }
  },
  {
    "service_request": "2024-1110407",
    "request_type": "Abandoned Vehicles",
    "request_reason": "Abandoned/Junk Vehicles",
    "date_created": "2024-07-08T17:04:06.000",
    "date_modified": "2024-07-08T17:04:06.000",
    "request_status": "Pending",
    "responsible_agency": "Department of Public Works",
    "final_address": "6993 Queensway Dr",
    "address_councildis": "E",
    "status": "Pending",
    "rowid": "1110407",
    "final_x": "3719395.34117",
    "final_y": "569234.147814",
    "longitude": "-89.9469711581549",
    "latitude": "30.057989762417456",
    "geocoded_column": {
      "latitude": "30.057989762417456",
      "longitude": "-89.9469711581549"
    }
  },
  {
    "service_request": "2024-1110406",
    "request_type": "Roads/Drainage",
    "request_reason": "Damaged Sidewalk",
    "date_created": "2024-07-08T17:02:14.000",
    "date_modified": "2024-07-08T17:02:14.000",
    "request_status": "Pending",
    "responsible_agency": "Department of Public Works",
    "final_address": "2300 BLK S Salcedo St",
    "address_councildis": "A",
    "status": "Pending",
    "rowid": "1110406",
    "final_x": "3669062.65593",
    "final_y": "528688.627778",
    "longitude": "-90.1074387464256",
    "latitude": "29.94808210357221",
    "geocoded_column": {
      "latitude": "29.94808210357221",
      "longitude": "-90.1074387464256"
    }
  },
  {
    "service_request": "2024-1110405",
    "request_type": "Abandoned Vehicles",
    "request_reason": "Abandoned/Junk Vehicles",
    "date_created": "2024-07-08T17:01:12.000",
    "date_modified": "2024-07-08T17:01:12.000",
    "request_status": "Pending",
    "responsible_agency": "Department of Public Works",
    "final_address": "6985 Queensway Dr",
    "address_councildis": "E",
    "status": "Pending",
    "rowid": "1110405",
    "final_x": "3719429.62015",
    "final_y": "569188.02999",
    "longitude": "-89.94686457143582",
    "latitude": "30.05786181716063",
    "geocoded_column": {
      "latitude": "30.05786181716063",
      "longitude": "-89.94686457143582"
    }
  },
  {
    "service_request": "2024-1110404",
    "request_type": "Trash/Recycling",
    "request_reason": "Repair Recycling Cart",
    "date_created": "2024-07-08T16:59:50.000",
    "date_modified": "2024-07-08T16:59:51.000",
    "request_status": "Pending",
    "responsible_agency": "Department of Sanitation",
    "final_address": "5935 Franklin Ave",
    "address_councildis": "D",
    "status": "Pending",
    "rowid": "1110404",
    "final_x": "3686500.71241",
    "final_y": "555140.186841",
    "longitude": "-90.05144551435318",
    "latitude": "30.020290000479136",
    "geocoded_column": {
      "latitude": "30.020290000479136",
      "longitude": "-90.05144551435318"
    }
  },
  {
    "service_request": "2024-1110403",
    "request_type": "Trash/Recycling",
    "request_reason": "Illegal Dumping",
    "date_created": "2024-07-08T16:59:34.000",
    "date_modified": "2024-07-08T16:59:34.000",
    "request_status": "Pending",
    "responsible_agency": "Department of Sanitation",
    "final_address": "4211 Patterson St",
    "address_councildis": "C",
    "status": "Pending",
    "rowid": "1110403",
    "final_x": "3699716.32119",
    "final_y": "526079.827966",
    "longitude": "-90.01074837912915",
    "latitude": "29.939971459906943",
    "geocoded_column": {
      "latitude": "29.939971459906943",
      "longitude": "-90.01074837912915"
    }
  },
  {
    "service_request": "2024-1110402",
    "request_type": "Abandoned Vehicles",
    "request_reason": "Abandoned/Junk Vehicles",
    "date_created": "2024-07-08T16:58:10.000",
    "date_modified": "2024-07-08T16:58:10.000",
    "request_status": "Pending",
    "responsible_agency": "Department of Public Works",
    "final_address": "6951 Queensway Dr",
    "address_councildis": "E",
    "status": "Pending",
    "rowid": "1110402",
    "final_x": "3719556.99013",
    "final_y": "569019.507878",
    "longitude": "-89.94646842233756",
    "latitude": "30.05739421321202",
    "geocoded_column": {
      "latitude": "30.05739421321202",
      "longitude": "-89.94646842233756"
    }
  },
  {
    "service_request": "2024-1110401",
    "request_type": "Trash/Recycling",
    "request_reason": "Request a Large Item Pick Up",
    "date_created": "2024-07-08T16:55:03.000",
    "date_modified": "2024-07-08T16:55:04.000",
    "request_status": "Pending",
    "responsible_agency": "Department of Sanitation",
    "final_address": "1114 Felicity St",
    "address_councildis": "B",
    "status": "Assigned to Contractor",
    "contractor": "IV Waste",
    "rowid": "1110401",
    "final_x": "3679882.1261",
    "final_y": "523117.511483",
    "longitude": "-90.07347070606328",
    "latitude": "29.932440664095274",
    "geocoded_column": {
      "latitude": "29.932440664095274",
      "longitude": "-90.07347070606328"
    }
  },
  {
    "service_request": "2024-1110400",
    "request_type": "Trash/Recycling",
    "request_reason": "Illegal Dumping",
    "date_created": "2024-07-08T16:54:38.000",
    "date_modified": "2024-07-08T16:54:39.000",
    "request_status": "Pending",
    "responsible_agency": "Department of Sanitation",
    "final_address": "3145 N Rocheblave St",
    "address_councildis": "D",
    "status": "Pending",
    "rowid": "1110400",
    "final_x": "3690583.80828",
    "final_y": "540855.117387",
    "longitude": "-90.03905407171972",
    "latitude": "29.9808850404424",
    "geocoded_column": {
      "latitude": "29.9808850404424",
      "longitude": "-90.03905407171972"
    }
  },
  {
    "service_request": "2024-1110399",
    "request_type": "Trash/Recycling",
    "request_reason": "Replace Recycling Cart",
    "date_created": "2024-07-08T16:52:26.000",
    "date_modified": "2024-07-08T16:52:26.000",
    "request_status": "Pending",
    "responsible_agency": "Department of Sanitation",
    "final_address": "5935 Franklin Ave",
    "address_councildis": "D",
    "status": "Pending",
    "rowid": "1110399",
    "final_x": "3686500.71241",
    "final_y": "555140.186841",
    "longitude": "-90.05144551435318",
    "latitude": "30.020290000479136",
    "geocoded_column": {
      "latitude": "30.020290000479136",
      "longitude": "-90.05144551435318"
    }
  },
  {
    "service_request": "2024-1110398",
    "request_type": "Safety & Permits",
    "request_reason": "Licenses & Permits",
    "date_created": "2024-07-08T16:51:46.000",
    "date_modified": "2024-07-08T16:51:47.000",
    "request_status": "Pending",
    "responsible_agency": "Safety and Permits",
    "final_address": "1230 Harmony St",
    "address_councildis": "B",
    "status": "Pending",
    "rowid": "1110398",
    "final_x": "3675484.11611",
    "final_y": "520524.141048",
    "longitude": "-90.08744386497867",
    "latitude": "29.92544196822019",
    "geocoded_column": {
      "latitude": "29.92544196822019",
      "longitude": "-90.08744386497867"
    }
  },
  {
    "service_request": "2024-1110397",
    "request_type": "Abandoned Vehicles",
    "request_reason": "Abandoned/Junk Vehicles",
    "date_created": "2024-07-08T16:48:42.000",
    "date_modified": "2024-07-08T16:48:42.000",
    "request_status": "Pending",
    "responsible_agency": "Department of Public Works",
    "final_address": "7000 Ridgefield Dr",
    "address_councildis": "E",
    "status": "Pending",
    "rowid": "1110397",
    "final_x": "3719479.99801",
    "final_y": "569354.427686",
    "longitude": "-89.94669897009598",
    "latitude": "30.0583176653899",
    "geocoded_column": {
      "latitude": "30.0583176653899",
      "longitude": "-89.94669897009598"
    }
  },
  {
    "service_request": "2024-1110396",
    "request_type": "Parks & Parkways",
    "request_reason": "Request Tree Service (Right of Way/Public Property)",
    "date_created": "2024-07-08T16:48:33.000",
    "date_modified": "2024-07-08T16:48:34.000",
    "request_status": "Pending",
    "responsible_agency": "Department of Parks & Parkway",
    "final_address": "3700 BLK S Claiborne Ave",
    "address_councildis": "B",
    "status": "Pending",
    "rowid": "1110396",
    "final_x": "3671667.23898",
    "final_y": "526047.612063",
    "longitude": "-90.09930480877843",
    "latitude": "29.94074329536634",
    "geocoded_column": {
      "latitude": "29.94074329536634",
      "longitude": "-90.09930480877843"
    }
  },
  {
    "service_request": "2024-1110395",
    "request_type": "Traffic Signals/Signs/Striping/Streetlights",
    "request_reason": "Traffic Signal Malfunctioning/Damaged",
    "date_created": "2024-07-08T16:46:27.000",
    "date_modified": "2024-07-08T16:46:27.000",
    "request_status": "Pending",
    "responsible_agency": "Department of Public Works",
    "final_address": "3338 S Claiborne Ave",
    "address_councildis": "B",
    "status": "Pending",
    "rowid": "1110395",
    "final_x": "3672330.40731",
    "final_y": "526024.85363",
    "longitude": "-90.09721184232684",
    "latitude": "29.94066106206253",
    "geocoded_column": {
      "latitude": "29.94066106206253",
      "longitude": "-90.09721184232684"
    }
  },
  {
    "service_request": "2024-1110394",
    "request_type": "Traffic Signals/Signs/Striping/Streetlights",
    "request_reason": "Traffic Signal Malfunctioning/Damaged",
    "date_created": "2024-07-08T16:43:15.000",
    "date_modified": "2024-07-08T16:43:16.000",
    "request_status": "Pending",
    "responsible_agency": "Department of Public Works",
    "final_address": "S CLAIBORNE AVE & TOLEDANO ST",
    "address_councildis": "B",
    "status": "Pending",
    "rowid": "1110394",
    "final_x": "3672686.1",
    "final_y": "526316.28",
    "longitude": "-90.09607892276615",
    "latitude": "29.941451833708907",
    "geocoded_column": {
      "latitude": "29.941451833708907",
      "longitude": "-90.09607892276615"
    }
  },
  {
    "service_request": "2024-1110393",
    "request_type": "Roads/Drainage",
    "request_reason": "Catch Basin - Clogged",
    "date_created": "2024-07-08T16:41:13.000",
    "date_modified": "2024-07-08T16:41:13.000",
    "request_status": "Pending",
    "responsible_agency": "Department of Public Works",
    "final_address": "6033 Dover Pl",
    "address_councildis": "C",
    "status": "Pending",
    "rowid": "1110393",
    "final_x": "3706338.24772",
    "final_y": "519022.580343",
    "longitude": "-89.99010333796214",
    "latitude": "29.92035467892887",
    "geocoded_column": {
      "latitude": "29.92035467892887",
      "longitude": "-89.99010333796214"
    }
  },
  {
    "service_request": "2024-1110392",
    "request_type": "Property Maintenance",
    "request_reason": "Property Maintenance",
    "date_created": "2024-07-08T16:41:10.000",
    "date_modified": "2024-07-08T16:41:11.000",
    "request_status": "Pending",
    "responsible_agency": "Department of Code Enforcement",
    "final_address": "2055 Duels St",
    "address_councildis": "D",
    "status": "Pending",
    "rowid": "1110392",
    "final_x": "3683518.1661",
    "final_y": "542528.391437",
    "longitude": "-90.06131180451",
    "latitude": "29.985703512211003",
    "geocoded_column": {
      "latitude": "29.985703512211003",
      "longitude": "-90.06131180451"
    }
  },
  {
    "service_request": "2024-1110391",
    "request_type": "Trash/Recycling",
    "request_reason": "Repair Trash Cart",
    "date_created": "2024-07-08T16:39:18.000",
    "date_modified": "2024-07-08T16:39:19.000",
    "request_status": "Pending",
    "responsible_agency": "Department of Sanitation",
    "final_address": "2422 Eagle St",
    "address_councildis": "A",
    "status": "Assigned to Contractor",
    "contractor": "IV Waste",
    "rowid": "1110391",
    "final_x": "3663171.41107",
    "final_y": "533438.2889",
    "longitude": "-90.12588185278474",
    "latitude": "29.96131412589405",
    "geocoded_column": {
      "latitude": "29.96131412589405",
      "longitude": "-90.12588185278474"
    }
  },
  {
    "service_request": "2024-1110390",
    "request_type": "Trash/Recycling",
    "request_reason": "Illegal Dumping",
    "date_created": "2024-07-08T16:38:46.000",
    "date_modified": "2024-07-08T16:38:46.000",
    "request_status": "Pending",
    "responsible_agency": "Department of Sanitation",
    "final_address": "7731 S Coronet Ct",
    "address_councildis": "E",
    "status": "Pending",
    "rowid": "1110390",
    "final_x": "3702644.14026",
    "final_y": "557278.068571",
    "longitude": "-90.00035905331774",
    "latitude": "30.02566188436741",
    "geocoded_column": {
      "latitude": "30.02566188436741",
      "longitude": "-90.00035905331774"
    }
  },
  {
    "service_request": "2024-1110389",
    "request_type": "Roads/Drainage",
    "request_reason": "Street Subsidence (Sinking)",
    "date_created": "2024-07-08T16:38:35.000",
    "date_modified": "2024-07-08T16:38:35.000",
    "request_status": "Pending",
    "responsible_agency": "Department of Public Works",
    "final_address": "2314 Camp St",
    "address_councildis": "B",
    "status": "Pending",
    "rowid": "1110389",
    "final_x": "3678231.97154",
    "final_y": "522034.644538",
    "longitude": "-90.07871752837177",
    "latitude": "29.92951292015588",
    "geocoded_column": {
      "latitude": "29.92951292015588",
      "longitude": "-90.07871752837177"
    }
  },
  {
    "service_request": "2024-1110388",
    "request_type": "Trash/Recycling",
    "request_reason": "Request a Large Item Pick Up",
    "date_created": "2024-07-08T16:37:05.000",
    "date_modified": "2024-07-08T16:37:06.000",
    "request_status": "Pending",
    "responsible_agency": "Department of Sanitation",
    "final_address": "1308 Lark St",
    "address_councildis": "D",
    "status": "Assigned to Contractor",
    "contractor": "IV Waste",
    "rowid": "1110388",
    "final_x": "3677422.10312",
    "final_y": "556577.691418",
    "longitude": "-90.08008145526246",
    "latitude": "30.02451875864686",
    "geocoded_column": {
      "latitude": "30.02451875864686",
      "longitude": "-90.08008145526246"
    }
  },
  {
    "service_request": "2024-1110387",
    "request_type": "Roads/Drainage",
    "request_reason": "Pothole",
    "date_created": "2024-07-08T16:35:57.000",
    "date_modified": "2024-07-08T16:35:57.000",
    "request_status": "Pending",
    "responsible_agency": "Department of Public Works",
    "final_address": "5501 Woodlawn Pl",
    "address_councildis": "A",
    "status": "Pending",
    "rowid": "1110387",
    "final_x": "3667494.84327",
    "final_y": "544033.63323",
    "longitude": "-90.11187250382518",
    "latitude": "29.990321787568508",
    "geocoded_column": {
      "latitude": "29.990321787568508",
      "longitude": "-90.11187250382518"
    }
  },
  {
    "service_request": "2024-1110386",
    "request_type": "Abandoned Vehicles",
    "request_reason": "Abandoned/Junk Vehicles",
    "date_created": "2024-07-08T16:35:07.000",
    "date_modified": "2024-07-08T16:35:07.000",
    "request_status": "Pending",
    "responsible_agency": "Department of Public Works",
    "final_address": "7731 S Coronet Ct",
    "address_councildis": "E",
    "status": "Pending",
    "rowid": "1110386",
    "final_x": "3702644.14026",
    "final_y": "557278.068571",
    "longitude": "-90.00035905331774",
    "latitude": "30.02566188436741",
    "geocoded_column": {
      "latitude": "30.02566188436741",
      "longitude": "-90.00035905331774"
    }
  },
  {
    "service_request": "2024-1110385",
    "request_type": "Abandoned Vehicles",
    "request_reason": "Abandoned/Junk Vehicles",
    "date_created": "2024-07-08T16:33:42.000",
    "date_modified": "2024-07-08T16:33:42.000",
    "request_status": "Pending",
    "responsible_agency": "Department of Public Works",
    "final_address": "7771 S Coronet Ct",
    "address_councildis": "E",
    "status": "Pending",
    "rowid": "1110385",
    "final_x": "3702826.68049",
    "final_y": "557313.189531",
    "longitude": "-89.9997809641292",
    "latitude": "30.02575261328651",
    "geocoded_column": {
      "latitude": "30.02575261328651",
      "longitude": "-89.9997809641292"
    }
  },
  {
    "service_request": "2024-1110384",
    "request_type": "Trash/Recycling",
    "request_reason": "Request a Large Item Pick Up",
    "date_created": "2024-07-08T16:33:39.000",
    "date_modified": "2024-07-08T16:33:40.000",
    "request_status": "Pending",
    "responsible_agency": "Department of Sanitation",
    "final_address": "4734 Lancelot Dr",
    "address_councildis": "E",
    "status": "Assigned to Contractor",
    "contractor": "Waste Pro",
    "rowid": "1110384",
    "final_x": "3707383.87678",
    "final_y": "555426.427737",
    "longitude": "-89.9854510999003",
    "latitude": "30.02041813190595",
    "geocoded_column": {
      "latitude": "30.02041813190595",
      "longitude": "-89.9854510999003"
    }
  },
  {
    "service_request": "2024-1110383",
    "request_type": "Abandoned Vehicles",
    "request_reason": "Abandoned/Junk Vehicles",
    "date_created": "2024-07-08T16:33:38.000",
    "date_modified": "2024-07-08T16:33:38.000",
    "request_status": "Pending",
    "responsible_agency": "Department of Public Works",
    "final_address": "4611 N Robertson St",
    "address_councildis": "D",
    "status": "Pending",
    "rowid": "1110383",
    "final_x": "3694190.5608",
    "final_y": "536348.767815",
    "longitude": "-90.02782456372283",
    "latitude": "29.9683816759696",
    "geocoded_column": {
      "latitude": "29.9683816759696",
      "longitude": "-90.02782456372283"
    }
  },
  {
    "service_request": "2024-1110382",
    "request_type": "Trash/Recycling",
    "request_reason": "Request a Large Item Pick Up",
    "date_created": "2024-07-08T16:32:00.000",
    "date_modified": "2024-07-08T16:32:01.000",
    "request_status": "Pending",
    "responsible_agency": "Department of Sanitation",
    "final_address": "7926 Spruce St",
    "address_councildis": "A",
    "status": "Assigned to Contractor",
    "contractor": "IV Waste",
    "rowid": "1110382",
    "final_x": "3664231.25434",
    "final_y": "530046.140161",
    "longitude": "-90.12264821955154",
    "latitude": "29.9519560689391",
    "geocoded_column": {
      "latitude": "29.9519560689391",
      "longitude": "-90.12264821955154"
    }
  },
  {
    "service_request": "2024-1110381",
    "request_type": "Trash/Recycling",
    "request_reason": "Missed Trash Pick-Up",
    "date_created": "2024-07-08T16:30:46.000",
    "date_modified": "2024-07-08T16:30:48.000",
    "request_status": "Pending",
    "responsible_agency": "Department of Sanitation",
    "final_address": "7926 Spruce St",
    "address_councildis": "A",
    "status": "Assigned to Contractor",
    "contractor": "IV Waste",
    "rowid": "1110381",
    "final_x": "3664231.25434",
    "final_y": "530046.140161",
    "longitude": "-90.12264821955154",
    "latitude": "29.9519560689391",
    "geocoded_column": {
      "latitude": "29.9519560689391",
      "longitude": "-90.12264821955154"
    }
  },
  {
    "service_request": "2024-1110380",
    "request_type": "Property Maintenance",
    "request_reason": "Property Maintenance",
    "date_created": "2024-07-08T16:29:56.000",
    "date_modified": "2024-07-08T16:29:57.000",
    "request_status": "Pending",
    "responsible_agency": "Department of Code Enforcement",
    "final_address": "2755 Sage St",
    "address_councildis": "D",
    "status": "Pending",
    "rowid": "1110380",
    "final_x": "3688285.42825",
    "final_y": "545595.842896",
    "longitude": "-90.04614515113748",
    "latitude": "29.9939915249457",
    "geocoded_column": {
      "latitude": "29.9939915249457",
      "longitude": "-90.04614515113748"
    }
  },
  {
    "service_request": "2024-1110379",
    "request_type": "Trash/Recycling",
    "request_reason": "Request a Large Item Pick Up",
    "date_created": "2024-07-08T16:27:58.000",
    "date_modified": "2024-07-08T16:27:59.000",
    "request_status": "Pending",
    "responsible_agency": "Department of Sanitation",
    "final_address": "920 Music St",
    "address_councildis": "C",
    "status": "Assigned to Contractor",
    "contractor": "IV Waste",
    "rowid": "1110379",
    "final_x": "3686863.08297",
    "final_y": "535912.566215",
    "longitude": "-90.050980450747",
    "latitude": "29.96740979491691",
    "geocoded_column": {
      "latitude": "29.96740979491691",
      "longitude": "-90.050980450747"
    }
  },
  {
    "service_request": "2024-1110378",
    "request_type": "Property Maintenance",
    "request_reason": "Property Maintenance",
    "date_created": "2024-07-08T16:26:11.000",
    "date_modified": "2024-07-08T16:26:11.000",
    "request_status": "Pending",
    "responsible_agency": "Department of Code Enforcement",
    "final_address": "4526 N Robertson St",
    "address_councildis": "D",
    "status": "Pending",
    "rowid": "1110378",
    "final_x": "3693992.50838",
    "final_y": "536308.964999",
    "longitude": "-90.0284514513164",
    "latitude": "29.968278435456845",
    "geocoded_column": {
      "latitude": "29.968278435456845",
      "longitude": "-90.0284514513164"
    }
  },
  {
    "service_request": "2024-1110377",
    "request_type": "Trash/Recycling",
    "request_reason": "Return Trash Cart",
    "date_created": "2024-07-08T16:22:06.000",
    "date_modified": "2024-07-08T16:22:07.000",
    "request_status": "Pending",
    "responsible_agency": "Department of Sanitation",
    "final_address": "4526 N Robertson St",
    "address_councildis": "D",
    "status": "Assigned to Contractor",
    "contractor": "IV Waste",
    "rowid": "1110377",
    "final_x": "3693992.50838",
    "final_y": "536308.964999",
    "longitude": "-90.0284514513164",
    "latitude": "29.968278435456845",
    "geocoded_column": {
      "latitude": "29.968278435456845",
      "longitude": "-90.0284514513164"
    }
  },
  {
    "service_request": "2024-1110376",
    "request_type": "Trash/Recycling",
    "request_reason": "Request a Large Item Pick Up",
    "date_created": "2024-07-08T16:20:36.000",
    "date_modified": "2024-07-08T16:20:37.000",
    "request_status": "Pending",
    "responsible_agency": "Department of Sanitation",
    "final_address": "4910 Little John Dr",
    "address_councildis": "E",
    "status": "Assigned to Contractor",
    "contractor": "Waste Pro",
    "rowid": "1110376",
    "final_x": "3717082.93221",
    "final_y": "557693.896923",
    "longitude": "-89.95471920748425",
    "latitude": "30.02633549126709",
    "geocoded_column": {
      "latitude": "30.02633549126709",
      "longitude": "-89.95471920748425"
    }
  },
  {
    "service_request": "2024-1110374",
    "request_type": "Healthy Homes",
    "request_reason": "Healthy Homes",
    "date_created": "2024-07-08T16:14:33.000",
    "date_modified": "2024-07-08T16:14:33.000",
    "request_status": "Pending",
    "responsible_agency": "Department of Code Enforcement",
    "final_address": "4526 N Robertson St",
    "address_councildis": "D",
    "status": "Pending",
    "rowid": "1110374",
    "final_x": "3693992.50838",
    "final_y": "536308.964999",
    "longitude": "-90.0284514513164",
    "latitude": "29.968278435456845",
    "geocoded_column": {
      "latitude": "29.968278435456845",
      "longitude": "-90.0284514513164"
    }
  },
  {
    "service_request": "2024-1110373",
    "request_type": "Abandoned Vehicles",
    "request_reason": "Abandoned/Junk Vehicles",
    "date_created": "2024-07-08T16:11:37.000",
    "date_modified": "2024-07-08T16:11:37.000",
    "request_status": "Pending",
    "responsible_agency": "Department of Public Works",
    "final_address": "4525 N Robertson St",
    "address_councildis": "D",
    "status": "Pending",
    "rowid": "1110373",
    "final_x": "3693985.21923",
    "final_y": "536460.728711",
    "longitude": "-90.02846901275659",
    "latitude": "29.9686959600709",
    "geocoded_column": {
      "latitude": "29.9686959600709",
      "longitude": "-90.02846901275659"
    }
  },
  {
    "service_request": "2024-1110372",
    "request_type": "Parks & Parkways",
    "request_reason": "Request Tree Service (Right of Way/Public Property)",
    "date_created": "2024-07-08T16:10:47.000",
    "date_modified": "2024-07-08T16:10:48.000",
    "request_status": "Pending",
    "responsible_agency": "Department of Parks & Parkway",
    "final_address": "4436 S Rocheblave St",
    "address_councildis": "B",
    "status": "Pending",
    "rowid": "1110372",
    "final_x": "3669743.91962",
    "final_y": "528399.440768",
    "longitude": "-90.10529750052518",
    "latitude": "29.947266874869793",
    "geocoded_column": {
      "latitude": "29.947266874869793",
      "longitude": "-90.10529750052518"
    }
  },
  {
    "service_request": "2024-1110371",
    "request_type": "Property Maintenance",
    "request_reason": "Property Maintenance",
    "date_created": "2024-07-08T16:10:33.000",
    "date_modified": "2024-07-08T16:10:33.000",
    "request_status": "Pending",
    "responsible_agency": "Department of Code Enforcement",
    "final_address": "1810 Prytania St",
    "address_councildis": "B",
    "status": "Pending",
    "rowid": "1110371",
    "final_x": "3678885.49794",
    "final_y": "524006.456508",
    "longitude": "-90.07658619288947",
    "latitude": "29.93491506401415",
    "geocoded_column": {
      "latitude": "29.93491506401415",
      "longitude": "-90.07658619288947"
    }
  },
  {
    "service_request": "2024-1110370",
    "request_type": "Trash/Recycling",
    "request_reason": "Request a Large Item Pick Up",
    "date_created": "2024-07-08T16:04:08.000",
    "date_modified": "2024-07-08T16:04:09.000",
    "request_status": "Pending",
    "responsible_agency": "Department of Sanitation",
    "final_address": "4943 Bundy Rd",
    "address_councildis": "E",
    "status": "Assigned to Contractor",
    "contractor": "Waste Pro",
    "rowid": "1110370",
    "final_x": "3709315.45553",
    "final_y": "556918.074202",
    "longitude": "-89.97929226193166",
    "latitude": "30.02445695928416",
    "geocoded_column": {
      "latitude": "30.02445695928416",
      "longitude": "-89.97929226193166"
    }
  },
  {
    "service_request": "2024-1110369",
    "request_type": "Parks & Parkways",
    "request_reason": "Request Grass Cutting Service (City Owned Property)",
    "date_created": "2024-07-08T16:03:11.000",
    "date_modified": "2024-07-08T16:03:11.000",
    "request_status": "Pending",
    "responsible_agency": "Department of Parks & Parkway",
    "final_address": "STAR ST & CURRAN BLVD",
    "address_councildis": "E",
    "status": "Pending",
    "rowid": "1110369",
    "final_x": "3720849.5",
    "final_y": "574301.28",
    "longitude": "-89.9421803332373",
    "latitude": "30.071873787537783",
    "geocoded_column": {
      "latitude": "30.071873787537783",
      "longitude": "-89.9421803332373"
    }
  },
  {
    "service_request": "2024-1110368",
    "request_type": "Trash/Recycling",
    "request_reason": "Request a Large Item Pick Up",
    "date_created": "2024-07-08T15:58:30.000",
    "date_modified": "2024-07-08T15:58:31.000",
    "request_status": "Pending",
    "responsible_agency": "Department of Sanitation",
    "final_address": "7061 W Renaissance Ct",
    "address_councildis": "E",
    "status": "Assigned to Contractor",
    "contractor": "Waste Pro",
    "rowid": "1110368",
    "final_x": "3716899.56229",
    "final_y": "567320.623908",
    "longitude": "-89.95493269697825",
    "latitude": "30.052811153860855",
    "geocoded_column": {
      "latitude": "30.052811153860855",
      "longitude": "-89.95493269697825"
    }
  },
  {
    "service_request": "2024-1110367",
    "request_type": "Parks & Parkways",
    "request_reason": "Request Grass Cutting Service (City Owned Property)",
    "date_created": "2024-07-08T15:57:44.000",
    "date_modified": "2024-07-08T15:57:45.000",
    "request_status": "Pending",
    "responsible_agency": "Department of Parks & Parkway",
    "final_address": "200 BLK Kenilworth St",
    "address_councildis": "A",
    "status": "Pending",
    "rowid": "1110367",
    "final_x": "3666794.81171",
    "final_y": "546124.675255",
    "longitude": "-90.11401344488775",
    "latitude": "29.996091938069775",
    "geocoded_column": {
      "latitude": "29.996091938069775",
      "longitude": "-90.11401344488775"
    }
  },
  {
    "service_request": "2024-1110366",
    "request_type": "Trash/Recycling",
    "request_reason": "Repair Trash Cart",
    "date_created": "2024-07-08T15:56:11.000",
    "date_modified": "2024-07-08T15:56:12.000",
    "request_status": "Pending",
    "responsible_agency": "Department of Sanitation",
    "final_address": "3830 Tall Pines Dr",
    "address_councildis": "C",
    "status": "Assigned to Contractor",
    "contractor": "Richards Disposal",
    "rowid": "1110366",
    "final_x": "3704347.03946",
    "final_y": "513400.324146",
    "longitude": "-89.99659562800954",
    "latitude": "29.904959436699674",
    "geocoded_column": {
      "latitude": "29.904959436699674",
      "longitude": "-89.99659562800954"
    }
  },
  {
    "service_request": "2024-1110365",
    "request_type": "Roads/Drainage",
    "request_reason": "Catch Basin - Clogged",
    "date_created": "2024-07-08T15:54:41.000",
    "date_modified": "2024-07-08T15:54:42.000",
    "request_status": "Pending",
    "responsible_agency": "Department of Public Works",
    "final_address": "3830 Tall Pines Dr",
    "address_councildis": "C",
    "status": "Pending",
    "rowid": "1110365",
    "final_x": "3704347.03946",
    "final_y": "513400.324146",
    "longitude": "-89.99659562800954",
    "latitude": "29.904959436699674",
    "geocoded_column": {
      "latitude": "29.904959436699674",
      "longitude": "-89.99659562800954"
    }
  },
  {
    "service_request": "2024-1110364",
    "request_type": "Trash/Recycling",
    "request_reason": "Missed Trash Pick-Up",
    "date_created": "2024-07-08T15:54:06.000",
    "date_modified": "2024-07-08T15:54:07.000",
    "request_status": "Pending",
    "responsible_agency": "Department of Sanitation",
    "final_address": "5800 Shirley Taylor St",
    "address_councildis": "E",
    "status": "Assigned to Contractor",
    "contractor": "Waste Pro",
    "rowid": "1110364",
    "final_x": "3699961.78781",
    "final_y": "538439.619529",
    "longitude": "-90.0095225855523",
    "latitude": "29.973948700067382",
    "geocoded_column": {
      "latitude": "29.973948700067382",
      "longitude": "-90.0095225855523"
    }
  },
  {
    "service_request": "2024-1110363",
    "request_type": "Roads/Drainage",
    "request_reason": "Damaged Sidewalk",
    "date_created": "2024-07-08T15:53:11.000",
    "date_modified": "2024-07-08T15:53:12.000",
    "request_status": "Pending",
    "responsible_agency": "Department of Public Works",
    "final_address": "4748 E Adams Ct",
    "address_councildis": "E",
    "status": "Pending",
    "rowid": "1110363",
    "final_x": "3718683.53183",
    "final_y": "557204.399899",
    "longitude": "-89.94968024116751",
    "latitude": "30.024936522404445",
    "geocoded_column": {
      "latitude": "30.024936522404445",
      "longitude": "-89.94968024116751"
    }
  },
  {
    "service_request": "2024-1110362",
    "request_type": "Roads/Drainage",
    "request_reason": "Street Subsidence (Sinking)",
    "date_created": "2024-07-08T15:52:19.000",
    "date_modified": "2024-07-08T15:52:19.000",
    "request_status": "Pending",
    "responsible_agency": "Department of Public Works",
    "final_address": "4995 Burgundy St",
    "address_councildis": "E",
    "status": "Pending",
    "rowid": "1110362",
    "final_x": "3695691.65763",
    "final_y": "533559.516869",
    "longitude": "-90.0231847692555",
    "latitude": "29.96066511325112",
    "geocoded_column": {
      "latitude": "29.96066511325112",
      "longitude": "-90.0231847692555"
    }
  },
  {
    "service_request": "2024-1110361",
    "request_type": "Trash/Recycling",
    "request_reason": "Request a Large Item Pick Up",
    "date_created": "2024-07-08T15:48:06.000",
    "date_modified": "2024-07-08T15:48:07.000",
    "request_status": "Pending",
    "responsible_agency": "Department of Sanitation",
    "final_address": "6334 Oxford St",
    "address_councildis": "C",
    "status": "Assigned to Contractor",
    "contractor": "Richards Disposal",
    "rowid": "1110361",
    "final_x": "3707669.37451",
    "final_y": "519796.585144",
    "longitude": "-89.9858729053699",
    "latitude": "29.922439948050258",
    "geocoded_column": {
      "latitude": "29.922439948050258",
      "longitude": "-89.9858729053699"
    }
  },
  {
    "service_request": "2024-1110360",
    "request_type": "Trash/Recycling",
    "request_reason": "Request a Large Item Pick Up",
    "date_created": "2024-07-08T15:45:04.000",
    "date_modified": "2024-07-08T15:45:05.000",
    "request_status": "Pending",
    "responsible_agency": "Department of Sanitation",
    "final_address": "2760 Orchid St",
    "address_councildis": "A",
    "status": "Assigned to Contractor",
    "contractor": "IV Waste",
    "rowid": "1110360",
    "final_x": "3677336.42338",
    "final_y": "538675.804233",
    "longitude": "-90.08097044403324",
    "latitude": "29.97529747451872",
    "geocoded_column": {
      "latitude": "29.97529747451872",
      "longitude": "-90.08097044403324"
    }
  },
  {
    "service_request": "2024-1110359",
    "request_type": "Trash/Recycling",
    "request_reason": "Return Trash Cart",
    "date_created": "2024-07-08T15:44:21.000",
    "date_modified": "2024-07-08T15:44:22.000",
    "request_status": "Pending",
    "responsible_agency": "Department of Sanitation",
    "final_address": "4901 Michoud Blvd",
    "address_councildis": "E",
    "status": "Assigned to Contractor",
    "contractor": "Waste Pro",
    "rowid": "1110359",
    "final_x": "3725089.9056",
    "final_y": "561155.121182",
    "longitude": "-89.92928446490467",
    "latitude": "30.035585125654556",
    "geocoded_column": {
      "latitude": "30.035585125654556",
      "longitude": "-89.92928446490467"
    }
  },
  {
    "service_request": "2024-1110358",
    "request_type": "Abandoned Vehicles",
    "request_reason": "Abandoned/Junk Vehicles",
    "date_created": "2024-07-08T15:43:33.000",
    "date_modified": "2024-07-08T15:43:34.000",
    "request_status": "Pending",
    "responsible_agency": "Department of Public Works",
    "final_address": "3226 Cambronne St",
    "address_councildis": "A",
    "status": "Pending",
    "rowid": "1110358",
    "final_x": "3666133.997",
    "final_y": "534600.46791",
    "longitude": "-90.11648751760124",
    "latitude": "29.964423561631214",
    "geocoded_column": {
      "latitude": "29.964423561631214",
      "longitude": "-90.11648751760124"
    }
  },
  {
    "service_request": "2024-1110357",
    "request_type": "Trash/Recycling",
    "request_reason": "Request a Large Item Pick Up",
    "date_created": "2024-07-08T15:38:51.000",
    "date_modified": "2024-07-08T15:38:52.000",
    "request_status": "Pending",
    "responsible_agency": "Department of Sanitation",
    "final_address": "7701 Means Ave",
    "address_councildis": "E",
    "status": "Assigned to Contractor",
    "contractor": "Waste Pro",
    "rowid": "1110357",
    "final_x": "3708040.29688",
    "final_y": "564938.938658",
    "longitude": "-89.9830228311092",
    "latitude": "30.046552535999524",
    "geocoded_column": {
      "latitude": "30.046552535999524",
      "longitude": "-89.9830228311092"
    }
  },
  {
    "service_request": "2024-1110356",
    "request_type": "Property Maintenance",
    "request_reason": "Property Maintenance",
    "date_created": "2024-07-08T15:23:35.000",
    "date_modified": "2024-07-08T15:23:36.000",
    "request_status": "Pending",
    "responsible_agency": "Department of Code Enforcement",
    "final_address": "2319 N Galvez St",
    "address_councildis": "D",
    "status": "Pending",
    "rowid": "1110356",
    "final_x": "3685634.10236",
    "final_y": "540102.741579",
    "longitude": "-90.05471392442493",
    "latitude": "29.978969074256067",
    "geocoded_column": {
      "latitude": "29.978969074256067",
      "longitude": "-90.05471392442493"
    }
  },
  {
    "service_request": "2024-1110355",
    "request_type": "Trash/Recycling",
    "request_reason": "Request a Large Item Pick Up",
    "date_created": "2024-07-08T15:22:31.000",
    "date_modified": "2024-07-08T15:22:32.000",
    "request_status": "Pending",
    "responsible_agency": "Department of Sanitation",
    "final_address": "8210 Forshey St",
    "address_councildis": "A",
    "status": "Assigned to Contractor",
    "contractor": "IV Waste",
    "rowid": "1110355",
    "final_x": "3666642.22842",
    "final_y": "534187.294085",
    "longitude": "-90.11489643058354",
    "latitude": "29.963272619585265",
    "geocoded_column": {
      "latitude": "29.963272619585265",
      "longitude": "-90.11489643058354"
    }
  },
  {
    "service_request": "2024-1110354",
    "request_type": "Trash/Recycling",
    "request_reason": "Repair Trash Cart",
    "date_created": "2024-07-08T15:20:27.000",
    "date_modified": "2024-07-08T15:20:28.000",
    "request_status": "Pending",
    "responsible_agency": "Department of Sanitation",
    "final_address": "2913 Orleans Ave",
    "address_councildis": "A",
    "status": "Assigned to Contractor",
    "contractor": "IV Waste",
    "rowid": "1110354",
    "final_x": "3675978.18734",
    "final_y": "537692.33748",
    "longitude": "-90.08529395054774",
    "latitude": "29.972634025854298",
    "geocoded_column": {
      "latitude": "29.972634025854298",
      "longitude": "-90.08529395054774"
    }
  },
  {
    "service_request": "2024-1110353",
    "request_type": "Trash/Recycling",
    "request_reason": "Order Trash Cart",
    "date_created": "2024-07-08T15:19:43.000",
    "date_modified": "2024-07-08T15:19:44.000",
    "request_status": "Pending",
    "responsible_agency": "Department of Sanitation",
    "final_address": "201 N Roadway St",
    "address_councildis": "A",
    "status": "Assigned to Contractor",
    "contractor": "IV Waste",
    "rowid": "1110353",
    "final_x": "3666005.45652",
    "final_y": "556844.033946",
    "longitude": "-90.11614726751944",
    "latitude": "30.02558950735636",
    "geocoded_column": {
      "latitude": "30.02558950735636",
      "longitude": "-90.11614726751944"
    }
  },
  {
    "service_request": "2024-1110352",
    "request_type": "Parks & Parkways",
    "request_reason": "Request Tree Service (Right of Way/Public Property)",
    "date_created": "2024-07-08T15:15:45.000",
    "date_modified": "2024-07-08T15:15:46.000",
    "request_status": "Pending",
    "responsible_agency": "Department of Parks & Parkway",
    "final_address": "4325 St Ann St",
    "address_councildis": "A",
    "status": "Pending",
    "rowid": "1110352",
    "final_x": "3671732.70139",
    "final_y": "541216.901132",
    "longitude": "-90.09858204949153",
    "latitude": "29.982451843838295",
    "geocoded_column": {
      "latitude": "29.982451843838295",
      "longitude": "-90.09858204949153"
    }
  },
  {
    "service_request": "2024-1110351",
    "request_type": "Trash/Recycling",
    "request_reason": "Request a Large Item Pick Up",
    "date_created": "2024-07-08T15:13:10.000",
    "date_modified": "2024-07-08T15:13:10.000",
    "request_status": "Pending",
    "responsible_agency": "Department of Sanitation",
    "final_address": "5018 Congress Dr",
    "address_councildis": "D",
    "status": "Assigned to Contractor",
    "contractor": "IV Waste",
    "rowid": "1110351",
    "final_x": "3691901.35606",
    "final_y": "552825.50607",
    "longitude": "-90.0344641176904",
    "latitude": "30.013758256807886",
    "geocoded_column": {
      "latitude": "30.013758256807886",
      "longitude": "-90.0344641176904"
    }
  },
  {
    "service_request": "2024-1110350",
    "request_type": "Abandoned Vehicles",
    "request_reason": "Abandoned/Junk Vehicles",
    "date_created": "2024-07-08T15:12:15.000",
    "date_modified": "2024-07-08T15:12:16.000",
    "request_status": "Pending",
    "responsible_agency": "Department of Public Works",
    "final_address": "1200 BLK Franklin Ave",
    "address_councildis": "C",
    "status": "Pending",
    "rowid": "1110350",
    "final_x": "3687163.19847",
    "final_y": "536941.270721",
    "longitude": "-90.04999629831718",
    "latitude": "29.970229134559762",
    "geocoded_column": {
      "latitude": "29.970229134559762",
      "longitude": "-90.04999629831718"
    }
  },
  {
    "service_request": "2024-1110349",
    "request_type": "Trash/Recycling",
    "request_reason": "Request a Large Item Pick Up",
    "date_created": "2024-07-08T15:11:54.000",
    "date_modified": "2024-07-08T15:11:55.000",
    "request_status": "Pending",
    "responsible_agency": "Department of Sanitation",
    "final_address": "6105 Milne Blvd",
    "address_councildis": "A",
    "status": "Assigned to Contractor",
    "contractor": "IV Waste",
    "rowid": "1110349",
    "final_x": "3667182.61287",
    "final_y": "548122.318738",
    "longitude": "-90.11272118375902",
    "latitude": "30.001573416382534",
    "geocoded_column": {
      "latitude": "30.001573416382534",
      "longitude": "-90.11272118375902"
    }
  },
  {
    "service_request": "2024-1110348",
    "request_type": "Abandoned Vehicles",
    "request_reason": "Abandoned/Junk Vehicles",
    "date_created": "2024-07-08T15:09:57.000",
    "date_modified": "2024-07-08T15:22:03.000",
    "request_status": "Pending",
    "responsible_agency": "Department of Public Works",
    "final_address": "COLISEUM ST & LYONS ST",
    "address_councildis": "B",
    "status": "Pending",
    "rowid": "1110348",
    "final_x": "3669133.7",
    "final_y": "519642.18",
    "longitude": "-90.10751999964079",
    "latitude": "29.92320519025345",
    "geocoded_column": {
      "latitude": "29.92320519025345",
      "longitude": "-90.10751999964079"
    }
  },
  {
    "service_request": "2024-1110347",
    "request_type": "Trash/Recycling",
    "request_reason": "Request a Large Item Pick Up",
    "date_created": "2024-07-08T15:08:30.000",
    "date_modified": "2024-07-08T15:08:31.000",
    "request_status": "Pending",
    "responsible_agency": "Department of Sanitation",
    "final_address": "9962 E Wheaton Cir",
    "address_councildis": "E",
    "status": "Assigned to Contractor",
    "contractor": "Waste Pro",
    "rowid": "1110347",
    "final_x": "3708750.00849",
    "final_y": "562207.309919",
    "longitude": "-89.98088169222179",
    "latitude": "30.03901863216912",
    "geocoded_column": {
      "latitude": "30.03901863216912",
      "longitude": "-89.98088169222179"
    }
  },
  {
    "service_request": "2024-1110346",
    "request_type": "Trash/Recycling",
    "request_reason": "Request a Large Item Pick Up",
    "date_created": "2024-07-08T15:07:54.000",
    "date_modified": "2024-07-08T15:07:55.000",
    "request_status": "Pending",
    "responsible_agency": "Department of Sanitation",
    "final_address": "4834 Papania Dr",
    "address_councildis": "E",
    "status": "Assigned to Contractor",
    "contractor": "Waste Pro",
    "rowid": "1110346",
    "final_x": "3715490.85234",
    "final_y": "557277.981211",
    "longitude": "-89.95976569006038",
    "latitude": "30.02524446159409",
    "geocoded_column": {
      "latitude": "30.02524446159409",
      "longitude": "-89.95976569006038"
    }
  },
  {
    "service_request": "2024-1110345",
    "request_type": "Property Maintenance",
    "request_reason": "Property Maintenance",
    "date_created": "2024-07-08T15:06:59.000",
    "date_modified": "2024-07-08T15:06:59.000",
    "request_status": "Pending",
    "responsible_agency": "Department of Code Enforcement",
    "final_address": "200 Westpark Ct",
    "address_councildis": "C",
    "status": "Pending",
    "rowid": "1110345",
    "final_x": "3695897.19293",
    "final_y": "522332.671738",
    "longitude": "-90.02294116561067",
    "latitude": "29.929788726771335",
    "geocoded_column": {
      "latitude": "29.929788726771335",
      "longitude": "-90.02294116561067"
    }
  },
  {
    "service_request": "2024-1110344",
    "request_type": "Property Maintenance",
    "request_reason": "Property Maintenance",
    "date_created": "2024-07-08T15:02:27.000",
    "date_modified": "2024-07-08T15:02:27.000",
    "request_status": "Pending",
    "responsible_agency": "Department of Code Enforcement",
    "final_address": "544 Atlantic Ave",
    "address_councildis": "C",
    "status": "Pending",
    "rowid": "1110344",
    "final_x": "3688857.2415",
    "final_y": "529484.970945",
    "longitude": "-90.04491112538211",
    "latitude": "29.949674619086586",
    "geocoded_column": {
      "latitude": "29.949674619086586",
      "longitude": "-90.04491112538211"
    }
  },
  {
    "service_request": "2024-1110343",
    "request_type": "Abandoned Vehicles",
    "request_reason": "Abandoned/Junk Vehicles",
    "date_created": "2024-07-08T15:02:07.000",
    "date_modified": "2024-07-08T15:02:07.000",
    "request_status": "Pending",
    "responsible_agency": "Department of Public Works",
    "final_address": "7732 Duke Ct",
    "address_councildis": "E",
    "status": "Pending",
    "rowid": "1110343",
    "final_x": "3700049.48324",
    "final_y": "561008.923102",
    "longitude": "-90.0084214438639",
    "latitude": "30.036003032886438",
    "geocoded_column": {
      "latitude": "30.036003032886438",
      "longitude": "-90.0084214438639"
    }
  },
  {
    "service_request": "2024-1110342",
    "request_type": "Trash/Recycling",
    "request_reason": "Request a Large Item Pick Up",
    "date_created": "2024-07-08T15:00:41.000",
    "date_modified": "2024-07-08T15:00:43.000",
    "request_status": "Pending",
    "responsible_agency": "Department of Sanitation",
    "final_address": "7300 BLK Strathmore Dr",
    "address_councildis": "E",
    "status": "Assigned to Contractor",
    "contractor": "Waste Pro",
    "rowid": "1110342",
    "final_x": "3714469.22818",
    "final_y": "566542.849641",
    "longitude": "-89.96264362915198",
    "latitude": "30.050752756006307",
    "geocoded_column": {
      "latitude": "30.050752756006307",
      "longitude": "-89.96264362915198"
    }
  },
  {
    "service_request": "2024-1110341",
    "request_type": "Trash/Recycling",
    "request_reason": "Request a Large Item Pick Up",
    "date_created": "2024-07-08T14:54:38.000",
    "date_modified": "2024-07-08T14:54:39.000",
    "request_status": "Pending",
    "responsible_agency": "Department of Sanitation",
    "final_address": "4424 S Tonti St",
    "address_councildis": "B",
    "status": "Assigned to Contractor",
    "contractor": "IV Waste",
    "rowid": "1110341",
    "final_x": "3669839.0651",
    "final_y": "528074.164735",
    "longitude": "-90.10500809881276",
    "latitude": "29.946369667678415",
    "geocoded_column": {
      "latitude": "29.946369667678415",
      "longitude": "-90.10500809881276"
    }
  },
  {
    "service_request": "2024-1110340",
    "request_type": "Trash/Recycling",
    "request_reason": "Dead Animal Pick Up",
    "date_created": "2024-07-08T14:51:47.000",
    "date_modified": "2024-07-08T14:51:48.000",
    "request_status": "Pending",
    "responsible_agency": "Department of Sanitation",
    "final_address": "2336 St Maurice Ave",
    "address_councildis": "E",
    "status": "Assigned to Contractor",
    "contractor": "Waste Pro",
    "rowid": "1110340",
    "final_x": "3701643.00439",
    "final_y": "537758.27092",
    "longitude": "-90.00423792418187",
    "latitude": "29.972021724182945",
    "geocoded_column": {
      "latitude": "29.972021724182945",
      "longitude": "-90.00423792418187"
    }
  },
  {
    "service_request": "2024-1110339",
    "request_type": "Property Maintenance",
    "request_reason": "Property Maintenance",
    "date_created": "2024-07-08T14:51:45.000",
    "date_modified": "2024-07-08T14:51:46.000",
    "request_status": "Pending",
    "responsible_agency": "Department of Code Enforcement",
    "final_address": "1026 Belleville St",
    "address_councildis": "C",
    "status": "Pending",
    "rowid": "1110339",
    "final_x": "3687805.68886",
    "final_y": "527706.898623",
    "longitude": "-90.04829430956927",
    "latitude": "29.944817997174127",
    "geocoded_column": {
      "latitude": "29.944817997174127",
      "longitude": "-90.04829430956927"
    }
  },
  {
    "service_request": "2024-1110338",
    "request_type": "Mosquito, Termite & Rodent Control",
    "request_reason": "Rodent Complaint (Rats)",
    "date_created": "2024-07-08T14:50:25.000",
    "date_modified": "2024-07-08T14:50:26.000",
    "request_status": "Pending",
    "responsible_agency": "Mosquito, Termite & Rodent Control Board",
    "final_address": "4224 N Claiborne Ave",
    "address_councildis": "D",
    "status": "Pending",
    "rowid": "1110338",
    "final_x": "3693055.64144",
    "final_y": "536920.885256",
    "longitude": "-90.03138814869469",
    "latitude": "29.96999030230184",
    "geocoded_column": {
      "latitude": "29.96999030230184",
      "longitude": "-90.03138814869469"
    }
  },
  {
    "service_request": "2024-1110337",
    "request_type": "Trash/Recycling",
    "request_reason": "Request a Large Item Pick Up",
    "date_created": "2024-07-08T14:50:12.000",
    "date_modified": "2024-07-08T14:50:13.000",
    "request_status": "Pending",
    "responsible_agency": "Department of Sanitation",
    "final_address": "7343 Read Blvd",
    "address_councildis": "E",
    "status": "Assigned to Contractor",
    "contractor": "Waste Pro",
    "rowid": "1110337",
    "final_x": "3709306.2364",
    "final_y": "563243.791136",
    "longitude": "-89.97908515689079",
    "latitude": "30.041850478552938",
    "geocoded_column": {
      "latitude": "30.041850478552938",
      "longitude": "-89.97908515689079"
    }
  },
  {
    "service_request": "2024-1110336",
    "request_type": "Trash/Recycling",
    "request_reason": "Order Trash Cart",
    "date_created": "2024-07-08T14:47:24.000",
    "date_modified": "2024-07-08T14:47:25.000",
    "request_status": "Pending",
    "responsible_agency": "Department of Sanitation",
    "final_address": "4427 Dale St",
    "address_councildis": "E",
    "status": "Assigned to Contractor",
    "contractor": "Waste Pro",
    "rowid": "1110336",
    "final_x": "3699655.36247",
    "final_y": "553345.687959",
    "longitude": "-90.00994662869078",
    "latitude": "30.014944599900804",
    "geocoded_column": {
      "latitude": "30.014944599900804",
      "longitude": "-90.00994662869078"
    }
  },
  {
    "service_request": "2024-1110335",
    "request_type": "Trash/Recycling",
    "request_reason": "Order Trash Cart",
    "date_created": "2024-07-08T14:46:56.000",
    "date_modified": "2024-07-08T14:46:57.000",
    "request_status": "Pending",
    "responsible_agency": "Department of Sanitation",
    "final_address": "4429 Dale St",
    "address_councildis": "E",
    "status": "Assigned to Contractor",
    "contractor": "Waste Pro",
    "rowid": "1110335",
    "final_x": "3699653.39152",
    "final_y": "553364.408407",
    "longitude": "-90.0099521727904",
    "latitude": "30.01499613663033",
    "geocoded_column": {
      "latitude": "30.01499613663033",
      "longitude": "-90.0099521727904"
    }
  },
  {
    "service_request": "2024-1110334",
    "request_type": "Abandoned Vehicles",
    "request_reason": "Abandoned/Junk Vehicles",
    "date_created": "2024-07-08T14:44:48.000",
    "date_modified": "2024-07-08T14:44:49.000",
    "request_status": "Pending",
    "responsible_agency": "Department of Public Works",
    "final_address": "125 N Alexander St",
    "address_councildis": "A",
    "status": "Pending",
    "rowid": "1110334",
    "final_x": "3670136.61735",
    "final_y": "539420.001802",
    "longitude": "-90.10368418970982",
    "latitude": "29.977558176099876",
    "geocoded_column": {
      "latitude": "29.977558176099876",
      "longitude": "-90.10368418970982"
    }
  },
  {
    "service_request": "2024-1110332",
    "request_type": "Trash/Recycling",
    "request_reason": "Request a Large Item Pick Up",
    "date_created": "2024-07-08T14:42:50.000",
    "date_modified": "2024-07-08T14:42:51.000",
    "request_status": "Pending",
    "responsible_agency": "Department of Sanitation",
    "final_address": "8005 Brevard Ave Apt A",
    "address_councildis": "E",
    "status": "Assigned to Contractor",
    "contractor": "Waste Pro",
    "rowid": "1110332",
    "final_x": "3705884.41214",
    "final_y": "564407.886113",
    "longitude": "-89.9898561779058",
    "latitude": "30.045162033289305",
    "geocoded_column": {
      "latitude": "30.045162033289305",
      "longitude": "-89.9898561779058"
    }
  },
  {
    "service_request": "2024-1110331",
    "request_type": "Parks & Parkways",
    "request_reason": "Request Tree Service (Right of Way/Public Property)",
    "date_created": "2024-07-08T14:42:43.000",
    "date_modified": "2024-07-08T14:42:44.000",
    "request_status": "Pending",
    "responsible_agency": "Department of Parks & Parkway",
    "final_address": "1500 BLK Short St",
    "address_councildis": "A",
    "status": "Pending",
    "rowid": "1110331",
    "final_x": "3663123.90403",
    "final_y": "528978.266306",
    "longitude": "-90.12618024844504",
    "latitude": "29.94905188499108",
    "geocoded_column": {
      "latitude": "29.94905188499108",
      "longitude": "-90.12618024844504"
    }
  },
  {
    "service_request": "2024-1110330",
    "request_type": "Property Maintenance",
    "request_reason": "Property Maintenance",
    "date_created": "2024-07-08T14:42:19.000",
    "date_modified": "2024-07-08T14:42:20.000",
    "request_status": "Pending",
    "responsible_agency": "Department of Code Enforcement",
    "final_address": "1221 Hillary St",
    "address_councildis": "A",
    "status": "Pending",
    "rowid": "1110330",
    "final_x": "3663451.60083",
    "final_y": "527273.816703",
    "longitude": "-90.12520230453033",
    "latitude": "29.944355698890035",
    "geocoded_column": {
      "latitude": "29.944355698890035",
      "longitude": "-90.12520230453033"
    }
  },
  {
    "service_request": "2024-1110329",
    "request_type": "Trash/Recycling",
    "request_reason": "Repair Trash Cart",
    "date_created": "2024-07-08T14:41:53.000",
    "date_modified": "2024-07-08T14:41:55.000",
    "request_status": "Pending",
    "responsible_agency": "Department of Sanitation",
    "final_address": "1656 Dufossat St",
    "address_councildis": "B",
    "status": "Assigned to Contractor",
    "contractor": "IV Waste",
    "rowid": "1110329",
    "final_x": "3668066.76833",
    "final_y": "521663.297273",
    "longitude": "-90.1108198389871",
    "latitude": "29.928793963476835",
    "geocoded_column": {
      "latitude": "29.928793963476835",
      "longitude": "-90.1108198389871"
    }
  },
  {
    "service_request": "2024-1110328",
    "request_type": "Property Maintenance",
    "request_reason": "Property Maintenance",
    "date_created": "2024-07-08T14:41:40.000",
    "date_modified": "2024-07-08T14:41:40.000",
    "request_status": "Pending",
    "responsible_agency": "Department of Code Enforcement",
    "final_address": "1012 Belleville St",
    "address_councildis": "C",
    "status": "Pending",
    "rowid": "1110328",
    "final_x": "3687810.00643",
    "final_y": "527842.918719",
    "longitude": "-90.04827586139145",
    "latitude": "29.945191872991575",
    "geocoded_column": {
      "latitude": "29.945191872991575",
      "longitude": "-90.04827586139145"
    }
  },
  {
    "service_request": "2024-1110327",
    "request_type": "Trash/Recycling",
    "request_reason": "Order Recycling Cart",
    "date_created": "2024-07-08T14:40:40.000",
    "date_modified": "2024-07-08T14:40:40.000",
    "request_status": "Pending",
    "responsible_agency": "Department of Sanitation",
    "final_address": "826 N Rocheblave St",
    "address_councildis": "D",
    "status": "Pending",
    "rowid": "1110327",
    "final_x": "3677902.4347",
    "final_y": "536773.85108",
    "longitude": "-90.07924857196839",
    "latitude": "29.970050732974858",
    "geocoded_column": {
      "latitude": "29.970050732974858",
      "longitude": "-90.07924857196839"
    }
  },
  {
    "service_request": "2024-1110326",
    "request_type": "Parks & Parkways",
    "request_reason": "Request Grass Cutting Service (City Owned Property)",
    "date_created": "2024-07-08T14:40:12.000",
    "date_modified": "2024-07-08T14:40:13.000",
    "request_status": "Pending",
    "responsible_agency": "Department of Parks & Parkway",
    "final_address": "4900 Warrington Dr",
    "address_councildis": "D",
    "status": "Pending",
    "rowid": "1110326",
    "final_x": "3681051.50901",
    "final_y": "550576.722452",
    "longitude": "-90.06882243092397",
    "latitude": "30.007908625764543",
    "geocoded_column": {
      "latitude": "30.007908625764543",
      "longitude": "-90.06882243092397"
    }
  },
  {
    "service_request": "2024-1110325",
    "request_type": "Property Maintenance",
    "request_reason": "Property Maintenance",
    "date_created": "2024-07-08T14:38:47.000",
    "date_modified": "2024-07-08T14:38:47.000",
    "request_status": "Pending",
    "responsible_agency": "Department of Code Enforcement",
    "final_address": "1005 Belleville St",
    "address_councildis": "C",
    "status": "Pending",
    "rowid": "1110325",
    "final_x": "3687727.95036",
    "final_y": "527885.844671",
    "longitude": "-90.0485334178198",
    "latitude": "29.945312434888024",
    "geocoded_column": {
      "latitude": "29.945312434888024",
      "longitude": "-90.0485334178198"
    }
  },
  {
    "service_request": "2024-1110324",
    "request_type": "Roads/Drainage",
    "request_reason": "Man hole cover issue",
    "date_created": "2024-07-08T14:38:43.000",
    "date_modified": "2024-07-08T14:38:43.000",
    "request_status": "Pending",
    "responsible_agency": "Department of Public Works",
    "final_address": "4519 S Robertson St",
    "address_councildis": "B",
    "status": "Pending",
    "rowid": "1110324",
    "final_x": "3669933.02196",
    "final_y": "524375.97638",
    "longitude": "-90.10483663102674",
    "latitude": "29.936198078790607",
    "geocoded_column": {
      "latitude": "29.936198078790607",
      "longitude": "-90.10483663102674"
    }
  },
  {
    "service_request": "2024-1110323",
    "request_type": "Roads/Drainage",
    "request_reason": "Catch Basin - Broken/Damage",
    "date_created": "2024-07-08T14:37:00.000",
    "date_modified": "2024-07-08T14:37:00.000",
    "request_status": "Pending",
    "responsible_agency": "Department of Public Works",
    "final_address": "4519 S Robertson St",
    "address_councildis": "B",
    "status": "Pending",
    "rowid": "1110323",
    "final_x": "3669933.02196",
    "final_y": "524375.97638",
    "longitude": "-90.10483663102674",
    "latitude": "29.936198078790607",
    "geocoded_column": {
      "latitude": "29.936198078790607",
      "longitude": "-90.10483663102674"
    }
  },
  {
    "service_request": "2024-1110322",
    "request_type": "Trash/Recycling",
    "request_reason": "Order Trash Cart",
    "date_created": "2024-07-08T14:37:00.000",
    "date_modified": "2024-07-08T14:37:01.000",
    "request_status": "Pending",
    "responsible_agency": "Department of Sanitation",
    "final_address": "3008 St Peter St",
    "address_councildis": "A",
    "status": "Assigned to Contractor",
    "contractor": "IV Waste",
    "rowid": "1110322",
    "final_x": "3675553.91336",
    "final_y": "537643.784072",
    "longitude": "-90.08663555496052",
    "latitude": "29.972513220300375",
    "geocoded_column": {
      "latitude": "29.972513220300375",
      "longitude": "-90.08663555496052"
    }
  },
  {
    "service_request": "2024-1110321",
    "request_type": "Property Maintenance",
    "request_reason": "Property Maintenance",
    "date_created": "2024-07-08T14:31:54.000",
    "date_modified": "2024-07-08T14:31:54.000",
    "request_status": "Pending",
    "responsible_agency": "Department of Code Enforcement",
    "final_address": "4842 Camelia St",
    "address_councildis": "E",
    "status": "Pending",
    "rowid": "1110321",
    "final_x": "3701409.51005",
    "final_y": "554799.830808",
    "longitude": "-90.00435111191017",
    "latitude": "30.01888711545372",
    "geocoded_column": {
      "latitude": "30.01888711545372",
      "longitude": "-90.00435111191017"
    }
  },
  {
    "service_request": "2024-1110320",
    "request_type": "Property Maintenance",
    "request_reason": "Property Maintenance",
    "date_created": "2024-07-08T14:28:40.000",
    "date_modified": "2024-07-08T14:28:40.000",
    "request_status": "Pending",
    "responsible_agency": "Department of Code Enforcement",
    "final_address": "4858 Longfellow Dr",
    "address_councildis": "E",
    "status": "Pending",
    "rowid": "1110320",
    "final_x": "3709481.70437",
    "final_y": "556566.471002",
    "longitude": "-89.97878008362603",
    "latitude": "30.023484785292997",
    "geocoded_column": {
      "latitude": "30.023484785292997",
      "longitude": "-89.97878008362603"
    }
  },
  {
    "service_request": "2024-1110319",
    "request_type": "Trash/Recycling",
    "request_reason": "Request a Large Item Pick Up",
    "date_created": "2024-07-08T14:24:34.000",
    "date_modified": "2024-07-08T14:24:35.000",
    "request_status": "Pending",
    "responsible_agency": "Department of Sanitation",
    "final_address": "4746 Sherwood Dr",
    "address_councildis": "E",
    "status": "Assigned to Contractor",
    "contractor": "Waste Pro",
    "rowid": "1110319",
    "final_x": "3717929.83173",
    "final_y": "556967.853018",
    "longitude": "-89.95207079271613",
    "latitude": "30.024311116486505",
    "geocoded_column": {
      "latitude": "30.024311116486505",
      "longitude": "-89.95207079271613"
    }
  },
  {
    "service_request": "2024-1110318",
    "request_type": "Roads/Drainage",
    "request_reason": "Street Flooding / Drainage",
    "date_created": "2024-07-08T14:20:22.000",
    "date_modified": "2024-07-08T14:20:22.000",
    "request_status": "Pending",
    "responsible_agency": "Department of Public Works",
    "final_address": "515 Passera Ct",
    "address_councildis": "A",
    "status": "Pending",
    "rowid": "1110318",
    "final_x": "3670542.43054",
    "final_y": "540807.194955",
    "longitude": "-90.1023554235167",
    "latitude": "29.981360505519156",
    "geocoded_column": {
      "latitude": "29.981360505519156",
      "longitude": "-90.1023554235167"
    }
  },
  {
    "service_request": "2024-1110317",
    "request_type": "Trash/Recycling",
    "request_reason": "Request a Large Item Pick Up",
    "date_created": "2024-07-08T14:19:12.000",
    "date_modified": "2024-07-08T14:19:13.000",
    "request_status": "Pending",
    "responsible_agency": "Department of Sanitation",
    "final_address": "1210 Calhoun St",
    "address_councildis": "A",
    "status": "Assigned to Contractor",
    "contractor": "IV Waste",
    "rowid": "1110317",
    "final_x": "3663977.56429",
    "final_y": "521082.628857",
    "longitude": "-90.1237480275579",
    "latitude": "29.92731663832975",
    "geocoded_column": {
      "latitude": "29.92731663832975",
      "longitude": "-90.1237480275579"
    }
  },
  {
    "service_request": "2024-1110316",
    "request_type": "Trash/Recycling",
    "request_reason": "Missed Trash Pick-Up",
    "date_created": "2024-07-08T14:14:49.000",
    "date_modified": "2024-07-08T15:40:32.000",
    "case_close_date": "2024-07-08T10:40:32.000",
    "request_status": "Closed",
    "responsible_agency": "Department of Sanitation",
    "final_address": "7007 Magazine St Apt 1A",
    "address_councildis": "A",
    "status": "Assigned to Contractor",
    "contractor": "IV Waste",
    "contractor_action": "Completed",
    "rowid": "1110316",
    "final_x": "3661300.13613",
    "final_y": "520967.294777",
    "longitude": "-90.13220385622304",
    "latitude": "29.92707695035863",
    "geocoded_column": {
      "latitude": "29.92707695035863",
      "longitude": "-90.13220385622304"
    }
  },
  {
    "service_request": "2024-1110315",
    "request_type": "Roads/Drainage",
    "request_reason": "Man hole cover issue",
    "date_created": "2024-07-08T14:13:09.000",
    "date_modified": "2024-07-08T14:13:10.000",
    "request_status": "Pending",
    "responsible_agency": "Department of Public Works",
    "final_address": "2101 Westbend Prkwy",
    "address_councildis": "C",
    "status": "Pending",
    "rowid": "1110315",
    "final_x": "3696790.90039",
    "final_y": "523004.295419",
    "longitude": "-90.02009560199004",
    "latitude": "29.931607328364702",
    "geocoded_column": {
      "latitude": "29.931607328364702",
      "longitude": "-90.02009560199004"
    }
  },
  {
    "service_request": "2024-1110314",
    "request_type": "Trash/Recycling",
    "request_reason": "Request a Large Item Pick Up",
    "date_created": "2024-07-08T14:13:05.000",
    "date_modified": "2024-07-08T14:34:06.000",
    "request_status": "Pending",
    "responsible_agency": "Department of Sanitation",
    "final_address": "1704 Spain St",
    "address_councildis": "D",
    "status": "Assigned to Contractor",
    "contractor": "IV Waste",
    "rowid": "1110314",
    "final_x": "3685917.19996",
    "final_y": "538715.802953",
    "longitude": "-90.05386870883589",
    "latitude": "29.97514679094592",
    "geocoded_column": {
      "latitude": "29.97514679094592",
      "longitude": "-90.05386870883589"
    }
  },