[
  {
    "service_request": "2022-933663",
    "request_type": "Traffic Signals/Signs/Striping/Streetlights",
    "request_reason": "Street Light Outage/Malfunction",
    "date_created": "2022-11-01T02:09:44.000",
    "date_modified": "2022-11-01T02:09:45.000",
    "request_status": "Pending",
    "responsible_agency": "Department of Public Works",
    "final_address": "2106 S Carrollton Ave",
    "address_councildis": "A",
    "status": "Pending",
    "contractor": "Legacy Professional Services",
    "rowid": "933663",
    "final_x": "3664133.18164",
    "final_y": "530777.120066",
    "longitude": "-90.12293350686068",
    "latitude": "29.953968875833233",
    "geocoded_column": {
      "latitude": "29.953968875833233",
      "longitude": "-90.12293350686068"
    }
  },
  {
    "service_request": "2022-933662",
    "request_type": "Trash/Recycling",
    "request_reason": "Replace Trash Cart",
    "date_created": "2022-11-01T00:49:18.000",
    "date_modified": "2022-11-01T00:49:19.000",
    "request_status": "Pending",
    "responsible_agency": "Department of Sanitation",
    "final_address": "3424 Camp St",
    "address_councildis": "B",
    "status": "Assigned to Contractor",
    "contractor": "Richards Disposal",
    "rowid": "933662",
    "final_x": "3674692.23611",
    "final_y": "519834.941752",
    "longitude": "-90.08996719505849",
    "latitude": "29.923570543639237",
    "geocoded_column": {
      "latitude": "29.923570543639237",
      "longitude": "-90.08996719505849"
    }
  },
  {
    "service_request": "2022-933661",
    "request_type": "Traffic Signals/Signs/Striping/Streetlights",
    "request_reason": "Street Light Outage/Malfunction",
    "date_created": "2022-11-01T00:46:38.000",
    "date_modified": "2022-11-01T00:46:39.000",
    "request_status": "Pending",
    "responsible_agency": "Department of Public Works",
    "final_address": "1419 Milan St",
    "address_councildis": "B",
    "status": "Pending",
    "contractor": "Legacy Professional Services",
    "rowid": "933661",
    "final_x": "3671715.85063",
    "final_y": "520587.080568",
    "longitude": "-90.09933699517596",
    "latitude": "29.92572715615037",
    "geocoded_column": {
      "latitude": "29.92572715615037",
      "longitude": "-90.09933699517596"
    }
  },
  {
    "service_request": "2022-933660",
    "request_type": "Trash/Recycling",
    "request_reason": "MIssed Recycling Pick-Up",
    "date_created": "2022-11-01T00:31:12.000",
    "date_modified": "2022-11-01T00:31:13.000",
    "request_status": "Pending",
    "responsible_agency": "Department of Sanitation",
    "final_address": "3131 Dickens Dr",
    "address_councildis": "C",
    "status": "Assigned to Contractor",
    "contractor": "Richards Disposal",
    "rowid": "933660",
    "final_x": "3708272.32113",
    "final_y": "518685.824119",
    "longitude": "-89.98401095336939",
    "latitude": "29.919366233392076",
    "geocoded_column": {
      "latitude": "29.919366233392076",
      "longitude": "-89.98401095336939"
    }
  },
  {
    "service_request": "2022-933659",
    "request_type": "Roads/Drainage",
    "request_reason": "Pothole",
    "date_created": "2022-11-01T00:16:51.000",
    "date_modified": "2022-11-01T00:16:51.000",
    "request_status": "Pending",
    "responsible_agency": "Department of Public Works",
    "final_address": "3718 Camp St",
    "address_councildis": "B",
    "status": "Pending",
    "rowid": "933659",
    "final_x": "3673410.40558",
    "final_y": "519398.175799",
    "longitude": "-90.09402837859666",
    "latitude": "29.922407761054036",
    "geocoded_column": {
      "latitude": "29.922407761054036",
      "longitude": "-90.09402837859666"
    }
  },
  {
    "service_request": "2022-933658",
    "request_type": "Property Maintenance",
    "request_reason": "Property Maintenance",
    "date_created": "2022-11-01T00:00:46.000",
    "date_modified": "2022-11-01T00:00:46.000",
    "request_status": "Pending",
    "responsible_agency": "Department of Code Enforcement",
    "final_address": "3067 St Claude Ave",
    "address_councildis": "C",
    "status": "Pending",
    "rowid": "933658",
    "final_x": "3688984.75798",
    "final_y": "536109.345223",
    "longitude": "-90.04427319419608",
    "latitude": "29.96788540864137",
    "geocoded_column": {
      "latitude": "29.96788540864137",
      "longitude": "-90.04427319419608"
    }
  },
  {
    "service_request": "2022-933657",
    "request_type": "Trash/Recycling",
    "request_reason": "Missed Trash Pick-Up",
    "date_created": "2022-10-31T23:08:54.000",
    "date_modified": "2022-10-31T23:08:54.000",
    "request_status": "Pending",
    "responsible_agency": "Department of Sanitation",
    "final_address": "322 Millaudon St",
    "address_councildis": "A",
    "status": "Assigned to Contractor",
    "contractor": "Richards Disposal",
    "rowid": "933657",
    "final_x": "3661564.29152",
    "final_y": "524309.184444",
    "longitude": "-90.13125930946391",
    "latitude": "29.93625848128017",
    "geocoded_column": {
      "latitude": "29.93625848128017",
      "longitude": "-90.13125930946391"
    }
  },
  {
    "service_request": "2022-933656",
    "request_type": "Trash/Recycling",
    "request_reason": "Order Recycling Cart",
    "date_created": "2022-10-31T23:04:44.000",
    "date_modified": "2022-10-31T23:04:44.000",
    "request_status": "Pending",
    "responsible_agency": "Department of Sanitation",
    "final_address": "819 Dearmas St",
    "address_councildis": "C",
    "status": "Pending",
    "rowid": "933656",
    "final_x": "3687903.68694",
    "final_y": "527134.104447",
    "longitude": "-90.04800518721296",
    "latitude": "29.94323998569256",
    "geocoded_column": {
      "latitude": "29.94323998569256",
      "longitude": "-90.04800518721296"
    }
  },
  {
    "service_request": "2022-933655",
    "request_type": "Trash/Recycling",
    "request_reason": "Replace Recycling Cart",
    "date_created": "2022-10-31T22:28:21.000",
    "date_modified": "2022-10-31T22:28:21.000",
    "request_status": "Pending",
    "responsible_agency": "Department of Sanitation",
    "final_address": "2540 Palmyra St",
    "address_councildis": "B",
    "status": "Pending",
    "rowid": "933655",
    "final_x": "3675347.49729",
    "final_y": "534023.596549",
    "longitude": "-90.08741177263461",
    "latitude": "29.96256510429831",
    "geocoded_column": {
      "latitude": "29.96256510429831",
      "longitude": "-90.08741177263461"
    }
  },
  {
    "service_request": "2022-933654",
    "request_type": "Trash/Recycling",
    "request_reason": "Illegal Dumping",
    "date_created": "2022-10-31T22:22:34.000",
    "date_modified": "2022-10-31T22:22:34.000",
    "request_status": "Pending",
    "responsible_agency": "Department of Sanitation",
    "final_address": "2835 Orleans Ave",
    "address_councildis": "A",
    "status": "Pending",
    "rowid": "933654",
    "final_x": "3676119.818",
    "final_y": "537587.069192",
    "longitude": "-90.08485027706679",
    "latitude": "29.97234033152406",
    "geocoded_column": {
      "latitude": "29.97234033152406",
      "longitude": "-90.08485027706679"
    }
  },
  {
    "service_request": "2022-933653",
    "request_type": "Trash/Recycling",
    "request_reason": "Order Recycling Cart",
    "date_created": "2022-10-31T22:00:49.000",
    "date_modified": "2022-10-31T22:00:49.000",
    "request_status": "Pending",
    "responsible_agency": "Department of Sanitation",
    "final_address": "4803 Laurel St",
    "address_councildis": "B",
    "status": "Pending",
    "rowid": "933653",
    "final_x": "3669613.75546",
    "final_y": "517943.337846",
    "longitude": "-90.10606208035682",
    "latitude": "29.918519782061825",
    "geocoded_column": {
      "latitude": "29.918519782061825",
      "longitude": "-90.10606208035682"
    }
  },
  {
    "service_request": "2022-933652",
    "request_type": "Trash/Recycling",
    "request_reason": "MIssed Recycling Pick-Up",
    "date_created": "2022-10-31T21:55:49.000",
    "date_modified": "2022-10-31T21:55:50.000",
    "request_status": "Pending",
    "responsible_agency": "Department of Sanitation",
    "final_address": "2701 Chelsea Dr",
    "address_councildis": "C",
    "status": "Assigned to Contractor",
    "contractor": "Richards Disposal",
    "rowid": "933652",
    "final_x": "3704162.55204",
    "final_y": "521189.772921",
    "longitude": "-89.996891142663",
    "latitude": "29.926383657998567",
    "geocoded_column": {
      "latitude": "29.926383657998567",
      "longitude": "-89.996891142663"
    }
  },
  {
    "service_request": "2022-933651",
    "request_type": "Trash/Recycling",
    "request_reason": "Request a Large Item Pick Up",
    "date_created": "2022-10-31T21:44:14.000",
    "date_modified": "2022-10-31T21:44:14.000",
    "request_status": "Pending",
    "responsible_agency": "Department of Sanitation",
    "final_address": "6502 Beauregard Ave",
    "address_councildis": "D",
    "status": "Assigned to Contractor",
    "contractor": "Metro Disposal",
    "rowid": "933651",
    "final_x": "3676217.32328",
    "final_y": "556201.489946",
    "longitude": "-90.08390131463571",
    "latitude": "30.023520518492756",
    "geocoded_column": {
      "latitude": "30.023520518492756",
      "longitude": "-90.08390131463571"
    }
  },
  {
    "service_request": "2022-933650",
    "request_type": "Trash/Recycling",
    "request_reason": "Order Recycling Cart",
    "date_created": "2022-10-31T21:33:33.000",
    "date_modified": "2022-10-31T21:33:33.000",
    "request_status": "Pending",
    "responsible_agency": "Department of Sanitation",
    "final_address": "3926 Bienville Ave",
    "address_councildis": "A",
    "status": "Pending",
    "rowid": "933650",
    "final_x": "3671988.48398",
    "final_y": "538490.430729",
    "longitude": "-90.0978670114589",
    "latitude": "29.974947396789094",
    "geocoded_column": {
      "latitude": "29.974947396789094",
      "longitude": "-90.0978670114589"
    }
  },
  {
    "service_request": "2022-933649",
    "request_type": "Trash/Recycling",
    "request_reason": "Request a Large Item Pick Up",
    "date_created": "2022-10-31T21:31:01.000",
    "date_modified": "2022-10-31T21:31:02.000",
    "request_status": "Pending",
    "responsible_agency": "Department of Sanitation",
    "final_address": "4801 Coliseum St",
    "address_councildis": "B",
    "status": "Assigned to Contractor",
    "contractor": "Richards Disposal",
    "rowid": "933649",
    "final_x": "3669454.4635",
    "final_y": "519710.223928",
    "longitude": "-90.10650516898384",
    "latitude": "29.92338285002891",
    "geocoded_column": {
      "latitude": "29.92338285002891",
      "longitude": "-90.10650516898384"
    }
  },
  {
    "service_request": "2022-933648",
    "request_type": "Trash/Recycling",
    "request_reason": "Order Recycling Cart",
    "date_created": "2022-10-31T21:30:08.000",
    "date_modified": "2022-10-31T21:30:08.000",
    "request_status": "Pending",
    "responsible_agency": "Department of Sanitation",
    "final_address": "4200 Washington Ave",
    "address_councildis": "B",
    "status": "Pending",
    "rowid": "933648",
    "final_x": "3670784.91495",
    "final_y": "530311.955714",
    "longitude": "-90.10194578118096",
    "latitude": "29.952494945216575",
    "geocoded_column": {
      "latitude": "29.952494945216575",
      "longitude": "-90.10194578118096"
    }
  },
  {
    "service_request": "2022-933647",
    "request_type": "Property Maintenance",
    "request_reason": "Property Maintenance",
    "date_created": "2022-10-31T21:16:45.000",
    "date_modified": "2022-10-31T21:16:45.000",
    "request_status": "Pending",
    "responsible_agency": "Department of Code Enforcement",
    "final_address": "6956 Bellaire Dr",
    "address_councildis": "A",
    "status": "Pending",
    "rowid": "933647",
    "final_x": "3664608.21248",
    "final_y": "554219.73404",
    "longitude": "-90.1206501430337",
    "latitude": "30.01841434520372",
    "geocoded_column": {
      "latitude": "30.01841434520372",
      "longitude": "-90.1206501430337"
    }
  },
  {
    "service_request": "2022-933646",
    "request_type": "Property Maintenance",
    "request_reason": "Property Maintenance",
    "date_created": "2022-10-31T20:52:11.000",
    "date_modified": "2022-10-31T20:52:11.000",
    "request_status": "Pending",
    "responsible_agency": "Department of Code Enforcement",
    "final_address": "4740 San Marco Rd",
    "address_councildis": "E",
    "status": "Pending",
    "rowid": "933646",
    "final_x": "3763526.61213",
    "final_y": "572637.687721",
    "longitude": "-89.80733786701484",
    "latitude": "30.065805927622986",
    "geocoded_column": {
      "latitude": "30.065805927622986",
      "longitude": "-89.80733786701484"
    }
  },
  {
    "service_request": "2022-933645",
    "request_type": "Trash/Recycling",
    "request_reason": "Order Trash Cart",
    "date_created": "2022-10-31T20:46:53.000",
    "date_modified": "2022-10-31T20:46:53.000",
    "request_status": "Pending",
    "responsible_agency": "Department of Sanitation",
    "final_address": "11211 S Parkwood Ct",
    "address_councildis": "E",
    "status": "Assigned to Contractor",
    "contractor": "Metro Disposal",
    "rowid": "933645",
    "final_x": "3716605.32652",
    "final_y": "559023.888156",
    "longitude": "-89.95617785770479",
    "latitude": "30.030008226838238",
    "geocoded_column": {
      "latitude": "30.030008226838238",
      "longitude": "-89.95617785770479"
    }
  },
  {
    "service_request": "2022-933644",
    "request_type": "Health Related Questions",
    "request_reason": "Noise Ordinance Complaint",
    "date_created": "2022-10-31T20:43:40.000",
    "date_modified": "2022-10-31T20:43:40.000",
    "request_status": "Pending",
    "responsible_agency": "Health Department",
    "final_address": "316 Chartres St, New Orleans, Louisiana, 70130",
    "address_councildis": "C",
    "status": "Pending",
    "rowid": "933644",
    "final_x": "3682048.77532",
    "final_y": "531162.123394",
    "longitude": "-90.06634998337161",
    "latitude": "29.954494970034958",
    "geocoded_column": {
      "latitude": "29.954494970034958",
      "longitude": "-90.06634998337161"
    }
  },
  {
    "service_request": "2022-933643",
    "request_type": "Taxi Issues",
    "request_reason": "Taxi Complaint",
    "date_created": "2022-10-31T20:37:02.000",
    "date_modified": "2022-10-31T20:37:03.000",
    "request_status": "Pending",
    "responsible_agency": "Ground Transportation Bureau",
    "status": "Pending",
    "rowid": "933643",
    "longitude": "0.0",
    "latitude": "0.0",
    "geocoded_column": {
      "latitude": "0.0",
      "longitude": "0.0"
    }
  },
  {
    "service_request": "2022-933642",
    "request_type": "Trash/Recycling",
    "request_reason": "Order Trash Cart",
    "date_created": "2022-10-31T20:35:59.000",
    "date_modified": "2022-10-31T20:36:00.000",
    "request_status": "Pending",
    "responsible_agency": "Department of Sanitation",
    "final_address": "9883 Andover Dr",
    "address_councildis": "E",
    "status": "Assigned to Contractor",
    "contractor": "Metro Disposal",
    "rowid": "933642",
    "final_x": "3709415.14693",
    "final_y": "562413.411359",
    "longitude": "-89.97877198542002",
    "latitude": "30.03956372575191",
    "geocoded_column": {
      "latitude": "30.03956372575191",
      "longitude": "-89.97877198542002"
    }
  },
  {
    "service_request": "2022-933641",
    "request_type": "Trash/Recycling",
    "request_reason": "Order Trash Cart",
    "date_created": "2022-10-31T20:28:44.000",
    "date_modified": "2022-10-31T20:28:45.000",
    "request_status": "Pending",
    "responsible_agency": "Department of Sanitation",
    "final_address": "8931 Dwyer Rd",
    "address_councildis": "E",
    "status": "Assigned to Contractor",
    "contractor": "Metro Disposal",
    "rowid": "933641",
    "final_x": "3708037.12024",
    "final_y": "557096.71433",
    "longitude": "-89.98332488869127",
    "latitude": "30.024989624039723",
    "geocoded_column": {
      "latitude": "30.024989624039723",
      "longitude": "-89.98332488869127"
    }
  },
  {
    "service_request": "2022-933640",
    "request_type": "Abandoned Vehicles",
    "request_reason": "Abandoned/Junk Vehicles",
    "date_created": "2022-10-31T20:15:28.000",
    "date_modified": "2022-10-31T20:15:28.000",
    "request_status": "Pending",
    "responsible_agency": "Department of Public Works",
    "final_address": "2348 Port St",
    "address_councildis": "D",
    "status": "Pending",
    "rowid": "933640",
    "final_x": "3688621.42166",
    "final_y": "541255.70926",
    "longitude": "-90.04523791776677",
    "latitude": "29.9820473287005",
    "geocoded_column": {
      "latitude": "29.9820473287005",
      "longitude": "-90.04523791776677"
    }
  },
  {
    "service_request": "2022-933639",
    "request_type": "Trash/Recycling",
    "request_reason": "Order Recycling Cart",
    "date_created": "2022-10-31T19:26:47.000",
    "date_modified": "2022-10-31T19:26:47.000",
    "request_status": "Pending",
    "responsible_agency": "Department of Sanitation",
    "final_address": "918 Sumner St",
    "address_councildis": "C",
    "status": "Pending",
    "rowid": "933639",
    "final_x": "3691183.65904",
    "final_y": "528038.415359",
    "longitude": "-90.03761724045557",
    "latitude": "29.945624955713534",
    "geocoded_column": {
      "latitude": "29.945624955713534",
      "longitude": "-90.03761724045557"
    }
  },
  {
    "service_request": "2022-933638",
    "request_type": "Trash/Recycling",
    "request_reason": "MIssed Recycling Pick-Up",
    "date_created": "2022-10-31T19:20:39.000",
    "date_modified": "2022-10-31T19:20:40.000",
    "request_status": "Pending",
    "responsible_agency": "Department of Sanitation",
    "final_address": "2034 ellen park place",
    "status": "Assigned to Contractor",
    "rowid": "933638",
    "longitude": "0.0",
    "latitude": "0.0",
    "geocoded_column": {
      "latitude": "0.0",
      "longitude": "0.0"
    }
  },
  {
    "service_request": "2022-933637",
    "request_type": "Trash/Recycling",
    "request_reason": "Missed Trash Pick-Up",
    "date_created": "2022-10-31T19:19:13.000",
    "date_modified": "2022-10-31T19:19:14.000",
    "request_status": "Pending",
    "responsible_agency": "Department of Sanitation",
    "final_address": "1519 Pine St",
    "address_councildis": "A",
    "status": "Assigned to Contractor",
    "contractor": "Richards Disposal",
    "rowid": "933637",
    "final_x": "3664681.30336",
    "final_y": "527696.035455",
    "longitude": "-90.12130566271149",
    "latitude": "29.945480956599933",
    "geocoded_column": {
      "latitude": "29.945480956599933",
      "longitude": "-90.12130566271149"
    }
  },
  {
    "service_request": "2022-933636",
    "request_type": "Trash/Recycling",
    "request_reason": "Replace Trash Cart",
    "date_created": "2022-10-31T19:15:57.000",
    "date_modified": "2022-10-31T19:15:57.000",
    "request_status": "Pending",
    "responsible_agency": "Department of Sanitation",
    "final_address": "1130 Frenchmen St, New Orleans, Louisiana, 70116",
    "address_councildis": "C",
    "status": "Assigned to Contractor",
    "contractor": "Metro Disposal",
    "rowid": "933636",
    "final_x": "3684540.24431",
    "final_y": "536518.108807",
    "longitude": "-90.05829472327176",
    "latitude": "29.969146102103718",
    "geocoded_column": {
      "latitude": "29.969146102103718",
      "longitude": "-90.05829472327176"
    }
  },
  {
    "service_request": "2022-933635",
    "request_type": "Trash/Recycling",
    "request_reason": "Replace Trash Cart",
    "date_created": "2022-10-31T19:14:55.000",
    "date_modified": "2022-10-31T19:41:45.000",
    "request_status": "Pending",
    "responsible_agency": "Department of Sanitation",
    "final_address": "New Orleans, Louisiana",
    "status": "Assigned to Contractor",
    "rowid": "933635",
    "longitude": "0.0",
    "latitude": "0.0",
    "geocoded_column": {
      "latitude": "0.0",
      "longitude": "0.0"
    }
  },
  {
    "service_request": "2022-933634",
    "request_type": "Traffic Signals/Signs/Striping/Streetlights",
    "request_reason": "Street Light Outage/Malfunction",
    "date_created": "2022-10-31T19:12:27.000",
    "date_modified": "2022-10-31T19:12:28.000",
    "request_status": "Pending",
    "responsible_agency": "Department of Public Works",
    "final_address": "5800 Chatham Dr",
    "address_councildis": "D",
    "status": "Pending",
    "contractor": "Legacy Professional Services",
    "rowid": "933634",
    "final_x": "3679560.97883",
    "final_y": "553888.440343",
    "longitude": "-90.07341641771033",
    "latitude": "30.01705980009586",
    "geocoded_column": {
      "latitude": "30.01705980009586",
      "longitude": "-90.07341641771033"
    }
  },
  {
    "service_request": "2022-933633",
    "request_type": "Trash/Recycling",
    "request_reason": "Order Recycling Cart",
    "date_created": "2022-10-31T18:58:47.000",
    "date_modified": "2022-10-31T18:58:48.000",
    "request_status": "Pending",
    "responsible_agency": "Department of Sanitation",
    "final_address": "1815 Tricou St",
    "address_councildis": "E",
    "status": "Pending",
    "rowid": "933633",
    "final_x": "3701231.37629",
    "final_y": "535638.221766",
    "longitude": "-90.0056154859003",
    "latitude": "29.966205477051204",
    "geocoded_column": {
      "latitude": "29.966205477051204",
      "longitude": "-90.0056154859003"
    }
  },
  {
    "service_request": "2022-933632",
    "request_type": "Trash/Recycling",
    "request_reason": "Repair Trash Cart",
    "date_created": "2022-10-31T18:57:07.000",
    "date_modified": "2022-10-31T18:57:08.000",
    "request_status": "Pending",
    "responsible_agency": "Department of Sanitation",
    "final_address": "1815 Tricou St",
    "address_councildis": "E",
    "status": "Assigned to Contractor",
    "contractor": "Metro Disposal",
    "rowid": "933632",
    "final_x": "3701231.37629",
    "final_y": "535638.221766",
    "longitude": "-90.0056154859003",
    "latitude": "29.966205477051204",
    "geocoded_column": {
      "latitude": "29.966205477051204",
      "longitude": "-90.0056154859003"
    }
  },
  {
    "service_request": "2022-933631",
    "request_type": "Traffic Signals/Signs/Striping/Streetlights",
    "request_reason": "Street Light Outage/Malfunction",
    "date_created": "2022-10-31T18:56:49.000",
    "date_modified": "2022-10-31T18:56:50.000",
    "request_status": "Pending",
    "responsible_agency": "Department of Public Works",
    "final_address": "940 Florida Blvd",
    "address_councildis": "A",
    "status": "Pending",
    "contractor": "Legacy Professional Services",
    "rowid": "933631",
    "final_x": "3670106.12615",
    "final_y": "545122.135247",
    "longitude": "-90.10358721113941",
    "latitude": "29.99323799535953",
    "geocoded_column": {
      "latitude": "29.99323799535953",
      "longitude": "-90.10358721113941"
    }
  },
  {
    "service_request": "2022-933630",
    "request_type": "Roads/Drainage",
    "request_reason": "Man hole cover issue",
    "date_created": "2022-10-31T18:47:38.000",
    "date_modified": "2022-10-31T18:47:38.000",
    "request_status": "Pending",
    "responsible_agency": "Department of Public Works",
    "final_address": "BELLAIRE DR & SPENCER AVE",
    "address_councildis": "A",
    "status": "Pending",
    "rowid": "933630",
    "final_x": "3664636.9",
    "final_y": "553675.58",
    "longitude": "-90.1205776979853",
    "latitude": "30.016917277580266",
    "geocoded_column": {
      "latitude": "30.016917277580266",
      "longitude": "-90.1205776979853"
    }
  },
  {
    "service_request": "2022-933629",
    "request_type": "Trash/Recycling",
    "request_reason": "Order Recycling Cart",
    "date_created": "2022-10-31T18:42:32.000",
    "date_modified": "2022-10-31T18:42:32.000",
    "request_status": "Pending",
    "responsible_agency": "Department of Sanitation",
    "final_address": "2742 St Charles Ave",
    "address_councildis": "B",
    "status": "Pending",
    "rowid": "933629",
    "final_x": "3676022.74901",
    "final_y": "522469.35577",
    "longitude": "-90.08567670604667",
    "latitude": "29.93077456294261",
    "geocoded_column": {
      "latitude": "29.93077456294261",
      "longitude": "-90.08567670604667"
    }
  },
  {
    "service_request": "2022-933628",
    "request_type": "Trash/Recycling",
    "request_reason": "Order Recycling Cart",
    "date_created": "2022-10-31T18:41:30.000",
    "date_modified": "2022-10-31T18:41:30.000",
    "request_status": "Pending",
    "responsible_agency": "Department of Sanitation",
    "final_address": "2130 Holiday Dr",
    "address_councildis": "C",
    "status": "Pending",
    "rowid": "933628",
    "final_x": "3698990.14359",
    "final_y": "523349.941691",
    "longitude": "-90.01314031643632",
    "latitude": "29.932488246813563",
    "geocoded_column": {
      "latitude": "29.932488246813563",
      "longitude": "-90.01314031643632"
    }
  },
  {
    "service_request": "2022-933625",
    "request_type": "Traffic Signals/Signs/Striping/Streetlights",
    "request_reason": "Street Light Outage/Malfunction",
    "date_created": "2022-10-31T18:37:37.000",
    "date_modified": "2022-10-31T18:37:38.000",
    "request_status": "Pending",
    "responsible_agency": "Department of Public Works",
    "final_address": "2736 Constitution Pl",
    "address_councildis": "D",
    "status": "Pending",
    "contractor": "Legacy Professional Services",
    "rowid": "933625",
    "final_x": "3687728.50319",
    "final_y": "542922.207693",
    "longitude": "-90.04799913190566",
    "latitude": "29.98665717656953",
    "geocoded_column": {
      "latitude": "29.98665717656953",
      "longitude": "-90.04799913190566"
    }
  },
  {
    "service_request": "2022-933624",
    "request_type": "Traffic Signals/Signs/Striping/Streetlights",
    "request_reason": "Street Light Outage/Malfunction",
    "date_created": "2022-10-31T18:24:31.000",
    "date_modified": "2022-10-31T18:24:32.000",
    "request_status": "Pending",
    "responsible_agency": "Department of Public Works",
    "final_address": "5600 BLK Marcia Ave",
    "address_councildis": "A",
    "status": "Pending",
    "contractor": "Legacy Professional Services",
    "rowid": "933624",
    "final_x": "3664866.414",
    "final_y": "545260.957822",
    "longitude": "-90.12013402264151",
    "latitude": "29.993773293381132",
    "geocoded_column": {
      "latitude": "29.993773293381132",
      "longitude": "-90.12013402264151"
    }
  },
  {
    "service_request": "2022-933623",
    "request_type": "Traffic Signals/Signs/Striping/Streetlights",
    "request_reason": "Street Light Outage/Malfunction",
    "date_created": "2022-10-31T18:23:59.000",
    "date_modified": "2022-10-31T18:24:00.000",
    "request_status": "Pending",
    "responsible_agency": "Department of Public Works",
    "final_address": "1440 Lauradale Dr",
    "address_councildis": "C",
    "status": "Pending",
    "contractor": "Legacy Professional Services",
    "rowid": "933623",
    "final_x": "3692838.27107",
    "final_y": "525862.097533",
    "longitude": "-90.03247111975911",
    "latitude": "29.9395892790945",
    "geocoded_column": {
      "latitude": "29.9395892790945",
      "longitude": "-90.03247111975911"
    }
  },
  {
    "service_request": "2022-933622",
    "request_type": "Roads/Drainage",
    "request_reason": "Catch Basin - Clogged",
    "date_created": "2022-10-31T18:21:53.000",
    "date_modified": "2022-10-31T18:21:54.000",
    "request_status": "Pending",
    "responsible_agency": "Department of Public Works",
    "final_address": "5677 Marcia Ave",
    "address_councildis": "A",
    "status": "Pending",
    "rowid": "933622",
    "final_x": "3664973.49658",
    "final_y": "545465.426896",
    "longitude": "-90.11978892272198",
    "latitude": "29.99433239570484",
    "geocoded_column": {
      "latitude": "29.99433239570484",
      "longitude": "-90.11978892272198"
    }
  },
  {
    "service_request": "2022-933621",
    "request_type": "Roads/Drainage",
    "request_reason": "Pothole",
    "date_created": "2022-10-31T18:20:26.000",
    "date_modified": "2022-10-31T18:20:26.000",
    "request_status": "Pending",
    "responsible_agency": "Department of Public Works",
    "final_address": "5676 Marcia Ave",
    "address_councildis": "A",
    "status": "Pending",
    "rowid": "933621",
    "final_x": "3664818.64039",
    "final_y": "545483.029776",
    "longitude": "-90.12027750659564",
    "latitude": "29.994385306311298",
    "geocoded_column": {
      "latitude": "29.994385306311298",
      "longitude": "-90.12027750659564"
    }
  },
  {
    "service_request": "2022-933620",
    "request_type": "Trash/Recycling",
    "request_reason": "Request a Large Item Pick Up",
    "date_created": "2022-10-31T18:14:13.000",
    "date_modified": "2022-10-31T18:14:13.000",
    "request_status": "Pending",
    "responsible_agency": "Department of Sanitation",
    "final_address": "7440 Alabama St",
    "address_councildis": "D",
    "status": "Assigned to Contractor",
    "contractor": "Metro Disposal",
    "rowid": "933620",
    "final_x": "3695001.17603",
    "final_y": "558056.641883",
    "longitude": "-90.02448154306744",
    "latitude": "30.028044924776378",
    "geocoded_column": {
      "latitude": "30.028044924776378",
      "longitude": "-90.02448154306744"
    }
  },
  {
    "service_request": "2022-933619",
    "request_type": "Trash/Recycling",
    "request_reason": "Order Trash Cart",
    "date_created": "2022-10-31T18:12:56.000",
    "date_modified": "2022-10-31T18:12:56.000",
    "request_status": "Pending",
    "responsible_agency": "Department of Sanitation",
    "final_address": "7604 Willow St",
    "address_councildis": "A",
    "status": "Assigned to Contractor",
    "contractor": "Richards Disposal",
    "rowid": "933619",
    "final_x": "3663687.29504",
    "final_y": "527695.232383",
    "longitude": "-90.12444410929535",
    "latitude": "29.94550762171038",
    "geocoded_column": {
      "latitude": "29.94550762171038",
      "longitude": "-90.12444410929535"
    }
  },
  {
    "service_request": "2022-933618",
    "request_type": "Trash/Recycling",
    "request_reason": "Order Recycling Cart",
    "date_created": "2022-10-31T18:10:57.000",
    "date_modified": "2022-10-31T18:10:57.000",
    "request_status": "Pending",
    "responsible_agency": "Department of Sanitation",
    "final_address": "3517 S Liberty St",
    "address_councildis": "B",
    "status": "Pending",
    "rowid": "933618",
    "final_x": "3672679.70196",
    "final_y": "523672.855483",
    "longitude": "-90.09618923097332",
    "latitude": "29.93418346573652",
    "geocoded_column": {
      "latitude": "29.93418346573652",
      "longitude": "-90.09618923097332"
    }
  },
  {
    "service_request": "2022-933617",
    "request_type": "Trash/Recycling",
    "request_reason": "Order Recycling Cart",
    "date_created": "2022-10-31T18:01:39.000",
    "date_modified": "2022-10-31T18:01:39.000",
    "request_status": "Pending",
    "responsible_agency": "Department of Sanitation",
    "final_address": "1727 Lowerline St",
    "address_councildis": "A",
    "status": "Pending",
    "rowid": "933617",
    "final_x": "3664825.10445",
    "final_y": "528456.032576",
    "longitude": "-90.12082624257998",
    "latitude": "29.94756652071381",
    "geocoded_column": {
      "latitude": "29.94756652071381",
      "longitude": "-90.12082624257998"
    }
  },
  {
    "service_request": "2022-933615",
    "request_type": "Trash/Recycling",
    "request_reason": "Order Recycling Cart",
    "date_created": "2022-10-31T17:57:43.000",
    "date_modified": "2022-10-31T17:57:44.000",
    "request_status": "Pending",
    "responsible_agency": "Department of Sanitation",
    "final_address": "3313 St Ann St",
    "address_councildis": "A",
    "status": "Pending",
    "rowid": "933615",
    "final_x": "3674813.44385",
    "final_y": "538861.904521",
    "longitude": "-90.0889323133848",
    "latitude": "29.97588476806322",
    "geocoded_column": {
      "latitude": "29.97588476806322",
      "longitude": "-90.0889323133848"
    }
  },
  {
    "service_request": "2022-933614",
    "request_type": "Roads/Drainage",
    "request_reason": "Pothole",
    "date_created": "2022-10-31T17:52:04.000",
    "date_modified": "2022-10-31T17:52:04.000",
    "request_status": "Pending",
    "responsible_agency": "Department of Public Works",
    "final_address": "627 N Dorgenois St",
    "address_councildis": "D",
    "status": "Pending",
    "rowid": "933614",
    "final_x": "3676921.93416",
    "final_y": "536356.194631",
    "longitude": "-90.08235949358539",
    "latitude": "29.968931790898065",
    "geocoded_column": {
      "latitude": "29.968931790898065",
      "longitude": "-90.08235949358539"
    }
  },
  {
    "service_request": "2022-933613",
    "request_type": "Abandoned Vehicles",
    "request_reason": "Vehicle Blocking Your Driveway",
    "date_created": "2022-10-31T17:51:38.000",
    "date_modified": "2022-10-31T17:51:39.000",
    "request_status": "Pending",
    "responsible_agency": "Department of Public Works",
    "final_address": "3520 Cecil St",
    "address_councildis": "A",
    "status": "Pending",
    "rowid": "933613",
    "final_x": "3663488.37037",
    "final_y": "538358.823689",
    "longitude": "-90.12471705163938",
    "latitude": "29.974834788802088",
    "geocoded_column": {
      "latitude": "29.974834788802088",
      "longitude": "-90.12471705163938"
    }
  },
  {
    "service_request": "2022-933612",
    "request_type": "Trash/Recycling",
    "request_reason": "Repair Trash Cart",
    "date_created": "2022-10-31T17:39:40.000",
    "date_modified": "2022-10-31T17:39:41.000",
    "request_status": "Pending",
    "responsible_agency": "Department of Sanitation",
    "final_address": "2048 Pelopidas St",
    "address_councildis": "D",
    "status": "Assigned to Contractor",
    "contractor": "Metro Disposal",
    "rowid": "933612",
    "final_x": "3683037.52047",
    "final_y": "547924.514002",
    "longitude": "-90.0626409549391",
    "latitude": "30.000555594160755",
    "geocoded_column": {
      "latitude": "30.000555594160755",
      "longitude": "-90.0626409549391"
    }
  },
  {
    "service_request": "2022-933611",
    "request_type": "Trash/Recycling",
    "request_reason": "Order Recycling Cart",
    "date_created": "2022-10-31T17:34:47.000",
    "date_modified": "2022-10-31T17:34:47.000",
    "request_status": "Pending",
    "responsible_agency": "Department of Sanitation",
    "final_address": "1861 Saux Ln",
    "address_councildis": "C",
    "status": "Pending",
    "rowid": "933611",
    "final_x": "3692443.45885",
    "final_y": "524149.80806",
    "longitude": "-90.03377890210368",
    "latitude": "29.934893386631856",
    "geocoded_column": {
      "latitude": "29.934893386631856",
      "longitude": "-90.03377890210368"
    }
  },
  {
    "service_request": "2022-933610",
    "request_type": "Trash/Recycling",
    "request_reason": "Replace Recycling Cart",
    "date_created": "2022-10-31T17:34:46.000",
    "date_modified": "2022-10-31T17:34:47.000",
    "request_status": "Pending",
    "responsible_agency": "Department of Sanitation",
    "final_address": "2527 St Philip St",
    "address_councildis": "D",
    "status": "Pending",
    "rowid": "933610",
    "final_x": "3678048.36949",
    "final_y": "537408.916616",
    "longitude": "-90.07876573597797",
    "latitude": "29.971792553286384",
    "geocoded_column": {
      "latitude": "29.971792553286384",
      "longitude": "-90.07876573597797"
    }
  },
  {
    "service_request": "2022-933609",
    "request_type": "Trash/Recycling",
    "request_reason": "Replace Recycling Cart",
    "date_created": "2022-10-31T17:33:16.000",
    "date_modified": "2022-10-31T17:33:16.000",
    "request_status": "Pending",
    "responsible_agency": "Department of Sanitation",
    "final_address": "815 Bellecastle St",
    "address_councildis": "B",
    "status": "Pending",
    "rowid": "933609",
    "final_x": "3667725.41421",
    "final_y": "518385.290358",
    "longitude": "-90.1120077248471",
    "latitude": "29.919790490802885",
    "geocoded_column": {
      "latitude": "29.919790490802885",
      "longitude": "-90.1120077248471"
    }
  },
  {
    "service_request": "2022-933608",
    "request_type": "Traffic Signals/Signs/Striping/Streetlights",
    "request_reason": "Street Light Outage/Malfunction",
    "date_created": "2022-10-31T17:33:14.000",
    "date_modified": "2022-10-31T17:33:15.000",
    "request_status": "Pending",
    "responsible_agency": "Department of Public Works",
    "final_address": "2619 Music St",
    "address_councildis": "D",
    "status": "Pending",
    "contractor": "Legacy Professional Services",
    "rowid": "933608",
    "final_x": "3686425.71842",
    "final_y": "542143.547981",
    "longitude": "-90.05214163312539",
    "latitude": "29.98455625753009",
    "geocoded_column": {
      "latitude": "29.98455625753009",
      "longitude": "-90.05214163312539"
    }
  },
  {
    "service_request": "2022-933607",
    "request_type": "Trash/Recycling",
    "request_reason": "Missed Trash Pick-Up",
    "date_created": "2022-10-31T17:31:37.000",
    "date_modified": "2022-10-31T17:31:38.000",
    "request_status": "Pending",
    "responsible_agency": "Department of Sanitation",
    "final_address": "849 Olga St",
    "address_councildis": "A",
    "status": "Assigned to Contractor",
    "contractor": "Richards Disposal",
    "rowid": "933607",
    "final_x": "3673303.3876",
    "final_y": "540157.306763",
    "longitude": "-90.09365724713349",
    "latitude": "29.979491688927357",
    "geocoded_column": {
      "latitude": "29.979491688927357",
      "longitude": "-90.09365724713349"
    }
  },
  {
    "service_request": "2022-933606",
    "request_type": "Trash/Recycling",
    "request_reason": "Request a Large Item Pick Up",
    "date_created": "2022-10-31T17:30:31.000",
    "date_modified": "2022-10-31T17:32:06.000",
    "request_status": "Pending",
    "responsible_agency": "Department of Sanitation",
    "final_address": "700 Broadway St",
    "address_councildis": "A",
    "status": "Assigned to Contractor",
    "contractor": "Richards Disposal",
    "rowid": "933606",
    "final_x": "3663192.34362",
    "final_y": "525129.367293",
    "longitude": "-90.12609219260058",
    "latitude": "29.938466660381366",
    "geocoded_column": {
      "latitude": "29.938466660381366",
      "longitude": "-90.12609219260058"
    }
  },
  {
    "service_request": "2022-933605",
    "request_type": "Property Maintenance",
    "request_reason": "Property Maintenance",
    "date_created": "2022-10-31T17:27:29.000",
    "date_modified": "2022-10-31T17:27:29.000",
    "request_status": "Pending",
    "responsible_agency": "Department of Code Enforcement",
    "final_address": "2049 S Chippewa St",
    "address_councildis": "B",
    "status": "Pending",
    "rowid": "933605",
    "final_x": "3680296.50664",
    "final_y": "521014.408121",
    "longitude": "-90.0722356155734",
    "latitude": "29.926645286105956",
    "geocoded_column": {
      "latitude": "29.926645286105956",
      "longitude": "-90.0722356155734"
    }
  },
  {
    "service_request": "2022-933604",
    "request_type": "Trash/Recycling",
    "request_reason": "Missed Trash Pick-Up",
    "date_created": "2022-10-31T17:23:31.000",
    "date_modified": "2022-10-31T17:23:32.000",
    "request_status": "Pending",
    "responsible_agency": "Department of Sanitation",
    "final_address": "1224 N Rocheblave St",
    "address_councildis": "D",
    "status": "Assigned to Contractor",
    "contractor": "Richards Disposal",
    "rowid": "933604",
    "final_x": "3678793.78453",
    "final_y": "537933.438217",
    "longitude": "-90.0763934276242",
    "latitude": "29.9732123452587",
    "geocoded_column": {
      "latitude": "29.9732123452587",
      "longitude": "-90.0763934276242"
    }
  },
  {
    "service_request": "2022-933603",
    "request_type": "Trash/Recycling",
    "request_reason": "MIssed Recycling Pick-Up",
    "date_created": "2022-10-31T17:20:25.000",
    "date_modified": "2022-10-31T17:20:26.000",
    "request_status": "Pending",
    "responsible_agency": "Department of Sanitation",
    "final_address": "2814 Seine St",
    "address_councildis": "C",
    "status": "Assigned to Contractor",
    "contractor": "Richards Disposal",
    "rowid": "933603",
    "final_x": "3693417.14537",
    "final_y": "521015.798969",
    "longitude": "-90.03081746734189",
    "latitude": "29.926245526240336",
    "geocoded_column": {
      "latitude": "29.926245526240336",
      "longitude": "-90.03081746734189"
    }
  },
  {
    "service_request": "2022-933602",
    "request_type": "Trash/Recycling",
    "request_reason": "Replace Trash Cart",
    "date_created": "2022-10-31T17:16:04.000",
    "date_modified": "2022-10-31T17:16:04.000",
    "request_status": "Pending",
    "responsible_agency": "Department of Sanitation",
    "final_address": "1726 Lafreniere St",
    "address_councildis": "D",
    "status": "Assigned to Contractor",
    "contractor": "Metro Disposal",
    "rowid": "933602",
    "final_x": "3680713.49186",
    "final_y": "545182.818191",
    "longitude": "-90.07007819924097",
    "latitude": "29.993087564646782",
    "geocoded_column": {
      "latitude": "29.993087564646782",
      "longitude": "-90.07007819924097"
    }
  },
  {
    "service_request": "2022-933601",
    "request_type": "Trash/Recycling",
    "request_reason": "Replace Trash Cart",
    "date_created": "2022-10-31T17:14:38.000",
    "date_modified": "2022-10-31T17:14:39.000",
    "request_status": "Pending",
    "responsible_agency": "Department of Sanitation",
    "final_address": "5438 Burgundy St",
    "address_councildis": "E",
    "status": "Assigned to Contractor",
    "contractor": "Metro Disposal",
    "rowid": "933601",
    "final_x": "3697217.90506",
    "final_y": "533092.468548",
    "longitude": "-90.0183821317833",
    "latitude": "29.9593328231882",
    "geocoded_column": {
      "latitude": "29.9593328231882",
      "longitude": "-90.0183821317833"
    }
  },
  {
    "service_request": "2022-933600",
    "request_type": "Trash/Recycling",
    "request_reason": "Replace Recycling Cart",
    "date_created": "2022-10-31T17:13:56.000",
    "date_modified": "2022-10-31T17:13:56.000",
    "request_status": "Pending",
    "responsible_agency": "Department of Sanitation",
    "final_address": "4669 Western St",
    "address_councildis": "D",
    "status": "Pending",
    "rowid": "933600",
    "final_x": "3684237.62716",
    "final_y": "549944.188436",
    "longitude": "-90.05877877428624",
    "latitude": "30.006072321617555",
    "geocoded_column": {
      "latitude": "30.006072321617555",
      "longitude": "-90.05877877428624"
    }
  },
  {
    "service_request": "2022-933599",
    "request_type": "Trash/Recycling",
    "request_reason": "Replace Trash Cart",
    "date_created": "2022-10-31T17:13:14.000",
    "date_modified": "2022-10-31T17:13:15.000",
    "request_status": "Pending",
    "responsible_agency": "Department of Sanitation",
    "final_address": "5440 Burgundy St",
    "address_councildis": "E",
    "status": "Assigned to Contractor",
    "contractor": "Metro Disposal",
    "rowid": "933599",
    "final_x": "3697228.32336",
    "final_y": "533090.515204",
    "longitude": "-90.01834930424904",
    "latitude": "29.95932712343335",
    "geocoded_column": {
      "latitude": "29.95932712343335",
      "longitude": "-90.01834930424904"
    }
  },
  {
    "service_request": "2022-933598",
    "request_type": "Trash/Recycling",
    "request_reason": "MIssed Recycling Pick-Up",
    "date_created": "2022-10-31T17:12:53.000",
    "date_modified": "2022-10-31T17:12:54.000",
    "request_status": "Pending",
    "responsible_agency": "Department of Sanitation",
    "final_address": "8419 Palm St",
    "address_councildis": "A",
    "status": "Assigned to Contractor",
    "contractor": "Richards Disposal",
    "rowid": "933598",
    "final_x": "3666837.22439",
    "final_y": "535548.541382",
    "longitude": "-90.11423491828158",
    "latitude": "29.9670098965196",
    "geocoded_column": {
      "latitude": "29.9670098965196",
      "longitude": "-90.11423491828158"
    }
  },
  {
    "service_request": "2022-933597",
    "request_type": "Roads/Drainage",
    "request_reason": "Pothole",
    "date_created": "2022-10-31T17:11:15.000",
    "date_modified": "2022-10-31T17:11:15.000",
    "request_status": "Pending",
    "responsible_agency": "Department of Public Works",
    "final_address": "3521 Indiana St",
    "address_councildis": "C",
    "status": "Pending",
    "rowid": "933597",
    "final_x": "3693491.56701",
    "final_y": "520253.625272",
    "longitude": "-90.03060989423149",
    "latitude": "29.924147479849413",
    "geocoded_column": {
      "latitude": "29.924147479849413",
      "longitude": "-90.03060989423149"
    }
  },
  {
    "service_request": "2022-933596",
    "request_type": "Trash/Recycling",
    "request_reason": "Order Trash Cart",
    "date_created": "2022-10-31T17:05:12.000",
    "date_modified": "2022-10-31T17:05:13.000",
    "request_status": "Pending",
    "responsible_agency": "Department of Sanitation",
    "final_address": "323 New Orleans-Hammond Hwy",
    "address_councildis": "A",
    "status": "Assigned to Contractor",
    "contractor": "Metro Disposal",
    "rowid": "933596",
    "final_x": "3665664.79066",
    "final_y": "554746.241688",
    "longitude": "-90.1172940764679",
    "latitude": "30.01983126663532",
    "geocoded_column": {
      "latitude": "30.01983126663532",
      "longitude": "-90.1172940764679"
    }
  },
  {
    "service_request": "2022-933595",
    "request_type": "Trash/Recycling",
    "request_reason": "MIssed Recycling Pick-Up",
    "date_created": "2022-10-31T17:04:56.000",
    "date_modified": "2022-10-31T17:04:57.000",
    "request_status": "Pending",
    "responsible_agency": "Department of Sanitation",
    "final_address": "2301 Valentine Ct",
    "address_councildis": "C",
    "status": "Assigned to Contractor",
    "contractor": "Richards Disposal",
    "rowid": "933595",
    "final_x": "3699361.76893",
    "final_y": "522698.99193",
    "longitude": "-90.0119908326157",
    "latitude": "29.930686581289255",
    "geocoded_column": {
      "latitude": "29.930686581289255",
      "longitude": "-90.0119908326157"
    }
  },
  {
    "service_request": "2022-933594",
    "request_type": "Traffic Signals/Signs/Striping/Streetlights",
    "request_reason": "Additional signage",
    "date_created": "2022-10-31T17:02:50.000",
    "date_modified": "2022-10-31T17:02:50.000",
    "request_status": "Pending",
    "responsible_agency": "Department of Public Works",
    "final_address": "JOHN CHURCHILL CHASE ST & CONVENTION CENTER BLVD",
    "address_councildis": "B",
    "status": "Pending",
    "rowid": "933594",
    "final_x": "3682715.8",
    "final_y": "526252.78",
    "longitude": "-90.06441545155894",
    "latitude": "29.940975634045937",
    "geocoded_column": {
      "latitude": "29.940975634045937",
      "longitude": "-90.06441545155894"
    }
  },
  {
    "service_request": "2022-933592",
    "request_type": "Abandoned Vehicles",
    "request_reason": "Abandoned/Junk Vehicles",
    "date_created": "2022-10-31T16:59:39.000",
    "date_modified": "2022-10-31T17:01:18.000",
    "request_status": "Pending",
    "responsible_agency": "Department of Public Works",
    "final_address": "3012 Baudin St",
    "address_councildis": "B",
    "status": "Pending",
    "rowid": "933592",
    "final_x": "3673255.56635",
    "final_y": "534635.989702",
    "longitude": "-90.09399690050252",
    "latitude": "29.96431135937533",
    "geocoded_column": {
      "latitude": "29.96431135937533",
      "longitude": "-90.09399690050252"
    }
  },
  {
    "service_request": "2022-933591",
    "request_type": "Trash/Recycling",
    "request_reason": "Illegal Dumping",
    "date_created": "2022-10-31T16:59:20.000",
    "date_modified": "2022-10-31T16:59:20.000",
    "request_status": "Pending",
    "responsible_agency": "Department of Sanitation",
    "final_address": "6700 BLK Pontchartrain Blvd",
    "address_councildis": "A",
    "status": "Pending",
    "rowid": "933591",
    "final_x": "3666378.14851",
    "final_y": "552957.817428",
    "longitude": "-90.11510016617137",
    "latitude": "30.014892893642443",
    "geocoded_column": {
      "latitude": "30.014892893642443",
      "longitude": "-90.11510016617137"
    }
  },
  {
    "service_request": "2022-933590",
    "request_type": "Trash/Recycling",
    "request_reason": "Replace Trash Cart",
    "date_created": "2022-10-31T16:50:47.000",
    "date_modified": "2022-10-31T16:50:47.000",
    "request_status": "Pending",
    "responsible_agency": "Department of Sanitation",
    "final_address": "3521 Indiana St",
    "address_councildis": "C",
    "status": "Assigned to Contractor",
    "contractor": "Richards Disposal",
    "rowid": "933590",
    "final_x": "3693491.56701",
    "final_y": "520253.625272",
    "longitude": "-90.03060989423149",
    "latitude": "29.924147479849413",
    "geocoded_column": {
      "latitude": "29.924147479849413",
      "longitude": "-90.03060989423149"
    }
  },
  {
    "service_request": "2022-933589",
    "request_type": "Trash/Recycling",
    "request_reason": "Order Recycling Cart",
    "date_created": "2022-10-31T16:48:28.000",
    "date_modified": "2022-10-31T16:48:28.000",
    "request_status": "Pending",
    "responsible_agency": "Department of Sanitation",
    "final_address": "3521 Indiana St",
    "address_councildis": "C",
    "status": "Pending",
    "rowid": "933589",
    "final_x": "3693491.56701",
    "final_y": "520253.625272",
    "longitude": "-90.03060989423149",
    "latitude": "29.924147479849413",
    "geocoded_column": {
      "latitude": "29.924147479849413",
      "longitude": "-90.03060989423149"
    }
  },
  {
    "service_request": "2022-933588",
    "request_type": "Traffic Signals/Signs/Striping/Streetlights",
    "request_reason": "Traffic Sign Missing/Damaged",
    "date_created": "2022-10-31T16:46:58.000",
    "date_modified": "2022-10-31T16:46:58.000",
    "request_status": "Pending",
    "responsible_agency": "Department of Public Works",
    "final_address": "2911 Memorial Park Dr",
    "address_councildis": "C",
    "status": "Pending",
    "rowid": "933588",
    "final_x": "3693722.00489",
    "final_y": "520205.281784",
    "longitude": "-90.0298842220702",
    "latitude": "29.92400734576295",
    "geocoded_column": {
      "latitude": "29.92400734576295",
      "longitude": "-90.0298842220702"
    }
  },
  {
    "service_request": "2022-933586",
    "request_type": "Parks & Parkways",
    "request_reason": "Request Tree Service (Right of Way/Public Property)",
    "date_created": "2022-10-31T16:45:21.000",
    "date_modified": "2022-10-31T16:45:21.000",
    "request_status": "Pending",
    "responsible_agency": "Department of Parks & Parkway",
    "final_address": "7522 W Laverne St",
    "address_councildis": "D",
    "status": "Pending",
    "rowid": "933586",
    "final_x": "3695184.33584",
    "final_y": "558410.232668",
    "longitude": "-90.02389000390387",
    "latitude": "30.029011410769257",
    "geocoded_column": {
      "latitude": "30.029011410769257",
      "longitude": "-90.02389000390387"
    }
  },
  {
    "service_request": "2022-933585",
    "request_type": "Trash/Recycling",
    "request_reason": "Repair Recycling Cart",
    "date_created": "2022-10-31T16:44:34.000",
    "date_modified": "2022-10-31T16:44:34.000",
    "request_status": "Pending",
    "responsible_agency": "Department of Sanitation",
    "final_address": "7030 St Charles Ave",
    "address_councildis": "A",
    "status": "Pending",
    "rowid": "933585",
    "final_x": "3663187.58208",
    "final_y": "524403.285244",
    "longitude": "-90.12613137608734",
    "latitude": "29.936470303104425",
    "geocoded_column": {
      "latitude": "29.936470303104425",
      "longitude": "-90.12613137608734"
    }
  },
  {
    "service_request": "2022-933584",
    "request_type": "Property Maintenance",
    "request_reason": "Property Maintenance",
    "date_created": "2022-10-31T16:43:42.000",
    "date_modified": "2022-10-31T16:43:42.000",
    "request_status": "Pending",
    "responsible_agency": "Department of Code Enforcement",
    "final_address": "1453 N Robertson St",
    "address_councildis": "C",
    "status": "Pending",
    "rowid": "933584",
    "final_x": "3681845.73519",
    "final_y": "536748.499976",
    "longitude": "-90.06679612759542",
    "latitude": "29.96986176692242",
    "geocoded_column": {
      "latitude": "29.96986176692242",
      "longitude": "-90.06679612759542"
    }
  },
  {
    "service_request": "2022-933583",
    "request_type": "Trash/Recycling",
    "request_reason": "Order Recycling Cart",
    "date_created": "2022-10-31T16:42:48.000",
    "date_modified": "2022-10-31T16:42:48.000",
    "request_status": "Pending",
    "responsible_agency": "Department of Sanitation",
    "final_address": "1172 Magazine St",
    "address_councildis": "B",
    "status": "Pending",
    "rowid": "933583",
    "final_x": "3680693.92034",
    "final_y": "525685.064957",
    "longitude": "-90.07081863666691",
    "latitude": "29.93947601823325",
    "geocoded_column": {
      "latitude": "29.93947601823325",
      "longitude": "-90.07081863666691"
    }
  },
  {
    "service_request": "2022-933582",
    "request_type": "Traffic Signals/Signs/Striping/Streetlights",
    "request_reason": "Street Light Outage/Malfunction",
    "date_created": "2022-10-31T16:41:00.000",
    "date_modified": "2022-10-31T16:41:00.000",
    "request_status": "Pending",
    "responsible_agency": "Department of Public Works",
    "final_address": "5546 Pasteur Blvd",
    "address_councildis": "D",
    "status": "Pending",
    "contractor": "Legacy Professional Services",
    "rowid": "933582",
    "final_x": "3682765.43477",
    "final_y": "553549.588055",
    "longitude": "-90.06330353140952",
    "latitude": "30.016030807763112",
    "geocoded_column": {
      "latitude": "30.016030807763112",
      "longitude": "-90.06330353140952"
    }
  },
  {
    "service_request": "2022-933581",
    "request_type": "Trash/Recycling",
    "request_reason": "Replace Trash Cart",
    "date_created": "2022-10-31T16:39:55.000",
    "date_modified": "2022-10-31T16:39:55.000",
    "request_status": "Pending",
    "responsible_agency": "Department of Sanitation",
    "final_address": "6240 Marquette Pl",
    "address_councildis": "A",
    "status": "Assigned to Contractor",
    "contractor": "Richards Disposal",
    "rowid": "933581",
    "final_x": "3665125.63412",
    "final_y": "523391.184635",
    "longitude": "-90.12004667969259",
    "latitude": "29.933631062114888",
    "geocoded_column": {
      "latitude": "29.933631062114888",
      "longitude": "-90.12004667969259"
    }
  },
  {
    "service_request": "2022-933580",
    "request_type": "Traffic Signals/Signs/Striping/Streetlights",
    "request_reason": "Street Light Outage/Malfunction",
    "date_created": "2022-10-31T16:39:10.000",
    "date_modified": "2022-10-31T16:39:10.000",
    "request_status": "Pending",
    "responsible_agency": "Department of Public Works",
    "final_address": "5030 Warren Dr",
    "address_councildis": "E",
    "status": "Pending",
    "contractor": "Legacy Professional Services",
    "rowid": "933580",
    "final_x": "3713250.76875",
    "final_y": "557644.020507",
    "longitude": "-89.96683014478842",
    "latitude": "30.02632456974141",
    "geocoded_column": {
      "latitude": "30.02632456974141",
      "longitude": "-89.96683014478842"
    }
  },
  {
    "service_request": "2022-933579",
    "request_type": "Abandoned Vehicles",
    "request_reason": "Abandoned/Junk Vehicles",
    "date_created": "2022-10-31T16:38:34.000",
    "date_modified": "2022-10-31T16:38:35.000",
    "request_status": "Pending",
    "responsible_agency": "Department of Public Works",
    "final_address": "1638 Feliciana St",
    "address_councildis": "D",
    "status": "Pending",
    "rowid": "933579",
    "final_x": "3689230.61059",
    "final_y": "538267.524489",
    "longitude": "-90.04342006064422",
    "latitude": "29.973812035472143",
    "geocoded_column": {
      "latitude": "29.973812035472143",
      "longitude": "-90.04342006064422"
    }
  },
  {
    "service_request": "2022-933578",
    "request_type": "Property Maintenance",
    "request_reason": "Property Maintenance",
    "date_created": "2022-10-31T16:38:04.000",
    "date_modified": "2022-10-31T16:38:05.000",
    "request_status": "Pending",
    "responsible_agency": "Department of Code Enforcement",
    "final_address": "1638 Feliciana St",
    "address_councildis": "D",
    "status": "Pending",
    "rowid": "933578",
    "final_x": "3689230.61059",
    "final_y": "538267.524489",
    "longitude": "-90.04342006064422",
    "latitude": "29.973812035472143",
    "geocoded_column": {
      "latitude": "29.973812035472143",
      "longitude": "-90.04342006064422"
    }
  },
  {
    "service_request": "2022-933577",
    "request_type": "Trash/Recycling",
    "request_reason": "Missed Trash Pick-Up",
    "date_created": "2022-10-31T16:33:15.000",
    "date_modified": "2022-10-31T16:33:16.000",
    "request_status": "Pending",
    "responsible_agency": "Department of Sanitation",
    "final_address": "617 N Alexander St, New Orleans, Louisiana, 70119",
    "address_councildis": "A",
    "status": "Assigned to Contractor",
    "contractor": "Richards Disposal",
    "rowid": "933577",
    "final_x": "3671144.62843",
    "final_y": "540756.663371",
    "longitude": "-90.10045511912718",
    "latitude": "29.981203758463064",
    "geocoded_column": {
      "latitude": "29.981203758463064",
      "longitude": "-90.10045511912718"
    }
  },
  {
    "service_request": "2022-933576",
    "request_type": "Trash/Recycling",
    "request_reason": "Change Size of Trash Cart",
    "date_created": "2022-10-31T16:31:20.000",
    "date_modified": "2022-10-31T16:31:21.000",
    "request_status": "Pending",
    "responsible_agency": "Department of Sanitation",
    "final_address": "4819 Iberville St",
    "address_councildis": "A",
    "status": "Assigned to Contractor",
    "contractor": "Richards Disposal",
    "rowid": "933576",
    "final_x": "3668965.5145",
    "final_y": "540596.435659",
    "longitude": "-90.10734318502419",
    "latitude": "29.980827476075543",
    "geocoded_column": {
      "latitude": "29.980827476075543",
      "longitude": "-90.10734318502419"
    }
  },
  {
    "service_request": "2022-933575",
    "request_type": "Trash/Recycling",
    "request_reason": "Order Recycling Cart",
    "date_created": "2022-10-31T16:31:10.000",
    "date_modified": "2022-10-31T16:31:10.000",
    "request_status": "Pending",
    "responsible_agency": "Department of Sanitation",
    "final_address": "46 Gull St",
    "address_councildis": "D",
    "status": "Pending",
    "rowid": "933575",
    "final_x": "3675008.50312",
    "final_y": "555823.997913",
    "longitude": "-90.08773390831954",
    "latitude": "30.022518739565154",
    "geocoded_column": {
      "latitude": "30.022518739565154",
      "longitude": "-90.08773390831954"
    }
  },
  {
    "service_request": "2022-933574",
    "request_type": "Trash/Recycling",
    "request_reason": "Dead Animal Pick Up",
    "date_created": "2022-10-31T16:28:55.000",
    "date_modified": "2022-10-31T16:28:55.000",
    "request_status": "Pending",
    "responsible_agency": "Department of Sanitation",
    "final_address": "2554 Holiday Dr",
    "address_councildis": "C",
    "status": "Assigned to Contractor",
    "contractor": "Richards Disposal",
    "rowid": "933574",
    "final_x": "3698915.43408",
    "final_y": "521866.366458",
    "longitude": "-90.01343011606053",
    "latitude": "29.92841129283653",
    "geocoded_column": {
      "latitude": "29.92841129283653",
      "longitude": "-90.01343011606053"
    }
  },
  {
    "service_request": "2022-933573",
    "request_type": "Roads/Drainage",
    "request_reason": "Street Flooding / Drainage",
    "date_created": "2022-10-31T16:28:34.000",
    "date_modified": "2022-10-31T16:28:34.000",
    "request_status": "Pending",
    "responsible_agency": "Department of Public Works",
    "final_address": "2109 St Anthony St",
    "address_councildis": "D",
    "status": "Pending",
    "rowid": "933573",
    "final_x": "3683294.21576",
    "final_y": "539986.309323",
    "longitude": "-90.06210825260756",
    "latitude": "29.97872051305409",
    "geocoded_column": {
      "latitude": "29.97872051305409",
      "longitude": "-90.06210825260756"
    }
  },
  {
    "service_request": "2022-933572",
    "request_type": "Trash/Recycling",
    "request_reason": "Repair Trash Cart",
    "date_created": "2022-10-31T16:28:33.000",
    "date_modified": "2022-10-31T16:28:34.000",
    "request_status": "Pending",
    "responsible_agency": "Department of Sanitation",
    "final_address": "39 Wren St",
    "address_councildis": "D",
    "status": "Assigned to Contractor",
    "contractor": "Metro Disposal",
    "rowid": "933572",
    "final_x": "3672490.4123",
    "final_y": "555890.384345",
    "longitude": "-90.09568822639454",
    "latitude": "30.022776304382443",
    "geocoded_column": {
      "latitude": "30.022776304382443",
      "longitude": "-90.09568822639454"
    }
  },
  {
    "service_request": "2022-933571",
    "request_type": "Property Maintenance",
    "request_reason": "Property Maintenance",
    "date_created": "2022-10-31T16:26:58.000",
    "date_modified": "2022-10-31T16:27:16.000",
    "request_status": "Pending",
    "responsible_agency": "Department of Code Enforcement",
    "final_address": "7330 Shubrick Ave",
    "address_councildis": "E",
    "rowid": "933571",
    "final_x": "3707116.20875",
    "final_y": "562964.136992",
    "longitude": "-89.98601679627663",
    "latitude": "30.041152528768617",
    "geocoded_column": {
      "latitude": "30.041152528768617",
      "longitude": "-89.98601679627663"
    }
  },
  {
    "service_request": "2022-933569",
    "request_type": "Roads/Drainage",
    "request_reason": "Pothole",
    "date_created": "2022-10-31T16:25:37.000",
    "date_modified": "2022-10-31T16:25:37.000",
    "request_status": "Pending",
    "responsible_agency": "Department of Public Works",
    "final_address": "7330 Shubrick Ave",
    "address_councildis": "E",
    "status": "Pending",
    "rowid": "933569",
    "final_x": "3707116.20875",
    "final_y": "562964.136992",
    "longitude": "-89.98601679627663",
    "latitude": "30.041152528768617",
    "geocoded_column": {
      "latitude": "30.041152528768617",
      "longitude": "-89.98601679627663"
    }
  },
  {
    "service_request": "2022-933570",
    "request_type": "Trash/Recycling",
    "request_reason": "Missed Trash Pick-Up",
    "date_created": "2022-10-31T16:25:37.000",
    "date_modified": "2022-10-31T16:25:38.000",
    "request_status": "Pending",
    "responsible_agency": "Department of Sanitation",
    "final_address": "827 Olga St",
    "address_councildis": "A",
    "status": "Assigned to Contractor",
    "contractor": "Richards Disposal",
    "rowid": "933570",
    "final_x": "3673291.54913",
    "final_y": "540022.405259",
    "longitude": "-90.09369924731193",
    "latitude": "29.97912110804875",
    "geocoded_column": {
      "latitude": "29.97912110804875",
      "longitude": "-90.09369924731193"
    }
  },
  {
    "service_request": "2022-933568",
    "request_type": "Trash/Recycling",
    "request_reason": "MIssed Recycling Pick-Up",
    "date_created": "2022-10-31T16:25:06.000",
    "date_modified": "2022-10-31T16:25:07.000",
    "request_status": "Pending",
    "responsible_agency": "Department of Sanitation",
    "final_address": "2053 Easter Ln",
    "address_councildis": "C",
    "status": "Assigned to Contractor",
    "contractor": "Richards Disposal",
    "rowid": "933568",
    "final_x": "3699444.50576",
    "final_y": "523783.587067",
    "longitude": "-90.0116901538607",
    "latitude": "29.933666219259134",
    "geocoded_column": {
      "latitude": "29.933666219259134",
      "longitude": "-90.0116901538607"
    }
  },
  {
    "service_request": "2022-933567",
    "request_type": "Traffic Signals/Signs/Striping/Streetlights",
    "request_reason": "Street Light Outage/Malfunction",
    "date_created": "2022-10-31T16:25:04.000",
    "date_modified": "2022-10-31T16:25:05.000",
    "request_status": "Pending",
    "responsible_agency": "Department of Public Works",
    "final_address": "219 S Alexander St",
    "address_councildis": "A",
    "status": "Pending",
    "contractor": "Legacy Professional Services",
    "rowid": "933567",
    "final_x": "3669593.17358",
    "final_y": "538724.885513",
    "longitude": "-90.10542410040286",
    "latitude": "29.97566286552893",
    "geocoded_column": {
      "latitude": "29.97566286552893",
      "longitude": "-90.10542410040286"
    }
  },
  {
    "service_request": "2022-933566",
    "request_type": "Property Maintenance",
    "request_reason": "Property Maintenance",
    "date_created": "2022-10-31T16:24:54.000",
    "date_modified": "2022-10-31T16:24:56.000",
    "request_status": "Pending",
    "responsible_agency": "Department of Code Enforcement",
    "final_address": "7320 Shubrick Ave",
    "address_councildis": "E",
    "status": "Pending",
    "rowid": "933566",
    "final_x": "3707142.78846",
    "final_y": "562915.41904",
    "longitude": "-89.98593460624575",
    "latitude": "30.041017714375638",
    "geocoded_column": {
      "latitude": "30.041017714375638",
      "longitude": "-89.98593460624575"
    }
  },
  {
    "service_request": "2022-933565",
    "request_type": "Traffic Signals/Signs/Striping/Streetlights",
    "request_reason": "Street Light Outage/Malfunction",
    "date_created": "2022-10-31T16:22:44.000",
    "date_modified": "2022-10-31T16:22:45.000",
    "request_status": "Pending",
    "responsible_agency": "Department of Public Works",
    "final_address": "18 Sullivan Pl",
    "address_councildis": "C",
    "status": "Pending",
    "contractor": "Legacy Professional Services",
    "rowid": "933565",
    "final_x": "3702268.95754",
    "final_y": "522129.36057",
    "longitude": "-90.00283420559116",
    "latitude": "29.929027791144915",
    "geocoded_column": {
      "latitude": "29.929027791144915",
      "longitude": "-90.00283420559116"
    }
  },
  {
    "service_request": "2022-933564",
    "request_type": "Trash/Recycling",
    "request_reason": "Order Recycling Cart",
    "date_created": "2022-10-31T16:22:35.000",
    "date_modified": "2022-10-31T16:22:35.000",
    "request_status": "Pending",
    "responsible_agency": "Department of Sanitation",
    "final_address": "3316 Cleveland Ave",
    "address_councildis": "B",
    "status": "Pending",
    "rowid": "933564",
    "final_x": "3673140.88219",
    "final_y": "536163.181319",
    "longitude": "-90.09430691480948",
    "latitude": "29.968514032819172",
    "geocoded_column": {
      "latitude": "29.968514032819172",
      "longitude": "-90.09430691480948"
    }
  },
  {
    "service_request": "2022-933563",
    "request_type": "Trash/Recycling",
    "request_reason": "Repair Recycling Cart",
    "date_created": "2022-10-31T16:20:03.000",
    "date_modified": "2022-10-31T16:20:03.000",
    "request_status": "Pending",
    "responsible_agency": "Department of Sanitation",
    "final_address": "1644 Murl St",
    "address_councildis": "C",
    "status": "Pending",
    "rowid": "933563",
    "final_x": "3695419.38218",
    "final_y": "525152.976957",
    "longitude": "-90.02434781539341",
    "latitude": "29.93755861572341",
    "geocoded_column": {
      "latitude": "29.93755861572341",
      "longitude": "-90.02434781539341"
    }
  },
  {
    "service_request": "2022-933562",
    "request_type": "Trash/Recycling",
    "request_reason": "Order Recycling Cart",
    "date_created": "2022-10-31T16:18:38.000",
    "date_modified": "2022-10-31T16:18:38.000",
    "request_status": "Pending",
    "responsible_agency": "Department of Sanitation",
    "final_address": "2602 Octavia St",
    "address_councildis": "A",
    "status": "Pending",
    "rowid": "933562",
    "final_x": "3667761.33991",
    "final_y": "525086.213245",
    "longitude": "-90.11166881235606",
    "latitude": "29.93821484527039",
    "geocoded_column": {
      "latitude": "29.93821484527039",
      "longitude": "-90.11166881235606"
    }
  },
  {
    "service_request": "2022-933561",
    "request_type": "Roads/Drainage",
    "request_reason": "Catch Basin - Clogged",
    "date_created": "2022-10-31T16:14:51.000",
    "date_modified": "2022-10-31T16:14:51.000",
    "request_status": "Pending",
    "responsible_agency": "Department of Public Works",
    "final_address": "1939 Bayou Rd",
    "address_councildis": "D",
    "status": "Pending",
    "rowid": "933561",
    "final_x": "3680330.26338",
    "final_y": "537044.863176",
    "longitude": "-90.07157182289475",
    "latitude": "29.970722636382643",
    "geocoded_column": {
      "latitude": "29.970722636382643",
      "longitude": "-90.07157182289475"
    }
  },
  {
    "service_request": "2022-933560",
    "request_type": "Trash/Recycling",
    "request_reason": "Repair Recycling Cart",
    "date_created": "2022-10-31T16:11:05.000",
    "date_modified": "2022-10-31T16:11:06.000",
    "request_status": "Pending",
    "responsible_agency": "Department of Sanitation",
    "final_address": "3303 Mistletoe St",
    "address_councildis": "A",
    "status": "Pending",
    "rowid": "933560",
    "final_x": "3664211.73504",
    "final_y": "536534.095111",
    "longitude": "-90.12249337232365",
    "latitude": "29.9697963904939",
    "geocoded_column": {
      "latitude": "29.9697963904939",
      "longitude": "-90.12249337232365"
    }
  },
  {
    "service_request": "2022-933559",
    "request_type": "Trash/Recycling",
    "request_reason": "Missed Trash Pick-Up",
    "date_created": "2022-10-31T16:10:15.000",
    "date_modified": "2022-10-31T16:10:16.000",
    "request_status": "Pending",
    "responsible_agency": "Department of Sanitation",
    "final_address": "2208 Foucher St",
    "address_councildis": "B",
    "status": "Assigned to Contractor",
    "contractor": "Richards Disposal",
    "rowid": "933559",
    "final_x": "3672721.17268",
    "final_y": "523386.504827",
    "longitude": "-90.09606807036256",
    "latitude": "29.93339486288668",
    "geocoded_column": {
      "latitude": "29.93339486288668",
      "longitude": "-90.09606807036256"
    }
  },
  {
    "service_request": "2022-933558",
    "request_type": "Traffic Signals/Signs/Striping/Streetlights",
    "request_reason": "Road Surface Marking Maintenance-Traffic Control",
    "date_created": "2022-10-31T16:08:23.000",
    "date_modified": "2022-10-31T16:08:23.000",
    "request_status": "Pending",
    "responsible_agency": "Department of Public Works",
    "final_address": "1218 Moss St",
    "address_councildis": "A",
    "status": "Pending",
    "rowid": "933558",
    "final_x": "3675226.17979",
    "final_y": "539912.11553",
    "longitude": "-90.08759271354526",
    "latitude": "29.97876015725703",
    "geocoded_column": {
      "latitude": "29.97876015725703",
      "longitude": "-90.08759271354526"
    }
  },
  {
    "service_request": "2022-933557",
    "request_type": "Trash/Recycling",
    "request_reason": "Request a Large Item Pick Up",
    "date_created": "2022-10-31T16:07:14.000",
    "date_modified": "2022-10-31T16:07:15.000",
    "request_status": "Pending",
    "responsible_agency": "Department of Sanitation",
    "final_address": "1567 N Dorgenois St",
    "address_councildis": "D",
    "status": "Assigned to Contractor",
    "contractor": "Metro Disposal",
    "rowid": "933557",
    "final_x": "3679416.04571",
    "final_y": "539704.511562",
    "longitude": "-90.07436674585944",
    "latitude": "29.978063401847226",
    "geocoded_column": {
      "latitude": "29.978063401847226",
      "longitude": "-90.07436674585944"
    }
  },
  {
    "service_request": "2022-933556",
    "request_type": "Trash/Recycling",
    "request_reason": "Missed Trash Pick-Up",
    "date_created": "2022-10-31T16:06:31.000",
    "date_modified": "2022-10-31T16:06:31.000",
    "request_status": "Pending",
    "responsible_agency": "Department of Sanitation",
    "final_address": "1218 Moss St",
    "address_councildis": "A",
    "status": "Assigned to Contractor",
    "contractor": "Richards Disposal",
    "rowid": "933556",
    "final_x": "3675226.17979",
    "final_y": "539912.11553",
    "longitude": "-90.08759271354526",
    "latitude": "29.97876015725703",
    "geocoded_column": {
      "latitude": "29.97876015725703",
      "longitude": "-90.08759271354526"
    }
  },
  {
    "service_request": "2022-933555",
    "request_type": "Trash/Recycling",
    "request_reason": "MIssed Recycling Pick-Up",
    "date_created": "2022-10-31T16:02:35.000",
    "date_modified": "2022-10-31T16:02:36.000",
    "request_status": "Pending",
    "responsible_agency": "Department of Sanitation",
    "final_address": "6065 General Meyer Ave",
    "address_councildis": "C",
    "status": "Assigned to Contractor",
    "contractor": "Richards Disposal",
    "rowid": "933555",
    "final_x": "3706429.86993",
    "final_y": "520953.953593",
    "longitude": "-89.98974264689541",
    "latitude": "29.925662328529434",
    "geocoded_column": {
      "latitude": "29.925662328529434",
      "longitude": "-89.98974264689541"
    }
  },
  {
    "service_request": "2022-933554",
    "request_type": "Trash/Recycling",
    "request_reason": "Replace Trash Cart",
    "date_created": "2022-10-31T16:01:51.000",
    "date_modified": "2022-10-31T16:01:52.000",
    "request_status": "Pending",
    "responsible_agency": "Department of Sanitation",
    "final_address": "6762 Memphis St",
    "address_councildis": "A",
    "status": "Assigned to Contractor",
    "contractor": "Metro Disposal",
    "rowid": "933554",
    "final_x": "3669569.86983",
    "final_y": "552458.642902",
    "longitude": "-90.10503273490018",
    "latitude": "30.01342664827076",
    "geocoded_column": {
      "latitude": "30.01342664827076",
      "longitude": "-90.10503273490018"
    }
  },
  {
    "service_request": "2022-933553",
    "request_type": "Roads/Drainage",
    "request_reason": "Street Subsidence (Sinking)",
    "date_created": "2022-10-31T15:56:45.000",
    "date_modified": "2022-10-31T15:56:46.000",
    "request_status": "Pending",
    "responsible_agency": "Department of Public Works",
    "final_address": "FLORIDA AVE & ELYSIAN FIELDS AVE",
    "address_councildis": "D",
    "status": "Pending",
    "rowid": "933553",
    "final_x": "3684594.9",
    "final_y": "542201.38",
    "longitude": "-90.05792233965482",
    "latitude": "29.984771435707305",
    "geocoded_column": {
      "latitude": "29.984771435707305",
      "longitude": "-90.05792233965482"
    }
  },
  {
    "service_request": "2022-933551",
    "request_type": "Trash/Recycling",
    "request_reason": "Order Trash Cart",
    "date_created": "2022-10-31T15:56:16.000",
    "date_modified": "2022-10-31T15:56:17.000",
    "request_status": "Pending",
    "responsible_agency": "Department of Sanitation",
    "final_address": "6013 Warrington Dr",
    "address_councildis": "D",
    "status": "Assigned to Contractor",
    "contractor": "Metro Disposal",
    "rowid": "933551",
    "final_x": "3680806.62267",
    "final_y": "554749.65212",
    "longitude": "-90.0694506830255",
    "latitude": "30.019390099429998",
    "geocoded_column": {
      "latitude": "30.019390099429998",
      "longitude": "-90.0694506830255"
    }
  },
  {
    "service_request": "2022-933550",
    "request_type": "Roads/Drainage",
    "request_reason": "Catch Basin - Clogged",
    "date_created": "2022-10-31T15:53:57.000",
    "date_modified": "2022-10-31T15:53:57.000",
    "request_status": "Pending",
    "responsible_agency": "Department of Public Works",
    "final_address": "8129 Apple St",
    "address_councildis": "A",
    "status": "Pending",
    "rowid": "933550",
    "final_x": "3665208.4592",
    "final_y": "532291.357507",
    "longitude": "-90.1194875541489",
    "latitude": "29.958101259053525",
    "geocoded_column": {
      "latitude": "29.958101259053525",
      "longitude": "-90.1194875541489"
    }
  },
  {
    "service_request": "2022-933549",
    "request_type": "Trash/Recycling",
    "request_reason": "Missed Trash Pick-Up",
    "date_created": "2022-10-31T15:53:40.000",
    "date_modified": "2022-10-31T15:53:40.000",
    "request_status": "Pending",
    "responsible_agency": "Department of Sanitation",
    "final_address": "4400 BLK Saint Ann St",
    "address_councildis": "A",
    "status": "Assigned to Contractor",
    "contractor": "Richards Disposal",
    "rowid": "933549",
    "final_x": "3671428.85494",
    "final_y": "541368.92722",
    "longitude": "-90.09953657830569",
    "latitude": "29.982878863174857",
    "geocoded_column": {
      "latitude": "29.982878863174857",
      "longitude": "-90.09953657830569"
    }
  },
  {
    "service_request": "2022-933548",
    "request_type": "Trash/Recycling",
    "request_reason": "Order Recycling Cart",
    "date_created": "2022-10-31T15:53:17.000",
    "date_modified": "2022-10-31T15:53:17.000",
    "request_status": "Pending",
    "responsible_agency": "Department of Sanitation",
    "final_address": "511 Lowerline St",
    "address_councildis": "A",
    "status": "Pending",
    "contractor": "Richards Disposal",
    "rowid": "933548",
    "final_x": "3662217.8873",
    "final_y": "524565.182652",
    "longitude": "-90.12918738353001",
    "latitude": "29.9369435254676",
    "geocoded_column": {
      "latitude": "29.9369435254676",
      "longitude": "-90.12918738353001"
    }
  },
  {
    "service_request": "2022-933547",
    "request_type": "Trash/Recycling",
    "request_reason": "Order Recycling Cart",
    "date_created": "2022-10-31T15:52:51.000",
    "date_modified": "2022-10-31T15:52:52.000",
    "request_status": "Pending",
    "responsible_agency": "Department of Sanitation",
    "final_address": "3527 Washington Ave",
    "address_councildis": "B",
    "status": "Pending",
    "contractor": "Richards Disposal",
    "rowid": "933547",
    "final_x": "3672101.10164",
    "final_y": "528375.212544",
    "longitude": "-90.09785579117084",
    "latitude": "29.9471305806286",
    "geocoded_column": {
      "latitude": "29.9471305806286",
      "longitude": "-90.09785579117084"
    }
  },
  {
    "service_request": "2022-933546",
    "request_type": "Roads/Drainage",
    "request_reason": "Catch Basin - Clogged",
    "date_created": "2022-10-31T15:52:38.000",
    "date_modified": "2022-10-31T15:52:38.000",
    "request_status": "Pending",
    "responsible_agency": "Department of Public Works",
    "final_address": "8129 Apple St",
    "address_councildis": "A",
    "status": "Pending",
    "rowid": "933546",
    "final_x": "3665208.4592",
    "final_y": "532291.357507",
    "longitude": "-90.1194875541489",
    "latitude": "29.958101259053525",
    "geocoded_column": {
      "latitude": "29.958101259053525",
      "longitude": "-90.1194875541489"
    }
  },
  {
    "service_request": "2022-933545",
    "request_type": "Trash/Recycling",
    "request_reason": "Order Trash Cart",
    "date_created": "2022-10-31T15:50:49.000",
    "date_modified": "2022-10-31T15:50:49.000",
    "request_status": "Pending",
    "responsible_agency": "Department of Sanitation",
    "final_address": "511 Lowerline St Apt 1B",
    "address_councildis": "A",
    "status": "Assigned to Contractor",
    "contractor": "Richards Disposal",
    "rowid": "933545",
    "final_x": "3662240.11802",
    "final_y": "524551.723836",
    "longitude": "-90.12911764616572",
    "latitude": "29.93690587558637",
    "geocoded_column": {
      "latitude": "29.93690587558637",
      "longitude": "-90.12911764616572"
    }
  },
  {
    "service_request": "2022-933544",
    "request_type": "Trash/Recycling",
    "request_reason": "Order Trash Cart",
    "date_created": "2022-10-31T15:49:32.000",
    "date_modified": "2022-10-31T15:51:31.000",
    "request_status": "Pending",
    "responsible_agency": "Department of Sanitation",
    "final_address": "511 Lowerline St Apt 1A",
    "address_councildis": "A",
    "status": "Assigned to Contractor",
    "contractor": "Richards Disposal",
    "rowid": "933544",
    "final_x": "3662230.39578",
    "final_y": "524557.279356",
    "longitude": "-90.12914815561372",
    "latitude": "29.93692143245433",
    "geocoded_column": {
      "latitude": "29.93692143245433",
      "longitude": "-90.12914815561372"
    }
  },
  {
    "service_request": "2022-933543",
    "request_type": "Trash/Recycling",
    "request_reason": "Repair Trash Cart",
    "date_created": "2022-10-31T15:49:16.000",
    "date_modified": "2022-10-31T15:49:17.000",
    "request_status": "Pending",
    "responsible_agency": "Department of Sanitation",
    "final_address": "916 Desire St",
    "address_councildis": "C",
    "status": "Assigned to Contractor",
    "contractor": "Metro Disposal",
    "rowid": "933543",
    "final_x": "3689987.85404",
    "final_y": "535068.623558",
    "longitude": "-90.04114245930435",
    "latitude": "29.964992721565494",
    "geocoded_column": {
      "latitude": "29.964992721565494",
      "longitude": "-90.04114245930435"
    }
  },
  {
    "service_request": "2022-933542",
    "request_type": "Trash/Recycling",
    "request_reason": "Order Trash Cart",
    "date_created": "2022-10-31T15:49:16.000",
    "date_modified": "2022-10-31T15:51:14.000",
    "request_status": "Pending",
    "responsible_agency": "Department of Sanitation",
    "final_address": "511 Lowerline St",
    "address_councildis": "A",
    "status": "Assigned to Contractor",
    "contractor": "Richards Disposal",
    "rowid": "933542",
    "final_x": "3662217.8873",
    "final_y": "524565.182652",
    "longitude": "-90.12918738353001",
    "latitude": "29.9369435254676",
    "geocoded_column": {
      "latitude": "29.9369435254676",
      "longitude": "-90.12918738353001"
    }
  },
  {
    "service_request": "2022-933541",
    "request_type": "Property Maintenance",
    "request_reason": "Property Maintenance",
    "date_created": "2022-10-31T15:48:42.000",
    "date_modified": "2022-10-31T15:53:24.000",
    "case_close_date": "2022-10-31T10:53:24.000",
    "request_status": "Closed",
    "responsible_agency": "Department of Code Enforcement",
    "final_address": "6351 Louis Xiv St",
    "address_councildis": "A",
    "status": "Referred to Code Enforcement",
    "rowid": "933541",
    "final_x": "3668398.63444",
    "final_y": "549787.90594",
    "longitude": "-90.10882340927913",
    "latitude": "30.0061175276688",
    "geocoded_column": {
      "latitude": "30.0061175276688",
      "longitude": "-90.10882340927913"
    }
  },
  {
    "service_request": "2022-933540",
    "request_type": "Roads/Drainage",
    "request_reason": "Pothole",
    "date_created": "2022-10-31T15:48:41.000",
    "date_modified": "2022-10-31T15:48:41.000",
    "request_status": "Pending",
    "responsible_agency": "Department of Public Works",
    "final_address": "7534 Birch St",
    "address_councildis": "A",
    "status": "Pending",
    "rowid": "933540",
    "final_x": "3664291.62176",
    "final_y": "528107.041855",
    "longitude": "-90.12252230623676",
    "latitude": "29.94662242023292",
    "geocoded_column": {
      "latitude": "29.94662242023292",
      "longitude": "-90.12252230623676"
    }
  },
  {
    "service_request": "2022-933538",
    "request_type": "Trash/Recycling",
    "request_reason": "Repair Trash Cart",
    "date_created": "2022-10-31T15:46:37.000",
    "date_modified": "2022-10-31T15:46:38.000",
    "request_status": "Pending",
    "responsible_agency": "Department of Sanitation",
    "final_address": "6208 Bertha Dr",
    "address_councildis": "D",
    "status": "Assigned to Contractor",
    "contractor": "Metro Disposal",
    "rowid": "933538",
    "final_x": "3678636.71381",
    "final_y": "555874.796505",
    "longitude": "-90.07626786306388",
    "latitude": "30.02254947001763",
    "geocoded_column": {
      "latitude": "30.02254947001763",
      "longitude": "-90.07626786306388"
    }
  },
  {
    "service_request": "2022-933537",
    "request_type": "Trash/Recycling",
    "request_reason": "MIssed Recycling Pick-Up",
    "date_created": "2022-10-31T15:46:34.000",
    "date_modified": "2022-10-31T15:46:34.000",
    "request_status": "Pending",
    "responsible_agency": "Department of Sanitation",
    "final_address": "301 Berkley Dr",
    "address_councildis": "C",
    "status": "Assigned to Contractor",
    "contractor": "Richards Disposal",
    "rowid": "933537",
    "final_x": "3707029.91672",
    "final_y": "517945.866038",
    "longitude": "-89.98795998914827",
    "latitude": "29.917371775909338",
    "geocoded_column": {
      "latitude": "29.917371775909338",
      "longitude": "-89.98795998914827"
    }
  },
  {
    "service_request": "2022-933536",
    "request_type": "Trash/Recycling",
    "request_reason": "Replace Trash Cart",
    "date_created": "2022-10-31T15:46:10.000",
    "date_modified": "2022-10-31T15:51:50.000",
    "request_status": "Pending",
    "responsible_agency": "Department of Sanitation",
    "final_address": "3527 Washington Ave",
    "address_councildis": "B",
    "status": "Assigned to Contractor",
    "contractor": "Richards Disposal",
    "rowid": "933536",
    "final_x": "3672101.10164",
    "final_y": "528375.212544",
    "longitude": "-90.09785579117084",
    "latitude": "29.9471305806286",
    "geocoded_column": {
      "latitude": "29.9471305806286",
      "longitude": "-90.09785579117084"
    }
  },
  {
    "service_request": "2022-933535",
    "request_type": "Trash/Recycling",
    "request_reason": "Request a Large Item Pick Up",
    "date_created": "2022-10-31T15:45:39.000",
    "date_modified": "2022-10-31T15:45:40.000",
    "request_status": "Pending",
    "responsible_agency": "Department of Sanitation",
    "final_address": "2883 Maurepas St",
    "address_councildis": "A",
    "status": "Assigned to Contractor",
    "contractor": "Metro Disposal",
    "rowid": "933535",
    "final_x": "3677787.46568",
    "final_y": "540740.174283",
    "longitude": "-90.07947458705252",
    "latitude": "29.980960217431086",
    "geocoded_column": {
      "latitude": "29.980960217431086",
      "longitude": "-90.07947458705252"
    }
  },
  {
    "service_request": "2022-933534",
    "request_type": "Trash/Recycling",
    "request_reason": "Replace Trash Cart",
    "date_created": "2022-10-31T15:41:15.000",
    "date_modified": "2022-10-31T15:41:15.000",
    "request_status": "Pending",
    "responsible_agency": "Department of Sanitation",
    "final_address": "602 Jefferson Ave",
    "address_councildis": "A",
    "status": "Assigned to Contractor",
    "contractor": "Richards Disposal",
    "rowid": "933534",
    "final_x": "3666442.79553",
    "final_y": "517621.812726",
    "longitude": "-90.11608194082687",
    "latitude": "29.917728695408698",
    "geocoded_column": {
      "latitude": "29.917728695408698",
      "longitude": "-90.11608194082687"
    }
  },
  {
    "service_request": "2022-933533",
    "request_type": "Traffic Signals/Signs/Striping/Streetlights",
    "request_reason": "Additional signage",
    "date_created": "2022-10-31T15:39:30.000",
    "date_modified": "2022-10-31T15:39:30.000",
    "request_status": "Pending",
    "responsible_agency": "Department of Public Works",
    "final_address": "602 Jefferson Ave",
    "address_councildis": "A",
    "status": "Pending",
    "rowid": "933533",
    "final_x": "3666442.79553",
    "final_y": "517621.812726",
    "longitude": "-90.11608194082687",
    "latitude": "29.917728695408698",
    "geocoded_column": {
      "latitude": "29.917728695408698",
      "longitude": "-90.11608194082687"
    }
  },
  {
    "service_request": "2022-933532",
    "request_type": "Trash/Recycling",
    "request_reason": "Order Recycling Cart",
    "date_created": "2022-10-31T15:36:29.000",
    "date_modified": "2022-10-31T15:36:29.000",
    "request_status": "Pending",
    "responsible_agency": "Department of Sanitation",
    "final_address": "1024 Soniat St",
    "address_councildis": "B",
    "status": "Pending",
    "rowid": "933532",
    "final_x": "3668316.70612",
    "final_y": "519168.832439",
    "longitude": "-90.11011489684114",
    "latitude": "29.921927641395207",
    "geocoded_column": {
      "latitude": "29.921927641395207",
      "longitude": "-90.11011489684114"
    }
  },
  {
    "service_request": "2022-933531",
    "request_type": "Trash/Recycling",
    "request_reason": "MIssed Recycling Pick-Up",
    "date_created": "2022-10-31T15:35:27.000",
    "date_modified": "2022-10-31T15:35:28.000",
    "request_status": "Pending",
    "responsible_agency": "Department of Sanitation",
    "final_address": "9518 Palmetto St",
    "address_councildis": "A",
    "status": "Assigned to Contractor",
    "contractor": "Richards Disposal",
    "rowid": "933531",
    "final_x": "3664331.18656",
    "final_y": "538535.714633",
    "longitude": "-90.12204930827278",
    "latitude": "29.975296708920023",
    "geocoded_column": {
      "latitude": "29.975296708920023",
      "longitude": "-90.12204930827278"
    }
  },
  {
    "service_request": "2022-933530",
    "request_type": "Trash/Recycling",
    "request_reason": "Repair Trash Cart",
    "date_created": "2022-10-31T15:33:56.000",
    "date_modified": "2022-10-31T15:33:57.000",
    "request_status": "Pending",
    "responsible_agency": "Department of Sanitation",
    "final_address": "5324 St Bernard Ave",
    "address_councildis": "D",
    "status": "Assigned to Contractor",
    "contractor": "Metro Disposal",
    "rowid": "933530",
    "final_x": "3676620.31547",
    "final_y": "551588.663509",
    "longitude": "-90.08278701629808",
    "latitude": "30.010824818850157",
    "geocoded_column": {
      "latitude": "30.010824818850157",
      "longitude": "-90.08278701629808"
    }
  },
  {
    "service_request": "2022-933529",
    "request_type": "Trash/Recycling",
    "request_reason": "Order Recycling Cart",
    "date_created": "2022-10-31T15:31:38.000",
    "date_modified": "2022-10-31T15:31:38.000",
    "request_status": "Pending",
    "responsible_agency": "Department of Sanitation",
    "final_address": "602 Jefferson Ave",
    "address_councildis": "A",
    "status": "Pending",
    "rowid": "933529",
    "final_x": "3666442.79553",
    "final_y": "517621.812726",
    "longitude": "-90.11608194082687",
    "latitude": "29.917728695408698",
    "geocoded_column": {
      "latitude": "29.917728695408698",
      "longitude": "-90.11608194082687"
    }
  },
  {
    "service_request": "2022-933528",
    "request_type": "Trash/Recycling",
    "request_reason": "Order Trash Cart",
    "date_created": "2022-10-31T15:29:25.000",
    "date_modified": "2022-10-31T15:29:26.000",
    "request_status": "Pending",
    "responsible_agency": "Department of Sanitation",
    "final_address": "8503 Bill St",
    "address_councildis": "E",
    "status": "Assigned to Contractor",
    "contractor": "Metro Disposal",
    "rowid": "933528",
    "final_x": "3703459.54225",
    "final_y": "563119.239584",
    "longitude": "-89.99756734969455",
    "latitude": "30.041696716163237",
    "geocoded_column": {
      "latitude": "30.041696716163237",
      "longitude": "-89.99756734969455"
    }
  },
  {
    "service_request": "2022-933527",
    "request_type": "Trash/Recycling",
    "request_reason": "Request a Large Item Pick Up",
    "date_created": "2022-10-31T15:29:22.000",
    "date_modified": "2022-10-31T15:29:23.000",
    "request_status": "Pending",
    "responsible_agency": "Department of Sanitation",
    "final_address": "4428 Eastern St",
    "address_councildis": "D",
    "status": "Assigned to Contractor",
    "contractor": "Metro Disposal",
    "rowid": "933527",
    "final_x": "3688050.66044",
    "final_y": "549387.075475",
    "longitude": "-90.04675227807549",
    "latitude": "30.004423290950527",
    "geocoded_column": {
      "latitude": "30.004423290950527",
      "longitude": "-90.04675227807549"
    }
  },
  {
    "service_request": "2022-933526",
    "request_type": "Trash/Recycling",
    "request_reason": "Order Recycling Cart",
    "date_created": "2022-10-31T15:29:11.000",
    "date_modified": "2022-10-31T15:29:11.000",
    "request_status": "Pending",
    "responsible_agency": "Department of Sanitation",
    "final_address": "2620 Clara St",
    "address_councildis": "B",
    "status": "Pending",
    "rowid": "933526",
    "final_x": "3673968.12136",
    "final_y": "526257.924734",
    "longitude": "-90.09203332007574",
    "latitude": "29.941253249908282",
    "geocoded_column": {
      "latitude": "29.941253249908282",
      "longitude": "-90.09203332007574"
    }
  },
  {
    "service_request": "2022-933525",
    "request_type": "Trash/Recycling",
    "request_reason": "Order Recycling Cart",
    "date_created": "2022-10-31T15:28:40.000",
    "date_modified": "2022-10-31T15:28:40.000",
    "request_status": "Pending",
    "responsible_agency": "Department of Sanitation",
    "final_address": "1704 Pine St",
    "address_councildis": "A",
    "status": "Pending",
    "rowid": "933525",
    "final_x": "3664864.16685",
    "final_y": "528212.887168",
    "longitude": "-90.1207110313523",
    "latitude": "29.946896812574177",
    "geocoded_column": {
      "latitude": "29.946896812574177",
      "longitude": "-90.1207110313523"
    }
  },
  {
    "service_request": "2022-933524",
    "request_type": "Traffic Signals/Signs/Striping/Streetlights",
    "request_reason": "Street Light Outage/Malfunction",
    "date_created": "2022-10-31T15:28:09.000",
    "date_modified": "2022-10-31T15:28:10.000",
    "request_status": "Pending",
    "responsible_agency": "Department of Public Works",
    "final_address": "601 Park Blvd",
    "address_councildis": "C",
    "status": "Pending",
    "contractor": "Legacy Professional Services",
    "rowid": "933524",
    "final_x": "3687654.70652",
    "final_y": "525829.901885",
    "longitude": "-90.04883743880582",
    "latitude": "29.939661547920267",
    "geocoded_column": {
      "latitude": "29.939661547920267",
      "longitude": "-90.04883743880582"
    }
  },
  {
    "service_request": "2022-933523",
    "request_type": "Trash/Recycling",
    "request_reason": "Replace Recycling Cart",
    "date_created": "2022-10-31T15:27:42.000",
    "date_modified": "2022-10-31T15:27:42.000",
    "request_status": "Pending",
    "responsible_agency": "Department of Sanitation",
    "final_address": "1424 Arabella St",
    "address_councildis": "A",
    "status": "Pending",
    "rowid": "933523",
    "final_x": "3666262.52308",
    "final_y": "521122.607737",
    "longitude": "-90.11653361927125",
    "latitude": "29.927360045598025",
    "geocoded_column": {
      "latitude": "29.927360045598025",
      "longitude": "-90.11653361927125"
    }
  },
  {
    "service_request": "2022-933522",
    "request_type": "Trash/Recycling",
    "request_reason": "Order Recycling Cart",
    "date_created": "2022-10-31T15:27:11.000",
    "date_modified": "2022-10-31T15:27:11.000",
    "request_status": "Pending",
    "responsible_agency": "Department of Sanitation",
    "final_address": "7716 St Charles Ave",
    "address_councildis": "A",
    "status": "Pending",
    "rowid": "933522",
    "final_x": "3661506.94182",
    "final_y": "525890.618621",
    "longitude": "-90.13138799415552",
    "latitude": "29.940608579161307",
    "geocoded_column": {
      "latitude": "29.940608579161307",
      "longitude": "-90.13138799415552"
    }
  },
  {
    "service_request": "2022-933521",
    "request_type": "Abandoned Vehicles",
    "request_reason": "Abandoned/Junk Vehicles",
    "date_created": "2022-10-31T15:26:22.000",
    "date_modified": "2022-10-31T15:26:22.000",
    "request_status": "Pending",
    "responsible_agency": "Department of Public Works",
    "final_address": "3625 Utah St",
    "address_councildis": "C",
    "status": "Pending",
    "rowid": "933521",
    "final_x": "3695340.16278",
    "final_y": "518049.486006",
    "longitude": "-90.02485400892748",
    "latitude": "29.918028923060604",
    "geocoded_column": {
      "latitude": "29.918028923060604",
      "longitude": "-90.02485400892748"
    }
  },
  {
    "service_request": "2022-933520",
    "request_type": "Abandoned Vehicles",
    "request_reason": "Vehicle Blocking Your Driveway",
    "date_created": "2022-10-31T15:23:35.000",
    "date_modified": "2022-10-31T15:23:35.000",
    "request_status": "Pending",
    "responsible_agency": "Department of Public Works",
    "final_address": "3620 Utah St",
    "address_councildis": "C",
    "status": "Pending",
    "rowid": "933520",
    "final_x": "3695478.2785",
    "final_y": "518014.646006",
    "longitude": "-90.02441931129563",
    "latitude": "29.917928787312647",
    "geocoded_column": {
      "latitude": "29.917928787312647",
      "longitude": "-90.02441931129563"
    }
  },
  {
    "service_request": "2022-933519",
    "request_type": "Trash/Recycling",
    "request_reason": "Replace Trash Cart",
    "date_created": "2022-10-31T15:22:42.000",
    "date_modified": "2022-10-31T15:22:42.000",
    "request_status": "Pending",
    "responsible_agency": "Department of Sanitation",
    "final_address": "623 Newton St",
    "address_councildis": "C",
    "status": "Assigned to Contractor",
    "contractor": "Richards Disposal",
    "rowid": "933519",
    "final_x": "3687404.01724",
    "final_y": "527930.433663",
    "longitude": "-90.04955459774817",
    "latitude": "29.94544502273103",
    "geocoded_column": {
      "latitude": "29.94544502273103",
      "longitude": "-90.04955459774817"
    }
  },
  {
    "service_request": "2022-933518",
    "request_type": "Traffic Signals/Signs/Striping/Streetlights",
    "request_reason": "Street Light Outage/Malfunction",
    "date_created": "2022-10-31T15:21:02.000",
    "date_modified": "2022-10-31T15:21:03.000",
    "request_status": "Pending",
    "responsible_agency": "Department of Public Works",
    "final_address": "1600 BLK Abundance St",
    "address_councildis": "D",
    "status": "Pending",
    "contractor": "Legacy Professional Services",
    "rowid": "933518",
    "final_x": "3680449.98093",
    "final_y": "543352.234277",
    "longitude": "-90.07097429026405",
    "latitude": "29.98806208900654",
    "geocoded_column": {
      "latitude": "29.98806208900654",
      "longitude": "-90.07097429026405"
    }
  },