[
  {
    "service_request": "2026-1267095",
    "request_type": "Health Related Request",
    "request_reason": "Noise Ordinance Complaint",
    "date_created": "2026-03-19T23:53:09.000",
    "date_modified": "2026-03-19T23:53:10.000",
    "request_status": "Pending",
    "responsible_agency": "Health Department",
    "final_address": "800 Bourbon St, New Orleans, Louisiana, 70116",
    "address_councildis": "C",
    "status": "Pending",
    "rowid": "1267095",
    "final_x": "3682553.51528",
    "final_y": "533013.631428",
    "longitude": "-90.06469148499534",
    "latitude": "29.95957063099051",
    "geocoded_column": {
      "latitude": "29.95957063099051",
      "longitude": "-90.06469148499534"
    }
  },
  {
    "service_request": "2026-1267094",
    "request_type": "Health Related Request",
    "request_reason": "Noise Ordinance Complaint",
    "date_created": "2026-03-19T23:52:47.000",
    "date_modified": "2026-03-19T23:52:49.000",
    "request_status": "Pending",
    "responsible_agency": "Health Department",
    "final_address": "801 Bourbon St, New Orleans, Louisiana, 70116",
    "address_councildis": "C",
    "status": "Pending",
    "rowid": "1267094",
    "final_x": "3682490.98735",
    "final_y": "533018.672772",
    "longitude": "-90.06488875731978",
    "latitude": "29.959586396383013",
    "geocoded_column": {
      "latitude": "29.959586396383013",
      "longitude": "-90.06488875731978"
    }
  },
  {
    "service_request": "2026-1267093",
    "request_type": "Mosquito, Termite & Rodent Control",
    "request_reason": "Rodent Complaint (Mice & Rats)",
    "date_created": "2026-03-19T23:50:02.000",
    "date_modified": "2026-03-19T23:50:04.000",
    "request_status": "Pending",
    "responsible_agency": "Mosquito, Termite & Rodent Control Board",
    "final_address": "801 Bourbon St",
    "address_councildis": "C",
    "status": "Pending",
    "rowid": "1267093",
    "final_x": "3682490.98735",
    "final_y": "533018.672772",
    "longitude": "-90.06488875731978",
    "latitude": "29.959586396383013",
    "geocoded_column": {
      "latitude": "29.959586396383013",
      "longitude": "-90.06488875731978"
    }
  },
  {
    "service_request": "2026-1267092",
    "request_type": "Health Related Request",
    "request_reason": "Noise Ordinance Complaint",
    "date_created": "2026-03-19T23:35:25.000",
    "date_modified": "2026-03-19T23:35:26.000",
    "request_status": "Pending",
    "responsible_agency": "Health Department",
    "final_address": "800 Bourbon St, New Orleans, Louisiana, 70116",
    "address_councildis": "C",
    "status": "Pending",
    "rowid": "1267092",
    "final_x": "3682553.51528",
    "final_y": "533013.631428",
    "longitude": "-90.06469148499534",
    "latitude": "29.95957063099051",
    "geocoded_column": {
      "latitude": "29.95957063099051",
      "longitude": "-90.06469148499534"
    }
  },
  {
    "service_request": "2026-1267091",
    "request_type": "Health Related Request",
    "request_reason": "Noise Ordinance Complaint",
    "date_created": "2026-03-19T23:35:02.000",
    "date_modified": "2026-03-19T23:35:03.000",
    "request_status": "Pending",
    "responsible_agency": "Health Department",
    "final_address": "801 Bourbon St, New Orleans, Louisiana, 70116",
    "address_councildis": "C",
    "status": "Pending",
    "rowid": "1267091",
    "final_x": "3682490.98735",
    "final_y": "533018.672772",
    "longitude": "-90.06488875731978",
    "latitude": "29.959586396383013",
    "geocoded_column": {
      "latitude": "29.959586396383013",
      "longitude": "-90.06488875731978"
    }
  },
  {
    "service_request": "2026-1267090",
    "request_type": "Health Related Request",
    "request_reason": "Noise Ordinance Complaint",
    "date_created": "2026-03-19T23:32:22.000",
    "date_modified": "2026-03-19T23:32:23.000",
    "request_status": "Pending",
    "responsible_agency": "Health Department",
    "final_address": "800 Bourbon St, New Orleans, Louisiana, 70116",
    "address_councildis": "C",
    "status": "Pending",
    "rowid": "1267090",
    "final_x": "3682553.51528",
    "final_y": "533013.631428",
    "longitude": "-90.06469148499534",
    "latitude": "29.95957063099051",
    "geocoded_column": {
      "latitude": "29.95957063099051",
      "longitude": "-90.06469148499534"
    }
  },
  {
    "service_request": "2026-1267089",
    "request_type": "Health Related Request",
    "request_reason": "Noise Ordinance Complaint",
    "date_created": "2026-03-19T23:32:01.000",
    "date_modified": "2026-03-19T23:32:03.000",
    "request_status": "Pending",
    "responsible_agency": "Health Department",
    "final_address": "801 Bourbon St, New Orleans, Louisiana, 70116",
    "address_councildis": "C",
    "status": "Pending",
    "rowid": "1267089",
    "final_x": "3682490.98735",
    "final_y": "533018.672772",
    "longitude": "-90.06488875731978",
    "latitude": "29.959586396383013",
    "geocoded_column": {
      "latitude": "29.959586396383013",
      "longitude": "-90.06488875731978"
    }
  },
  {
    "service_request": "2026-1267088",
    "request_type": "Health Related Request",
    "request_reason": "Noise Ordinance Complaint",
    "date_created": "2026-03-19T23:03:05.000",
    "date_modified": "2026-03-19T23:03:06.000",
    "request_status": "Pending",
    "responsible_agency": "Health Department",
    "final_address": "801 Bourbon St, New Orleans, Louisiana, 70116",
    "address_councildis": "C",
    "status": "Pending",
    "rowid": "1267088",
    "final_x": "3682490.98735",
    "final_y": "533018.672772",
    "longitude": "-90.06488875731978",
    "latitude": "29.959586396383013",
    "geocoded_column": {
      "latitude": "29.959586396383013",
      "longitude": "-90.06488875731978"
    }
  },
  {
    "service_request": "2026-1267087",
    "request_type": "Health Related Request",
    "request_reason": "Noise Ordinance Complaint",
    "date_created": "2026-03-19T23:02:43.000",
    "date_modified": "2026-03-19T23:02:44.000",
    "request_status": "Pending",
    "responsible_agency": "Health Department",
    "final_address": "800 Bourbon St, New Orleans, Louisiana, 70116",
    "address_councildis": "C",
    "status": "Pending",
    "rowid": "1267087",
    "final_x": "3682553.51528",
    "final_y": "533013.631428",
    "longitude": "-90.06469148499534",
    "latitude": "29.95957063099051",
    "geocoded_column": {
      "latitude": "29.95957063099051",
      "longitude": "-90.06469148499534"
    }
  },
  {
    "service_request": "2026-1267086",
    "request_type": "Healthy Homes",
    "request_reason": "Healthy Homes",
    "date_created": "2026-03-19T22:53:18.000",
    "date_modified": "2026-03-19T22:53:22.000",
    "request_status": "Pending",
    "responsible_agency": "Department of Code Enforcement",
    "final_address": "735 Exposition Blvd",
    "address_councildis": "A",
    "status": "Pending",
    "rowid": "1267086",
    "final_x": "3663151.76474",
    "final_y": "519806.541944",
    "longitude": "-90.12639731227071",
    "latitude": "29.923831742947172",
    "geocoded_column": {
      "latitude": "29.923831742947172",
      "longitude": "-90.12639731227071"
    }
  },
  {
    "service_request": "2026-1267085",
    "request_type": "Parks & Parkways",
    "request_reason": "Park Maintenance/Clean Up",
    "date_created": "2026-03-19T22:52:24.000",
    "date_modified": "2026-03-19T22:52:26.000",
    "request_status": "Pending",
    "responsible_agency": "Department of Parks & Parkway",
    "final_address": "3301 Eton St",
    "address_councildis": "C",
    "status": "Pending",
    "rowid": "1267085",
    "final_x": "3703765.68273",
    "final_y": "518837.563639",
    "longitude": "-89.99823045496662",
    "latitude": "29.91992861880871",
    "geocoded_column": {
      "latitude": "29.91992861880871",
      "longitude": "-89.99823045496662"
    }
  },
  {
    "service_request": "2026-1267084",
    "request_type": "Trash/Recycling",
    "request_reason": "Repair Recycling Cart",
    "date_created": "2026-03-19T22:37:51.000",
    "date_modified": "2026-03-19T22:37:56.000",
    "request_status": "Pending",
    "responsible_agency": "Department of Sanitation",
    "final_address": "1701 Lark St",
    "address_councildis": "D",
    "status": "Pending",
    "rowid": "1267084",
    "final_x": "3678493.71355",
    "final_y": "557646.785819",
    "longitude": "-90.07665830356785",
    "latitude": "30.027426106315843",
    "geocoded_column": {
      "latitude": "30.027426106315843",
      "longitude": "-90.07665830356785"
    }
  },
  {
    "service_request": "2026-1267083",
    "request_type": "Trash/Recycling",
    "request_reason": "Damaged Caused By Contractor",
    "date_created": "2026-03-19T22:16:37.000",
    "date_modified": "2026-03-19T22:16:42.000",
    "request_status": "Pending",
    "responsible_agency": "Department of Sanitation",
    "final_address": "3509 Silver Maple Ct",
    "address_councildis": "C",
    "status": "Assigned to Contractor",
    "contractor": "Richards Disposal",
    "rowid": "1267083",
    "final_x": "3703435.80356",
    "final_y": "512426.905777",
    "longitude": "-89.99950726634738",
    "latitude": "29.902312065260368",
    "geocoded_column": {
      "latitude": "29.902312065260368",
      "longitude": "-89.99950726634738"
    }
  },
  {
    "service_request": "2026-1267082",
    "request_type": "Streetlights",
    "request_reason": "Streetlight Outage/Malfunction",
    "date_created": "2026-03-19T21:49:45.000",
    "date_modified": "2026-03-19T21:49:47.000",
    "request_status": "Pending",
    "responsible_agency": "Department of Public Works",
    "final_address": "5851 General Haig St",
    "address_councildis": "A",
    "status": "Pending",
    "rowid": "1267082",
    "final_x": "3670508.57102",
    "final_y": "546185.99688",
    "longitude": "-90.1022798462466",
    "latitude": "29.996151364830524",
    "geocoded_column": {
      "latitude": "29.996151364830524",
      "longitude": "-90.1022798462466"
    }
  },
  {
    "service_request": "2026-1267081",
    "request_type": "Roads and Streets",
    "request_reason": "Abandoned Service Cut",
    "date_created": "2026-03-19T21:25:29.000",
    "date_modified": "2026-03-19T21:25:30.000",
    "request_status": "Pending",
    "responsible_agency": "Department of Public Works",
    "final_address": "2411 Lark St",
    "address_councildis": "D",
    "status": "Pending",
    "rowid": "1267081",
    "final_x": "3684733.50293",
    "final_y": "557983.515803",
    "longitude": "-90.0569292641928",
    "latitude": "30.028162345465997",
    "geocoded_column": {
      "latitude": "30.028162345465997",
      "longitude": "-90.0569292641928"
    }
  },
  {
    "service_request": "2026-1267080",
    "request_type": "Trash/Recycling",
    "request_reason": "Request a Large Item Pick Up",
    "date_created": "2026-03-19T21:08:50.000",
    "date_modified": "2026-03-19T21:08:53.000",
    "request_status": "Pending",
    "responsible_agency": "Department of Sanitation",
    "final_address": "7114 W Laverne St",
    "address_councildis": "D",
    "status": "Assigned to Contractor",
    "contractor": "Waste Pro",
    "rowid": "1267080",
    "final_x": "3695824.96688",
    "final_y": "556735.50217",
    "longitude": "-90.02192620845734",
    "latitude": "30.024386393907353",
    "geocoded_column": {
      "latitude": "30.024386393907353",
      "longitude": "-90.02192620845734"
    }
  },
  {
    "service_request": "2026-1267079",
    "request_type": "Trash/Recycling",
    "request_reason": "Request a Large Item Pick Up",
    "date_created": "2026-03-19T20:13:53.000",
    "date_modified": "2026-03-19T20:13:56.000",
    "request_status": "Pending",
    "responsible_agency": "Department of Sanitation",
    "final_address": "7121 Cove Dr",
    "address_councildis": "E",
    "status": "Assigned to Contractor",
    "contractor": "Waste Pro",
    "rowid": "1267079",
    "final_x": "3700335.43204",
    "final_y": "558686.491356",
    "longitude": "-90.00760271281641",
    "latitude": "30.02960815088477",
    "geocoded_column": {
      "latitude": "30.02960815088477",
      "longitude": "-90.00760271281641"
    }
  },
  {
    "service_request": "2026-1267078",
    "request_type": "Trash/Recycling",
    "request_reason": "Order Recycling Cart",
    "date_created": "2026-03-19T20:08:19.000",
    "date_modified": "2026-03-19T20:08:21.000",
    "request_status": "Pending",
    "responsible_agency": "Department of Sanitation",
    "final_address": "5959 Laurel St",
    "address_councildis": "A",
    "status": "Pending",
    "rowid": "1267078",
    "final_x": "3664556.64365",
    "final_y": "518225.900406",
    "longitude": "-90.12201534473957",
    "latitude": "29.91944470888452",
    "geocoded_column": {
      "latitude": "29.91944470888452",
      "longitude": "-90.12201534473957"
    }
  },
  {
    "service_request": "2026-1267077",
    "request_type": "Health Related Request",
    "request_reason": "Noise Ordinance Complaint",
    "date_created": "2026-03-19T19:59:22.000",
    "date_modified": "2026-03-19T19:59:25.000",
    "request_status": "Pending",
    "responsible_agency": "Health Department",
    "final_address": "800 Bourbon St, New Orleans, Louisiana, 70116",
    "address_councildis": "C",
    "status": "Pending",
    "rowid": "1267077",
    "final_x": "3682553.51528",
    "final_y": "533013.631428",
    "longitude": "-90.06469148499534",
    "latitude": "29.95957063099051",
    "geocoded_column": {
      "latitude": "29.95957063099051",
      "longitude": "-90.06469148499534"
    }
  },
  {
    "service_request": "2026-1267076",
    "request_type": "Health Related Request",
    "request_reason": "Noise Ordinance Complaint",
    "date_created": "2026-03-19T19:58:59.000",
    "date_modified": "2026-03-19T19:59:01.000",
    "request_status": "Pending",
    "responsible_agency": "Health Department",
    "final_address": "800 Bourbon St, New Orleans, Louisiana, 70116",
    "address_councildis": "C",
    "status": "Pending",
    "rowid": "1267076",
    "final_x": "3682553.51528",
    "final_y": "533013.631428",
    "longitude": "-90.06469148499534",
    "latitude": "29.95957063099051",
    "geocoded_column": {
      "latitude": "29.95957063099051",
      "longitude": "-90.06469148499534"
    }
  },
  {
    "service_request": "2026-1267075",
    "request_type": "Health Related Request",
    "request_reason": "Noise Ordinance Complaint",
    "date_created": "2026-03-19T19:45:46.000",
    "date_modified": "2026-03-19T19:45:48.000",
    "request_status": "Pending",
    "responsible_agency": "Health Department",
    "final_address": "800 Bourbon St, New Orleans, Louisiana, 70116",
    "address_councildis": "C",
    "status": "Pending",
    "rowid": "1267075",
    "final_x": "3682553.51528",
    "final_y": "533013.631428",
    "longitude": "-90.06469148499534",
    "latitude": "29.95957063099051",
    "geocoded_column": {
      "latitude": "29.95957063099051",
      "longitude": "-90.06469148499534"
    }
  },
  {
    "service_request": "2026-1267071",
    "request_type": "Trash/Recycling",
    "request_reason": "Missed Trash Pick-Up",
    "date_created": "2026-03-19T19:41:38.000",
    "date_modified": "2026-03-19T19:41:40.000",
    "request_status": "Pending",
    "responsible_agency": "Department of Sanitation",
    "final_address": "1223 Frenchmen St",
    "address_councildis": "C",
    "status": "Assigned to Contractor",
    "contractor": "IV Waste",
    "rowid": "1267071",
    "final_x": "3684588.51797",
    "final_y": "536832.490952",
    "longitude": "-90.05813122254038",
    "latitude": "29.970009066749643",
    "geocoded_column": {
      "latitude": "29.970009066749643",
      "longitude": "-90.05813122254038"
    }
  },
  {
    "service_request": "2026-1267070",
    "request_type": "Trash/Recycling",
    "request_reason": "Missed Trash Pick-Up",
    "date_created": "2026-03-19T19:39:57.000",
    "date_modified": "2026-03-19T19:40:00.000",
    "request_status": "Pending",
    "responsible_agency": "Department of Sanitation",
    "final_address": "1225 Frenchmen St",
    "address_councildis": "C",
    "status": "Assigned to Contractor",
    "contractor": "IV Waste",
    "rowid": "1267070",
    "final_x": "3684586.01794",
    "final_y": "536847.490952",
    "longitude": "-90.05813859067774",
    "latitude": "29.97005038804239",
    "geocoded_column": {
      "latitude": "29.97005038804239",
      "longitude": "-90.05813859067774"
    }
  },
  {
    "service_request": "2026-1267069",
    "request_type": "Trash/Recycling",
    "request_reason": "Request a Large Item Pick Up",
    "date_created": "2026-03-19T19:34:13.000",
    "date_modified": "2026-03-19T19:34:15.000",
    "request_status": "Pending",
    "responsible_agency": "Department of Sanitation",
    "final_address": "8001 W Laverne St",
    "address_councildis": "E",
    "status": "Assigned to Contractor",
    "contractor": "Waste Pro",
    "rowid": "1267069",
    "final_x": "3694884.02678",
    "final_y": "559713.963293",
    "longitude": "-90.02479191911397",
    "latitude": "30.032605605255203",
    "geocoded_column": {
      "latitude": "30.032605605255203",
      "longitude": "-90.02479191911397"
    }
  },
  {
    "service_request": "2026-1267068",
    "request_type": "Abandoned Vehicles",
    "request_reason": "Abandoned/Junk Vehicles",
    "date_created": "2026-03-19T19:29:59.000",
    "date_modified": "2026-03-19T19:30:00.000",
    "request_status": "Pending",
    "responsible_agency": "Department of Public Works",
    "final_address": "409 S Alexander St",
    "address_councildis": "A",
    "status": "Pending",
    "rowid": "1267068",
    "final_x": "3669154.82593",
    "final_y": "538147.293577",
    "longitude": "-90.10682805454235",
    "latitude": "29.974087591118334",
    "geocoded_column": {
      "latitude": "29.974087591118334",
      "longitude": "-90.10682805454235"
    }
  },
  {
    "service_request": "2026-1267067",
    "request_type": "Trash/Recycling",
    "request_reason": "Repair Recycling Cart",
    "date_created": "2026-03-19T19:26:02.000",
    "date_modified": "2026-03-19T19:26:04.000",
    "request_status": "Pending",
    "responsible_agency": "Department of Sanitation",
    "final_address": "409 S Alexander St",
    "address_councildis": "A",
    "status": "Pending",
    "rowid": "1267067",
    "final_x": "3669154.82593",
    "final_y": "538147.293577",
    "longitude": "-90.10682805454235",
    "latitude": "29.974087591118334",
    "geocoded_column": {
      "latitude": "29.974087591118334",
      "longitude": "-90.10682805454235"
    }
  },
  {
    "service_request": "2026-1267066",
    "request_type": "Abandoned Vehicles",
    "request_reason": "Abandoned/Junk Vehicles",
    "date_created": "2026-03-19T19:20:22.000",
    "date_modified": "2026-03-19T19:20:24.000",
    "request_status": "Pending",
    "responsible_agency": "Department of Public Works",
    "final_address": "409 S Alexander St",
    "address_councildis": "A",
    "status": "Pending",
    "rowid": "1267066",
    "final_x": "3669154.82593",
    "final_y": "538147.293577",
    "longitude": "-90.10682805454235",
    "latitude": "29.974087591118334",
    "geocoded_column": {
      "latitude": "29.974087591118334",
      "longitude": "-90.10682805454235"
    }
  },
  {
    "service_request": "2026-1267065",
    "request_type": "Property Maintenance",
    "request_reason": "Property Maintenance",
    "date_created": "2026-03-19T19:14:23.000",
    "date_modified": "2026-03-19T19:14:25.000",
    "request_status": "Pending",
    "responsible_agency": "Department of Code Enforcement",
    "final_address": "6322 N Claiborne Ave",
    "address_councildis": "E",
    "status": "Pending",
    "rowid": "1267065",
    "final_x": "3701007.24177",
    "final_y": "534636.285574",
    "longitude": "-90.00635993577548",
    "latitude": "29.963457651887477",
    "geocoded_column": {
      "latitude": "29.963457651887477",
      "longitude": "-90.00635993577548"
    }
  },
  {
    "service_request": "2026-1267064",
    "request_type": "Property Maintenance",
    "request_reason": "Property Maintenance",
    "date_created": "2026-03-19T19:11:14.000",
    "date_modified": "2026-03-19T19:11:16.000",
    "request_status": "Pending",
    "responsible_agency": "Department of Code Enforcement",
    "final_address": "1549 Gordon St",
    "address_councildis": "E",
    "status": "Pending",
    "rowid": "1267064",
    "final_x": "3699869.32567",
    "final_y": "535120.600006",
    "longitude": "-90.00993566465405",
    "latitude": "29.964825528888856",
    "geocoded_column": {
      "latitude": "29.964825528888856",
      "longitude": "-90.00993566465405"
    }
  },
  {
    "service_request": "2026-1267063",
    "request_type": "Trash/Recycling",
    "request_reason": "Replace Recycling Cart",
    "date_created": "2026-03-19T18:48:04.000",
    "date_modified": "2026-03-19T18:48:10.000",
    "request_status": "Pending",
    "responsible_agency": "Department of Sanitation",
    "final_address": "3112 Esplanade Ave",
    "address_councildis": "A",
    "status": "Pending",
    "rowid": "1267063",
    "final_x": "3676427.73217",
    "final_y": "540230.439819",
    "longitude": "-90.0837867921193",
    "latitude": "29.97959946577619",
    "geocoded_column": {
      "latitude": "29.97959946577619",
      "longitude": "-90.0837867921193"
    }
  },
  {
    "service_request": "2026-1267062",
    "request_type": "Trash/Recycling",
    "request_reason": "Damaged Caused By Contractor",
    "date_created": "2026-03-19T18:18:32.000",
    "date_modified": "2026-03-19T18:18:33.000",
    "request_status": "Pending",
    "responsible_agency": "Department of Sanitation",
    "final_address": "4219 Baronne St",
    "address_councildis": "B",
    "status": "Assigned to Contractor",
    "contractor": "IV Waste",
    "rowid": "1267062",
    "final_x": "3671342.18395",
    "final_y": "521697.394681",
    "longitude": "-90.10047884001018",
    "latitude": "29.92879122424502",
    "geocoded_column": {
      "latitude": "29.92879122424502",
      "longitude": "-90.10047884001018"
    }
  },
  {
    "service_request": "2026-1267061",
    "request_type": "Parks & Parkways",
    "request_reason": "Request Grass Cutting Service (City Owned Property)",
    "date_created": "2026-03-19T18:13:45.000",
    "date_modified": "2026-03-19T18:13:48.000",
    "request_status": "Pending",
    "responsible_agency": "Department of Parks & Parkway",
    "final_address": "1804 L. B. Landry Ave",
    "address_councildis": "C",
    "status": "Pending",
    "rowid": "1267061",
    "final_x": "3690077.8406",
    "final_y": "524309.080572",
    "longitude": "-90.04124143601632",
    "latitude": "29.93540489271566",
    "geocoded_column": {
      "latitude": "29.93540489271566",
      "longitude": "-90.04124143601632"
    }
  },
  {
    "service_request": "2026-1267060",
    "request_type": "Trash/Recycling",
    "request_reason": "Missed Trash Pick-Up",
    "date_created": "2026-03-19T17:43:16.000",
    "date_modified": "2026-03-19T17:43:18.000",
    "request_status": "Pending",
    "responsible_agency": "Department of Sanitation",
    "final_address": "2631 Octavia St",
    "address_councildis": "A",
    "status": "Assigned to Contractor",
    "contractor": "IV Waste",
    "rowid": "1267060",
    "final_x": "3667902.57415",
    "final_y": "525269.332861",
    "longitude": "-90.1112167550837",
    "latitude": "29.93871422412529",
    "geocoded_column": {
      "latitude": "29.93871422412529",
      "longitude": "-90.1112167550837"
    }
  },
  {
    "service_request": "2026-1267059",
    "request_type": "Trash/Recycling",
    "request_reason": "Order Second Trash Cart",
    "date_created": "2026-03-19T17:41:51.000",
    "date_modified": "2026-03-19T17:41:53.000",
    "request_status": "Pending",
    "responsible_agency": "Department of Sanitation",
    "final_address": "70 Versailles Blvd",
    "address_councildis": "B",
    "status": "Assigned to Contractor",
    "contractor": "IV Waste",
    "rowid": "1267059",
    "final_x": "3667798.61965",
    "final_y": "530545.575234",
    "longitude": "-90.1113673081981",
    "latitude": "29.953225228317656",
    "geocoded_column": {
      "latitude": "29.953225228317656",
      "longitude": "-90.1113673081981"
    }
  },
  {
    "service_request": "2026-1267058",
    "request_type": "Abandoned Vehicles",
    "request_reason": "Abandoned/Junk Vehicles",
    "date_created": "2026-03-19T17:39:24.000",
    "date_modified": "2026-03-19T17:39:26.000",
    "request_status": "Pending",
    "responsible_agency": "Department of Public Works",
    "final_address": "2401 Touro St",
    "address_councildis": "D",
    "status": "Pending",
    "rowid": "1267058",
    "final_x": "3683876.90485",
    "final_y": "541067.041676",
    "longitude": "-90.06022998000469",
    "latitude": "29.98167435990155",
    "geocoded_column": {
      "latitude": "29.98167435990155",
      "longitude": "-90.06022998000469"
    }
  },
  {
    "service_request": "2026-1267057",
    "request_type": "Trash/Recycling",
    "request_reason": "Order Recycling Cart",
    "date_created": "2026-03-19T17:35:04.000",
    "date_modified": "2026-03-19T17:35:05.000",
    "request_status": "Pending",
    "responsible_agency": "Department of Sanitation",
    "final_address": "1631 Baronne St",
    "address_councildis": "B",
    "status": "Pending",
    "rowid": "1267057",
    "final_x": "3678089.61659",
    "final_y": "525557.252733",
    "longitude": "-90.07904519013981",
    "latitude": "29.939203221220616",
    "geocoded_column": {
      "latitude": "29.939203221220616",
      "longitude": "-90.07904519013981"
    }
  },
  {
    "service_request": "2026-1267056",
    "request_type": "Trash/Recycling",
    "request_reason": "Order Second Trash Cart",
    "date_created": "2026-03-19T17:33:40.000",
    "date_modified": "2026-03-19T17:33:42.000",
    "request_status": "Pending",
    "responsible_agency": "Department of Sanitation",
    "final_address": "1631 Baronne St",
    "address_councildis": "B",
    "status": "Assigned to Contractor",
    "contractor": "IV Waste",
    "rowid": "1267056",
    "final_x": "3678089.61659",
    "final_y": "525557.252733",
    "longitude": "-90.07904519013981",
    "latitude": "29.939203221220616",
    "geocoded_column": {
      "latitude": "29.939203221220616",
      "longitude": "-90.07904519013981"
    }
  },
  {
    "service_request": "2026-1267055",
    "request_type": "Trash/Recycling",
    "request_reason": "Order Second Trash Cart",
    "date_created": "2026-03-19T17:31:50.000",
    "date_modified": "2026-03-19T17:31:52.000",
    "request_status": "Pending",
    "responsible_agency": "Department of Sanitation",
    "final_address": "1627 Baronne St",
    "address_councildis": "B",
    "status": "Assigned to Contractor",
    "contractor": "IV Waste",
    "rowid": "1267055",
    "final_x": "3678104.79822",
    "final_y": "525578.645373",
    "longitude": "-90.07899652048494",
    "latitude": "29.939261586955986",
    "geocoded_column": {
      "latitude": "29.939261586955986",
      "longitude": "-90.07899652048494"
    }
  },
  {
    "service_request": "2026-1267054",
    "request_type": "Trash/Recycling",
    "request_reason": "Damaged Caused By Contractor",
    "date_created": "2026-03-19T17:26:32.000",
    "date_modified": "2026-03-19T17:26:34.000",
    "request_status": "Pending",
    "responsible_agency": "Department of Sanitation",
    "final_address": "1437 Calhoun St",
    "address_councildis": "A",
    "status": "Assigned to Contractor",
    "contractor": "IV Waste",
    "rowid": "1267054",
    "final_x": "3664406.91764",
    "final_y": "521847.104314",
    "longitude": "-90.12236715683007",
    "latitude": "29.92940623543677",
    "geocoded_column": {
      "latitude": "29.92940623543677",
      "longitude": "-90.12236715683007"
    }
  },
  {
    "service_request": "2026-1267053",
    "request_type": "Trash/Recycling",
    "request_reason": "Replace Recycling Cart",
    "date_created": "2026-03-19T17:20:30.000",
    "date_modified": "2026-03-19T17:20:33.000",
    "request_status": "Pending",
    "responsible_agency": "Department of Sanitation",
    "final_address": "1124 General Taylor St",
    "address_councildis": "B",
    "status": "Pending",
    "rowid": "1267053",
    "final_x": "3672866.27726",
    "final_y": "519903.016184",
    "longitude": "-90.09572876169955",
    "latitude": "29.923812081542685",
    "geocoded_column": {
      "latitude": "29.923812081542685",
      "longitude": "-90.09572876169955"
    }
  },
  {
    "service_request": "2026-1267052",
    "request_type": "Street and Traffic Signs",
    "request_reason": "Stop Sign Missing or Damaged",
    "date_created": "2026-03-19T17:09:26.000",
    "date_modified": "2026-03-19T17:09:28.000",
    "request_status": "Pending",
    "responsible_agency": "Department of Public Works",
    "final_address": "7837 Plum St",
    "address_councildis": "A",
    "status": "Pending",
    "rowid": "1267052",
    "final_x": "3662860.9257",
    "final_y": "528080.388671",
    "longitude": "-90.12704043537094",
    "latitude": "29.946590624994997",
    "geocoded_column": {
      "latitude": "29.946590624994997",
      "longitude": "-90.12704043537094"
    }
  },
  {
    "service_request": "2026-1267051",
    "request_type": "Abandoned Vehicles",
    "request_reason": "Abandoned/Junk Vehicles",
    "date_created": "2026-03-19T17:08:11.000",
    "date_modified": "2026-03-19T17:08:13.000",
    "request_status": "Pending",
    "responsible_agency": "Department of Public Works",
    "final_address": "8717 Apricot St",
    "address_councildis": "A",
    "status": "Pending",
    "rowid": "1267051",
    "final_x": "3664163.87751",
    "final_y": "534192.221125",
    "longitude": "-90.12272265077614",
    "latitude": "29.96335839842516",
    "geocoded_column": {
      "latitude": "29.96335839842516",
      "longitude": "-90.12272265077614"
    }
  },
  {
    "service_request": "2026-1267050",
    "request_type": "Trash/Recycling",
    "request_reason": "Repair Trash Cart",
    "date_created": "2026-03-19T17:00:11.000",
    "date_modified": "2026-03-19T17:00:14.000",
    "request_status": "Pending",
    "responsible_agency": "Department of Sanitation",
    "final_address": "1800 Oretha Castle Haley Blvd",
    "address_councildis": "B",
    "status": "Assigned to Contractor",
    "contractor": "IV Waste",
    "rowid": "1267050",
    "final_x": "3677568.51355",
    "final_y": "525432.458941",
    "longitude": "-90.08069468522888",
    "latitude": "29.938875753877245",
    "geocoded_column": {
      "latitude": "29.938875753877245",
      "longitude": "-90.08069468522888"
    }
  },
  {
    "service_request": "2026-1267049",
    "request_type": "Street and Traffic Signs",
    "request_reason": "Additional Signage Request",
    "date_created": "2026-03-19T16:56:29.000",
    "date_modified": "2026-03-19T16:56:31.000",
    "request_status": "Pending",
    "responsible_agency": "Department of Public Works",
    "final_address": "3015 Frenchmen St",
    "address_councildis": "D",
    "status": "Pending",
    "rowid": "1267049",
    "final_x": "3684032.09199",
    "final_y": "543791.564878",
    "longitude": "-90.05964417238299",
    "latitude": "29.98916109486121",
    "geocoded_column": {
      "latitude": "29.98916109486121",
      "longitude": "-90.05964417238299"
    }
  },
  {
    "service_request": "2026-1267048",
    "request_type": "Trash/Recycling",
    "request_reason": "Request a Large Item Pick Up",
    "date_created": "2026-03-19T16:50:35.000",
    "date_modified": "2026-03-19T16:50:37.000",
    "request_status": "Pending",
    "responsible_agency": "Department of Sanitation",
    "final_address": "7344 Alabama St",
    "address_councildis": "D",
    "status": "Assigned to Contractor",
    "contractor": "Waste Pro",
    "rowid": "1267048",
    "final_x": "3695072.40086",
    "final_y": "557830.319387",
    "longitude": "-90.02426464859482",
    "latitude": "30.02742038681218",
    "geocoded_column": {
      "latitude": "30.02742038681218",
      "longitude": "-90.02426464859482"
    }
  },
  {
    "service_request": "2026-1267047",
    "request_type": "Trash/Recycling",
    "request_reason": "Illegal Dumping",
    "date_created": "2026-03-19T16:38:21.000",
    "date_modified": "2026-03-19T16:38:22.000",
    "request_status": "Pending",
    "responsible_agency": "Department of Sanitation",
    "final_address": "9000 BLK Old Gentilly Rd",
    "address_councildis": "E",
    "status": "Pending",
    "rowid": "1267047",
    "final_x": "3708954.50495",
    "final_y": "553119.187512",
    "longitude": "-89.98057450580565",
    "latitude": "30.014023221919356",
    "geocoded_column": {
      "latitude": "30.014023221919356",
      "longitude": "-89.98057450580565"
    }
  },
  {
    "service_request": "2026-1267046",
    "request_type": "Trash/Recycling",
    "request_reason": "Request a Large Item Pick Up",
    "date_created": "2026-03-19T16:34:46.000",
    "date_modified": "2026-03-19T17:02:33.000",
    "request_status": "Pending",
    "responsible_agency": "Department of Sanitation",
    "final_address": "716 Marigny St",
    "address_councildis": "C",
    "status": "Assigned to Contractor",
    "contractor": "IV Waste",
    "rowid": "1267046",
    "final_x": "3685490.62921",
    "final_y": "535054.75015",
    "longitude": "-90.05534488885172",
    "latitude": "29.96509326043727",
    "geocoded_column": {
      "latitude": "29.96509326043727",
      "longitude": "-90.05534488885172"
    }
  },
  {
    "service_request": "2026-1267045",
    "request_type": "Trash/Recycling",
    "request_reason": "Request a Large Item Pick Up",
    "date_created": "2026-03-19T16:28:11.000",
    "date_modified": "2026-03-19T16:28:13.000",
    "request_status": "Pending",
    "responsible_agency": "Department of Sanitation",
    "final_address": "429 32Nd St",
    "address_councildis": "A",
    "status": "Assigned to Contractor",
    "contractor": "IV Waste",
    "rowid": "1267045",
    "final_x": "3664631.88634",
    "final_y": "550788.816981",
    "longitude": "-90.12069006654997",
    "latitude": "30.00897983167692",
    "geocoded_column": {
      "latitude": "30.00897983167692",
      "longitude": "-90.12069006654997"
    }
  },
  {
    "service_request": "2026-1267044",
    "request_type": "Abandoned Vehicles",
    "request_reason": "Abandoned/Junk Vehicles",
    "date_created": "2026-03-19T16:27:19.000",
    "date_modified": "2026-03-19T16:27:21.000",
    "request_status": "Pending",
    "responsible_agency": "Department of Public Works",
    "final_address": "316 S Hennessey St",
    "address_councildis": "A",
    "status": "Pending",
    "rowid": "1267044",
    "final_x": "3669741.29255",
    "final_y": "538155.696201",
    "longitude": "-90.1049755693495",
    "latitude": "29.974093421419216",
    "geocoded_column": {
      "latitude": "29.974093421419216",
      "longitude": "-90.1049755693495"
    }
  },
  {
    "service_request": "2026-1267043",
    "request_type": "Trash/Recycling",
    "request_reason": "Missed Trash Pick-Up",
    "date_created": "2026-03-19T16:22:30.000",
    "date_modified": "2026-03-19T16:22:31.000",
    "request_status": "Pending",
    "responsible_agency": "Department of Sanitation",
    "final_address": "1726 Egania St",
    "address_councildis": "E",
    "status": "Assigned to Contractor",
    "contractor": "Waste Pro",
    "rowid": "1267043",
    "final_x": "3697460.15792",
    "final_y": "536537.168327",
    "longitude": "-90.01749224597185",
    "latitude": "29.96879687475703",
    "geocoded_column": {
      "latitude": "29.96879687475703",
      "longitude": "-90.01749224597185"
    }
  },
  {
    "service_request": "2026-1267042",
    "request_type": "Trash/Recycling",
    "request_reason": "Repair Trash Cart",
    "date_created": "2026-03-19T16:20:45.000",
    "date_modified": "2026-03-19T16:20:46.000",
    "request_status": "Pending",
    "responsible_agency": "Department of Sanitation",
    "final_address": "7601 Patterson St",
    "address_councildis": "C",
    "status": "Assigned to Contractor",
    "contractor": "Richards Disposal",
    "rowid": "1267042",
    "final_x": "3712338.70654",
    "final_y": "518934.159863",
    "longitude": "-89.97116623479418",
    "latitude": "29.919916774875198",
    "geocoded_column": {
      "latitude": "29.919916774875198",
      "longitude": "-89.97116623479418"
    }
  },
  {
    "service_request": "2026-1267041",
    "request_type": "Trash/Recycling",
    "request_reason": "Request a Large Item Pick Up",
    "date_created": "2026-03-19T16:19:14.000",
    "date_modified": "2026-03-19T16:19:16.000",
    "request_status": "Pending",
    "responsible_agency": "Department of Sanitation",
    "final_address": "4044 Banks St",
    "address_councildis": "A",
    "status": "Assigned to Contractor",
    "contractor": "IV Waste",
    "rowid": "1267041",
    "final_x": "3670428.16455",
    "final_y": "537266.012552",
    "longitude": "-90.102836439151",
    "latitude": "29.971626826334386",
    "geocoded_column": {
      "latitude": "29.971626826334386",
      "longitude": "-90.102836439151"
    }
  },
  {
    "service_request": "2026-1267040",
    "request_type": "Abandoned Vehicles",
    "request_reason": "Abandoned/Junk Vehicles",
    "date_created": "2026-03-19T16:18:45.000",
    "date_modified": "2026-03-19T16:18:48.000",
    "request_status": "Pending",
    "responsible_agency": "Department of Public Works",
    "final_address": "2535 Esplanade Ave",
    "address_councildis": "D",
    "status": "Pending",
    "rowid": "1267040",
    "final_x": "3678606.41787",
    "final_y": "538743.581577",
    "longitude": "-90.07695711507003",
    "latitude": "29.975445610914935",
    "geocoded_column": {
      "latitude": "29.975445610914935",
      "longitude": "-90.07695711507003"
    }
  },
  {
    "service_request": "2026-1267039",
    "request_type": "Trash/Recycling",
    "request_reason": "Illegal Dumping",
    "date_created": "2026-03-19T16:16:40.000",
    "date_modified": "2026-03-19T16:16:41.000",
    "request_status": "Pending",
    "responsible_agency": "Department of Sanitation",
    "final_address": "9901 Chef Menteur Hwy",
    "address_councildis": "E",
    "status": "Pending",
    "rowid": "1267039",
    "final_x": "3712157.88626",
    "final_y": "554756.899864",
    "longitude": "-89.97039200370233",
    "latitude": "30.0184219152567",
    "geocoded_column": {
      "latitude": "30.0184219152567",
      "longitude": "-89.97039200370233"
    }
  },
  {
    "service_request": "2026-1267038",
    "request_type": "Trash/Recycling",
    "request_reason": "Order Trash Cart",
    "date_created": "2026-03-19T16:15:56.000",
    "date_modified": "2026-03-19T16:15:57.000",
    "request_status": "Pending",
    "responsible_agency": "Department of Sanitation",
    "final_address": "4115 Hollygrove St",
    "address_councildis": "A",
    "status": "Assigned to Contractor",
    "contractor": "IV Waste",
    "rowid": "1267038",
    "final_x": "3666668.93601",
    "final_y": "538200.059465",
    "longitude": "-90.11467731934688",
    "latitude": "29.974305610936113",
    "geocoded_column": {
      "latitude": "29.974305610936113",
      "longitude": "-90.11467731934688"
    }
  },
  {
    "service_request": "2026-1267037",
    "request_type": "Trash/Recycling",
    "request_reason": "Request a Large Item Pick Up",
    "date_created": "2026-03-19T16:12:56.000",
    "date_modified": "2026-03-19T17:02:10.000",
    "request_status": "Pending",
    "responsible_agency": "Department of Sanitation",
    "final_address": "502 Washington Ave",
    "address_councildis": "B",
    "status": "Assigned to Contractor",
    "contractor": "IV Waste",
    "rowid": "1267037",
    "final_x": "3678132.23867",
    "final_y": "519099.118903",
    "longitude": "-90.079133799684",
    "latitude": "29.921444181441732",
    "geocoded_column": {
      "latitude": "29.921444181441732",
      "longitude": "-90.079133799684"
    }
  },
  {
    "service_request": "2026-1267036",
    "request_type": "Trash/Recycling",
    "request_reason": "Request a Large Item Pick Up",
    "date_created": "2026-03-19T16:10:48.000",
    "date_modified": "2026-03-19T16:10:50.000",
    "request_status": "Pending",
    "responsible_agency": "Department of Sanitation",
    "final_address": "2524 General Pershing St",
    "address_councildis": "B",
    "status": "Assigned to Contractor",
    "contractor": "IV Waste",
    "rowid": "1267036",
    "final_x": "3670859.52564",
    "final_y": "524299.492796",
    "longitude": "-90.10191421929157",
    "latitude": "29.935960427586075",
    "geocoded_column": {
      "latitude": "29.935960427586075",
      "longitude": "-90.10191421929157"
    }
  },
  {
    "service_request": "2026-1267035",
    "request_type": "Trash/Recycling",
    "request_reason": "Repair Trash Cart",
    "date_created": "2026-03-19T16:09:58.000",
    "date_modified": "2026-03-19T16:09:59.000",
    "request_status": "Pending",
    "responsible_agency": "Department of Sanitation",
    "final_address": "59 Fontainebleau Dr",
    "address_councildis": "A",
    "status": "Assigned to Contractor",
    "contractor": "IV Waste",
    "rowid": "1267035",
    "final_x": "3666530.63873",
    "final_y": "531174.333826",
    "longitude": "-90.11534995586233",
    "latitude": "29.954991229966453",
    "geocoded_column": {
      "latitude": "29.954991229966453",
      "longitude": "-90.11534995586233"
    }
  },
  {
    "service_request": "2026-1267034",
    "request_type": "Trash/Recycling",
    "request_reason": "Request a Large Item Pick Up",
    "date_created": "2026-03-19T16:09:14.000",
    "date_modified": "2026-03-19T17:01:50.000",
    "request_status": "Pending",
    "responsible_agency": "Department of Sanitation",
    "final_address": "3624 Annunciation St",
    "address_councildis": "B",
    "status": "Assigned to Contractor",
    "contractor": "IV Waste",
    "rowid": "1267034",
    "final_x": "3674317.90222",
    "final_y": "518163.79871",
    "longitude": "-90.09120601506822",
    "latitude": "29.91898659961853",
    "geocoded_column": {
      "latitude": "29.91898659961853",
      "longitude": "-90.09120601506822"
    }
  },
  {
    "service_request": "2026-1267033",
    "request_type": "Trash/Recycling",
    "request_reason": "Repair Recycling Cart",
    "date_created": "2026-03-19T16:07:48.000",
    "date_modified": "2026-03-19T16:07:49.000",
    "request_status": "Pending",
    "responsible_agency": "Department of Sanitation",
    "final_address": "417 S Cortez St",
    "address_councildis": "B",
    "status": "Pending",
    "rowid": "1267033",
    "final_x": "3671203.57563",
    "final_y": "536511.446663",
    "longitude": "-90.10041320983078",
    "latitude": "29.969529104826936",
    "geocoded_column": {
      "latitude": "29.969529104826936",
      "longitude": "-90.10041320983078"
    }
  },
  {
    "service_request": "2026-1267032",
    "request_type": "Trash/Recycling",
    "request_reason": "Request a Large Item Pick Up",
    "date_created": "2026-03-19T16:07:22.000",
    "date_modified": "2026-03-19T16:07:24.000",
    "request_status": "Pending",
    "responsible_agency": "Department of Sanitation",
    "final_address": "1810 Pine St",
    "address_councildis": "A",
    "status": "Assigned to Contractor",
    "contractor": "IV Waste",
    "rowid": "1267032",
    "final_x": "3665131.229",
    "final_y": "528525.802048",
    "longitude": "-90.11985735131327",
    "latitude": "29.94774945354688",
    "geocoded_column": {
      "latitude": "29.94774945354688",
      "longitude": "-90.11985735131327"
    }
  },
  {
    "service_request": "2026-1267031",
    "request_type": "Trash/Recycling",
    "request_reason": "Request a Large Item Pick Up",
    "date_created": "2026-03-19T15:55:25.000",
    "date_modified": "2026-03-19T15:55:37.000",
    "request_status": "Pending",
    "responsible_agency": "Department of Sanitation",
    "final_address": "4726 America St",
    "address_councildis": "E",
    "status": "Assigned to Contractor",
    "contractor": "Waste Pro",
    "rowid": "1267031",
    "final_x": "3699729.80247",
    "final_y": "554421.81276",
    "longitude": "-90.0096721585962",
    "latitude": "30.017901170402695",
    "geocoded_column": {
      "latitude": "30.017901170402695",
      "longitude": "-90.0096721585962"
    }
  },
  {
    "service_request": "2026-1267030",
    "request_type": "Trash/Recycling",
    "request_reason": "Replace Recycling Cart",
    "date_created": "2026-03-19T15:53:58.000",
    "date_modified": "2026-03-19T15:54:03.000",
    "request_status": "Pending",
    "responsible_agency": "Department of Sanitation",
    "final_address": "1514 Fern St",
    "address_councildis": "A",
    "status": "Pending",
    "rowid": "1267030",
    "final_x": "3663323.92391",
    "final_y": "528770.623488",
    "longitude": "-90.12555560608394",
    "latitude": "29.948475138337177",
    "geocoded_column": {
      "latitude": "29.948475138337177",
      "longitude": "-90.12555560608394"
    }
  },
  {
    "service_request": "2026-1267029",
    "request_type": "Trash/Recycling",
    "request_reason": "Replace Trash Cart",
    "date_created": "2026-03-19T15:50:59.000",
    "date_modified": "2026-03-19T15:51:01.000",
    "request_status": "Pending",
    "responsible_agency": "Department of Sanitation",
    "final_address": "1123 Bartholomew St",
    "address_councildis": "C",
    "status": "Assigned to Contractor",
    "contractor": "IV Waste",
    "rowid": "1267029",
    "final_x": "3691885.72566",
    "final_y": "535545.156358",
    "longitude": "-90.03513206756918",
    "latitude": "29.966244032479622",
    "geocoded_column": {
      "latitude": "29.966244032479622",
      "longitude": "-90.03513206756918"
    }
  },
  {
    "service_request": "2026-1267028",
    "request_type": "Drainage",
    "request_reason": "Drainage Manhole Cover Missing or Damaged",
    "date_created": "2026-03-19T15:48:24.000",
    "date_modified": "2026-03-19T15:49:07.000",
    "request_status": "Pending",
    "responsible_agency": "Sewerage & Water Board",
    "final_address": "ST CLAUDE AVE & CONGRESS ST",
    "address_councildis": "C",
    "status": "Pending",
    "rowid": "1267028",
    "final_x": "3690736.5",
    "final_y": "535643.58",
    "longitude": "-90.03875777474886",
    "latitude": "29.966550414409586",
    "geocoded_column": {
      "latitude": "29.966550414409586",
      "longitude": "-90.03875777474886"
    }
  },
  {
    "service_request": "2026-1267027",
    "request_type": "Street and Traffic Signs",
    "request_reason": "Stop Sign Missing or Damaged",
    "date_created": "2026-03-19T15:47:12.000",
    "date_modified": "2026-03-19T15:49:54.000",
    "request_status": "Pending",
    "responsible_agency": "Department of Public Works",
    "final_address": "TOURO ST & LOMBARD ST",
    "address_councildis": "D",
    "status": "Pending",
    "rowid": "1267027",
    "final_x": "3683194.7",
    "final_y": "549132.98",
    "longitude": "-90.06210206108663",
    "latitude": "30.003873647692203",
    "geocoded_column": {
      "latitude": "30.003873647692203",
      "longitude": "-90.06210206108663"
    }
  },
  {
    "service_request": "2026-1267026",
    "request_type": "Trash/Recycling",
    "request_reason": "Repair Trash Cart",
    "date_created": "2026-03-19T15:45:46.000",
    "date_modified": "2026-03-19T15:45:48.000",
    "request_status": "Pending",
    "responsible_agency": "Department of Sanitation",
    "final_address": "2403 St Bernard Ave",
    "address_councildis": "D",
    "status": "Assigned to Contractor",
    "contractor": "IV Waste",
    "rowid": "1267026",
    "final_x": "3680734.55983",
    "final_y": "540827.198283",
    "longitude": "-90.07016332406738",
    "latitude": "29.98111049995389",
    "geocoded_column": {
      "latitude": "29.98111049995389",
      "longitude": "-90.07016332406738"
    }
  },
  {
    "service_request": "2026-1267025",
    "request_type": "Trash/Recycling",
    "request_reason": "Request a Large Item Pick Up",
    "date_created": "2026-03-19T15:44:53.000",
    "date_modified": "2026-03-19T15:44:55.000",
    "request_status": "Pending",
    "responsible_agency": "Department of Sanitation",
    "final_address": "3310 Plymouth Pl",
    "address_councildis": "C",
    "status": "Assigned to Contractor",
    "contractor": "Richards Disposal",
    "rowid": "1267025",
    "final_x": "3702871.82378",
    "final_y": "519051.267511",
    "longitude": "-90.00104407008529",
    "latitude": "29.9205448384092",
    "geocoded_column": {
      "latitude": "29.9205448384092",
      "longitude": "-90.00104407008529"
    }
  },
  {
    "service_request": "2026-1267024",
    "request_type": "Trash/Recycling",
    "request_reason": "Request a Large Item Pick Up",
    "date_created": "2026-03-19T15:43:31.000",
    "date_modified": "2026-03-19T15:43:33.000",
    "request_status": "Pending",
    "responsible_agency": "Department of Sanitation",
    "final_address": "4828 Francisco Verrett Dr",
    "address_councildis": "E",
    "status": "Assigned to Contractor",
    "contractor": "Waste Pro",
    "rowid": "1267024",
    "final_x": "3704119.00727",
    "final_y": "555776.506969",
    "longitude": "-89.99575410062204",
    "latitude": "30.02148591165348",
    "geocoded_column": {
      "latitude": "30.02148591165348",
      "longitude": "-89.99575410062204"
    }
  },
  {
    "service_request": "2026-1267023",
    "request_type": "Trash/Recycling",
    "request_reason": "Order Recycling Cart",
    "date_created": "2026-03-19T15:40:50.000",
    "date_modified": "2026-03-19T15:40:51.000",
    "request_status": "Pending",
    "responsible_agency": "Department of Sanitation",
    "final_address": "1372 St Anthony St",
    "address_councildis": "C",
    "status": "Pending",
    "rowid": "1267023",
    "final_x": "3683385.20885",
    "final_y": "537151.538888",
    "longitude": "-90.06192020720081",
    "latitude": "29.970923105414986",
    "geocoded_column": {
      "latitude": "29.970923105414986",
      "longitude": "-90.06192020720081"
    }
  },
  {
    "service_request": "2026-1267022",
    "request_type": "Abandoned Vehicles",
    "request_reason": "Abandoned/Junk Vehicles",
    "date_created": "2026-03-19T15:40:24.000",
    "date_modified": "2026-03-19T15:40:26.000",
    "request_status": "Pending",
    "responsible_agency": "Department of Public Works",
    "final_address": "4907 Mandeville St",
    "address_councildis": "D",
    "status": "Pending",
    "rowid": "1267022",
    "final_x": "3684707.39113",
    "final_y": "550867.927637",
    "longitude": "-90.05726217923134",
    "latitude": "30.008597893156868",
    "geocoded_column": {
      "latitude": "30.008597893156868",
      "longitude": "-90.05726217923134"
    }
  },
  {
    "service_request": "2026-1267021",
    "request_type": "Trash/Recycling",
    "request_reason": "Request a Large Item Pick Up",
    "date_created": "2026-03-19T15:39:04.000",
    "date_modified": "2026-03-19T15:39:06.000",
    "request_status": "Pending",
    "responsible_agency": "Department of Sanitation",
    "final_address": "7081 W Tamaron Blvd",
    "address_councildis": "E",
    "status": "Assigned to Contractor",
    "contractor": "Waste Pro",
    "rowid": "1267021",
    "final_x": "3718554.55077",
    "final_y": "568542.487909",
    "longitude": "-89.94965516814176",
    "latitude": "30.05611592900367",
    "geocoded_column": {
      "latitude": "30.05611592900367",
      "longitude": "-89.94965516814176"
    }
  },
  {
    "service_request": "2026-1267020",
    "request_type": "Trash/Recycling",
    "request_reason": "Request a Large Item Pick Up",
    "date_created": "2026-03-19T15:32:18.000",
    "date_modified": "2026-03-19T15:32:20.000",
    "request_status": "Pending",
    "responsible_agency": "Department of Sanitation",
    "final_address": "8011 Vanderkloot Ave",
    "address_councildis": "E",
    "status": "Assigned to Contractor",
    "contractor": "Waste Pro",
    "rowid": "1267020",
    "final_x": "3705370.39735",
    "final_y": "564353.660129",
    "longitude": "-89.99148270482665",
    "latitude": "30.045029494568112",
    "geocoded_column": {
      "latitude": "30.045029494568112",
      "longitude": "-89.99148270482665"
    }
  },
  {
    "service_request": "2026-1267019",
    "request_type": "Trash/Recycling",
    "request_reason": "Request a Large Item Pick Up",
    "date_created": "2026-03-19T15:30:07.000",
    "date_modified": "2026-03-19T15:30:09.000",
    "request_status": "Pending",
    "responsible_agency": "Department of Sanitation",
    "final_address": "7522 Marquis St",
    "address_councildis": "E",
    "status": "Assigned to Contractor",
    "contractor": "Waste Pro",
    "rowid": "1267019",
    "final_x": "3711608.80664",
    "final_y": "565671.900258",
    "longitude": "-89.97171705909957",
    "latitude": "30.048451771912042",
    "geocoded_column": {
      "latitude": "30.048451771912042",
      "longitude": "-89.97171705909957"
    }
  },
  {
    "service_request": "2026-1267018",
    "request_type": "Trash/Recycling",
    "request_reason": "Order Trash Cart",
    "date_created": "2026-03-19T15:27:20.000",
    "date_modified": "2026-03-19T15:27:52.000",
    "request_status": "Pending",
    "responsible_agency": "Department of Sanitation",
    "final_address": "1116 Burdette St",
    "address_councildis": "A",
    "status": "Assigned to Contractor",
    "contractor": "IV Waste",
    "rowid": "1267018",
    "final_x": "3662660.02349",
    "final_y": "527523.028799",
    "longitude": "-90.12769327499441",
    "latitude": "29.94506387778022",
    "geocoded_column": {
      "latitude": "29.94506387778022",
      "longitude": "-90.12769327499441"
    }
  },
  {
    "service_request": "2026-1267017",
    "request_type": "Trash/Recycling",
    "request_reason": "Illegal Dumping",
    "date_created": "2026-03-19T15:26:28.000",
    "date_modified": "2026-03-19T15:26:29.000",
    "request_status": "Pending",
    "responsible_agency": "Department of Sanitation",
    "final_address": "5198 Bayouview Ct",
    "address_councildis": "E",
    "status": "Pending",
    "rowid": "1267017",
    "final_x": "3699292.54602",
    "final_y": "556549.15305",
    "longitude": "-90.01097614210998",
    "latitude": "30.023764426851404",
    "geocoded_column": {
      "latitude": "30.023764426851404",
      "longitude": "-90.01097614210998"
    }
  },
  {
    "service_request": "2026-1267016",
    "request_type": "Trash/Recycling",
    "request_reason": "Return Trash Cart",
    "date_created": "2026-03-19T15:26:22.000",
    "date_modified": "2026-03-19T15:26:24.000",
    "request_status": "Pending",
    "responsible_agency": "Department of Sanitation",
    "final_address": "2113 Second St",
    "address_councildis": "B",
    "status": "Assigned to Contractor",
    "contractor": "IV Waste",
    "rowid": "1267016",
    "final_x": "3675666.53985",
    "final_y": "524661.793148",
    "longitude": "-90.08672591015727",
    "latitude": "29.936813710829952",
    "geocoded_column": {
      "latitude": "29.936813710829952",
      "longitude": "-90.08672591015727"
    }
  },
  {
    "service_request": "2026-1267015",
    "request_type": "Trash/Recycling",
    "request_reason": "Illegal Dumping",
    "date_created": "2026-03-19T15:24:07.000",
    "date_modified": "2026-03-19T15:24:09.000",
    "request_status": "Pending",
    "responsible_agency": "Department of Sanitation",
    "final_address": "5672 Tullis Dr",
    "address_councildis": "C",
    "status": "Pending",
    "rowid": "1267015",
    "final_x": "3704938.49374",
    "final_y": "512610.823153",
    "longitude": "-89.99475809665871",
    "latitude": "29.90276959211676",
    "geocoded_column": {
      "latitude": "29.90276959211676",
      "longitude": "-89.99475809665871"
    }
  },
  {
    "service_request": "2026-1267014",
    "request_type": "Trash/Recycling",
    "request_reason": "Request a Large Item Pick Up",
    "date_created": "2026-03-19T15:22:29.000",
    "date_modified": "2026-03-19T15:22:30.000",
    "request_status": "Pending",
    "responsible_agency": "Department of Sanitation",
    "final_address": "2424 Gladiolus St",
    "address_councildis": "D",
    "status": "Assigned to Contractor",
    "contractor": "IV Waste",
    "rowid": "1267014",
    "final_x": "3685819.14722",
    "final_y": "547358.521873",
    "longitude": "-90.05387359443881",
    "latitude": "29.998914207880503",
    "geocoded_column": {
      "latitude": "29.998914207880503",
      "longitude": "-90.05387359443881"
    }
  },
  {
    "service_request": "2026-1267013",
    "request_type": "Trash/Recycling",
    "request_reason": "Replace Trash Cart",
    "date_created": "2026-03-19T15:21:51.000",
    "date_modified": "2026-03-19T15:21:58.000",
    "request_status": "Pending",
    "responsible_agency": "Department of Sanitation",
    "final_address": "2113 Second St",
    "address_councildis": "B",
    "status": "Assigned to Contractor",
    "contractor": "IV Waste",
    "rowid": "1267013",
    "final_x": "3675666.53985",
    "final_y": "524661.793148",
    "longitude": "-90.08672591015727",
    "latitude": "29.936813710829952",
    "geocoded_column": {
      "latitude": "29.936813710829952",
      "longitude": "-90.08672591015727"
    }
  },
  {
    "service_request": "2026-1267012",
    "request_type": "Streetlights",
    "request_reason": "Streetlight Outage/Malfunction",
    "date_created": "2026-03-19T15:20:09.000",
    "date_modified": "2026-03-19T15:20:12.000",
    "request_status": "Pending",
    "responsible_agency": "Department of Public Works",
    "final_address": "1215 Louisiana Ave",
    "address_councildis": "B",
    "status": "Pending",
    "rowid": "1267012",
    "final_x": "3674896.86625",
    "final_y": "520164.734776",
    "longitude": "-90.08930995019197",
    "latitude": "29.924471261123163",
    "geocoded_column": {
      "latitude": "29.924471261123163",
      "longitude": "-90.08930995019197"
    }
  },
  {
    "service_request": "2026-1267011",
    "request_type": "Trash/Recycling",
    "request_reason": "Order Trash Cart",
    "date_created": "2026-03-19T15:14:37.000",
    "date_modified": "2026-03-19T15:14:39.000",
    "request_status": "Pending",
    "responsible_agency": "Department of Sanitation",
    "final_address": "3046 Behrman Hwy",
    "address_councildis": "C",
    "status": "Assigned to Contractor",
    "contractor": "Richards Disposal",
    "rowid": "1267011",
    "final_x": "3694301.9599",
    "final_y": "519450.152055",
    "longitude": "-90.02808067208395",
    "latitude": "29.921912841135267",
    "geocoded_column": {
      "latitude": "29.921912841135267",
      "longitude": "-90.02808067208395"
    }
  },
  {
    "service_request": "2026-1267010",
    "request_type": "Parks & Parkways",
    "request_reason": "Request Tree Service (Right of Way/Public Property)",
    "date_created": "2026-03-19T15:03:27.000",
    "date_modified": "2026-03-19T15:03:30.000",
    "request_status": "Pending",
    "responsible_agency": "Department of Parks & Parkway",
    "final_address": "1010 Joseph St",
    "address_councildis": "A",
    "status": "Pending",
    "rowid": "1267010",
    "final_x": "3666234.2626",
    "final_y": "519638.903736",
    "longitude": "-90.11667256258782",
    "latitude": "29.923281152686286",
    "geocoded_column": {
      "latitude": "29.923281152686286",
      "longitude": "-90.11667256258782"
    }
  },
  {
    "service_request": "2026-1267009",
    "request_type": "Street and Traffic Signs",
    "request_reason": "Additional Signage Request",
    "date_created": "2026-03-19T14:54:36.000",
    "date_modified": "2026-03-19T14:54:39.000",
    "request_status": "Pending",
    "responsible_agency": "Department of Public Works",
    "final_address": "2372 St Claude Ave",
    "address_councildis": "C",
    "status": "Pending",
    "rowid": "1267009",
    "final_x": "3686396.95228",
    "final_y": "536373.205191",
    "longitude": "-90.05243623445774",
    "latitude": "29.96869072749989",
    "geocoded_column": {
      "latitude": "29.96869072749989",
      "longitude": "-90.05243623445774"
    }
  },
  {
    "service_request": "2026-1267008",
    "request_type": "Streetlights",
    "request_reason": "Streetlight Outage/Malfunction",
    "date_created": "2026-03-19T14:50:20.000",
    "date_modified": "2026-03-19T15:02:05.000",
    "request_status": "Pending",
    "responsible_agency": "Department of Public Works",
    "final_address": "2601 Andry St",
    "address_councildis": "E",
    "status": "Pending",
    "rowid": "1267008",
    "final_x": "3698767.59485",
    "final_y": "539636.084042",
    "longitude": "-90.0132505583566",
    "latitude": "29.977276426819735",
    "geocoded_column": {
      "latitude": "29.977276426819735",
      "longitude": "-90.0132505583566"
    }
  },
  {
    "service_request": "2026-1267007",
    "request_type": "Roads and Streets",
    "request_reason": "Street Subsidence (Sinking)",
    "date_created": "2026-03-19T14:46:49.000",
    "date_modified": "2026-03-19T14:46:51.000",
    "request_status": "Pending",
    "responsible_agency": "Sewerage & Water Board",
    "final_address": "1239 Seville Dr",
    "address_councildis": "D",
    "status": "Pending",
    "rowid": "1267007",
    "final_x": "3677096.75029",
    "final_y": "551187.663253",
    "longitude": "-90.081295614549",
    "latitude": "30.009707905628115",
    "geocoded_column": {
      "latitude": "30.009707905628115",
      "longitude": "-90.081295614549"
    }
  },
  {
    "service_request": "2026-1267006",
    "request_type": "Roads and Streets",
    "request_reason": "Pothole",
    "date_created": "2026-03-19T14:42:22.000",
    "date_modified": "2026-03-19T14:42:23.000",
    "request_status": "Pending",
    "responsible_agency": "Department of Public Works",
    "final_address": "1125 Lowerline St",
    "address_councildis": "A",
    "status": "Pending",
    "rowid": "1267006",
    "final_x": "3663616.48071",
    "final_y": "526656.100606",
    "longitude": "-90.12470230079239",
    "latitude": "29.942652396097373",
    "geocoded_column": {
      "latitude": "29.942652396097373",
      "longitude": "-90.12470230079239"
    }
  },
  {
    "service_request": "2026-1267005",
    "request_type": "Streetlights",
    "request_reason": "Streetlight Outage/Malfunction",
    "date_created": "2026-03-19T14:41:26.000",
    "date_modified": "2026-03-19T14:41:28.000",
    "request_status": "Pending",
    "responsible_agency": "Department of Public Works",
    "final_address": "ELDER ST & CLERMONT DR",
    "address_councildis": "D",
    "status": "Pending",
    "rowid": "1267005",
    "final_x": "3686078.5",
    "final_y": "545388.28",
    "longitude": "-90.05312383589637",
    "latitude": "29.99348878508582",
    "geocoded_column": {
      "latitude": "29.99348878508582",
      "longitude": "-90.05312383589637"
    }
  },
  {
    "service_request": "2026-1267004",
    "request_type": "Property Maintenance",
    "request_reason": "Property Maintenance",
    "date_created": "2026-03-19T14:41:00.000",
    "date_modified": "2026-03-19T14:43:19.000",
    "request_status": "Pending",
    "responsible_agency": "Department of Code Enforcement",
    "final_address": "1037 Nunez St",
    "address_councildis": "C",
    "status": "Pending",
    "rowid": "1267004",
    "final_x": "3686926.78761",
    "final_y": "527623.473151",
    "longitude": "-90.05107220736159",
    "latitude": "29.944615678854742",
    "geocoded_column": {
      "latitude": "29.944615678854742",
      "longitude": "-90.05107220736159"
    }
  },
  {
    "service_request": "2026-1267003",
    "request_type": "Trash/Recycling",
    "request_reason": "Request a Large Item Pick Up",
    "date_created": "2026-03-19T14:39:16.000",
    "date_modified": "2026-03-19T14:39:18.000",
    "request_status": "Pending",
    "responsible_agency": "Department of Sanitation",
    "final_address": "8220 Lomond Rd",
    "address_councildis": "E",
    "status": "Assigned to Contractor",
    "contractor": "Waste Pro",
    "rowid": "1267003",
    "final_x": "3702951.96023",
    "final_y": "561614.192159",
    "longitude": "-89.99922686474089",
    "latitude": "30.037574687026478",
    "geocoded_column": {
      "latitude": "30.037574687026478",
      "longitude": "-89.99922686474089"
    }
  },
  {
    "service_request": "2026-1267002",
    "request_type": "Trash/Recycling",
    "request_reason": "Replace Trash Cart",
    "date_created": "2026-03-19T14:34:15.000",
    "date_modified": "2026-03-19T14:34:16.000",
    "request_status": "Pending",
    "responsible_agency": "Department of Sanitation",
    "final_address": "8831 Dinkins St",
    "address_councildis": "E",
    "status": "Assigned to Contractor",
    "contractor": "Waste Pro",
    "rowid": "1267002",
    "final_x": "3704557.24727",
    "final_y": "563392.377568",
    "longitude": "-89.99408813428248",
    "latitude": "30.042412506398385",
    "geocoded_column": {
      "latitude": "30.042412506398385",
      "longitude": "-89.99408813428248"
    }
  },
  {
    "service_request": "2026-1267001",
    "request_type": "Trash/Recycling",
    "request_reason": "Request a Large Item Pick Up",
    "date_created": "2026-03-19T14:33:15.000",
    "date_modified": "2026-03-19T14:33:17.000",
    "request_status": "Pending",
    "responsible_agency": "Department of Sanitation",
    "final_address": "2929 St Philip St",
    "address_councildis": "A",
    "status": "Assigned to Contractor",
    "contractor": "IV Waste",
    "rowid": "1267001",
    "final_x": "3676490.45998",
    "final_y": "538602.784713",
    "longitude": "-90.08364473931344",
    "latitude": "29.975122092273505",
    "geocoded_column": {
      "latitude": "29.975122092273505",
      "longitude": "-90.08364473931344"
    }
  },
  {
    "service_request": "2026-1267000",
    "request_type": "Trash/Recycling",
    "request_reason": "Request a Large Item Pick Up",
    "date_created": "2026-03-19T14:32:09.000",
    "date_modified": "2026-03-19T14:32:11.000",
    "request_status": "Pending",
    "responsible_agency": "Department of Sanitation",
    "final_address": "317 N Bernadotte St",
    "address_councildis": "A",
    "status": "Assigned to Contractor",
    "contractor": "IV Waste",
    "rowid": "1267000",
    "final_x": "3669373.94497",
    "final_y": "540867.879819",
    "longitude": "-90.10604399460178",
    "latitude": "29.981561833136002",
    "geocoded_column": {
      "latitude": "29.981561833136002",
      "longitude": "-90.10604399460178"
    }
  },
  {
    "service_request": "2026-1266999",
    "request_type": "Drainage",
    "request_reason": "Drainage Manhole Cover Missing or Damaged",
    "date_created": "2026-03-19T14:26:32.000",
    "date_modified": "2026-03-19T14:26:34.000",
    "request_status": "Pending",
    "responsible_agency": "Sewerage & Water Board",
    "final_address": "1308 Terry St",
    "address_councildis": "C",
    "status": "Pending",
    "rowid": "1266999",
    "final_x": "3697017.97808",
    "final_y": "526461.762494",
    "longitude": "-90.0192535741593",
    "latitude": "29.941107011522178",
    "geocoded_column": {
      "latitude": "29.941107011522178",
      "longitude": "-90.0192535741593"
    }
  },
  {
    "service_request": "2026-1266998",
    "request_type": "Safety & Permits",
    "request_reason": "Zoning Enforcement",
    "date_created": "2026-03-19T14:22:08.000",
    "date_modified": "2026-03-19T14:47:53.000",
    "case_close_date": "2026-03-19T09:47:52.000",
    "request_status": "Closed",
    "responsible_agency": "Safety and Permits",
    "final_address": "812 Third St",
    "address_councildis": "B",
    "status": "Resolved",
    "rowid": "1266998",
    "final_x": "3678081.9325",
    "final_y": "520315.397688",
    "longitude": "-90.0792505749435",
    "latitude": "29.924790067671548",
    "geocoded_column": {
      "latitude": "29.924790067671548",
      "longitude": "-90.0792505749435"
    }
  },
  {
    "service_request": "2026-1266997",
    "request_type": "Trash/Recycling",
    "request_reason": "Order Trash Cart",
    "date_created": "2026-03-19T14:20:08.000",
    "date_modified": "2026-03-19T14:20:10.000",
    "request_status": "Pending",
    "responsible_agency": "Department of Sanitation",
    "final_address": "1308 Terry St",
    "address_councildis": "C",
    "status": "Assigned to Contractor",
    "contractor": "Richards Disposal",
    "rowid": "1266997",
    "final_x": "3697017.97808",
    "final_y": "526461.762494",
    "longitude": "-90.0192535741593",
    "latitude": "29.941107011522178",
    "geocoded_column": {
      "latitude": "29.941107011522178",
      "longitude": "-90.0192535741593"
    }
  },
  {
    "service_request": "2026-1266996",
    "request_type": "Trash/Recycling",
    "request_reason": "Order Second Trash Cart",
    "date_created": "2026-03-19T14:13:02.000",
    "date_modified": "2026-03-19T14:13:04.000",
    "request_status": "Pending",
    "responsible_agency": "Department of Sanitation",
    "final_address": "6216 Warrington Dr",
    "address_councildis": "D",
    "status": "Assigned to Contractor",
    "contractor": "IV Waste",
    "rowid": "1266996",
    "final_x": "3680777.86011",
    "final_y": "555764.078617",
    "longitude": "-90.0695062100952",
    "latitude": "30.022180274041855",
    "geocoded_column": {
      "latitude": "30.022180274041855",
      "longitude": "-90.0695062100952"
    }
  },
  {
    "service_request": "2026-1266995",
    "request_type": "Trash/Recycling",
    "request_reason": "Order Trash Cart",
    "date_created": "2026-03-19T14:08:01.000",
    "date_modified": "2026-03-19T14:08:04.000",
    "request_status": "Pending",
    "responsible_agency": "Department of Sanitation",
    "final_address": "5746 Cameron Blvd",
    "address_councildis": "D",
    "status": "Assigned to Contractor",
    "contractor": "IV Waste",
    "rowid": "1266995",
    "final_x": "3682326.76322",
    "final_y": "554334.928088",
    "longitude": "-90.06466206445988",
    "latitude": "30.018203568092048",
    "geocoded_column": {
      "latitude": "30.018203568092048",
      "longitude": "-90.06466206445988"
    }
  },
  {
    "service_request": "2026-1266994",
    "request_type": "Trash/Recycling",
    "request_reason": "Repair Recycling Cart",
    "date_created": "2026-03-19T14:03:11.000",
    "date_modified": "2026-03-19T14:03:13.000",
    "request_status": "Pending",
    "responsible_agency": "Department of Sanitation",
    "final_address": "6243 Oxford St",
    "address_councildis": "C",
    "status": "Pending",
    "rowid": "1266994",
    "final_x": "3707311.37201",
    "final_y": "519666.270392",
    "longitude": "-89.98700779731385",
    "latitude": "29.9220931991062",
    "geocoded_column": {
      "latitude": "29.9220931991062",
      "longitude": "-89.98700779731385"
    }
  },
  {
    "service_request": "2026-1266993",
    "request_type": "Trash/Recycling",
    "request_reason": "Dead Animal Pick Up",
    "date_created": "2026-03-19T14:00:07.000",
    "date_modified": "2026-03-19T14:01:30.000",
    "request_status": "Pending",
    "responsible_agency": "Department of Sanitation",
    "final_address": "4217 Downman Rd",
    "address_councildis": "D",
    "status": "Assigned to Contractor",
    "contractor": "Waste Pro",
    "rowid": "1266993",
    "final_x": "3696189.46141",
    "final_y": "552770.897046",
    "longitude": "-90.02091796273183",
    "latitude": "30.01347375149223",
    "geocoded_column": {
      "latitude": "30.01347375149223",
      "longitude": "-90.02091796273183"
    }
  },
  {
    "service_request": "2026-1266992",
    "request_type": "Trash/Recycling",
    "request_reason": "Replace Trash Cart",
    "date_created": "2026-03-19T13:59:26.000",
    "date_modified": "2026-03-19T14:00:25.000",
    "request_status": "Pending",
    "responsible_agency": "Department of Sanitation",
    "final_address": "2905 Martin Luther King, Jr. Blvd",
    "address_councildis": "B",
    "status": "Assigned to Contractor",
    "contractor": "IV Waste",
    "rowid": "1266992",
    "final_x": "3675371.5979",
    "final_y": "528025.890751",
    "longitude": "-90.08754158679889",
    "latitude": "29.946072693309837",
    "geocoded_column": {
      "latitude": "29.946072693309837",
      "longitude": "-90.08754158679889"
    }
  },
  {
    "service_request": "2026-1266991",
    "request_type": "Trash/Recycling",
    "request_reason": "Request a Large Item Pick Up",
    "date_created": "2026-03-19T13:57:33.000",
    "date_modified": "2026-03-19T13:57:35.000",
    "request_status": "Pending",
    "responsible_agency": "Department of Sanitation",
    "final_address": "12240 Morrison Rd",
    "address_councildis": "E",
    "status": "Assigned to Contractor",
    "contractor": "Waste Pro",
    "rowid": "1266991",
    "final_x": "3714611.48242",
    "final_y": "567328.414372",
    "longitude": "-89.96216430585736",
    "latitude": "30.052908058114443",
    "geocoded_column": {
      "latitude": "30.052908058114443",
      "longitude": "-89.96216430585736"
    }
  },
  {
    "service_request": "2026-1266990",
    "request_type": "Trash/Recycling",
    "request_reason": "Repair Trash Cart",
    "date_created": "2026-03-19T13:48:44.000",
    "date_modified": "2026-03-19T13:48:47.000",
    "request_status": "Pending",
    "responsible_agency": "Department of Sanitation",
    "final_address": "4535 S Derbigny St",
    "address_councildis": "B",
    "status": "Assigned to Contractor",
    "contractor": "IV Waste",
    "rowid": "1266990",
    "final_x": "3669600.0043",
    "final_y": "526221.971262",
    "longitude": "-90.1058255482468",
    "latitude": "29.9412837817421",
    "geocoded_column": {
      "latitude": "29.9412837817421",
      "longitude": "-90.1058255482468"
    }
  },
  {
    "service_request": "2026-1266989",
    "request_type": "Trash/Recycling",
    "request_reason": "Replace Trash Cart",
    "date_created": "2026-03-19T13:46:57.000",
    "date_modified": "2026-03-19T13:46:58.000",
    "request_status": "Pending",
    "responsible_agency": "Department of Sanitation",
    "final_address": "1025 Bordeaux St",
    "address_councildis": "B",
    "status": "Assigned to Contractor",
    "contractor": "IV Waste",
    "rowid": "1266989",
    "final_x": "3669572.53063",
    "final_y": "519221.809207",
    "longitude": "-90.10614898628135",
    "latitude": "29.92203638799087",
    "geocoded_column": {
      "latitude": "29.92203638799087",
      "longitude": "-90.10614898628135"
    }
  },
  {
    "service_request": "2026-1266988",
    "request_type": "Abandoned Vehicles",
    "request_reason": "Abandoned/Junk Vehicles",
    "date_created": "2026-03-19T13:46:02.000",
    "date_modified": "2026-03-19T13:46:06.000",
    "request_status": "Pending",
    "responsible_agency": "Department of Public Works",
    "final_address": "7215 Cohn St",
    "address_councildis": "A",
    "status": "Pending",
    "rowid": "1266988",
    "final_x": "3665460.34887",
    "final_y": "528705.024064",
    "longitude": "-90.11881218775913",
    "latitude": "29.948232668198994",
    "geocoded_column": {
      "latitude": "29.948232668198994",
      "longitude": "-90.11881218775913"
    }
  },
  {
    "service_request": "2026-1266987",
    "request_type": "Healthy Homes",
    "request_reason": "Healthy Homes",
    "date_created": "2026-03-19T13:43:54.000",
    "date_modified": "2026-03-19T13:58:54.000",
    "case_close_date": "2026-03-19T08:58:52.000",
    "request_status": "Closed",
    "responsible_agency": "Department of Code Enforcement",
    "final_address": "1506 Conti St",
    "address_councildis": "C",
    "status": "Referred to Code Enforcement",
    "rowid": "1266987",
    "final_x": "3679686.15426",
    "final_y": "533125.588228",
    "longitude": "-90.07374206067149",
    "latitude": "29.95996545508881",
    "geocoded_column": {
      "latitude": "29.95996545508881",
      "longitude": "-90.07374206067149"
    }
  },
  {
    "service_request": "2026-1266986",
    "request_type": "Trash/Recycling",
    "request_reason": "Request a Large Item Pick Up",
    "date_created": "2026-03-19T13:43:26.000",
    "date_modified": "2026-03-19T13:43:27.000",
    "request_status": "Pending",
    "responsible_agency": "Department of Sanitation",
    "final_address": "1748 N Rocheblave St",
    "address_councildis": "D",
    "status": "Assigned to Contractor",
    "contractor": "IV Waste",
    "rowid": "1266986",
    "final_x": "3680679.12674",
    "final_y": "540427.780363",
    "longitude": "-90.07035231176941",
    "latitude": "29.98001391995228",
    "geocoded_column": {
      "latitude": "29.98001391995228",
      "longitude": "-90.07035231176941"
    }
  },
  {
    "service_request": "2026-1266985",
    "request_type": "Abandoned Vehicles",
    "request_reason": "Abandoned/Junk Vehicles",
    "date_created": "2026-03-19T13:42:24.000",
    "date_modified": "2026-03-19T13:42:25.000",
    "request_status": "Pending",
    "responsible_agency": "Department of Public Works",
    "final_address": "812 Third St",
    "address_councildis": "B",
    "status": "Pending",
    "rowid": "1266985",
    "final_x": "3678081.9325",
    "final_y": "520315.397688",
    "longitude": "-90.0792505749435",
    "latitude": "29.924790067671548",
    "geocoded_column": {
      "latitude": "29.924790067671548",
      "longitude": "-90.0792505749435"
    }
  },
  {
    "service_request": "2026-1266984",
    "request_type": "Traffic Signals",
    "request_reason": "Traffic Signal Malfunctioning or Damaged",
    "date_created": "2026-03-19T13:42:20.000",
    "date_modified": "2026-03-19T13:42:22.000",
    "request_status": "Pending",
    "responsible_agency": "Department of Public Works",
    "final_address": "City Park Avenue & North Carrollton Avenue",
    "address_councildis": "A",
    "status": "Pending",
    "rowid": "1266984",
    "final_x": "3673991.8795",
    "final_y": "541427.838604",
    "longitude": "-90.09143921897976",
    "latitude": "29.98296471627648",
    "geocoded_column": {
      "latitude": "29.98296471627648",
      "longitude": "-90.09143921897976"
    }
  },
  {
    "service_request": "2026-1266983",
    "request_type": "Abandoned Vehicles",
    "request_reason": "Abandoned/Junk Vehicles",
    "date_created": "2026-03-19T13:42:03.000",
    "date_modified": "2026-03-19T13:42:04.000",
    "request_status": "Pending",
    "responsible_agency": "Department of Public Works",
    "final_address": "1614 Urquhart St",
    "address_councildis": "C",
    "status": "Pending",
    "rowid": "1266983",
    "final_x": "3682859.3302",
    "final_y": "536839.6018",
    "longitude": "-90.06359191411705",
    "latitude": "29.970081420403805",
    "geocoded_column": {
      "latitude": "29.970081420403805",
      "longitude": "-90.06359191411705"
    }
  },
  {
    "service_request": "2026-1266982",
    "request_type": "Safety & Permits",
    "request_reason": "Licenses & Permits",
    "date_created": "2026-03-19T13:41:00.000",
    "date_modified": "2026-03-19T14:47:13.000",
    "case_close_date": "2026-03-19T09:47:11.000",
    "request_status": "Closed",
    "responsible_agency": "Safety and Permits",
    "final_address": "812 Third St",
    "address_councildis": "B",
    "status": "Resolved",
    "rowid": "1266982",
    "final_x": "3678081.9325",
    "final_y": "520315.397688",
    "longitude": "-90.0792505749435",
    "latitude": "29.924790067671548",
    "geocoded_column": {
      "latitude": "29.924790067671548",
      "longitude": "-90.0792505749435"
    }
  },
  {
    "service_request": "2026-1266981",
    "request_type": "Property Maintenance",
    "request_reason": "Property Maintenance",
    "date_created": "2026-03-19T13:40:19.000",
    "date_modified": "2026-03-19T13:40:22.000",
    "request_status": "Pending",
    "responsible_agency": "Department of Code Enforcement",
    "final_address": "812 Third St",
    "address_councildis": "B",
    "status": "Pending",
    "rowid": "1266981",
    "final_x": "3678081.9325",
    "final_y": "520315.397688",
    "longitude": "-90.0792505749435",
    "latitude": "29.924790067671548",
    "geocoded_column": {
      "latitude": "29.924790067671548",
      "longitude": "-90.0792505749435"
    }
  },
  {
    "service_request": "2026-1266980",
    "request_type": "Safety & Permits",
    "request_reason": "Zoning Enforcement",
    "date_created": "2026-03-19T13:39:30.000",
    "date_modified": "2026-03-19T14:46:30.000",
    "case_close_date": "2026-03-19T09:46:29.000",
    "request_status": "Closed",
    "responsible_agency": "Safety and Permits",
    "final_address": "812 Third St",
    "address_councildis": "B",
    "status": "Resolved",
    "rowid": "1266980",
    "final_x": "3678081.9325",
    "final_y": "520315.397688",
    "longitude": "-90.0792505749435",
    "latitude": "29.924790067671548",
    "geocoded_column": {
      "latitude": "29.924790067671548",
      "longitude": "-90.0792505749435"
    }
  },
  {
    "service_request": "2026-1266979",
    "request_type": "Business Issues",
    "request_reason": "Illegal Business",
    "date_created": "2026-03-19T13:38:34.000",
    "date_modified": "2026-03-19T14:44:12.000",
    "case_close_date": "2026-03-19T09:44:10.000",
    "request_status": "Closed",
    "responsible_agency": "Bureau of Revenue",
    "final_address": "812 Third St",
    "address_councildis": "B",
    "status": "Resolved",
    "rowid": "1266979",
    "final_x": "3678081.9325",
    "final_y": "520315.397688",
    "longitude": "-90.0792505749435",
    "latitude": "29.924790067671548",
    "geocoded_column": {
      "latitude": "29.924790067671548",
      "longitude": "-90.0792505749435"
    }
  },
  {
    "service_request": "2026-1266978",
    "request_type": "Safety & Permits",
    "request_reason": "Zoning Enforcement",
    "date_created": "2026-03-19T13:37:05.000",
    "date_modified": "2026-03-19T14:42:54.000",
    "case_close_date": "2026-03-19T09:42:53.000",
    "request_status": "Closed",
    "responsible_agency": "Safety and Permits",
    "final_address": "812 Third St",
    "address_councildis": "B",
    "status": "Resolved",
    "rowid": "1266978",
    "final_x": "3678081.9325",
    "final_y": "520315.397688",
    "longitude": "-90.0792505749435",
    "latitude": "29.924790067671548",
    "geocoded_column": {
      "latitude": "29.924790067671548",
      "longitude": "-90.0792505749435"
    }
  },
  {
    "service_request": "2026-1266977",
    "request_type": "Property Maintenance",
    "request_reason": "Property Maintenance",
    "date_created": "2026-03-19T13:36:13.000",
    "date_modified": "2026-03-19T13:36:15.000",
    "request_status": "Pending",
    "responsible_agency": "Department of Code Enforcement",
    "final_address": "812 Third St",
    "address_councildis": "B",
    "status": "Pending",
    "rowid": "1266977",
    "final_x": "3678081.9325",
    "final_y": "520315.397688",
    "longitude": "-90.0792505749435",
    "latitude": "29.924790067671548",
    "geocoded_column": {
      "latitude": "29.924790067671548",
      "longitude": "-90.0792505749435"
    }
  },
  {
    "service_request": "2026-1266976",
    "request_type": "Streetlights",
    "request_reason": "Streetlight Outage/Malfunction",
    "date_created": "2026-03-19T13:29:54.000",
    "date_modified": "2026-03-19T13:29:56.000",
    "request_status": "Pending",
    "responsible_agency": "Department of Public Works",
    "final_address": "500 BLK City Park Ave",
    "address_councildis": "A",
    "status": "Pending",
    "rowid": "1266976",
    "final_x": "3669376.66351",
    "final_y": "541557.333668",
    "longitude": "-90.10601208347867",
    "latitude": "29.983457516918094",
    "geocoded_column": {
      "latitude": "29.983457516918094",
      "longitude": "-90.10601208347867"
    }
  },
  {
    "service_request": "2026-1266975",
    "request_type": "Roads and Streets",
    "request_reason": "Street Subsidence (Sinking)",
    "date_created": "2026-03-19T13:29:09.000",
    "date_modified": "2026-03-19T13:32:27.000",
    "request_status": "Pending",
    "responsible_agency": "Sewerage & Water Board",
    "final_address": "539 Toulouse St",
    "address_councildis": "C",
    "status": "Pending",
    "rowid": "1266975",
    "final_x": "3682678.45583",
    "final_y": "531918.109827",
    "longitude": "-90.06433526430868",
    "latitude": "29.95655451600759",
    "geocoded_column": {
      "latitude": "29.95655451600759",
      "longitude": "-90.06433526430868"
    }
  },
  {
    "service_request": "2026-1266974",
    "request_type": "Trash/Recycling",
    "request_reason": "Request a Large Item Pick Up",
    "date_created": "2026-03-19T13:24:44.000",
    "date_modified": "2026-03-19T13:24:47.000",
    "request_status": "Pending",
    "responsible_agency": "Department of Sanitation",
    "final_address": "7825 Symmes Ave",
    "address_councildis": "E",
    "status": "Assigned to Contractor",
    "contractor": "Waste Pro",
    "rowid": "1266974",
    "final_x": "3707559.1059",
    "final_y": "565241.195938",
    "longitude": "-89.98453238809462",
    "latitude": "30.04739920567059",
    "geocoded_column": {
      "latitude": "30.04739920567059",
      "longitude": "-89.98453238809462"
    }
  },
  {
    "service_request": "2026-1266973",
    "request_type": "Streetlights",
    "request_reason": "Streetlight Outage/Malfunction",
    "date_created": "2026-03-19T13:23:37.000",
    "date_modified": "2026-03-19T13:23:38.000",
    "request_status": "Pending",
    "responsible_agency": "Department of Public Works",
    "final_address": "4000 BLK Eagle St",
    "address_councildis": "A",
    "status": "Pending",
    "rowid": "1266973",
    "final_x": "3666945.99219",
    "final_y": "537524.095999",
    "longitude": "-90.11382502864588",
    "latitude": "29.972438832125064",
    "geocoded_column": {
      "latitude": "29.972438832125064",
      "longitude": "-90.11382502864588"
    }
  },
  {
    "service_request": "2026-1266972",
    "request_type": "Trash/Recycling",
    "request_reason": "Illegal Dumping",
    "date_created": "2026-03-19T13:22:58.000",
    "date_modified": "2026-03-19T13:23:01.000",
    "request_status": "Pending",
    "responsible_agency": "Department of Sanitation",
    "final_address": "DAUPHINE ST & TOURO ST",
    "address_councildis": "C",
    "status": "Pending",
    "rowid": "1266972",
    "final_x": "3684319.2",
    "final_y": "535165.98",
    "longitude": "-90.05904028413006",
    "latitude": "29.965434977182646",
    "geocoded_column": {
      "latitude": "29.965434977182646",
      "longitude": "-90.05904028413006"
    }
  },
  {
    "service_request": "2026-1266971",
    "request_type": "Trash/Recycling",
    "request_reason": "Request a Large Item Pick Up",
    "date_created": "2026-03-19T13:21:02.000",
    "date_modified": "2026-03-19T13:21:03.000",
    "request_status": "Pending",
    "responsible_agency": "Department of Sanitation",
    "final_address": "4742 Knight Dr",
    "address_councildis": "E",
    "status": "Assigned to Contractor",
    "contractor": "Waste Pro",
    "rowid": "1266971",
    "final_x": "3708060.08772",
    "final_y": "555555.557657",
    "longitude": "-89.98330969146063",
    "latitude": "30.020751299874956",
    "geocoded_column": {
      "latitude": "30.020751299874956",
      "longitude": "-89.98330969146063"
    }
  },
  {
    "service_request": "2026-1266970",
    "request_type": "Parks & Parkways",
    "request_reason": "Request Tree Service (Right of Way/Public Property)",
    "date_created": "2026-03-19T13:20:00.000",
    "date_modified": "2026-03-19T13:20:02.000",
    "request_status": "Pending",
    "responsible_agency": "Department of Parks & Parkway",
    "final_address": "338 N St Patrick St",
    "address_councildis": "A",
    "status": "Pending",
    "rowid": "1266970",
    "final_x": "3669907.13658",
    "final_y": "540657.393803",
    "longitude": "-90.10436705336753",
    "latitude": "29.98096735425125",
    "geocoded_column": {
      "latitude": "29.98096735425125",
      "longitude": "-90.10436705336753"
    }
  },
  {
    "service_request": "2026-1266969",
    "request_type": "Trash/Recycling",
    "request_reason": "Repair Trash Cart",
    "date_created": "2026-03-19T13:18:30.000",
    "date_modified": "2026-03-19T13:18:32.000",
    "request_status": "Pending",
    "responsible_agency": "Department of Sanitation",
    "final_address": "4877 Tchoupitoulas St",
    "address_councildis": "B",
    "status": "Assigned to Contractor",
    "contractor": "IV Waste",
    "rowid": "1266969",
    "final_x": "3669069.32462",
    "final_y": "517272.988021",
    "longitude": "-90.10780319636599",
    "latitude": "29.91669255390601",
    "geocoded_column": {
      "latitude": "29.91669255390601",
      "longitude": "-90.10780319636599"
    }
  },
  {
    "service_request": "2026-1266968",
    "request_type": "Trash/Recycling",
    "request_reason": "Replace Recycling Cart",
    "date_created": "2026-03-19T13:17:56.000",
    "date_modified": "2026-03-19T13:17:57.000",
    "request_status": "Pending",
    "responsible_agency": "Department of Sanitation",
    "final_address": "11230 Notaway Ln",
    "address_councildis": "E",
    "status": "Pending",
    "rowid": "1266968",
    "final_x": "3717776.73042",
    "final_y": "559385.601565",
    "longitude": "-89.95246249293169",
    "latitude": "30.030964029943913",
    "geocoded_column": {
      "latitude": "30.030964029943913",
      "longitude": "-89.95246249293169"
    }
  },
  {
    "service_request": "2026-1266967",
    "request_type": "Trash/Recycling",
    "request_reason": "Repair Trash Cart",
    "date_created": "2026-03-19T13:17:38.000",
    "date_modified": "2026-03-19T13:17:40.000",
    "request_status": "Pending",
    "responsible_agency": "Department of Sanitation",
    "final_address": "5412 Annunciation St",
    "address_councildis": "A",
    "status": "Assigned to Contractor",
    "contractor": "IV Waste",
    "rowid": "1266967",
    "final_x": "3666352.75476",
    "final_y": "517521.364918",
    "longitude": "-90.11636951806996",
    "latitude": "29.91745512517481",
    "geocoded_column": {
      "latitude": "29.91745512517481",
      "longitude": "-90.11636951806996"
    }
  },
  {
    "service_request": "2026-1266966",
    "request_type": "Trash/Recycling",
    "request_reason": "Request a Large Item Pick Up",
    "date_created": "2026-03-19T13:16:56.000",
    "date_modified": "2026-03-19T13:16:58.000",
    "request_status": "Pending",
    "responsible_agency": "Department of Sanitation",
    "final_address": "3102 St Philip St",
    "address_councildis": "A",
    "status": "Assigned to Contractor",
    "contractor": "IV Waste",
    "rowid": "1266966",
    "final_x": "3675900.10357",
    "final_y": "538969.686602",
    "longitude": "-90.08549662161286",
    "latitude": "29.976148637619005",
    "geocoded_column": {
      "latitude": "29.976148637619005",
      "longitude": "-90.08549662161286"
    }
  },
  {
    "service_request": "2026-1266965",
    "request_type": "Parks & Parkways",
    "request_reason": "Request Tree Service (Right of Way/Public Property)",
    "date_created": "2026-03-19T13:15:29.000",
    "date_modified": "2026-03-19T13:15:30.000",
    "request_status": "Pending",
    "responsible_agency": "Department of Parks & Parkway",
    "final_address": "341 N Murat St",
    "address_councildis": "A",
    "status": "Pending",
    "rowid": "1266965",
    "final_x": "3670362.38855",
    "final_y": "540321.197835",
    "longitude": "-90.10294056289774",
    "latitude": "29.980029495723407",
    "geocoded_column": {
      "latitude": "29.980029495723407",
      "longitude": "-90.10294056289774"
    }
  },
  {
    "service_request": "2026-1266964",
    "request_type": "Trash/Recycling",
    "request_reason": "Order Trash Cart",
    "date_created": "2026-03-19T13:11:27.000",
    "date_modified": "2026-03-19T13:11:29.000",
    "request_status": "Pending",
    "responsible_agency": "Department of Sanitation",
    "final_address": "8430 Lomond Rd",
    "address_councildis": "E",
    "status": "Assigned to Contractor",
    "contractor": "Waste Pro",
    "rowid": "1266964",
    "final_x": "3703741.26474",
    "final_y": "562003.928095",
    "longitude": "-89.9967181256889",
    "latitude": "30.03862101539701",
    "geocoded_column": {
      "latitude": "30.03862101539701",
      "longitude": "-89.9967181256889"
    }
  },
  {
    "service_request": "2026-1266963",
    "request_type": "Trash/Recycling",
    "request_reason": "Illegal Dumping",
    "date_created": "2026-03-19T13:01:46.000",
    "date_modified": "2026-03-19T13:06:41.000",
    "request_status": "Pending",
    "responsible_agency": "Department of Sanitation",
    "final_address": "CANAL ST & S CLAIBORNE AVE",
    "address_councildis": "B",
    "status": "Pending",
    "rowid": "1266963",
    "final_x": "3678433.3",
    "final_y": "532717.58",
    "longitude": "-90.07771241979708",
    "latitude": "29.958881380035518",
    "geocoded_column": {
      "latitude": "29.958881380035518",
      "longitude": "-90.07771241979708"
    }
  },
  {
    "service_request": "2026-1266962",
    "request_type": "Trash/Recycling",
    "request_reason": "Illegal Dumping",
    "date_created": "2026-03-19T13:00:33.000",
    "date_modified": "2026-03-19T13:00:35.000",
    "request_status": "Pending",
    "responsible_agency": "Department of Sanitation",
    "final_address": "1900 BLK N Johnson St",
    "address_councildis": "D",
    "status": "Pending",
    "rowid": "1266962",
    "final_x": "3683065.06723",
    "final_y": "539481.116035",
    "longitude": "-90.06284968028763",
    "latitude": "29.97733839621652",
    "geocoded_column": {
      "latitude": "29.97733839621652",
      "longitude": "-90.06284968028763"
    }
  },
  {
    "service_request": "2026-1266961",
    "request_type": "Safety & Permits",
    "request_reason": "Licenses & Permits",
    "date_created": "2026-03-19T12:55:09.000",
    "date_modified": "2026-03-19T13:29:15.000",
    "case_close_date": "2026-03-19T08:29:14.000",
    "request_status": "Closed",
    "responsible_agency": "Department of Public Works",
    "final_address": "2321 State St",
    "address_councildis": "A",
    "status": "Resolved",
    "rowid": "1266961",
    "final_x": "3666730.43585",
    "final_y": "525221.620733",
    "longitude": "-90.11491893894562",
    "latitude": "29.93861735446787",
    "geocoded_column": {
      "latitude": "29.93861735446787",
      "longitude": "-90.11491893894562"
    }
  },
  {
    "service_request": "2026-1266960",
    "request_type": "Streetlights",
    "request_reason": "Streetlight Outage/Malfunction",
    "date_created": "2026-03-19T12:53:57.000",
    "date_modified": "2026-03-19T12:54:00.000",
    "request_status": "Pending",
    "responsible_agency": "Department of Public Works",
    "final_address": "4553 Schindler Dr",
    "address_councildis": "E",
    "status": "Pending",
    "rowid": "1266960",
    "final_x": "3714493.08543",
    "final_y": "555825.723161",
    "longitude": "-89.96297332764877",
    "latitude": "30.021284176287935",
    "geocoded_column": {
      "latitude": "30.021284176287935",
      "longitude": "-89.96297332764877"
    }
  },
  {
    "service_request": "2026-1266959",
    "request_type": "Safety & Permits",
    "request_reason": "Zoning Enforcement",
    "date_created": "2026-03-19T12:53:43.000",
    "date_modified": "2026-03-19T13:30:48.000",
    "case_close_date": "2026-03-19T08:30:47.000",
    "request_status": "Closed",
    "responsible_agency": "Department of Public Works",
    "final_address": "2321 State St",
    "address_councildis": "A",
    "status": "Resolved",
    "rowid": "1266959",
    "final_x": "3666730.43585",
    "final_y": "525221.620733",
    "longitude": "-90.11491893894562",
    "latitude": "29.93861735446787",
    "geocoded_column": {
      "latitude": "29.93861735446787",
      "longitude": "-90.11491893894562"
    }
  },
  {
    "service_request": "2026-1266958",
    "request_type": "Street and Traffic Signs",
    "request_reason": "Stop Sign Missing or Damaged",
    "date_created": "2026-03-19T12:52:19.000",
    "date_modified": "2026-03-19T12:52:21.000",
    "request_status": "Pending",
    "responsible_agency": "Department of Public Works",
    "final_address": "MAGAZINE ST & LAFAYETTE ST",
    "address_councildis": "B",
    "status": "Pending",
    "rowid": "1266958",
    "final_x": "3681404.3",
    "final_y": "528742.68",
    "longitude": "-90.06846931478425",
    "latitude": "29.947861895609325",
    "geocoded_column": {
      "latitude": "29.947861895609325",
      "longitude": "-90.06846931478425"
    }
  },
  {
    "service_request": "2026-1266957",
    "request_type": "Trash/Recycling",
    "request_reason": "Order Recycling Cart",
    "date_created": "2026-03-19T12:46:20.000",
    "date_modified": "2026-03-19T12:46:22.000",
    "request_status": "Pending",
    "responsible_agency": "Department of Sanitation",
    "final_address": "523 Diana St",
    "address_councildis": "C",
    "status": "Pending",
    "rowid": "1266957",
    "final_x": "3687182.19599",
    "final_y": "527518.415167",
    "longitude": "-90.05026952377469",
    "latitude": "29.944318943616384",
    "geocoded_column": {
      "latitude": "29.944318943616384",
      "longitude": "-90.05026952377469"
    }
  },
  {
    "service_request": "2026-1266956",
    "request_type": "Trash/Recycling",
    "request_reason": "Order Recycling Cart",
    "date_created": "2026-03-19T12:45:40.000",
    "date_modified": "2026-03-19T12:45:42.000",
    "request_status": "Pending",
    "responsible_agency": "Department of Sanitation",
    "final_address": "556 Warrington Dr",
    "address_councildis": "D",
    "status": "Pending",
    "rowid": "1266956",
    "final_x": "3681169.3389",
    "final_y": "549430.759379",
    "longitude": "-90.06849013571957",
    "latitude": "30.004754063173255",
    "geocoded_column": {
      "latitude": "30.004754063173255",
      "longitude": "-90.06849013571957"
    }
  },
  {
    "service_request": "2026-1266955",
    "request_type": "Roads and Streets",
    "request_reason": "Curb Damage",
    "date_created": "2026-03-19T12:43:05.000",
    "date_modified": "2026-03-19T12:44:27.000",
    "request_status": "Pending",
    "responsible_agency": "Department of Public Works",
    "final_address": "I 10 E & I 10 E ONRAMP",
    "address_councildis": "E",
    "status": "Pending",
    "rowid": "1266955",
    "final_x": "3721557.8",
    "final_y": "569741.08",
    "longitude": "-89.94011648134195",
    "latitude": "30.05931149640862",
    "geocoded_column": {
      "latitude": "30.05931149640862",
      "longitude": "-89.94011648134195"
    }
  },
  {
    "service_request": "2026-1266954",
    "request_type": "Trash/Recycling",
    "request_reason": "Repair Recycling Cart",
    "date_created": "2026-03-19T12:42:46.000",
    "date_modified": "2026-03-19T12:43:16.000",
    "request_status": "Pending",
    "responsible_agency": "Department of Sanitation",
    "final_address": "980 Lane St",
    "address_councildis": "A",
    "status": "Pending",
    "rowid": "1266954",
    "final_x": "3671130.7346",
    "final_y": "550437.709844",
    "longitude": "-90.10016992820773",
    "latitude": "30.007823696416043",
    "geocoded_column": {
      "latitude": "30.007823696416043",
      "longitude": "-90.10016992820773"
    }
  },