[
  {
    "service_request": "2024-1138574",
    "request_type": "Abandoned Vehicles",
    "request_reason": "Abandoned/Junk Vehicles",
    "date_created": "2024-10-05T23:54:25.000",
    "date_modified": "2024-10-05T23:54:25.000",
    "request_status": "Pending",
    "responsible_agency": "Department of Public Works",
    "final_address": "1 Canal St",
    "address_councildis": "C",
    "status": "Pending",
    "rowid": "1138574",
    "final_x": "3683090.10172",
    "final_y": "529609.793025",
    "longitude": "-90.06311622346536",
    "latitude": "29.95019488684578",
    "geocoded_column": {
      "latitude": "29.95019488684578",
      "longitude": "-90.06311622346536"
    }
  },
  {
    "service_request": "2024-1138573",
    "request_type": "Alley Ways",
    "request_reason": "Alley Way Regrading",
    "date_created": "2024-10-05T22:37:15.000",
    "date_modified": "2024-10-05T22:37:15.000",
    "request_status": "Pending",
    "responsible_agency": "Department of Public Works",
    "final_address": "6969 Argonne Blvd",
    "address_councildis": "A",
    "status": "Pending",
    "rowid": "1138573",
    "final_x": "3670825.92135",
    "final_y": "553724.585687",
    "longitude": "-90.10102124727939",
    "latitude": "30.016870459848366",
    "geocoded_column": {
      "latitude": "30.016870459848366",
      "longitude": "-90.10102124727939"
    }
  },
  {
    "service_request": "2024-1138572",
    "request_type": "Streetlights",
    "request_reason": "Streetlight Outage/Malfunction",
    "date_created": "2024-10-05T22:34:13.000",
    "date_modified": "2024-10-05T22:46:22.000",
    "request_status": "Pending",
    "responsible_agency": "Department of Public Works",
    "final_address": "MILNE BLVD & SMITH ST",
    "address_councildis": "A",
    "status": "Pending",
    "contractor": "Legacy Professional Services",
    "rowid": "1138572",
    "final_x": "3667415.8",
    "final_y": "551235.08",
    "longitude": "-90.11187969566646",
    "latitude": "30.010125594767924",
    "geocoded_column": {
      "latitude": "30.010125594767924",
      "longitude": "-90.11187969566646"
    }
  },
  {
    "service_request": "2024-1138571",
    "request_type": "Streetlights",
    "request_reason": "Streetlight Outage/Malfunction",
    "date_created": "2024-10-05T22:26:18.000",
    "date_modified": "2024-10-05T22:26:19.000",
    "request_status": "Pending",
    "responsible_agency": "Department of Public Works",
    "final_address": "LANE ST & MILNE BLVD",
    "address_councildis": "A",
    "status": "Pending",
    "contractor": "Legacy Professional Services",
    "rowid": "1138571",
    "final_x": "3667328.0",
    "final_y": "550778.98",
    "longitude": "-90.11217244640252",
    "latitude": "30.008874052309505",
    "geocoded_column": {
      "latitude": "30.008874052309505",
      "longitude": "-90.11217244640252"
    }
  },
  {
    "service_request": "2024-1138570",
    "request_type": "Drainage",
    "request_reason": "Street Flooding",
    "date_created": "2024-10-05T22:14:56.000",
    "date_modified": "2024-10-05T22:14:56.000",
    "request_status": "Pending",
    "responsible_agency": "Department of Public Works",
    "final_address": "220 Filmore Ave",
    "address_councildis": "A",
    "status": "Pending",
    "rowid": "1138570",
    "final_x": "3667269.18285",
    "final_y": "552126.918614",
    "longitude": "-90.11231288984719",
    "latitude": "30.01258213539701",
    "geocoded_column": {
      "latitude": "30.01258213539701",
      "longitude": "-90.11231288984719"
    }
  },
  {
    "service_request": "2024-1138569",
    "request_type": "Streetlights",
    "request_reason": "Streetlight Outage/Malfunction",
    "date_created": "2024-10-05T21:55:08.000",
    "date_modified": "2024-10-05T21:55:09.000",
    "request_status": "Pending",
    "responsible_agency": "Department of Public Works",
    "final_address": "3248 Castiglione St",
    "address_councildis": "A",
    "status": "Pending",
    "contractor": "Legacy Professional Services",
    "rowid": "1138569",
    "final_x": "3677836.29646",
    "final_y": "542749.111373",
    "longitude": "-90.0792509124915",
    "latitude": "29.986482627621857",
    "geocoded_column": {
      "latitude": "29.986482627621857",
      "longitude": "-90.0792509124915"
    }
  },
  {
    "service_request": "2024-1138568",
    "request_type": "Streetlights",
    "request_reason": "Streetlight Outage/Malfunction",
    "date_created": "2024-10-05T21:51:34.000",
    "date_modified": "2024-10-05T21:51:35.000",
    "request_status": "Pending",
    "responsible_agency": "Department of Public Works",
    "final_address": "3248 Castiglione St",
    "address_councildis": "A",
    "status": "Pending",
    "contractor": "Legacy Professional Services",
    "rowid": "1138568",
    "final_x": "3677836.29646",
    "final_y": "542749.111373",
    "longitude": "-90.0792509124915",
    "latitude": "29.986482627621857",
    "geocoded_column": {
      "latitude": "29.986482627621857",
      "longitude": "-90.0792509124915"
    }
  },
  {
    "service_request": "2024-1138567",
    "request_type": "Streetlights",
    "request_reason": "Streetlight Outage/Malfunction",
    "date_created": "2024-10-05T21:40:32.000",
    "date_modified": "2024-10-05T21:40:33.000",
    "request_status": "Pending",
    "responsible_agency": "Department of Public Works",
    "final_address": "DAUPHINE ST & GALLIER ST",
    "address_councildis": "C",
    "status": "Pending",
    "contractor": "Legacy Professional Services",
    "rowid": "1138567",
    "final_x": "3690181.4",
    "final_y": "534494.78",
    "longitude": "-90.0405517002611",
    "latitude": "29.9634088495161",
    "geocoded_column": {
      "latitude": "29.9634088495161",
      "longitude": "-90.0405517002611"
    }
  },
  {
    "service_request": "2024-1138566",
    "request_type": "Utility Poles",
    "request_reason": "Wires Sagging/Hanging Low",
    "date_created": "2024-10-05T20:18:02.000",
    "date_modified": "2024-10-05T20:18:09.000",
    "request_status": "Pending",
    "responsible_agency": "Utility Company Collective",
    "final_address": "137 S Hennessey St",
    "address_councildis": "A",
    "status": "Pending",
    "rowid": "1138566",
    "final_x": "3670038.24705",
    "final_y": "538698.561033",
    "longitude": "-90.10401932270256",
    "latitude": "29.975577360066254",
    "geocoded_column": {
      "latitude": "29.975577360066254",
      "longitude": "-90.10401932270256"
    }
  },
  {
    "service_request": "2024-1138565",
    "request_type": "Roads and Streets",
    "request_reason": "Sidewalk Damaged or Missing",
    "date_created": "2024-10-05T19:55:25.000",
    "date_modified": "2024-10-05T19:55:25.000",
    "request_status": "Pending",
    "responsible_agency": "Department of Public Works",
    "final_address": "4005 Chartres St",
    "address_councildis": "C",
    "status": "Pending",
    "rowid": "1138565",
    "final_x": "3691454.47004",
    "final_y": "533466.550916",
    "longitude": "-90.03656824698244",
    "latitude": "29.96054202395856",
    "geocoded_column": {
      "latitude": "29.96054202395856",
      "longitude": "-90.03656824698244"
    }
  },
  {
    "service_request": "2024-1138564",
    "request_type": "Abandoned Vehicles",
    "request_reason": "Abandoned/Junk Vehicles",
    "date_created": "2024-10-05T18:54:28.000",
    "date_modified": "2024-10-05T18:54:29.000",
    "request_status": "Pending",
    "responsible_agency": "Department of Public Works",
    "final_address": "5080 Pontchartrain Blvd",
    "address_councildis": "A",
    "status": "Pending",
    "rowid": "1138564",
    "final_x": "3666841.38119",
    "final_y": "540528.132811",
    "longitude": "-90.1140544564024",
    "latitude": "29.980701987063558",
    "geocoded_column": {
      "latitude": "29.980701987063558",
      "longitude": "-90.1140544564024"
    }
  },
  {
    "service_request": "2024-1138563",
    "request_type": "Trash/Recycling",
    "request_reason": "Illegal Dumping",
    "date_created": "2024-10-05T18:41:53.000",
    "date_modified": "2024-10-05T18:41:53.000",
    "request_status": "Pending",
    "responsible_agency": "Department of Sanitation",
    "final_address": "CHERRY ST & DIXON ST",
    "address_councildis": "A",
    "status": "Pending",
    "rowid": "1138563",
    "final_x": "3665294.9",
    "final_y": "538312.68",
    "longitude": "-90.11901309677044",
    "latitude": "29.97465539055838",
    "geocoded_column": {
      "latitude": "29.97465539055838",
      "longitude": "-90.11901309677044"
    }
  },
  {
    "service_request": "2024-1138562",
    "request_type": "Trash/Recycling",
    "request_reason": "Request a Large Item Pick Up",
    "date_created": "2024-10-05T18:25:29.000",
    "date_modified": "2024-10-05T18:25:30.000",
    "request_status": "Pending",
    "responsible_agency": "Department of Sanitation",
    "final_address": "8611 Chase St",
    "address_councildis": "E",
    "status": "Assigned to Contractor",
    "contractor": "Waste Pro",
    "rowid": "1138562",
    "final_x": "3703637.05252",
    "final_y": "563480.1416",
    "longitude": "-89.99699305382126",
    "latitude": "30.042683363253033",
    "geocoded_column": {
      "latitude": "30.042683363253033",
      "longitude": "-89.99699305382126"
    }
  },
  {
    "service_request": "2024-1138561",
    "request_type": "Drainage",
    "request_reason": "Street Flooding",
    "date_created": "2024-10-05T18:20:11.000",
    "date_modified": "2024-10-05T18:20:11.000",
    "request_status": "Pending",
    "responsible_agency": "Department of Public Works",
    "final_address": "3627 St Ferdinand St",
    "address_councildis": "D",
    "status": "Pending",
    "rowid": "1138561",
    "final_x": "3690038.83068",
    "final_y": "546515.218961",
    "longitude": "-90.04057365405012",
    "latitude": "29.99646519993442",
    "geocoded_column": {
      "latitude": "29.99646519993442",
      "longitude": "-90.04057365405012"
    }
  },
  {
    "service_request": "2024-1138560",
    "request_type": "Drainage",
    "request_reason": "Catch Basin Clogged",
    "date_created": "2024-10-05T18:16:04.000",
    "date_modified": "2024-10-05T18:16:04.000",
    "request_status": "Pending",
    "responsible_agency": "Department of Public Works",
    "final_address": "3627 St Ferdinand St",
    "address_councildis": "D",
    "status": "Pending",
    "rowid": "1138560",
    "final_x": "3690038.83068",
    "final_y": "546515.218961",
    "longitude": "-90.04057365405012",
    "latitude": "29.99646519993442",
    "geocoded_column": {
      "latitude": "29.99646519993442",
      "longitude": "-90.04057365405012"
    }
  },
  {
    "service_request": "2024-1138559",
    "request_type": "Drainage",
    "request_reason": "Street Flooding",
    "date_created": "2024-10-05T18:13:23.000",
    "date_modified": "2024-10-05T18:13:23.000",
    "request_status": "Pending",
    "responsible_agency": "Department of Public Works",
    "final_address": "3627 St Ferdinand St",
    "address_councildis": "D",
    "status": "Pending",
    "rowid": "1138559",
    "final_x": "3690038.83068",
    "final_y": "546515.218961",
    "longitude": "-90.04057365405012",
    "latitude": "29.99646519993442",
    "geocoded_column": {
      "latitude": "29.99646519993442",
      "longitude": "-90.04057365405012"
    }
  },
  {
    "service_request": "2024-1138558",
    "request_type": "General Services",
    "request_reason": "General Service Request",
    "date_created": "2024-10-05T18:10:58.000",
    "date_modified": "2024-10-05T18:10:58.000",
    "request_status": "Pending",
    "responsible_agency": "Orleans Parish Communication District",
    "final_address": "18 W Park Pl",
    "address_councildis": "A",
    "status": "Pending",
    "rowid": "1138558",
    "final_x": "3670117.60206",
    "final_y": "543765.082126",
    "longitude": "-90.10359696627691",
    "latitude": "29.98950622741276",
    "geocoded_column": {
      "latitude": "29.98950622741276",
      "longitude": "-90.10359696627691"
    }
  },
  {
    "service_request": "2024-1138557",
    "request_type": "Roads and Streets",
    "request_reason": "Pothole",
    "date_created": "2024-10-05T17:38:56.000",
    "date_modified": "2024-10-05T17:38:56.000",
    "request_status": "Pending",
    "responsible_agency": "Department of Public Works",
    "final_address": "10 Independence St",
    "address_councildis": "D",
    "status": "Pending",
    "rowid": "1138557",
    "final_x": "3692331.72713",
    "final_y": "540636.318731",
    "longitude": "-90.03354123027415",
    "latitude": "29.980229018892313",
    "geocoded_column": {
      "latitude": "29.980229018892313",
      "longitude": "-90.03354123027415"
    }
  },
  {
    "service_request": "2024-1138556",
    "request_type": "Traffic Signals",
    "request_reason": "Traffic Signal Malfunctioning or Damaged",
    "date_created": "2024-10-05T17:26:29.000",
    "date_modified": "2024-10-05T17:26:29.000",
    "request_status": "Pending",
    "responsible_agency": "Department of Public Works",
    "final_address": "CANAL ST & S RAMPART ST",
    "address_councildis": "B",
    "status": "Pending",
    "rowid": "1138556",
    "final_x": "3679972.7",
    "final_y": "531544.98",
    "longitude": "-90.07289211617753",
    "latitude": "29.955610653469453",
    "geocoded_column": {
      "latitude": "29.955610653469453",
      "longitude": "-90.07289211617753"
    }
  },
  {
    "service_request": "2024-1138555",
    "request_type": "Trash/Recycling",
    "request_reason": "Request a Large Item Pick Up",
    "date_created": "2024-10-05T17:25:35.000",
    "date_modified": "2024-10-05T17:25:37.000",
    "request_status": "Pending",
    "responsible_agency": "Department of Sanitation",
    "final_address": "349 Vallette St",
    "address_councildis": "C",
    "status": "Assigned to Contractor",
    "contractor": "Richards Disposal",
    "rowid": "1138555",
    "final_x": "3687462.84418",
    "final_y": "530390.505026",
    "longitude": "-90.0492818215077",
    "latitude": "29.95220756629227",
    "geocoded_column": {
      "latitude": "29.95220756629227",
      "longitude": "-90.0492818215077"
    }
  },
  {
    "service_request": "2024-1138554",
    "request_type": "Roads and Streets",
    "request_reason": "Pothole",
    "date_created": "2024-10-05T17:12:24.000",
    "date_modified": "2024-10-05T17:12:24.000",
    "request_status": "Pending",
    "responsible_agency": "Department of Public Works",
    "final_address": "1100 BLK Lafayette St",
    "address_councildis": "B",
    "status": "Pending",
    "rowid": "1138554",
    "final_x": "3679125.22439",
    "final_y": "529272.047543",
    "longitude": "-90.07564691885891",
    "latitude": "29.949386458952066",
    "geocoded_column": {
      "latitude": "29.949386458952066",
      "longitude": "-90.07564691885891"
    }
  },
  {
    "service_request": "2024-1138553",
    "request_type": "Parks & Parkways",
    "request_reason": "Request Tree Service (Right of Way/Public Property)",
    "date_created": "2024-10-05T17:02:02.000",
    "date_modified": "2024-10-05T17:02:02.000",
    "request_status": "Pending",
    "responsible_agency": "Department of Parks & Parkway",
    "final_address": "1425 St Roch Ave",
    "address_councildis": "C",
    "status": "Pending",
    "rowid": "1138553",
    "final_x": "3686455.21455",
    "final_y": "537762.62324",
    "longitude": "-90.0522031799247",
    "latitude": "29.9725093510695",
    "geocoded_column": {
      "latitude": "29.9725093510695",
      "longitude": "-90.0522031799247"
    }
  },
  {
    "service_request": "2024-1138552",
    "request_type": "Drainage",
    "request_reason": "Catch Basin Damaged",
    "date_created": "2024-10-05T16:50:49.000",
    "date_modified": "2024-10-05T16:50:49.000",
    "request_status": "Pending",
    "responsible_agency": "Department of Public Works",
    "final_address": "7000 BLK S Claiborne Ave",
    "address_councildis": "A",
    "status": "Pending",
    "rowid": "1138552",
    "final_x": "3666463.39998",
    "final_y": "529270.650892",
    "longitude": "-90.11562615273465",
    "latitude": "29.949758686707522",
    "geocoded_column": {
      "latitude": "29.949758686707522",
      "longitude": "-90.11562615273465"
    }
  },
  {
    "service_request": "2024-1138551",
    "request_type": "Streetlights",
    "request_reason": "Streetlight Outage/Malfunction",
    "date_created": "2024-10-05T16:47:07.000",
    "date_modified": "2024-10-05T16:47:08.000",
    "request_status": "Pending",
    "responsible_agency": "Department of Public Works",
    "final_address": "7000 BLK S Claiborne Ave",
    "address_councildis": "A",
    "status": "Pending",
    "contractor": "Legacy Professional Services",
    "rowid": "1138551",
    "final_x": "3666463.39998",
    "final_y": "529270.650892",
    "longitude": "-90.11562615273465",
    "latitude": "29.949758686707522",
    "geocoded_column": {
      "latitude": "29.949758686707522",
      "longitude": "-90.11562615273465"
    }
  },
  {
    "service_request": "2024-1138550",
    "request_type": "Property Maintenance",
    "request_reason": "Property Maintenance",
    "date_created": "2024-10-05T16:46:11.000",
    "date_modified": "2024-10-05T16:46:11.000",
    "request_status": "Pending",
    "responsible_agency": "Department of Code Enforcement",
    "final_address": "PONTALBA ST & MARSHALL FOCH ST",
    "address_councildis": "A",
    "status": "Pending",
    "rowid": "1138550",
    "final_x": "3669556.6",
    "final_y": "544333.18",
    "longitude": "-90.10534978676338",
    "latitude": "29.991084844768316",
    "geocoded_column": {
      "latitude": "29.991084844768316",
      "longitude": "-90.10534978676338"
    }
  },
  {
    "service_request": "2024-1138549",
    "request_type": "Trash/Recycling",
    "request_reason": "Repair Recycling Cart",
    "date_created": "2024-10-05T16:23:55.000",
    "date_modified": "2024-10-05T16:23:55.000",
    "request_status": "Pending",
    "responsible_agency": "Department of Sanitation",
    "final_address": "5425 Berkley Dr",
    "address_councildis": "C",
    "status": "Pending",
    "rowid": "1138549",
    "final_x": "3704074.24714",
    "final_y": "518088.974134",
    "longitude": "-89.9972840260751",
    "latitude": "29.91786036643208",
    "geocoded_column": {
      "latitude": "29.91786036643208",
      "longitude": "-89.9972840260751"
    }
  },
  {
    "service_request": "2024-1138548",
    "request_type": "Trash/Recycling",
    "request_reason": "Replace Trash Cart",
    "date_created": "2024-10-05T16:22:36.000",
    "date_modified": "2024-10-05T16:22:38.000",
    "request_status": "Pending",
    "responsible_agency": "Department of Sanitation",
    "final_address": "5425 Berkley Dr",
    "address_councildis": "C",
    "status": "Assigned to Contractor",
    "contractor": "Richards Disposal",
    "rowid": "1138548",
    "final_x": "3704074.24714",
    "final_y": "518088.974134",
    "longitude": "-89.9972840260751",
    "latitude": "29.91786036643208",
    "geocoded_column": {
      "latitude": "29.91786036643208",
      "longitude": "-89.9972840260751"
    }
  },
  {
    "service_request": "2024-1138547",
    "request_type": "Trash/Recycling",
    "request_reason": "Request a Large Item Pick Up",
    "date_created": "2024-10-05T16:13:38.000",
    "date_modified": "2024-10-05T16:13:39.000",
    "request_status": "Pending",
    "responsible_agency": "Department of Sanitation",
    "final_address": "7021 Yorktown Dr",
    "address_councildis": "E",
    "status": "Assigned to Contractor",
    "contractor": "Waste Pro",
    "rowid": "1138547",
    "final_x": "3706226.61015",
    "final_y": "560528.951262",
    "longitude": "-89.98891851514233",
    "latitude": "30.03448546108901",
    "geocoded_column": {
      "latitude": "30.03448546108901",
      "longitude": "-89.98891851514233"
    }
  },
  {
    "service_request": "2024-1138546",
    "request_type": "Trash/Recycling",
    "request_reason": "Request a Large Item Pick Up",
    "date_created": "2024-10-05T15:58:46.000",
    "date_modified": "2024-10-05T15:58:47.000",
    "request_status": "Pending",
    "responsible_agency": "Department of Sanitation",
    "final_address": "4700 Cardenas Dr",
    "address_councildis": "E",
    "status": "Assigned to Contractor",
    "contractor": "Waste Pro",
    "rowid": "1138546",
    "final_x": "3713644.22271",
    "final_y": "556044.230809",
    "longitude": "-89.965647228498",
    "latitude": "30.021912872819005",
    "geocoded_column": {
      "latitude": "30.021912872819005",
      "longitude": "-89.965647228498"
    }
  },
  {
    "service_request": "2024-1138545",
    "request_type": "Trash/Recycling",
    "request_reason": "Return Trash Cart",
    "date_created": "2024-10-05T15:58:12.000",
    "date_modified": "2024-10-05T15:58:13.000",
    "request_status": "Pending",
    "responsible_agency": "Department of Sanitation",
    "final_address": "326 S Clark St",
    "address_councildis": "B",
    "status": "Assigned to Contractor",
    "contractor": "IV Waste",
    "rowid": "1138545",
    "final_x": "3672279.00609",
    "final_y": "536154.797831",
    "longitude": "-90.09702905555302",
    "latitude": "29.96851657886318",
    "geocoded_column": {
      "latitude": "29.96851657886318",
      "longitude": "-90.09702905555302"
    }
  },
  {
    "service_request": "2024-1138544",
    "request_type": "Trash/Recycling",
    "request_reason": "Order Recycling Cart",
    "date_created": "2024-10-05T15:44:00.000",
    "date_modified": "2024-10-05T15:44:00.000",
    "request_status": "Pending",
    "responsible_agency": "Department of Sanitation",
    "final_address": "2345 Leon C Simon Dr",
    "address_councildis": "D",
    "status": "Pending",
    "rowid": "1138544",
    "final_x": "3684480.25993",
    "final_y": "557124.70889",
    "longitude": "-90.05775970614916",
    "latitude": "30.025808699441587",
    "geocoded_column": {
      "latitude": "30.025808699441587",
      "longitude": "-90.05775970614916"
    }
  },
  {
    "service_request": "2024-1138543",
    "request_type": "Trash/Recycling",
    "request_reason": "Replace Trash Cart",
    "date_created": "2024-10-05T15:39:32.000",
    "date_modified": "2024-10-05T15:39:33.000",
    "request_status": "Pending",
    "responsible_agency": "Department of Sanitation",
    "final_address": "2345 Leon C Simon Dr",
    "address_councildis": "D",
    "status": "Assigned to Contractor",
    "contractor": "IV Waste",
    "rowid": "1138543",
    "final_x": "3684480.25993",
    "final_y": "557124.70889",
    "longitude": "-90.05775970614916",
    "latitude": "30.025808699441587",
    "geocoded_column": {
      "latitude": "30.025808699441587",
      "longitude": "-90.05775970614916"
    }
  },
  {
    "service_request": "2024-1138542",
    "request_type": "Street and Traffic Signs",
    "request_reason": "Additional Signage Request",
    "date_created": "2024-10-05T15:37:25.000",
    "date_modified": "2024-10-05T15:37:25.000",
    "request_status": "Pending",
    "responsible_agency": "Department of Public Works",
    "final_address": "8100 BLK Palmetto St",
    "address_councildis": "A",
    "status": "Pending",
    "rowid": "1138542",
    "final_x": "3667961.16437",
    "final_y": "535264.911541",
    "longitude": "-90.11069505650008",
    "latitude": "29.966197080433638",
    "geocoded_column": {
      "latitude": "29.966197080433638",
      "longitude": "-90.11069505650008"
    }
  },
  {
    "service_request": "2024-1138541",
    "request_type": "Trash/Recycling",
    "request_reason": "Replace Trash Cart",
    "date_created": "2024-10-05T15:35:26.000",
    "date_modified": "2024-10-05T15:35:28.000",
    "request_status": "Pending",
    "responsible_agency": "Department of Sanitation",
    "final_address": "2530 Elder St",
    "address_councildis": "D",
    "status": "Assigned to Contractor",
    "contractor": "IV Waste",
    "rowid": "1138541",
    "final_x": "3686855.58159",
    "final_y": "545714.424144",
    "longitude": "-90.05065763061033",
    "latitude": "29.994361668899845",
    "geocoded_column": {
      "latitude": "29.994361668899845",
      "longitude": "-90.05065763061033"
    }
  },
  {
    "service_request": "2024-1138540",
    "request_type": "Parks & Parkways",
    "request_reason": "Request Tree Service (Right of Way/Public Property)",
    "date_created": "2024-10-05T15:31:07.000",
    "date_modified": "2024-10-05T15:31:07.000",
    "request_status": "Pending",
    "responsible_agency": "Department of Parks & Parkway",
    "final_address": "5900 BLK Annunciation St",
    "address_councildis": "A",
    "status": "Pending",
    "rowid": "1138540",
    "final_x": "3664598.90305",
    "final_y": "517791.756199",
    "longitude": "-90.12189644066676",
    "latitude": "29.91824971920035",
    "geocoded_column": {
      "latitude": "29.91824971920035",
      "longitude": "-90.12189644066676"
    }
  },
  {
    "service_request": "2024-1138539",
    "request_type": "Trash/Recycling",
    "request_reason": "Request a Large Item Pick Up",
    "date_created": "2024-10-05T15:28:47.000",
    "date_modified": "2024-10-05T15:28:48.000",
    "request_status": "Pending",
    "responsible_agency": "Department of Sanitation",
    "final_address": "1626 Simon Bolivar Ave",
    "address_councildis": "B",
    "status": "Assigned to Contractor",
    "contractor": "IV Waste",
    "rowid": "1138539",
    "final_x": "3677090.28091",
    "final_y": "526232.169342",
    "longitude": "-90.0821769528712",
    "latitude": "29.94108906070207",
    "geocoded_column": {
      "latitude": "29.94108906070207",
      "longitude": "-90.0821769528712"
    }
  },
  {
    "service_request": "2024-1138538",
    "request_type": "Trash/Recycling",
    "request_reason": "Request a Large Item Pick Up",
    "date_created": "2024-10-05T15:24:34.000",
    "date_modified": "2024-10-05T15:24:36.000",
    "request_status": "Pending",
    "responsible_agency": "Department of Sanitation",
    "final_address": "3241 Vincennes Pl",
    "address_councildis": "A",
    "status": "Assigned to Contractor",
    "contractor": "IV Waste",
    "rowid": "1138538",
    "final_x": "3667760.62791",
    "final_y": "528176.918976",
    "longitude": "-90.11156701801136",
    "latitude": "29.94671330902512",
    "geocoded_column": {
      "latitude": "29.94671330902512",
      "longitude": "-90.11156701801136"
    }
  },
  {
    "service_request": "2024-1138537",
    "request_type": "Trash/Recycling",
    "request_reason": "Missed Trash Pick-Up",
    "date_created": "2024-10-05T15:14:52.000",
    "date_modified": "2024-10-05T15:14:54.000",
    "request_status": "Pending",
    "responsible_agency": "Department of Sanitation",
    "final_address": "2420 Laurel St",
    "address_councildis": "B",
    "status": "Assigned to Contractor",
    "contractor": "IV Waste",
    "rowid": "1138537",
    "final_x": "3678342.30446",
    "final_y": "520758.839033",
    "longitude": "-90.07841333620189",
    "latitude": "29.926001548858167",
    "geocoded_column": {
      "latitude": "29.926001548858167",
      "longitude": "-90.07841333620189"
    }
  },
  {
    "service_request": "2024-1138536",
    "request_type": "Traffic Signals",
    "request_reason": "Traffic Signal Malfunctioning or Damaged",
    "date_created": "2024-10-05T15:09:12.000",
    "date_modified": "2024-10-05T15:09:12.000",
    "request_status": "Pending",
    "responsible_agency": "Department of Public Works",
    "final_address": "GENERAL DE GAULLE DR & WOODLAND DR",
    "address_councildis": "C",
    "status": "Pending",
    "rowid": "1138536",
    "final_x": "3705348.1",
    "final_y": "514982.18",
    "longitude": "-89.99337788359405",
    "latitude": "29.909276849557717",
    "geocoded_column": {
      "latitude": "29.909276849557717",
      "longitude": "-89.99337788359405"
    }
  },
  {
    "service_request": "2024-1138535",
    "request_type": "Trash/Recycling",
    "request_reason": "Missed Trash Pick-Up",
    "date_created": "2024-10-05T15:02:53.000",
    "date_modified": "2024-10-05T15:02:54.000",
    "request_status": "Pending",
    "responsible_agency": "Department of Sanitation",
    "final_address": "2420 Laurel St",
    "address_councildis": "B",
    "status": "Assigned to Contractor",
    "contractor": "IV Waste",
    "rowid": "1138535",
    "final_x": "3678342.30446",
    "final_y": "520758.839033",
    "longitude": "-90.07841333620189",
    "latitude": "29.926001548858167",
    "geocoded_column": {
      "latitude": "29.926001548858167",
      "longitude": "-90.07841333620189"
    }
  },
  {
    "service_request": "2024-1138534",
    "request_type": "Traffic Signals",
    "request_reason": "Traffic Signal Malfunctioning or Damaged",
    "date_created": "2024-10-05T14:40:21.000",
    "date_modified": "2024-10-05T14:40:21.000",
    "request_status": "Pending",
    "responsible_agency": "Department of Public Works",
    "final_address": "ESPLANADE AVE & N CLAIBORNE AVE",
    "address_councildis": "D",
    "status": "Pending",
    "rowid": "1138534",
    "final_x": "3681314.4",
    "final_y": "536499.88",
    "longitude": "-90.06848280042382",
    "latitude": "29.969194285734545",
    "geocoded_column": {
      "latitude": "29.969194285734545",
      "longitude": "-90.06848280042382"
    }
  },
  {
    "service_request": "2024-1138533",
    "request_type": "Streetlights",
    "request_reason": "Streetlight Outage/Malfunction",
    "date_created": "2024-10-05T14:36:55.000",
    "date_modified": "2024-10-05T14:36:56.000",
    "request_status": "Pending",
    "responsible_agency": "Department of Public Works",
    "final_address": "LAFAYETTE ST & BARONNE ST",
    "address_councildis": "B",
    "status": "Pending",
    "contractor": "Legacy Professional Services",
    "rowid": "1138533",
    "final_x": "3679824.5",
    "final_y": "529099.88",
    "longitude": "-90.07344497103085",
    "latitude": "29.948891932840287",
    "geocoded_column": {
      "latitude": "29.948891932840287",
      "longitude": "-90.07344497103085"
    }
  },
  {
    "service_request": "2024-1138532",
    "request_type": "Trash/Recycling",
    "request_reason": "Request a Large Item Pick Up",
    "date_created": "2024-10-05T14:32:55.000",
    "date_modified": "2024-10-05T14:32:56.000",
    "request_status": "Pending",
    "responsible_agency": "Department of Sanitation",
    "final_address": "4529 Walmsley Ave",
    "address_councildis": "B",
    "status": "Assigned to Contractor",
    "contractor": "IV Waste",
    "rowid": "1138532",
    "final_x": "3669149.28545",
    "final_y": "530400.98445",
    "longitude": "-90.10710736203856",
    "latitude": "29.952787975787494",
    "geocoded_column": {
      "latitude": "29.952787975787494",
      "longitude": "-90.10710736203856"
    }
  },
  {
    "service_request": "2024-1138531",
    "request_type": "Drainage",
    "request_reason": "Catch Basin Clogged",
    "date_created": "2024-10-05T14:30:34.000",
    "date_modified": "2024-10-05T14:30:34.000",
    "request_status": "Pending",
    "responsible_agency": "Department of Public Works",
    "final_address": "422 Gravier St",
    "address_councildis": "B",
    "status": "Pending",
    "rowid": "1138531",
    "final_x": "3681807.65538",
    "final_y": "529593.418753",
    "longitude": "-90.06716608022307",
    "latitude": "29.950188891438895",
    "geocoded_column": {
      "latitude": "29.950188891438895",
      "longitude": "-90.06716608022307"
    }
  },
  {
    "service_request": "2024-1138530",
    "request_type": "General Services",
    "request_reason": "General Service Request",
    "date_created": "2024-10-05T14:30:31.000",
    "date_modified": "2024-10-05T14:30:31.000",
    "request_status": "Pending",
    "responsible_agency": "Orleans Parish Communication District",
    "final_address": "14600 BLK Curran Rd",
    "address_councildis": "E",
    "status": "Pending",
    "rowid": "1138530",
    "final_x": "3719836.4412",
    "final_y": "573430.340132",
    "longitude": "-89.94541625140833",
    "latitude": "30.069512850512947",
    "geocoded_column": {
      "latitude": "30.069512850512947",
      "longitude": "-89.94541625140833"
    }
  },
  {
    "service_request": "2024-1138529",
    "request_type": "Roads and Streets",
    "request_reason": "Curb Damage",
    "date_created": "2024-10-05T14:23:11.000",
    "date_modified": "2024-10-05T14:23:11.000",
    "request_status": "Pending",
    "responsible_agency": "Department of Public Works",
    "final_address": "422 Gravier St",
    "address_councildis": "B",
    "status": "Pending",
    "rowid": "1138529",
    "final_x": "3681807.65538",
    "final_y": "529593.418753",
    "longitude": "-90.06716608022307",
    "latitude": "29.950188891438895",
    "geocoded_column": {
      "latitude": "29.950188891438895",
      "longitude": "-90.06716608022307"
    }
  },
  {
    "service_request": "2024-1138528",
    "request_type": "Property Maintenance",
    "request_reason": "Property Maintenance",
    "date_created": "2024-10-05T14:21:32.000",
    "date_modified": "2024-10-05T14:21:32.000",
    "request_status": "Pending",
    "responsible_agency": "Department of Code Enforcement",
    "final_address": "14600 BLK Curran Rd",
    "address_councildis": "E",
    "status": "Pending",
    "rowid": "1138528",
    "final_x": "3719836.4412",
    "final_y": "573430.340132",
    "longitude": "-89.94541625140833",
    "latitude": "30.069512850512947",
    "geocoded_column": {
      "latitude": "30.069512850512947",
      "longitude": "-89.94541625140833"
    }
  },
  {
    "service_request": "2024-1138527",
    "request_type": "Abandoned Vehicles",
    "request_reason": "Abandoned/Junk Vehicles",
    "date_created": "2024-10-05T14:03:43.000",
    "date_modified": "2024-10-05T14:03:43.000",
    "request_status": "Pending",
    "responsible_agency": "Department of Public Works",
    "final_address": "1000 BLK Crete St",
    "address_councildis": "A",
    "status": "Pending",
    "rowid": "1138527",
    "final_x": "3677538.63078",
    "final_y": "538516.101561",
    "longitude": "-90.0803373343597",
    "latitude": "29.974852268580356",
    "geocoded_column": {
      "latitude": "29.974852268580356",
      "longitude": "-90.0803373343597"
    }
  },
  {
    "service_request": "2024-1138526",
    "request_type": "Roads and Streets",
    "request_reason": "Sidewalk Damaged or Missing",
    "date_created": "2024-10-05T14:03:08.000",
    "date_modified": "2024-10-05T14:03:08.000",
    "request_status": "Pending",
    "responsible_agency": "Department of Public Works",
    "final_address": "336 Camp St",
    "address_councildis": "B",
    "status": "Pending",
    "rowid": "1138526",
    "final_x": "3681245.67778",
    "final_y": "529610.236353",
    "longitude": "-90.06893992170875",
    "latitude": "29.950252197400477",
    "geocoded_column": {
      "latitude": "29.950252197400477",
      "longitude": "-90.06893992170875"
    }
  },
  {
    "service_request": "2024-1138525",
    "request_type": "Roads and Streets",
    "request_reason": "Sidewalk Damaged or Missing",
    "date_created": "2024-10-05T13:54:05.000",
    "date_modified": "2024-10-05T13:54:05.000",
    "request_status": "Pending",
    "responsible_agency": "Department of Public Works",
    "final_address": "536 Canal St",
    "address_councildis": "B",
    "status": "Pending",
    "rowid": "1138525",
    "final_x": "3681457.274",
    "final_y": "530349.358658",
    "longitude": "-90.06824604628791",
    "latitude": "29.952278112483658",
    "geocoded_column": {
      "latitude": "29.952278112483658",
      "longitude": "-90.06824604628791"
    }
  },
  {
    "service_request": "2024-1138524",
    "request_type": "Streetlights",
    "request_reason": "Streetlight Outage/Malfunction",
    "date_created": "2024-10-05T13:34:04.000",
    "date_modified": "2024-10-05T13:34:05.000",
    "request_status": "Pending",
    "responsible_agency": "Department of Public Works",
    "final_address": "2850 Almonaster Ave",
    "address_councildis": "D",
    "status": "Pending",
    "contractor": "Legacy Professional Services",
    "rowid": "1138524",
    "final_x": "3688976.54364",
    "final_y": "543841.605646",
    "longitude": "-90.04402437406523",
    "latitude": "29.989146638122065",
    "geocoded_column": {
      "latitude": "29.989146638122065",
      "longitude": "-90.04402437406523"
    }
  },
  {
    "service_request": "2024-1138523",
    "request_type": "Streetlights",
    "request_reason": "Streetlight Outage/Malfunction",
    "date_created": "2024-10-05T13:28:20.000",
    "date_modified": "2024-10-05T13:28:21.000",
    "request_status": "Pending",
    "responsible_agency": "Department of Public Works",
    "final_address": "2850 Almonaster Ave",
    "address_councildis": "D",
    "status": "Pending",
    "contractor": "Legacy Professional Services",
    "rowid": "1138523",
    "final_x": "3688976.54364",
    "final_y": "543841.605646",
    "longitude": "-90.04402437406523",
    "latitude": "29.989146638122065",
    "geocoded_column": {
      "latitude": "29.989146638122065",
      "longitude": "-90.04402437406523"
    }
  },
  {
    "service_request": "2024-1138522",
    "request_type": "Streetlights",
    "request_reason": "Streetlight Outage/Malfunction",
    "date_created": "2024-10-05T13:27:11.000",
    "date_modified": "2024-10-05T13:27:12.000",
    "request_status": "Pending",
    "responsible_agency": "Department of Public Works",
    "final_address": "4200 BLK Almonaster Ave",
    "address_councildis": "D",
    "status": "Pending",
    "contractor": "Legacy Professional Services",
    "rowid": "1138522",
    "final_x": "3691155.59469",
    "final_y": "548414.726121",
    "longitude": "-90.03697799398788",
    "latitude": "30.001653460233833",
    "geocoded_column": {
      "latitude": "30.001653460233833",
      "longitude": "-90.03697799398788"
    }
  },
  {
    "service_request": "2024-1138521",
    "request_type": "Drainage",
    "request_reason": "Catch Basin Clogged",
    "date_created": "2024-10-05T13:25:03.000",
    "date_modified": "2024-10-05T13:25:03.000",
    "request_status": "Pending",
    "responsible_agency": "Department of Public Works",
    "final_address": "1304 First St",
    "address_councildis": "B",
    "status": "Pending",
    "rowid": "1138521",
    "final_x": "3677569.65083",
    "final_y": "522116.004282",
    "longitude": "-90.08080554782089",
    "latitude": "29.92975655679384",
    "geocoded_column": {
      "latitude": "29.92975655679384",
      "longitude": "-90.08080554782089"
    }
  },
  {
    "service_request": "2024-1138520",
    "request_type": "Drainage",
    "request_reason": "Catch Basin Clogged",
    "date_created": "2024-10-05T13:23:38.000",
    "date_modified": "2024-10-05T13:23:38.000",
    "request_status": "Pending",
    "responsible_agency": "Department of Public Works",
    "final_address": "1304 First St",
    "address_councildis": "B",
    "status": "Pending",
    "rowid": "1138520",
    "final_x": "3677569.65083",
    "final_y": "522116.004282",
    "longitude": "-90.08080554782089",
    "latitude": "29.92975655679384",
    "geocoded_column": {
      "latitude": "29.92975655679384",
      "longitude": "-90.08080554782089"
    }
  },
  {
    "service_request": "2024-1138519",
    "request_type": "Street and Traffic Signs",
    "request_reason": "Traffic or Parking Sign Damaged or Missing",
    "date_created": "2024-10-05T13:13:40.000",
    "date_modified": "2024-10-05T13:13:40.000",
    "request_status": "Pending",
    "responsible_agency": "Department of Public Works",
    "final_address": "2231 N Broad St",
    "address_councildis": "D",
    "status": "Pending",
    "rowid": "1138519",
    "final_x": "3681323.7005",
    "final_y": "543286.529102",
    "longitude": "-90.06821679110101",
    "latitude": "29.987854926750984",
    "geocoded_column": {
      "latitude": "29.987854926750984",
      "longitude": "-90.06821679110101"
    }
  },
  {
    "service_request": "2024-1138518",
    "request_type": "Roads and Streets",
    "request_reason": "Street Subsidence (Sinking)",
    "date_created": "2024-10-05T13:05:36.000",
    "date_modified": "2024-10-05T13:05:36.000",
    "request_status": "Pending",
    "responsible_agency": "Department of Public Works",
    "final_address": "726 Louque Pl",
    "address_councildis": "A",
    "status": "Pending",
    "rowid": "1138518",
    "final_x": "3668444.11348",
    "final_y": "543495.275342",
    "longitude": "-90.10889216615112",
    "latitude": "29.98881362905192",
    "geocoded_column": {
      "latitude": "29.98881362905192",
      "longitude": "-90.10889216615112"
    }
  },
  {
    "service_request": "2024-1138517",
    "request_type": "Streetlights",
    "request_reason": "Streetlight Outage/Malfunction",
    "date_created": "2024-10-05T13:01:57.000",
    "date_modified": "2024-10-05T13:01:58.000",
    "request_status": "Pending",
    "responsible_agency": "Department of Public Works",
    "final_address": "2900 BLK Almonaster Ave",
    "address_councildis": "D",
    "status": "Pending",
    "contractor": "Legacy Professional Services",
    "rowid": "1138517",
    "final_x": "3689188.41424",
    "final_y": "544570.131448",
    "longitude": "-90.04332923218615",
    "latitude": "29.99114326545339",
    "geocoded_column": {
      "latitude": "29.99114326545339",
      "longitude": "-90.04332923218615"
    }
  },
  {
    "service_request": "2024-1138516",
    "request_type": "Trash/Recycling",
    "request_reason": "Repair Recycling Cart",
    "date_created": "2024-10-05T12:35:12.000",
    "date_modified": "2024-10-05T12:35:12.000",
    "request_status": "Pending",
    "responsible_agency": "Department of Sanitation",
    "final_address": "1220 Eighth St",
    "address_councildis": "B",
    "status": "Pending",
    "rowid": "1138516",
    "final_x": "3675777.44885",
    "final_y": "520623.495352",
    "longitude": "-90.08651449101639",
    "latitude": "29.92570638722958",
    "geocoded_column": {
      "latitude": "29.92570638722958",
      "longitude": "-90.08651449101639"
    }
  },
  {
    "service_request": "2024-1138515",
    "request_type": "General Services",
    "request_reason": "General Service Request",
    "date_created": "2024-10-05T12:17:41.000",
    "date_modified": "2024-10-05T12:17:41.000",
    "request_status": "Pending",
    "responsible_agency": "Orleans Parish Communication District",
    "final_address": "New Orleans,LA",
    "status": "Pending",
    "rowid": "1138515",
    "longitude": "0.0",
    "latitude": "0.0",
    "geocoded_column": {
      "latitude": "0.0",
      "longitude": "0.0"
    }
  },
  {
    "service_request": "2024-1138514",
    "request_type": "Streetlights",
    "request_reason": "Streetlight Outage/Malfunction",
    "date_created": "2024-10-05T12:13:00.000",
    "date_modified": "2024-10-05T12:13:01.000",
    "request_status": "Pending",
    "responsible_agency": "Department of Public Works",
    "final_address": "2850 Almonaster Ave",
    "address_councildis": "D",
    "status": "Pending",
    "contractor": "Legacy Professional Services",
    "rowid": "1138514",
    "final_x": "3688976.54364",
    "final_y": "543841.605646",
    "longitude": "-90.04402437406523",
    "latitude": "29.989146638122065",
    "geocoded_column": {
      "latitude": "29.989146638122065",
      "longitude": "-90.04402437406523"
    }
  },
  {
    "service_request": "2024-1138513",
    "request_type": "Property Maintenance",
    "request_reason": "Property Maintenance",
    "date_created": "2024-10-05T12:12:13.000",
    "date_modified": "2024-10-05T12:12:13.000",
    "request_status": "Pending",
    "responsible_agency": "Department of Code Enforcement",
    "final_address": "4943 Evangeline Dr",
    "address_councildis": "E",
    "status": "Pending",
    "rowid": "1138513",
    "final_x": "3708939.27556",
    "final_y": "556892.957338",
    "longitude": "-89.98048185013586",
    "latitude": "30.024400115347024",
    "geocoded_column": {
      "latitude": "30.024400115347024",
      "longitude": "-89.98048185013586"
    }
  },
  {
    "service_request": "2024-1138512",
    "request_type": "Streetlights",
    "request_reason": "New Streetlight Request",
    "date_created": "2024-10-05T12:09:37.000",
    "date_modified": "2024-10-05T12:09:38.000",
    "request_status": "Pending",
    "responsible_agency": "Department of Public Works",
    "final_address": "4943 Bundy Rd",
    "address_councildis": "E",
    "status": "Pending",
    "contractor": "Legacy Professional Services",
    "rowid": "1138512",
    "final_x": "3709315.45553",
    "final_y": "556918.074202",
    "longitude": "-89.97929226193166",
    "latitude": "30.02445695928416",
    "geocoded_column": {
      "latitude": "30.02445695928416",
      "longitude": "-89.97929226193166"
    }
  },
  {
    "service_request": "2024-1138511",
    "request_type": "Property Maintenance",
    "request_reason": "Property Maintenance",
    "date_created": "2024-10-05T12:07:16.000",
    "date_modified": "2024-10-05T12:07:16.000",
    "request_status": "Pending",
    "responsible_agency": "Department of Code Enforcement",
    "final_address": "4759 Evangeline Dr",
    "address_councildis": "E",
    "status": "Pending",
    "rowid": "1138511",
    "final_x": "3709160.59729",
    "final_y": "555922.661977",
    "longitude": "-89.9798187358203",
    "latitude": "30.021724995560955",
    "geocoded_column": {
      "latitude": "30.021724995560955",
      "longitude": "-89.9798187358203"
    }
  },
  {
    "service_request": "2024-1138510",
    "request_type": "Property Maintenance",
    "request_reason": "Property Maintenance",
    "date_created": "2024-10-05T12:03:36.000",
    "date_modified": "2024-10-05T12:03:36.000",
    "request_status": "Pending",
    "responsible_agency": "Department of Code Enforcement",
    "final_address": "4588 Marque Dr",
    "address_councildis": "E",
    "status": "Pending",
    "rowid": "1138510",
    "final_x": "3710094.82443",
    "final_y": "554808.125592",
    "longitude": "-89.97690854097513",
    "latitude": "30.018630079114928",
    "geocoded_column": {
      "latitude": "30.018630079114928",
      "longitude": "-89.97690854097513"
    }
  },
  {
    "service_request": "2024-1138509",
    "request_type": "Drainage",
    "request_reason": "Catch Basin Clogged",
    "date_created": "2024-10-05T12:03:02.000",
    "date_modified": "2024-10-05T12:03:02.000",
    "request_status": "Pending",
    "responsible_agency": "Department of Public Works",
    "final_address": "1310 Poland Ave",
    "address_councildis": "D",
    "status": "Pending",
    "rowid": "1138509",
    "final_x": "3693151.42697",
    "final_y": "535861.121287",
    "longitude": "-90.03112368550622",
    "latitude": "29.967073333656657",
    "geocoded_column": {
      "latitude": "29.967073333656657",
      "longitude": "-90.03112368550622"
    }
  },
  {
    "service_request": "2024-1138508",
    "request_type": "Property Maintenance",
    "request_reason": "Property Maintenance",
    "date_created": "2024-10-05T11:59:07.000",
    "date_modified": "2024-10-05T11:59:07.000",
    "request_status": "Pending",
    "responsible_agency": "Department of Code Enforcement",
    "final_address": "4696 Perrault Walk",
    "address_councildis": "E",
    "status": "Pending",
    "rowid": "1138508",
    "final_x": "3709892.50693",
    "final_y": "555433.236697",
    "longitude": "-89.97752441454935",
    "latitude": "30.020355474682884",
    "geocoded_column": {
      "latitude": "30.020355474682884",
      "longitude": "-89.97752441454935"
    }
  },
  {
    "service_request": "2024-1138507",
    "request_type": "Property Maintenance",
    "request_reason": "Property Maintenance",
    "date_created": "2024-10-05T11:56:13.000",
    "date_modified": "2024-10-05T11:56:13.000",
    "request_status": "Pending",
    "responsible_agency": "Department of Code Enforcement",
    "final_address": "4800 BLK Marque Dr",
    "address_councildis": "E",
    "status": "Pending",
    "rowid": "1138507",
    "final_x": "3709971.66598",
    "final_y": "556620.092584",
    "longitude": "-89.97722991629561",
    "latitude": "30.023616288498843",
    "geocoded_column": {
      "latitude": "30.023616288498843",
      "longitude": "-89.97722991629561"
    }
  },
  {
    "service_request": "2024-1138506",
    "request_type": "Property Maintenance",
    "request_reason": "Property Maintenance",
    "date_created": "2024-10-05T11:53:59.000",
    "date_modified": "2024-10-05T11:53:59.000",
    "request_status": "Pending",
    "responsible_agency": "Department of Code Enforcement",
    "final_address": "4789 Donna Dr",
    "address_councildis": "E",
    "status": "Pending",
    "rowid": "1138506",
    "final_x": "3711024.78853",
    "final_y": "556168.125338",
    "longitude": "-89.97391923947067",
    "latitude": "30.022339243365984",
    "geocoded_column": {
      "latitude": "30.022339243365984",
      "longitude": "-89.97391923947067"
    }
  },
  {
    "service_request": "2024-1138505",
    "request_type": "Abandoned Vehicles",
    "request_reason": "Abandoned/Junk Vehicles",
    "date_created": "2024-10-05T11:31:09.000",
    "date_modified": "2024-10-05T11:31:09.000",
    "request_status": "Pending",
    "responsible_agency": "Department of Public Works",
    "final_address": "8713 Cohn St",
    "address_councildis": "A",
    "status": "Pending",
    "rowid": "1138505",
    "final_x": "3661969.62253",
    "final_y": "531741.854467",
    "longitude": "-90.12973317977665",
    "latitude": "29.956684248932763",
    "geocoded_column": {
      "latitude": "29.956684248932763",
      "longitude": "-90.12973317977665"
    }
  },
  {
    "service_request": "2024-1138504",
    "request_type": "Trash/Recycling",
    "request_reason": "Request a Large Item Pick Up",
    "date_created": "2024-10-05T11:11:47.000",
    "date_modified": "2024-10-05T11:11:48.000",
    "request_status": "Pending",
    "responsible_agency": "Department of Sanitation",
    "final_address": "7615 Stonewood St",
    "address_councildis": "E",
    "status": "Assigned to Contractor",
    "contractor": "Waste Pro",
    "rowid": "1138504",
    "final_x": "3719587.11807",
    "final_y": "572402.560105",
    "longitude": "-89.94624374568849",
    "latitude": "30.066695189517368",
    "geocoded_column": {
      "latitude": "30.066695189517368",
      "longitude": "-89.94624374568849"
    }
  },
  {
    "service_request": "2024-1138503",
    "request_type": "Streetlights",
    "request_reason": "Streetlight Outage/Malfunction",
    "date_created": "2024-10-05T10:58:39.000",
    "date_modified": "2024-10-05T10:58:40.000",
    "request_status": "Pending",
    "responsible_agency": "Department of Public Works",
    "final_address": "0 Lake Forest Blvd",
    "address_councildis": "E",
    "status": "Pending",
    "contractor": "Legacy Professional Services",
    "rowid": "1138503",
    "final_x": "3721635.50322",
    "final_y": "563651.762465",
    "longitude": "-89.94010490465875",
    "latitude": "30.042565801236677",
    "geocoded_column": {
      "latitude": "30.042565801236677",
      "longitude": "-89.94010490465875"
    }
  },
  {
    "service_request": "2024-1138502",
    "request_type": "Parks & Parkways",
    "request_reason": "Request Tree Service (Right of Way/Public Property)",
    "date_created": "2024-10-05T10:54:38.000",
    "date_modified": "2024-10-05T10:54:38.000",
    "request_status": "Pending",
    "responsible_agency": "Department of Parks & Parkway",
    "final_address": "400 BLK N Norman C Francis Pkwy",
    "address_councildis": "A",
    "status": "Pending",
    "rowid": "1138502",
    "final_x": "3674083.93165",
    "final_y": "537712.079219",
    "longitude": "-90.09127568866651",
    "latitude": "29.972744904075522",
    "geocoded_column": {
      "latitude": "29.972744904075522",
      "longitude": "-90.09127568866651"
    }
  },
  {
    "service_request": "2024-1138501",
    "request_type": "Parks & Parkways",
    "request_reason": "Request Tree Service (Right of Way/Public Property)",
    "date_created": "2024-10-05T10:49:18.000",
    "date_modified": "2024-10-05T10:49:18.000",
    "request_status": "Pending",
    "responsible_agency": "Department of Parks & Parkway",
    "final_address": "13000 BLK Michoud Blvd",
    "address_councildis": "E",
    "status": "Pending",
    "rowid": "1138501",
    "final_x": "3724993.10181",
    "final_y": "570277.696502",
    "longitude": "-89.92923711345162",
    "latitude": "30.060671667985027",
    "geocoded_column": {
      "latitude": "30.060671667985027",
      "longitude": "-89.92923711345162"
    }
  },
  {
    "service_request": "2024-1138500",
    "request_type": "Trash/Recycling",
    "request_reason": "Illegal Dumping",
    "date_created": "2024-10-05T10:41:36.000",
    "date_modified": "2024-10-05T10:41:36.000",
    "request_status": "Pending",
    "responsible_agency": "Department of Sanitation",
    "final_address": "13000 BLK Michoud Blvd",
    "address_councildis": "E",
    "status": "Pending",
    "rowid": "1138500",
    "final_x": "3725373.52363",
    "final_y": "571103.462239",
    "longitude": "-89.92800261555675",
    "latitude": "30.062929351011412",
    "geocoded_column": {
      "latitude": "30.062929351011412",
      "longitude": "-89.92800261555675"
    }
  },
  {
    "service_request": "2024-1138499",
    "request_type": "Trash/Recycling",
    "request_reason": "Order Recycling Cart",
    "date_created": "2024-10-05T10:21:44.000",
    "date_modified": "2024-10-05T10:21:44.000",
    "request_status": "Pending",
    "responsible_agency": "Department of Sanitation",
    "final_address": "3817 Annunciation St",
    "address_councildis": "B",
    "status": "Pending",
    "rowid": "1138499",
    "final_x": "3673473.28948",
    "final_y": "518041.491446",
    "longitude": "-90.09387620324793",
    "latitude": "29.91867544232452",
    "geocoded_column": {
      "latitude": "29.91867544232452",
      "longitude": "-90.09387620324793"
    }
  },
  {
    "service_request": "2024-1138498",
    "request_type": "Trash/Recycling",
    "request_reason": "Request a Large Item Pick Up",
    "date_created": "2024-10-05T10:20:21.000",
    "date_modified": "2024-10-05T10:20:22.000",
    "request_status": "Pending",
    "responsible_agency": "Department of Sanitation",
    "final_address": "3314 Aurora Dr",
    "address_councildis": "C",
    "status": "Assigned to Contractor",
    "contractor": "Richards Disposal",
    "rowid": "1138498",
    "final_x": "3706984.49726",
    "final_y": "518615.265271",
    "longitude": "-89.98807854518702",
    "latitude": "29.919213857538622",
    "geocoded_column": {
      "latitude": "29.919213857538622",
      "longitude": "-89.98807854518702"
    }
  },
  {
    "service_request": "2024-1138497",
    "request_type": "Trash/Recycling",
    "request_reason": "Request a Large Item Pick Up",
    "date_created": "2024-10-05T10:17:45.000",
    "date_modified": "2024-10-05T10:17:46.000",
    "request_status": "Pending",
    "responsible_agency": "Department of Sanitation",
    "final_address": "3314 Aurora Dr",
    "address_councildis": "C",
    "status": "Assigned to Contractor",
    "contractor": "Richards Disposal",
    "rowid": "1138497",
    "final_x": "3706984.49726",
    "final_y": "518615.265271",
    "longitude": "-89.98807854518702",
    "latitude": "29.919213857538622",
    "geocoded_column": {
      "latitude": "29.919213857538622",
      "longitude": "-89.98807854518702"
    }
  },
  {
    "service_request": "2024-1138496",
    "request_type": "Roads and Streets",
    "request_reason": "Sidewalk Damaged or Missing",
    "date_created": "2024-10-05T10:17:07.000",
    "date_modified": "2024-10-05T10:17:07.000",
    "request_status": "Pending",
    "responsible_agency": "Department of Public Works",
    "final_address": "300 BLK Saint Charles Ave",
    "address_councildis": "B",
    "status": "Pending",
    "rowid": "1138496",
    "final_x": "3680828.59697",
    "final_y": "529790.98909",
    "longitude": "-90.07025055169144",
    "latitude": "29.950761854869413",
    "geocoded_column": {
      "latitude": "29.950761854869413",
      "longitude": "-90.07025055169144"
    }
  },
  {
    "service_request": "2024-1138495",
    "request_type": "Streetlights",
    "request_reason": "Streetlight Outage/Malfunction",
    "date_created": "2024-10-05T10:10:54.000",
    "date_modified": "2024-10-05T10:10:55.000",
    "request_status": "Pending",
    "responsible_agency": "Department of Public Works",
    "final_address": "5800 BLK Magnolia St",
    "address_councildis": "A",
    "status": "Pending",
    "contractor": "Legacy Professional Services",
    "rowid": "1138495",
    "final_x": "3666934.30422",
    "final_y": "524916.527711",
    "longitude": "-90.11428555006445",
    "latitude": "29.937772484139085",
    "geocoded_column": {
      "latitude": "29.937772484139085",
      "longitude": "-90.11428555006445"
    }
  },
  {
    "service_request": "2024-1138494",
    "request_type": "Drainage",
    "request_reason": "Catch Basin Clogged",
    "date_created": "2024-10-05T09:59:54.000",
    "date_modified": "2024-10-05T09:59:54.000",
    "request_status": "Pending",
    "responsible_agency": "Department of Public Works",
    "final_address": "7418 Chef Menteur Hwy",
    "address_councildis": "E",
    "status": "Pending",
    "rowid": "1138494",
    "final_x": "3702787.00727",
    "final_y": "552270.623318",
    "longitude": "-90.0000917226478",
    "latitude": "30.011888758797934",
    "geocoded_column": {
      "latitude": "30.011888758797934",
      "longitude": "-90.0000917226478"
    }
  },
  {
    "service_request": "2024-1138493",
    "request_type": "Abandoned Vehicles",
    "request_reason": "Abandoned/Junk Vehicles",
    "date_created": "2024-10-05T09:58:33.000",
    "date_modified": "2024-10-05T09:58:33.000",
    "request_status": "Pending",
    "responsible_agency": "Department of Public Works",
    "final_address": "4816 Touro St",
    "address_councildis": "D",
    "status": "Pending",
    "rowid": "1138493",
    "final_x": "3683045.01013",
    "final_y": "550372.141332",
    "longitude": "-90.06253154001168",
    "latitude": "30.00728545997647",
    "geocoded_column": {
      "latitude": "30.00728545997647",
      "longitude": "-90.06253154001168"
    }
  },
  {
    "service_request": "2024-1138492",
    "request_type": "Streetlights",
    "request_reason": "Streetlight Outage/Malfunction",
    "date_created": "2024-10-05T09:57:00.000",
    "date_modified": "2024-10-05T09:57:01.000",
    "request_status": "Pending",
    "responsible_agency": "Department of Public Works",
    "final_address": "1113 Canal St",
    "address_councildis": "C",
    "status": "Pending",
    "contractor": "Legacy Professional Services",
    "rowid": "1138492",
    "final_x": "3679968.03432",
    "final_y": "531722.365507",
    "longitude": "-90.07290068736697",
    "latitude": "29.956098544788674",
    "geocoded_column": {
      "latitude": "29.956098544788674",
      "longitude": "-90.07290068736697"
    }
  },
  {
    "service_request": "2024-1138491",
    "request_type": "Trash/Recycling",
    "request_reason": "Request a Large Item Pick Up",
    "date_created": "2024-10-05T09:54:01.000",
    "date_modified": "2024-10-05T09:54:02.000",
    "request_status": "Pending",
    "responsible_agency": "Department of Sanitation",
    "final_address": "1535 Eleonore St",
    "address_councildis": "A",
    "status": "Assigned to Contractor",
    "contractor": "IV Waste",
    "rowid": "1138491",
    "final_x": "3665918.4144",
    "final_y": "521978.285498",
    "longitude": "-90.11759122912662",
    "latitude": "29.929722932149655",
    "geocoded_column": {
      "latitude": "29.929722932149655",
      "longitude": "-90.11759122912662"
    }
  },
  {
    "service_request": "2024-1138490",
    "request_type": "Property Maintenance",
    "request_reason": "Property Maintenance",
    "date_created": "2024-10-05T09:44:54.000",
    "date_modified": "2024-10-05T09:44:54.000",
    "request_status": "Pending",
    "responsible_agency": "Department of Code Enforcement",
    "final_address": "5917 Debore Dr",
    "address_councildis": "D",
    "status": "Pending",
    "rowid": "1138490",
    "final_x": "3691351.35062",
    "final_y": "555825.624345",
    "longitude": "-90.036094532445",
    "latitude": "30.022024594436857",
    "geocoded_column": {
      "latitude": "30.022024594436857",
      "longitude": "-90.036094532445"
    }
  },
  {
    "service_request": "2024-1138489",
    "request_type": "Roads and Streets",
    "request_reason": "Pothole",
    "date_created": "2024-10-05T09:40:02.000",
    "date_modified": "2024-10-05T09:40:02.000",
    "request_status": "Pending",
    "responsible_agency": "Department of Public Works",
    "final_address": "WEST DR & AUDUBON PARK ENTRANCE",
    "address_councildis": "A",
    "status": "Pending",
    "rowid": "1138489",
    "final_x": "3663840.7",
    "final_y": "523603.08",
    "longitude": "-90.12409610912819",
    "latitude": "29.934251055933768",
    "geocoded_column": {
      "latitude": "29.934251055933768",
      "longitude": "-90.12409610912819"
    }
  },
  {
    "service_request": "2024-1138488",
    "request_type": "Trash/Recycling",
    "request_reason": "Missed Trash Pick-Up",
    "date_created": "2024-10-05T09:39:34.000",
    "date_modified": "2024-10-05T11:00:19.000",
    "case_close_date": "2024-10-05T06:00:19.000",
    "request_status": "Closed",
    "responsible_agency": "Department of Sanitation",
    "final_address": "2420 Laurel St",
    "address_councildis": "B",
    "status": "Invalid Request",
    "contractor": "IV Waste",
    "contractor_action": "Invalid Request",
    "rowid": "1138488",
    "final_x": "3678342.30446",
    "final_y": "520758.839033",
    "longitude": "-90.07841333620189",
    "latitude": "29.926001548858167",
    "geocoded_column": {
      "latitude": "29.926001548858167",
      "longitude": "-90.07841333620189"
    }
  },
  {
    "service_request": "2024-1138487",
    "request_type": "Street and Traffic Signs",
    "request_reason": "Traffic Signal Malfunctioning or Damaged",
    "date_created": "2024-10-05T09:32:40.000",
    "date_modified": "2024-10-05T09:32:40.000",
    "request_status": "Pending",
    "responsible_agency": "Department of Public Works",
    "final_address": "COMMON ST & CAMP ST",
    "address_councildis": "B",
    "status": "Pending",
    "rowid": "1138487",
    "final_x": "3681332.9",
    "final_y": "530132.78",
    "longitude": "-90.06864630952465",
    "latitude": "29.95168636947479",
    "geocoded_column": {
      "latitude": "29.95168636947479",
      "longitude": "-90.06864630952465"
    }
  },
  {
    "service_request": "2024-1138486",
    "request_type": "Roads and Streets",
    "request_reason": "Sidewalk Damaged or Missing",
    "date_created": "2024-10-05T09:23:11.000",
    "date_modified": "2024-10-05T09:23:11.000",
    "request_status": "Pending",
    "responsible_agency": "Department of Public Works",
    "final_address": "203 Magazine St",
    "address_councildis": "B",
    "status": "Pending",
    "rowid": "1138486",
    "final_x": "3681658.05826",
    "final_y": "529910.943937",
    "longitude": "-90.06762735403419",
    "latitude": "29.951066523103016",
    "geocoded_column": {
      "latitude": "29.951066523103016",
      "longitude": "-90.06762735403419"
    }
  },
  {
    "service_request": "2024-1138485",
    "request_type": "Roads and Streets",
    "request_reason": "Pothole",
    "date_created": "2024-10-05T09:17:50.000",
    "date_modified": "2024-10-05T09:17:50.000",
    "request_status": "Pending",
    "responsible_agency": "Department of Public Works",
    "final_address": "115 Magazine St",
    "address_councildis": "B",
    "status": "Pending",
    "rowid": "1138485",
    "final_x": "3681681.9821",
    "final_y": "530031.647169",
    "longitude": "-90.06754760441618",
    "latitude": "29.951397689579263",
    "geocoded_column": {
      "latitude": "29.951397689579263",
      "longitude": "-90.06754760441618"
    }
  },
  {
    "service_request": "2024-1138484",
    "request_type": "Trash/Recycling",
    "request_reason": "Replace Trash Cart",
    "date_created": "2024-10-05T09:00:56.000",
    "date_modified": "2024-10-05T09:00:57.000",
    "request_status": "Pending",
    "responsible_agency": "Department of Sanitation",
    "final_address": "627 Elmira Ave",
    "address_councildis": "C",
    "status": "Assigned to Contractor",
    "contractor": "Richards Disposal",
    "rowid": "1138484",
    "final_x": "3688130.8223",
    "final_y": "529262.247745",
    "longitude": "-90.04721264890767",
    "latitude": "29.949084646078944",
    "geocoded_column": {
      "latitude": "29.949084646078944",
      "longitude": "-90.04721264890767"
    }
  },
  {
    "service_request": "2024-1138483",
    "request_type": "Streetlights",
    "request_reason": "Streetlight Outage/Malfunction",
    "date_created": "2024-10-05T08:42:41.000",
    "date_modified": "2024-10-05T08:42:42.000",
    "request_status": "Pending",
    "responsible_agency": "Department of Public Works",
    "final_address": "3351 Desaix Blvd",
    "address_councildis": "D",
    "status": "Pending",
    "contractor": "Legacy Professional Services",
    "rowid": "1138483",
    "final_x": "3677208.52661",
    "final_y": "543734.874254",
    "longitude": "-90.08119977563047",
    "latitude": "29.989212009306463",
    "geocoded_column": {
      "latitude": "29.989212009306463",
      "longitude": "-90.08119977563047"
    }
  },
  {
    "service_request": "2024-1138482",
    "request_type": "Trash/Recycling",
    "request_reason": "Request a Large Item Pick Up",
    "date_created": "2024-10-05T08:38:34.000",
    "date_modified": "2024-10-05T08:38:35.000",
    "request_status": "Pending",
    "responsible_agency": "Department of Sanitation",
    "final_address": "725 Ninth St",
    "address_councildis": "B",
    "status": "Assigned to Contractor",
    "contractor": "IV Waste",
    "rowid": "1138482",
    "final_x": "3676611.08315",
    "final_y": "518994.572215",
    "longitude": "-90.08393902475818",
    "latitude": "29.921202406418608",
    "geocoded_column": {
      "latitude": "29.921202406418608",
      "longitude": "-90.08393902475818"
    }
  },
  {
    "service_request": "2024-1138481",
    "request_type": "Trash/Recycling",
    "request_reason": "Request a Large Item Pick Up",
    "date_created": "2024-10-05T08:29:51.000",
    "date_modified": "2024-10-05T08:29:52.000",
    "request_status": "Pending",
    "responsible_agency": "Department of Sanitation",
    "final_address": "913 Washington Ave Unit 3",
    "address_councildis": "B",
    "status": "Assigned to Contractor",
    "contractor": "IV Waste",
    "rowid": "1138481",
    "final_x": "3677467.75662",
    "final_y": "520377.564024",
    "longitude": "-90.0811871812543",
    "latitude": "29.92497947379642",
    "geocoded_column": {
      "latitude": "29.92497947379642",
      "longitude": "-90.0811871812543"
    }
  },
  {
    "service_request": "2024-1138480",
    "request_type": "Property Maintenance",
    "request_reason": "Property Maintenance",
    "date_created": "2024-10-05T08:16:03.000",
    "date_modified": "2024-10-05T08:16:03.000",
    "request_status": "Pending",
    "responsible_agency": "Department of Code Enforcement",
    "final_address": "3728 Banks St",
    "address_councildis": "B",
    "status": "Pending",
    "rowid": "1138480",
    "final_x": "3671374.57537",
    "final_y": "536529.662087",
    "longitude": "-90.09987255777324",
    "latitude": "29.969574130772617",
    "geocoded_column": {
      "latitude": "29.969574130772617",
      "longitude": "-90.09987255777324"
    }
  },
  {
    "service_request": "2024-1138479",
    "request_type": "Traffic Safety",
    "request_reason": "Request for Traffic Calming due to Speeding",
    "date_created": "2024-10-05T07:55:19.000",
    "date_modified": "2024-10-05T07:55:19.000",
    "request_status": "Pending",
    "responsible_agency": "Department of Public Works",
    "final_address": "5909 West End Blvd",
    "address_councildis": "A",
    "status": "Pending",
    "rowid": "1138479",
    "final_x": "3666502.10292",
    "final_y": "547177.730449",
    "longitude": "-90.11490272082729",
    "latitude": "29.998996039350793",
    "geocoded_column": {
      "latitude": "29.998996039350793",
      "longitude": "-90.11490272082729"
    }
  },
  {
    "service_request": "2024-1138478",
    "request_type": "Trash/Recycling",
    "request_reason": "Request a Large Item Pick Up",
    "date_created": "2024-10-05T07:43:04.000",
    "date_modified": "2024-10-05T07:43:05.000",
    "request_status": "Pending",
    "responsible_agency": "Department of Sanitation",
    "final_address": "726 Pontalba St",
    "address_councildis": "A",
    "status": "Assigned to Contractor",
    "contractor": "IV Waste",
    "rowid": "1138478",
    "final_x": "3668491.96366",
    "final_y": "544377.709135",
    "longitude": "-90.10871123172936",
    "latitude": "29.991238614047266",
    "geocoded_column": {
      "latitude": "29.991238614047266",
      "longitude": "-90.10871123172936"
    }
  },
  {
    "service_request": "2024-1138477",
    "request_type": "Roads and Streets",
    "request_reason": "Debris in Driving Lanes",
    "date_created": "2024-10-05T07:41:54.000",
    "date_modified": "2024-10-05T07:41:54.000",
    "request_status": "Pending",
    "responsible_agency": "Department of Public Works",
    "final_address": "209 Magazine St",
    "address_councildis": "B",
    "status": "Pending",
    "rowid": "1138477",
    "final_x": "3681638.77653",
    "final_y": "529839.520257",
    "longitude": "-90.06769072703938",
    "latitude": "29.950870717717123",
    "geocoded_column": {
      "latitude": "29.950870717717123",
      "longitude": "-90.06769072703938"
    }
  },
  {
    "service_request": "2024-1138476",
    "request_type": "Roads and Streets",
    "request_reason": "Street Subsidence (Sinking)",
    "date_created": "2024-10-05T07:34:04.000",
    "date_modified": "2024-10-05T07:34:04.000",
    "request_status": "Pending",
    "responsible_agency": "Department of Public Works",
    "final_address": "301 Magazine St",
    "address_councildis": "B",
    "status": "Pending",
    "rowid": "1138476",
    "final_x": "3681597.76367",
    "final_y": "529690.582721",
    "longitude": "-90.06782541861126",
    "latitude": "29.95046243529233",
    "geocoded_column": {
      "latitude": "29.95046243529233",
      "longitude": "-90.06782541861126"
    }
  },
  {
    "service_request": "2024-1138475",
    "request_type": "Streetlights",
    "request_reason": "Streetlight Outage/Malfunction",
    "date_created": "2024-10-05T07:15:50.000",
    "date_modified": "2024-10-05T07:15:51.000",
    "request_status": "Pending",
    "responsible_agency": "Department of Public Works",
    "final_address": "823 S Carrollton Ave",
    "address_councildis": "A",
    "status": "Pending",
    "contractor": "Legacy Professional Services",
    "rowid": "1138475",
    "final_x": "3661275.75827",
    "final_y": "527383.380991",
    "longitude": "-90.13206847479121",
    "latitude": "29.944719867385114",
    "geocoded_column": {
      "latitude": "29.944719867385114",
      "longitude": "-90.13206847479121"
    }
  },
  {
    "service_request": "2024-1138474",
    "request_type": "Safety & Permits",
    "request_reason": "Zoning Enforcement",
    "date_created": "2024-10-05T07:04:21.000",
    "date_modified": "2024-10-05T07:04:21.000",
    "request_status": "Pending",
    "responsible_agency": "Safety and Permits",
    "final_address": "609 Jackson Ave",
    "address_councildis": "B",
    "status": "Pending",
    "rowid": "1138474",
    "final_x": "3679901.14056",
    "final_y": "520810.428217",
    "longitude": "-90.07349075794016",
    "latitude": "29.926096366929237",
    "geocoded_column": {
      "latitude": "29.926096366929237",
      "longitude": "-90.07349075794016"
    }
  },
  {
    "service_request": "2024-1138473",
    "request_type": "General Services",
    "request_reason": "General Service Request",
    "date_created": "2024-10-05T07:02:36.000",
    "date_modified": "2024-10-05T07:02:36.000",
    "request_status": "Pending",
    "responsible_agency": "Orleans Parish Communication District",
    "final_address": "400 BLK N Carrollton Ave",
    "address_councildis": "A",
    "status": "Pending",
    "rowid": "1138473",
    "final_x": "3671989.38039",
    "final_y": "539326.613064",
    "longitude": "-90.09783570519085",
    "latitude": "29.97724658792727",
    "geocoded_column": {
      "latitude": "29.97724658792727",
      "longitude": "-90.09783570519085"
    }
  },
  {
    "service_request": "2024-1138472",
    "request_type": "Streetlights",
    "request_reason": "Streetlight Outage/Malfunction",
    "date_created": "2024-10-05T06:56:53.000",
    "date_modified": "2024-10-05T06:56:54.000",
    "request_status": "Pending",
    "responsible_agency": "Department of Public Works",
    "final_address": "400 N Carrollton Ave",
    "address_councildis": "A",
    "status": "Pending",
    "contractor": "Legacy Professional Services",
    "rowid": "1138472",
    "final_x": "3672315.02676",
    "final_y": "539084.368074",
    "longitude": "-90.09681546128527",
    "latitude": "29.976570837739217",
    "geocoded_column": {
      "latitude": "29.976570837739217",
      "longitude": "-90.09681546128527"
    }
  },
  {
    "service_request": "2024-1138471",
    "request_type": "Streetlights",
    "request_reason": "Streetlight Outage/Malfunction",
    "date_created": "2024-10-05T06:51:44.000",
    "date_modified": "2024-10-05T06:51:45.000",
    "request_status": "Pending",
    "responsible_agency": "Department of Public Works",
    "final_address": "3500 BLK Toulouse St",
    "address_councildis": "A",
    "status": "Pending",
    "contractor": "Legacy Professional Services",
    "rowid": "1138471",
    "final_x": "3673826.88492",
    "final_y": "538534.041486",
    "longitude": "-90.09205937014133",
    "latitude": "29.97501267981653",
    "geocoded_column": {
      "latitude": "29.97501267981653",
      "longitude": "-90.09205937014133"
    }
  },
  {
    "service_request": "2024-1138470",
    "request_type": "Trash/Recycling",
    "request_reason": "Request a Large Item Pick Up",
    "date_created": "2024-10-05T06:28:00.000",
    "date_modified": "2024-10-05T06:28:01.000",
    "request_status": "Pending",
    "responsible_agency": "Department of Sanitation",
    "final_address": "4390 Trieste St",
    "address_councildis": "E",
    "status": "Assigned to Contractor",
    "contractor": "Waste Pro",
    "rowid": "1138470",
    "final_x": "3760158.04451",
    "final_y": "574001.513386",
    "longitude": "-89.81792905634154",
    "latitude": "30.069678741555546",
    "geocoded_column": {
      "latitude": "30.069678741555546",
      "longitude": "-89.81792905634154"
    }
  },
  {
    "service_request": "2024-1138469",
    "request_type": "Streetlights",
    "request_reason": "Streetlight Outage/Malfunction",
    "date_created": "2024-10-05T06:02:43.000",
    "date_modified": "2024-10-05T06:02:44.000",
    "request_status": "Pending",
    "responsible_agency": "Department of Public Works",
    "final_address": "6400 BLK General Diaz St",
    "address_councildis": "A",
    "status": "Pending",
    "contractor": "Legacy Professional Services",
    "rowid": "1138469",
    "final_x": "3669786.85658",
    "final_y": "550279.71747",
    "longitude": "-90.1044210026208",
    "latitude": "30.00742897222544",
    "geocoded_column": {
      "latitude": "30.00742897222544",
      "longitude": "-90.1044210026208"
    }
  },
  {
    "service_request": "2024-1138468",
    "request_type": "Property Maintenance",
    "request_reason": "Property Maintenance",
    "date_created": "2024-10-05T04:28:04.000",
    "date_modified": "2024-10-05T04:28:04.000",
    "request_status": "Pending",
    "responsible_agency": "Department of Code Enforcement",
    "final_address": "4800 Raymond Joseph Dr",
    "address_councildis": "E",
    "status": "Pending",
    "rowid": "1138468",
    "final_x": "3703617.16906",
    "final_y": "555514.866841",
    "longitude": "-89.99734940039193",
    "latitude": "30.020782600196448",
    "geocoded_column": {
      "latitude": "30.020782600196448",
      "longitude": "-89.99734940039193"
    }
  },
  {
    "service_request": "2024-1138467",
    "request_type": "General Services",
    "request_reason": "General Service Request",
    "date_created": "2024-10-05T04:00:57.000",
    "date_modified": "2024-10-05T04:00:57.000",
    "request_status": "Pending",
    "responsible_agency": "Orleans Parish Communication District",
    "final_address": "900 Philip St",
    "address_councildis": "B",
    "status": "Pending",
    "rowid": "1138467",
    "final_x": "3678941.0084",
    "final_y": "521266.082681",
    "longitude": "-90.07650584001509",
    "latitude": "29.927378260260895",
    "geocoded_column": {
      "latitude": "29.927378260260895",
      "longitude": "-90.07650584001509"
    }
  },
  {
    "service_request": "2024-1138466",
    "request_type": "Trash/Recycling",
    "request_reason": "Order Recycling Cart",
    "date_created": "2024-10-05T02:40:26.000",
    "date_modified": "2024-10-05T02:40:26.000",
    "request_status": "Pending",
    "responsible_agency": "Department of Sanitation",
    "final_address": "4709 Palmyra St",
    "address_councildis": "A",
    "status": "Pending",
    "rowid": "1138466",
    "final_x": "3668578.6505",
    "final_y": "539305.517962",
    "longitude": "-90.10860865616729",
    "latitude": "29.977289264185483",
    "geocoded_column": {
      "latitude": "29.977289264185483",
      "longitude": "-90.10860865616729"
    }
  },
  {
    "service_request": "2024-1138465",
    "request_type": "Streetlights",
    "request_reason": "Streetlight Outage/Malfunction",
    "date_created": "2024-10-05T00:20:30.000",
    "date_modified": "2024-10-05T00:20:32.000",
    "request_status": "Pending",
    "responsible_agency": "Department of Public Works",
    "final_address": "27 Finch St",
    "address_councildis": "D",
    "status": "Pending",
    "contractor": "Legacy Professional Services",
    "rowid": "1138465",
    "final_x": "3672511.04097",
    "final_y": "555084.185113",
    "longitude": "-90.09565056028526",
    "latitude": "30.02055893311357",
    "geocoded_column": {
      "latitude": "30.02055893311357",
      "longitude": "-90.09565056028526"
    }
  },
  {
    "service_request": "2024-1138464",
    "request_type": "Parks & Parkways",
    "request_reason": "Request Tree Service (Right of Way/Public Property)",
    "date_created": "2024-10-05T00:05:49.000",
    "date_modified": "2024-10-05T00:05:49.000",
    "request_status": "Pending",
    "responsible_agency": "Department of Parks & Parkway",
    "final_address": "1020 Aurora Dr",
    "address_councildis": "C",
    "status": "Pending",
    "rowid": "1138464",
    "final_x": "3706836.70308",
    "final_y": "517910.234294",
    "longitude": "-89.98857116993406",
    "latitude": "29.917280037438264",
    "geocoded_column": {
      "latitude": "29.917280037438264",
      "longitude": "-89.98857116993406"
    }
  },
  {
    "service_request": "2024-1138463",
    "request_type": "Drainage",
    "request_reason": "Catch Basin Clogged",
    "date_created": "2024-10-04T22:44:48.000",
    "date_modified": "2024-10-04T22:44:48.000",
    "request_status": "Pending",
    "responsible_agency": "Department of Public Works",
    "final_address": "901 N Carrollton Ave",
    "address_councildis": "A",
    "status": "Pending",
    "rowid": "1138463",
    "final_x": "3673112.61864",
    "final_y": "540644.191883",
    "longitude": "-90.094243143547",
    "latitude": "29.9808361302434",
    "geocoded_column": {
      "latitude": "29.9808361302434",
      "longitude": "-90.094243143547"
    }
  },
  {
    "service_request": "2024-1138462",
    "request_type": "Health Related Request",
    "request_reason": "Noise Ordinance Complaint",
    "date_created": "2024-10-04T22:40:56.000",
    "date_modified": "2024-10-04T22:40:56.000",
    "request_status": "Pending",
    "responsible_agency": "Health Department",
    "final_address": "600 BLK N Broad St",
    "address_councildis": "A",
    "status": "Pending",
    "rowid": "1138462",
    "final_x": "3676359.9435",
    "final_y": "536531.150807",
    "longitude": "-90.08412827453832",
    "latitude": "29.969429719559482",
    "geocoded_column": {
      "latitude": "29.969429719559482",
      "longitude": "-90.08412827453832"
    }
  },
  {
    "service_request": "2024-1138461",
    "request_type": "Drainage",
    "request_reason": "Catch Basin Clogged",
    "date_created": "2024-10-04T22:40:55.000",
    "date_modified": "2024-10-04T22:40:55.000",
    "request_status": "Pending",
    "responsible_agency": "Department of Public Works",
    "final_address": "6601 Chef Menteur Hwy",
    "address_councildis": "E",
    "status": "Pending",
    "rowid": "1138461",
    "final_x": "3699080.57975",
    "final_y": "551994.204438",
    "longitude": "-90.01181190335211",
    "latitude": "30.01124677130967",
    "geocoded_column": {
      "latitude": "30.01124677130967",
      "longitude": "-90.01181190335211"
    }
  },
  {
    "service_request": "2024-1138460",
    "request_type": "Property Maintenance",
    "request_reason": "Property Maintenance",
    "date_created": "2024-10-04T22:28:05.000",
    "date_modified": "2024-10-04T22:28:05.000",
    "request_status": "Pending",
    "responsible_agency": "Department of Code Enforcement",
    "final_address": "2323 Ursulines Ave",
    "address_councildis": "D",
    "status": "Pending",
    "rowid": "1138460",
    "final_x": "3678865.44328",
    "final_y": "537264.142728",
    "longitude": "-90.07619030582468",
    "latitude": "29.971369850917124",
    "geocoded_column": {
      "latitude": "29.971369850917124",
      "longitude": "-90.07619030582468"
    }
  },
  {
    "service_request": "2024-1138459",
    "request_type": "Trash/Recycling",
    "request_reason": "Missed Trash Pick-Up",
    "date_created": "2024-10-04T22:15:15.000",
    "date_modified": "2024-10-04T22:15:17.000",
    "request_status": "Pending",
    "responsible_agency": "Department of Sanitation",
    "final_address": "12960 Chanelle CT, New Orleans",
    "address_councildis": "E",
    "status": "Assigned to Contractor",
    "contractor": "Waste Pro",
    "rowid": "1138459",
    "final_x": "3717140.82821",
    "final_y": "567696.807524",
    "longitude": "-89.95415582029591",
    "latitude": "30.053837521394176",
    "geocoded_column": {
      "latitude": "30.053837521394176",
      "longitude": "-89.95415582029591"
    }
  },
  {
    "service_request": "2024-1138458",
    "request_type": "General Services",
    "request_reason": "General Service Request",
    "date_created": "2024-10-04T21:50:50.000",
    "date_modified": "2024-10-04T21:50:50.000",
    "request_status": "Pending",
    "responsible_agency": "Orleans Parish Communication District",
    "final_address": "4000 Clara St",
    "address_councildis": "B",
    "status": "Pending",
    "rowid": "1138458",
    "final_x": "525148.431997",
    "final_y": "525148.431997",
    "longitude": "-100.01765608628173",
    "latitude": "29.656771570308457",
    "geocoded_column": {
      "latitude": "29.656771570308457",
      "longitude": "-100.01765608628173"
    }
  },
  {
    "service_request": "2024-1138457",
    "request_type": "Trash/Recycling",
    "request_reason": "Start Trash Service",
    "date_created": "2024-10-04T21:29:13.000",
    "date_modified": "2024-10-04T21:29:14.000",
    "request_status": "Pending",
    "responsible_agency": "Department of Sanitation",
    "final_address": "903 Jackson Ave",
    "address_councildis": "B",
    "status": "Assigned to Contractor",
    "contractor": "IV Waste",
    "rowid": "1138457",
    "final_x": "3679314.57903",
    "final_y": "521559.598393",
    "longitude": "-90.0753163981412",
    "latitude": "29.92817406029318",
    "geocoded_column": {
      "latitude": "29.92817406029318",
      "longitude": "-90.0753163981412"
    }
  },
  {
    "service_request": "2024-1138456",
    "request_type": "Drainage",
    "request_reason": "Catch Basin Clogged",
    "date_created": "2024-10-04T21:11:48.000",
    "date_modified": "2024-10-04T21:11:48.000",
    "request_status": "Pending",
    "responsible_agency": "Department of Public Works",
    "final_address": "520 First St",
    "address_councildis": "B",
    "status": "Pending",
    "rowid": "1138456",
    "final_x": "3679199.34491",
    "final_y": "519733.921336",
    "longitude": "-90.07574341961637",
    "latitude": "29.923157522008854",
    "geocoded_column": {
      "latitude": "29.923157522008854",
      "longitude": "-90.07574341961637"
    }
  },
  {
    "service_request": "2024-1138455",
    "request_type": "Street and Traffic Signs",
    "request_reason": "Additional Signage Request",
    "date_created": "2024-10-04T21:03:48.000",
    "date_modified": "2024-10-04T21:03:48.000",
    "request_status": "Pending",
    "responsible_agency": "Department of Public Works",
    "final_address": "CLEVELAND AVE & S CLAIBORNE AVE",
    "address_councildis": "B",
    "status": "Pending",
    "rowid": "1138455",
    "final_x": "3678195.7",
    "final_y": "532412.38",
    "longitude": "-90.0784732551096",
    "latitude": "29.958049340020203",
    "geocoded_column": {
      "latitude": "29.958049340020203",
      "longitude": "-90.0784732551096"
    }
  },
  {
    "service_request": "2024-1138454",
    "request_type": "Streetlights",
    "request_reason": "Streetlight Outage/Malfunction",
    "date_created": "2024-10-04T20:56:16.000",
    "date_modified": "2024-10-04T20:56:18.000",
    "request_status": "Pending",
    "responsible_agency": "Department of Public Works",
    "final_address": "1618 Rousselin Dr",
    "address_councildis": "D",
    "status": "Pending",
    "contractor": "Legacy Professional Services",
    "rowid": "1138454",
    "final_x": "3679513.85013",
    "final_y": "540056.167691",
    "longitude": "-90.07404563871349",
    "latitude": "29.979027379208247",
    "geocoded_column": {
      "latitude": "29.979027379208247",
      "longitude": "-90.07404563871349"
    }
  },
  {
    "service_request": "2024-1138453",
    "request_type": "Trash/Recycling",
    "request_reason": "Replace Trash Cart",
    "date_created": "2024-10-04T20:38:34.000",
    "date_modified": "2024-10-04T20:38:35.000",
    "request_status": "Pending",
    "responsible_agency": "Department of Sanitation",
    "final_address": "4767 Hickerson Dr",
    "address_councildis": "E",
    "status": "Assigned to Contractor",
    "contractor": "Waste Pro",
    "rowid": "1138453",
    "final_x": "3710357.98827",
    "final_y": "555936.097369",
    "longitude": "-89.97603482963181",
    "latitude": "30.021722992326755",
    "geocoded_column": {
      "latitude": "30.021722992326755",
      "longitude": "-89.97603482963181"
    }
  },
  {
    "service_request": "2024-1138452",
    "request_type": "Trash/Recycling",
    "request_reason": "Request a Large Item Pick Up",
    "date_created": "2024-10-04T20:09:48.000",
    "date_modified": "2024-10-04T20:09:49.000",
    "request_status": "Pending",
    "responsible_agency": "Department of Sanitation",
    "final_address": "13001 Sevres St",
    "address_councildis": "E",
    "status": "Assigned to Contractor",
    "contractor": "Waste Pro",
    "rowid": "1138452",
    "final_x": "3723874.14854",
    "final_y": "560182.019037",
    "longitude": "-89.93316399353245",
    "latitude": "30.032950398591936",
    "geocoded_column": {
      "latitude": "30.032950398591936",
      "longitude": "-89.93316399353245"
    }
  },
  {
    "service_request": "2024-1138451",
    "request_type": "Streetlights",
    "request_reason": "Streetlight Outage/Malfunction",
    "date_created": "2024-10-04T19:58:15.000",
    "date_modified": "2024-10-04T19:58:16.000",
    "request_status": "Pending",
    "responsible_agency": "Department of Public Works",
    "final_address": "4543 Bundy Rd",
    "address_councildis": "E",
    "status": "Pending",
    "contractor": "Legacy Professional Services",
    "rowid": "1138451",
    "final_x": "3709545.67109",
    "final_y": "554742.143896",
    "longitude": "-89.97864611538776",
    "latitude": "30.018466518418382",
    "geocoded_column": {
      "latitude": "30.018466518418382",
      "longitude": "-89.97864611538776"
    }
  },
  {
    "service_request": "2024-1138450",
    "request_type": "Streetlights",
    "request_reason": "Streetlight Outage/Malfunction",
    "date_created": "2024-10-04T19:56:13.000",
    "date_modified": "2024-10-04T19:56:14.000",
    "request_status": "Pending",
    "responsible_agency": "Department of Public Works",
    "final_address": "4543 Bundy Rd",
    "address_councildis": "E",
    "status": "Pending",
    "contractor": "Legacy Professional Services",
    "rowid": "1138450",
    "final_x": "3709545.67109",
    "final_y": "554742.143896",
    "longitude": "-89.97864611538776",
    "latitude": "30.018466518418382",
    "geocoded_column": {
      "latitude": "30.018466518418382",
      "longitude": "-89.97864611538776"
    }
  },
  {
    "service_request": "2024-1138449",
    "request_type": "Streetlights",
    "request_reason": "Streetlight Outage/Malfunction",
    "date_created": "2024-10-04T19:52:09.000",
    "date_modified": "2024-10-04T19:52:10.000",
    "request_status": "Pending",
    "responsible_agency": "Department of Public Works",
    "final_address": "4045 Buick St",
    "address_councildis": "D",
    "status": "Pending",
    "contractor": "Legacy Professional Services",
    "rowid": "1138449",
    "final_x": "3688885.45289",
    "final_y": "548227.053202",
    "longitude": "-90.04415625051452",
    "latitude": "30.00120785284619",
    "geocoded_column": {
      "latitude": "30.00120785284619",
      "longitude": "-90.04415625051452"
    }
  },
  {
    "service_request": "2024-1138448",
    "request_type": "Roads and Streets",
    "request_reason": "Debris in Driving Lanes",
    "date_created": "2024-10-04T19:13:15.000",
    "date_modified": "2024-10-04T19:13:15.000",
    "request_status": "Pending",
    "responsible_agency": "Department of Public Works",
    "final_address": "Palmyra Street & South Alexander Street",
    "address_councildis": "A",
    "status": "Pending",
    "rowid": "1138448",
    "final_x": "3669516.56487",
    "final_y": "538541.429513",
    "longitude": "-90.10567226050881",
    "latitude": "29.975160680481064",
    "geocoded_column": {
      "latitude": "29.975160680481064",
      "longitude": "-90.10567226050881"
    }
  },
  {
    "service_request": "2024-1138447",
    "request_type": "Property Maintenance",
    "request_reason": "Property Maintenance",
    "date_created": "2024-10-04T18:54:11.000",
    "date_modified": "2024-10-04T18:54:11.000",
    "request_status": "Pending",
    "responsible_agency": "Department of Code Enforcement",
    "final_address": "1438 Strand Ct",
    "address_councildis": "E",
    "status": "Pending",
    "rowid": "1138447",
    "final_x": "3699858.9112",
    "final_y": "534748.29863",
    "longitude": "-90.0099821310415",
    "latitude": "29.96380216419895",
    "geocoded_column": {
      "latitude": "29.96380216419895",
      "longitude": "-90.0099821310415"
    }
  },
  {
    "service_request": "2024-1138446",
    "request_type": "Trash/Recycling",
    "request_reason": "Request a Large Item Pick Up",
    "date_created": "2024-10-04T18:53:28.000",
    "date_modified": "2024-10-04T18:53:29.000",
    "request_status": "Pending",
    "responsible_agency": "Department of Sanitation",
    "final_address": "126 N Alexander St",
    "address_councildis": "A",
    "status": "Assigned to Contractor",
    "contractor": "IV Waste",
    "rowid": "1138446",
    "final_x": "3670218.053",
    "final_y": "539378.446346",
    "longitude": "-90.10342839645045",
    "latitude": "29.977441509427496",
    "geocoded_column": {
      "latitude": "29.977441509427496",
      "longitude": "-90.10342839645045"
    }
  },
  {
    "service_request": "2024-1138445",
    "request_type": "Drainage",
    "request_reason": "Catch Basin Clogged",
    "date_created": "2024-10-04T18:28:08.000",
    "date_modified": "2024-10-04T18:28:08.000",
    "request_status": "Pending",
    "responsible_agency": "Department of Public Works",
    "final_address": "1137 St Mary St",
    "address_councildis": "B",
    "status": "Pending",
    "rowid": "1138445",
    "final_x": "3679533.91752",
    "final_y": "523095.297915",
    "longitude": "-90.0745707396774",
    "latitude": "29.93239010685008",
    "geocoded_column": {
      "latitude": "29.93239010685008",
      "longitude": "-90.0745707396774"
    }
  },
  {
    "service_request": "2024-1138444",
    "request_type": "Drainage",
    "request_reason": "Ditch and Culvert Maintenance",
    "date_created": "2024-10-04T18:27:58.000",
    "date_modified": "2024-10-05T10:42:55.000",
    "request_status": "Pending",
    "responsible_agency": "Department of Public Works",
    "final_address": "1034 Tricou St",
    "address_councildis": "E",
    "status": "Inspected",
    "rowid": "1138444",
    "final_x": "3700036.54199",
    "final_y": "532901.775428",
    "longitude": "-90.00948856374288",
    "latitude": "29.958719242847327",
    "geocoded_column": {
      "latitude": "29.958719242847327",
      "longitude": "-90.00948856374288"
    }
  },
  {
    "service_request": "2024-1138443",
    "request_type": "Roads and Streets",
    "request_reason": "Debris in Driving Lanes",
    "date_created": "2024-10-04T18:26:41.000",
    "date_modified": "2024-10-04T18:26:41.000",
    "request_status": "Pending",
    "responsible_agency": "Department of Public Works",
    "final_address": "1137 St Mary St",
    "address_councildis": "B",
    "status": "Pending",
    "rowid": "1138443",
    "final_x": "3679533.91752",
    "final_y": "523095.297915",
    "longitude": "-90.0745707396774",
    "latitude": "29.93239010685008",
    "geocoded_column": {
      "latitude": "29.93239010685008",
      "longitude": "-90.0745707396774"
    }
  },
  {
    "service_request": "2024-1138442",
    "request_type": "Safety & Permits",
    "request_reason": "Construction permit",
    "date_created": "2024-10-04T18:25:52.000",
    "date_modified": "2024-10-04T18:25:52.000",
    "request_status": "Pending",
    "responsible_agency": "Safety and Permits",
    "final_address": "1034 Tricou St",
    "address_councildis": "E",
    "status": "Pending",
    "rowid": "1138442",
    "final_x": "3700036.54199",
    "final_y": "532901.775428",
    "longitude": "-90.00948856374288",
    "latitude": "29.958719242847327",
    "geocoded_column": {
      "latitude": "29.958719242847327",
      "longitude": "-90.00948856374288"
    }
  },
  {
    "service_request": "2024-1138441",
    "request_type": "General Services",
    "request_reason": "General Service Request",
    "date_created": "2024-10-04T18:18:39.000",
    "date_modified": "2024-10-04T18:18:39.000",
    "request_status": "Pending",
    "responsible_agency": "Orleans Parish Communication District",
    "final_address": "WALES ST & LAMB RD",
    "address_councildis": "E",
    "status": "Pending",
    "rowid": "1138441",
    "final_x": "3696725.0",
    "final_y": "560008.88",
    "longitude": "-90.01896363469118",
    "latitude": "30.03335857682752",
    "geocoded_column": {
      "latitude": "30.03335857682752",
      "longitude": "-90.01896363469118"
    }
  },
  {
    "service_request": "2024-1138440",
    "request_type": "Drainage",
    "request_reason": "Street Flooding",
    "date_created": "2024-10-04T18:12:29.000",
    "date_modified": "2024-10-04T18:12:29.000",
    "request_status": "Pending",
    "responsible_agency": "Department of Public Works",
    "final_address": "SPRUCE ST & S CARROLLTON AVE",
    "address_councildis": "A",
    "status": "Pending",
    "rowid": "1138440",
    "final_x": "3663945.1",
    "final_y": "530369.18",
    "longitude": "-90.1235409945792",
    "latitude": "29.95285263445174",
    "geocoded_column": {
      "latitude": "29.95285263445174",
      "longitude": "-90.1235409945792"
    }
  },
  {
    "service_request": "2024-1138439",
    "request_type": "Property Maintenance",
    "request_reason": "Property Maintenance",
    "date_created": "2024-10-04T18:03:23.000",
    "date_modified": "2024-10-04T18:03:23.000",
    "request_status": "Pending",
    "responsible_agency": "Department of Code Enforcement",
    "final_address": "1438 Strand Ct",
    "address_councildis": "E",
    "status": "Pending",
    "rowid": "1138439",
    "final_x": "3699858.9112",
    "final_y": "534748.29863",
    "longitude": "-90.0099821310415",
    "latitude": "29.96380216419895",
    "geocoded_column": {
      "latitude": "29.96380216419895",
      "longitude": "-90.0099821310415"
    }
  },
  {
    "service_request": "2024-1138438",
    "request_type": "Abandoned Vehicles",
    "request_reason": "Abandoned/Junk Vehicles",
    "date_created": "2024-10-04T17:48:36.000",
    "date_modified": "2024-10-04T17:48:36.000",
    "request_status": "Pending",
    "responsible_agency": "Department of Public Works",
    "final_address": "1818 Fourth St",
    "address_councildis": "B",
    "status": "Pending",
    "rowid": "1138438",
    "final_x": "3675659.50657",
    "final_y": "523448.766523",
    "longitude": "-90.086789776108",
    "latitude": "29.933478494192265",
    "geocoded_column": {
      "latitude": "29.933478494192265",
      "longitude": "-90.086789776108"
    }
  },
  {
    "service_request": "2024-1138437",
    "request_type": "General Services",
    "request_reason": "General Service Request",
    "date_created": "2024-10-04T17:44:01.000",
    "date_modified": "2024-10-04T17:44:01.000",
    "request_status": "Pending",
    "responsible_agency": "Orleans Parish Communication District",
    "final_address": "1494 Granada Dr",
    "address_councildis": "D",
    "status": "Pending",
    "rowid": "1138437",
    "final_x": "3678585.76469",
    "final_y": "550542.075604",
    "longitude": "-90.0766136569246",
    "latitude": "30.007887949698866",
    "geocoded_column": {
      "latitude": "30.007887949698866",
      "longitude": "-90.0766136569246"
    }
  },
  {
    "service_request": "2024-1138436",
    "request_type": "Trash/Recycling",
    "request_reason": "Replace Trash Cart",
    "date_created": "2024-10-04T17:39:19.000",
    "date_modified": "2024-10-04T17:39:20.000",
    "request_status": "Pending",
    "responsible_agency": "Department of Sanitation",
    "final_address": "4320 General Pershing St",
    "address_councildis": "B",
    "status": "Assigned to Contractor",
    "contractor": "IV Waste",
    "rowid": "1138436",
    "final_x": "3669458.25946",
    "final_y": "529713.152897",
    "longitude": "-90.10615501738499",
    "latitude": "29.950887569075395",
    "geocoded_column": {
      "latitude": "29.950887569075395",
      "longitude": "-90.10615501738499"
    }
  },
  {
    "service_request": "2024-1138435",
    "request_type": "Parks & Parkways",
    "request_reason": "Request Tree Service (Right of Way/Public Property)",
    "date_created": "2024-10-04T17:33:55.000",
    "date_modified": "2024-10-04T17:33:55.000",
    "request_status": "Pending",
    "responsible_agency": "Department of Parks & Parkway",
    "final_address": "4348 S Broad St EVC",
    "address_councildis": "B",
    "status": "Pending",
    "rowid": "1138435",
    "final_x": "3670228.56948",
    "final_y": "529027.303168",
    "longitude": "-90.10374599995173",
    "latitude": "29.94897900006748",
    "geocoded_column": {
      "latitude": "29.94897900006748",
      "longitude": "-90.10374599995173"
    }
  },