[
  {
    "service_request": "2025-1232206",
    "request_type": "Trash/Recycling",
    "request_reason": "Request a Large Item Pick Up",
    "date_created": "2025-10-08T23:22:43.000",
    "date_modified": "2025-10-08T23:22:45.000",
    "request_status": "Pending",
    "responsible_agency": "Department of Sanitation",
    "final_address": "5132 Westlake Dr",
    "address_councildis": "E",
    "status": "Assigned to Contractor",
    "contractor": "Waste Pro",
    "rowid": "1232206",
    "final_x": "3699403.5793",
    "final_y": "556323.892762",
    "longitude": "-90.0106335175709",
    "latitude": "30.02314152341408",
    "geocoded_column": {
      "latitude": "30.02314152341408",
      "longitude": "-90.0106335175709"
    }
  },
  {
    "service_request": "2025-1232205",
    "request_type": "Property Maintenance",
    "request_reason": "Property Maintenance",
    "date_created": "2025-10-08T22:25:13.000",
    "date_modified": "2025-10-08T22:25:15.000",
    "request_status": "Pending",
    "responsible_agency": "Department of Code Enforcement",
    "final_address": "530 Bourbon St",
    "address_councildis": "C",
    "status": "Pending",
    "rowid": "1232205",
    "final_x": "3681986.9444",
    "final_y": "532265.683267",
    "longitude": "-90.0665066956375",
    "latitude": "29.95753126456209",
    "geocoded_column": {
      "latitude": "29.95753126456209",
      "longitude": "-90.0665066956375"
    }
  },
  {
    "service_request": "2025-1232204",
    "request_type": "Trash/Recycling",
    "request_reason": "Repair Recycling Cart",
    "date_created": "2025-10-08T21:59:51.000",
    "date_modified": "2025-10-08T21:59:53.000",
    "request_status": "Pending",
    "responsible_agency": "Department of Sanitation",
    "final_address": "6536 Marigny St",
    "address_councildis": "D",
    "status": "Pending",
    "rowid": "1232204",
    "final_x": "3683570.42255",
    "final_y": "557529.879451",
    "longitude": "-90.06062044633522",
    "latitude": "30.026950586798247",
    "geocoded_column": {
      "latitude": "30.026950586798247",
      "longitude": "-90.06062044633522"
    }
  },
  {
    "service_request": "2025-1232203",
    "request_type": "Health Related Request",
    "request_reason": "Homeless Encampment Complaint",
    "date_created": "2025-10-08T21:53:31.000",
    "date_modified": "2025-10-08T21:53:33.000",
    "request_status": "Pending",
    "responsible_agency": "Office Of Homeless Services And Strategy",
    "final_address": "1020 Kerlerec St",
    "address_councildis": "C",
    "status": "Pending",
    "rowid": "1232203",
    "final_x": "3683241.754",
    "final_y": "535441.651526",
    "longitude": "-90.06243314958633",
    "latitude": "29.966225882168917",
    "geocoded_column": {
      "latitude": "29.966225882168917",
      "longitude": "-90.06243314958633"
    }
  },
  {
    "service_request": "2025-1232202",
    "request_type": "Trash/Recycling",
    "request_reason": "Request a Large Item Pick Up",
    "date_created": "2025-10-08T21:40:15.000",
    "date_modified": "2025-10-08T21:40:17.000",
    "request_status": "Pending",
    "responsible_agency": "Department of Sanitation",
    "final_address": "1312 France St",
    "address_councildis": "D",
    "status": "Assigned to Contractor",
    "contractor": "IV Waste",
    "rowid": "1232202",
    "final_x": "3692565.75664",
    "final_y": "536027.436871",
    "longitude": "-90.03296726792107",
    "latitude": "29.967548931355815",
    "geocoded_column": {
      "latitude": "29.967548931355815",
      "longitude": "-90.03296726792107"
    }
  },
  {
    "service_request": "2025-1232201",
    "request_type": "Trash/Recycling",
    "request_reason": "Request a Large Item Pick Up",
    "date_created": "2025-10-08T21:25:24.000",
    "date_modified": "2025-10-08T21:25:26.000",
    "request_status": "Pending",
    "responsible_agency": "Department of Sanitation",
    "final_address": "1312 Gordon St",
    "address_councildis": "E",
    "status": "Assigned to Contractor",
    "contractor": "Waste Pro",
    "rowid": "1232201",
    "final_x": "3699454.51799",
    "final_y": "534265.604677",
    "longitude": "-90.01127674460399",
    "latitude": "29.962487764153153",
    "geocoded_column": {
      "latitude": "29.962487764153153",
      "longitude": "-90.01127674460399"
    }
  },
  {
    "service_request": "2025-1232200",
    "request_type": "Roads and Streets",
    "request_reason": "Sidewalk Damaged or Missing",
    "date_created": "2025-10-08T21:12:14.000",
    "date_modified": "2025-10-08T21:12:15.000",
    "request_status": "Pending",
    "responsible_agency": "Department of Public Works",
    "final_address": "1544 Camp St Apt 1",
    "address_councildis": "B",
    "status": "Pending",
    "rowid": "1232200",
    "final_x": "3679740.23746",
    "final_y": "523493.006267",
    "longitude": "-90.07390560661462",
    "latitude": "29.933477440084502",
    "geocoded_column": {
      "latitude": "29.933477440084502",
      "longitude": "-90.07390560661462"
    }
  },
  {
    "service_request": "2025-1232199",
    "request_type": "Trash/Recycling",
    "request_reason": "Missed Trash Pick-Up",
    "date_created": "2025-10-08T21:11:27.000",
    "date_modified": "2025-10-08T21:11:29.000",
    "request_status": "Pending",
    "responsible_agency": "Department of Sanitation",
    "final_address": "100 BLK Cherokee St",
    "address_councildis": "A",
    "status": "Assigned to Contractor",
    "contractor": "IV Waste",
    "rowid": "1232199",
    "final_x": "3660896.21098",
    "final_y": "524038.372315",
    "longitude": "-90.13337742549393",
    "latitude": "29.935533087884696",
    "geocoded_column": {
      "latitude": "29.935533087884696",
      "longitude": "-90.13337742549393"
    }
  },
  {
    "service_request": "2025-1232198",
    "request_type": "Roads and Streets",
    "request_reason": "Sidewalk Damaged or Missing",
    "date_created": "2025-10-08T21:08:30.000",
    "date_modified": "2025-10-08T21:08:32.000",
    "request_status": "Pending",
    "responsible_agency": "Department of Public Works",
    "final_address": "1202 Felicity St",
    "address_councildis": "B",
    "status": "Pending",
    "rowid": "1232198",
    "final_x": "3679583.32706",
    "final_y": "523346.745339",
    "longitude": "-90.07440603688433",
    "latitude": "29.93308001196377",
    "geocoded_column": {
      "latitude": "29.93308001196377",
      "longitude": "-90.07440603688433"
    }
  },
  {
    "service_request": "2025-1232197",
    "request_type": "Trash/Recycling",
    "request_reason": "Order Trash Cart",
    "date_created": "2025-10-08T21:07:58.000",
    "date_modified": "2025-10-08T21:08:00.000",
    "request_status": "Pending",
    "responsible_agency": "Department of Sanitation",
    "final_address": "525 Washington Ave",
    "address_councildis": "B",
    "status": "Assigned to Contractor",
    "contractor": "IV Waste",
    "rowid": "1232197",
    "final_x": "3678217.5453",
    "final_y": "519141.741047",
    "longitude": "-90.07886305092201",
    "latitude": "29.921558810782862",
    "geocoded_column": {
      "latitude": "29.921558810782862",
      "longitude": "-90.07886305092201"
    }
  },
  {
    "service_request": "2025-1232196",
    "request_type": "Trash/Recycling",
    "request_reason": "Request a Large Item Pick Up",
    "date_created": "2025-10-08T21:04:36.000",
    "date_modified": "2025-10-08T21:04:38.000",
    "request_status": "Pending",
    "responsible_agency": "Department of Sanitation",
    "final_address": "2034 Bartholomew St",
    "address_councildis": "D",
    "status": "Assigned to Contractor",
    "contractor": "IV Waste",
    "rowid": "1232196",
    "final_x": "3692670.05206",
    "final_y": "538977.691914",
    "longitude": "-90.0325321325453",
    "latitude": "29.9756578309232",
    "geocoded_column": {
      "latitude": "29.9756578309232",
      "longitude": "-90.0325321325453"
    }
  },
  {
    "service_request": "2025-1232195",
    "request_type": "Streetlights",
    "request_reason": "Streetlight Outage/Malfunction",
    "date_created": "2025-10-08T20:52:52.000",
    "date_modified": "2025-10-08T20:52:54.000",
    "request_status": "Pending",
    "responsible_agency": "Department of Public Works",
    "final_address": "1544 Camp St Apt 1",
    "address_councildis": "B",
    "status": "Pending",
    "rowid": "1232195",
    "final_x": "3679740.23746",
    "final_y": "523493.006267",
    "longitude": "-90.07390560661462",
    "latitude": "29.933477440084502",
    "geocoded_column": {
      "latitude": "29.933477440084502",
      "longitude": "-90.07390560661462"
    }
  },
  {
    "service_request": "2025-1232191",
    "request_type": "Streetlights",
    "request_reason": "Streetlight Outage/Malfunction",
    "date_created": "2025-10-08T20:49:53.000",
    "date_modified": "2025-10-08T20:49:57.000",
    "request_status": "Pending",
    "responsible_agency": "Department of Public Works",
    "final_address": "1544 Camp St Apt 1",
    "address_councildis": "B",
    "status": "Pending",
    "rowid": "1232191",
    "final_x": "3679740.23746",
    "final_y": "523493.006267",
    "longitude": "-90.07390560661462",
    "latitude": "29.933477440084502",
    "geocoded_column": {
      "latitude": "29.933477440084502",
      "longitude": "-90.07390560661462"
    }
  },
  {
    "service_request": "2025-1232194",
    "request_type": "Streetlights",
    "request_reason": "Streetlight Outage/Malfunction",
    "date_created": "2025-10-08T20:49:53.000",
    "date_modified": "2025-10-08T20:49:57.000",
    "request_status": "Pending",
    "responsible_agency": "Department of Public Works",
    "final_address": "1544 Camp St Apt 1",
    "address_councildis": "B",
    "status": "Pending",
    "rowid": "1232194",
    "final_x": "3679740.23746",
    "final_y": "523493.006267",
    "longitude": "-90.07390560661462",
    "latitude": "29.933477440084502",
    "geocoded_column": {
      "latitude": "29.933477440084502",
      "longitude": "-90.07390560661462"
    }
  },
  {
    "service_request": "2025-1232193",
    "request_type": "Streetlights",
    "request_reason": "Streetlight Outage/Malfunction",
    "date_created": "2025-10-08T20:49:53.000",
    "date_modified": "2025-10-08T20:49:57.000",
    "request_status": "Pending",
    "responsible_agency": "Department of Public Works",
    "final_address": "1544 Camp St Apt 1",
    "address_councildis": "B",
    "status": "Pending",
    "rowid": "1232193",
    "final_x": "3679740.23746",
    "final_y": "523493.006267",
    "longitude": "-90.07390560661462",
    "latitude": "29.933477440084502",
    "geocoded_column": {
      "latitude": "29.933477440084502",
      "longitude": "-90.07390560661462"
    }
  },
  {
    "service_request": "2025-1232192",
    "request_type": "Streetlights",
    "request_reason": "Streetlight Outage/Malfunction",
    "date_created": "2025-10-08T20:49:53.000",
    "date_modified": "2025-10-08T20:49:57.000",
    "request_status": "Pending",
    "responsible_agency": "Department of Public Works",
    "final_address": "1544 Camp St Apt 1",
    "address_councildis": "B",
    "status": "Pending",
    "rowid": "1232192",
    "final_x": "3679740.23746",
    "final_y": "523493.006267",
    "longitude": "-90.07390560661462",
    "latitude": "29.933477440084502",
    "geocoded_column": {
      "latitude": "29.933477440084502",
      "longitude": "-90.07390560661462"
    }
  },
  {
    "service_request": "2025-1232190",
    "request_type": "Streetlights",
    "request_reason": "Streetlight Outage/Malfunction",
    "date_created": "2025-10-08T20:46:17.000",
    "date_modified": "2025-10-08T20:46:19.000",
    "request_status": "Pending",
    "responsible_agency": "Department of Public Works",
    "final_address": "1820 Sophie Wright Pl",
    "address_councildis": "B",
    "status": "Pending",
    "rowid": "1232190",
    "final_x": "3679667.25282",
    "final_y": "523207.660987",
    "longitude": "-90.07414591423982",
    "latitude": "29.93269504006671",
    "geocoded_column": {
      "latitude": "29.93269504006671",
      "longitude": "-90.07414591423982"
    }
  },
  {
    "service_request": "2025-1232189",
    "request_type": "Trash/Recycling",
    "request_reason": "Missed Trash Pick-Up",
    "date_created": "2025-10-08T20:15:06.000",
    "date_modified": "2025-10-08T20:15:08.000",
    "request_status": "Pending",
    "responsible_agency": "Department of Sanitation",
    "final_address": "4431 Eastview Dr, New Orleans, Louisiana, 70126",
    "address_councildis": "E",
    "status": "Assigned to Contractor",
    "contractor": "Waste Pro",
    "rowid": "1232189",
    "final_x": "3705320.61214",
    "final_y": "553608.118231",
    "longitude": "-89.99203758769896",
    "latitude": "30.015485055308154",
    "geocoded_column": {
      "latitude": "30.015485055308154",
      "longitude": "-89.99203758769896"
    }
  },
  {
    "service_request": "2025-1232188",
    "request_type": "Street and Traffic Signs",
    "request_reason": "Street Name Sign Damaged or Missing",
    "date_created": "2025-10-08T20:13:46.000",
    "date_modified": "2025-10-08T20:13:47.000",
    "request_status": "Pending",
    "responsible_agency": "Department of Public Works",
    "final_address": "3840 General Meyer Ave",
    "address_councildis": "C",
    "status": "Pending",
    "rowid": "1232188",
    "final_x": "3698427.33098",
    "final_y": "525138.004477",
    "longitude": "-90.0148521035325",
    "latitude": "29.937422619310258",
    "geocoded_column": {
      "latitude": "29.937422619310258",
      "longitude": "-90.0148521035325"
    }
  },
  {
    "service_request": "2025-1232187",
    "request_type": "Street and Traffic Signs",
    "request_reason": "Street Name Sign Damaged or Missing",
    "date_created": "2025-10-08T20:13:45.000",
    "date_modified": "2025-10-08T20:13:47.000",
    "request_status": "Pending",
    "responsible_agency": "Department of Public Works",
    "final_address": "3840 General Meyer Ave",
    "address_councildis": "C",
    "status": "Pending",
    "rowid": "1232187",
    "final_x": "3698427.33098",
    "final_y": "525138.004477",
    "longitude": "-90.0148521035325",
    "latitude": "29.937422619310258",
    "geocoded_column": {
      "latitude": "29.937422619310258",
      "longitude": "-90.0148521035325"
    }
  },
  {
    "service_request": "2025-1232186",
    "request_type": "Trash/Recycling",
    "request_reason": "Order Recycling Cart",
    "date_created": "2025-10-08T20:02:01.000",
    "date_modified": "2025-10-08T20:02:03.000",
    "request_status": "Pending",
    "responsible_agency": "Department of Sanitation",
    "final_address": "5422 Laurel St",
    "address_councildis": "A",
    "status": "Pending",
    "rowid": "1232186",
    "final_x": "3666358.04679",
    "final_y": "517835.070902",
    "longitude": "-90.11634229724744",
    "latitude": "29.918317563943496",
    "geocoded_column": {
      "latitude": "29.918317563943496",
      "longitude": "-90.11634229724744"
    }
  },
  {
    "service_request": "2025-1232185",
    "request_type": "Trash/Recycling",
    "request_reason": "Order Recycling Cart",
    "date_created": "2025-10-08T19:14:46.000",
    "date_modified": "2025-10-08T19:14:48.000",
    "request_status": "Pending",
    "responsible_agency": "Department of Sanitation",
    "final_address": "1718 Cadiz St",
    "address_councildis": "B",
    "status": "Pending",
    "rowid": "1232185",
    "final_x": "3670012.06375",
    "final_y": "521342.614201",
    "longitude": "-90.10468977761647",
    "latitude": "29.92785497564647",
    "geocoded_column": {
      "latitude": "29.92785497564647",
      "longitude": "-90.10468977761647"
    }
  },
  {
    "service_request": "2025-1232184",
    "request_type": "Trash/Recycling",
    "request_reason": "Missed Trash Pick-Up",
    "date_created": "2025-10-08T18:02:45.000",
    "date_modified": "2025-10-08T18:02:48.000",
    "request_status": "Pending",
    "responsible_agency": "Department of Sanitation",
    "final_address": "2428 Ursulines Ave, New Orleans, Louisiana, 70119",
    "address_councildis": "D",
    "status": "Assigned to Contractor",
    "contractor": "IV Waste",
    "rowid": "1232184",
    "final_x": "3678485.03355",
    "final_y": "537415.26132",
    "longitude": "-90.07738646298472",
    "latitude": "29.971796845754305",
    "geocoded_column": {
      "latitude": "29.971796845754305",
      "longitude": "-90.07738646298472"
    }
  },
  {
    "service_request": "2025-1232183",
    "request_type": "Abandoned Vehicles",
    "request_reason": "Abandoned/Junk Vehicles",
    "date_created": "2025-10-08T17:57:53.000",
    "date_modified": "2025-10-08T17:57:54.000",
    "request_status": "Pending",
    "responsible_agency": "Department of Public Works",
    "final_address": "1314 Elysian Fields Ave",
    "address_councildis": "C",
    "status": "Pending",
    "rowid": "1232183",
    "final_x": "3684830.23951",
    "final_y": "537173.842312",
    "longitude": "-90.05735583869718",
    "latitude": "29.97094026520374",
    "geocoded_column": {
      "latitude": "29.97094026520374",
      "longitude": "-90.05735583869718"
    }
  },
  {
    "service_request": "2025-1232182",
    "request_type": "Property Maintenance",
    "request_reason": "Property Maintenance",
    "date_created": "2025-10-08T17:56:20.000",
    "date_modified": "2025-10-08T17:56:23.000",
    "request_status": "Pending",
    "responsible_agency": "Department of Code Enforcement",
    "final_address": "4638 Majestic Oaks Dr",
    "address_councildis": "D",
    "status": "Pending",
    "rowid": "1232182",
    "final_x": "3697675.41443",
    "final_y": "553919.239127",
    "longitude": "-90.0161814516493",
    "latitude": "30.016584377366332",
    "geocoded_column": {
      "latitude": "30.016584377366332",
      "longitude": "-90.0161814516493"
    }
  },
  {
    "service_request": "2025-1232181",
    "request_type": "Trash/Recycling",
    "request_reason": "Illegal Dumping",
    "date_created": "2025-10-08T17:24:16.000",
    "date_modified": "2025-10-08T17:24:18.000",
    "request_status": "Pending",
    "responsible_agency": "Department of Sanitation",
    "final_address": "2501 Gravier St",
    "address_councildis": "B",
    "status": "Pending",
    "rowid": "1232181",
    "final_x": "3674902.39278",
    "final_y": "532927.285124",
    "longitude": "-90.0888549540379",
    "latitude": "29.959563916310575",
    "geocoded_column": {
      "latitude": "29.959563916310575",
      "longitude": "-90.0888549540379"
    }
  },
  {
    "service_request": "2025-1232180",
    "request_type": "Trash/Recycling",
    "request_reason": "Request a Large Item Pick Up",
    "date_created": "2025-10-08T17:14:02.000",
    "date_modified": "2025-10-08T17:14:05.000",
    "request_status": "Pending",
    "responsible_agency": "Department of Sanitation",
    "final_address": "600 Hagan St",
    "address_councildis": "A",
    "status": "Assigned to Contractor",
    "contractor": "IV Waste",
    "rowid": "1232180",
    "final_x": "3674437.92232",
    "final_y": "538117.629065",
    "longitude": "-90.09014382258778",
    "latitude": "29.973849472581847",
    "geocoded_column": {
      "latitude": "29.973849472581847",
      "longitude": "-90.09014382258778"
    }
  },
  {
    "service_request": "2025-1232179",
    "request_type": "Trash/Recycling",
    "request_reason": "Order Recycling Cart",
    "date_created": "2025-10-08T17:12:38.000",
    "date_modified": "2025-10-08T17:12:40.000",
    "request_status": "Pending",
    "responsible_agency": "Department of Sanitation",
    "final_address": "3024 Octavia St",
    "address_councildis": "A",
    "status": "Pending",
    "rowid": "1232179",
    "final_x": "3668144.19233",
    "final_y": "526765.15507",
    "longitude": "-90.11040353568173",
    "latitude": "29.942820164559595",
    "geocoded_column": {
      "latitude": "29.942820164559595",
      "longitude": "-90.11040353568173"
    }
  },
  {
    "service_request": "2025-1232178",
    "request_type": "Trash/Recycling",
    "request_reason": "Repair Recycling Cart",
    "date_created": "2025-10-08T16:59:45.000",
    "date_modified": "2025-10-08T16:59:47.000",
    "request_status": "Pending",
    "responsible_agency": "Department of Sanitation",
    "final_address": "3015 Nashville Ave",
    "address_councildis": "A",
    "status": "Pending",
    "rowid": "1232178",
    "final_x": "3667779.94356",
    "final_y": "526975.54547",
    "longitude": "-90.1115464771764",
    "latitude": "29.9434093546211",
    "geocoded_column": {
      "latitude": "29.9434093546211",
      "longitude": "-90.1115464771764"
    }
  },
  {
    "service_request": "2025-1232177",
    "request_type": "Trash/Recycling",
    "request_reason": "Missed Trash Pick-Up",
    "date_created": "2025-10-08T16:58:36.000",
    "date_modified": "2025-10-08T16:58:37.000",
    "request_status": "Pending",
    "responsible_agency": "Department of Sanitation",
    "final_address": "11437 S Easterlyn Cir",
    "address_councildis": "E",
    "status": "Assigned to Contractor",
    "contractor": "Waste Pro",
    "rowid": "1232177",
    "final_x": "3718998.88556",
    "final_y": "560682.858334",
    "longitude": "-89.94855095350064",
    "latitude": "30.034490407757158",
    "geocoded_column": {
      "latitude": "30.034490407757158",
      "longitude": "-89.94855095350064"
    }
  },
  {
    "service_request": "2025-1232176",
    "request_type": "Trash/Recycling",
    "request_reason": "Request a Large Item Pick Up",
    "date_created": "2025-10-08T16:58:34.000",
    "date_modified": "2025-10-08T16:58:36.000",
    "request_status": "Pending",
    "responsible_agency": "Department of Sanitation",
    "final_address": "3015 Nashville Ave",
    "address_councildis": "A",
    "status": "Assigned to Contractor",
    "contractor": "IV Waste",
    "rowid": "1232176",
    "final_x": "3667779.94356",
    "final_y": "526975.54547",
    "longitude": "-90.1115464771764",
    "latitude": "29.9434093546211",
    "geocoded_column": {
      "latitude": "29.9434093546211",
      "longitude": "-90.1115464771764"
    }
  },
  {
    "service_request": "2025-1232175",
    "request_type": "Parks & Parkways",
    "request_reason": "Request Tree Service (Right of Way/Public Property)",
    "date_created": "2025-10-08T16:55:40.000",
    "date_modified": "2025-10-08T16:55:43.000",
    "request_status": "Pending",
    "responsible_agency": "Department of Parks & Parkway",
    "final_address": "2223 Roffignac St",
    "address_councildis": "E",
    "status": "Pending",
    "rowid": "1232175",
    "final_x": "3700202.22436",
    "final_y": "537859.728329",
    "longitude": "-90.00878440860893",
    "latitude": "29.97234656899619",
    "geocoded_column": {
      "latitude": "29.97234656899619",
      "longitude": "-90.00878440860893"
    }
  },
  {
    "service_request": "2025-1232174",
    "request_type": "Abandoned Vehicles",
    "request_reason": "Abandoned/Junk Vehicles",
    "date_created": "2025-10-08T16:47:54.000",
    "date_modified": "2025-10-08T16:47:56.000",
    "request_status": "Pending",
    "responsible_agency": "Department of Public Works",
    "final_address": "8018 Read Blvd",
    "address_councildis": "E",
    "status": "Pending",
    "rowid": "1232174",
    "final_x": "3707745.80548",
    "final_y": "565746.704163",
    "longitude": "-89.9839235047022",
    "latitude": "30.048783106497957",
    "geocoded_column": {
      "latitude": "30.048783106497957",
      "longitude": "-89.9839235047022"
    }
  },
  {
    "service_request": "2025-1232173",
    "request_type": "Parks & Parkways",
    "request_reason": "Tree Stump (removal, grind)",
    "date_created": "2025-10-08T16:46:48.000",
    "date_modified": "2025-10-08T16:46:50.000",
    "request_status": "Pending",
    "responsible_agency": "Department of Parks & Parkway",
    "final_address": "1704 Audubon St",
    "address_councildis": "A",
    "status": "Pending",
    "rowid": "1232173",
    "final_x": "3665421.11879",
    "final_y": "527897.179455",
    "longitude": "-90.11896308622855",
    "latitude": "29.94601249952727",
    "geocoded_column": {
      "latitude": "29.94601249952727",
      "longitude": "-90.11896308622855"
    }
  },
  {
    "service_request": "2025-1232172",
    "request_type": "Abandoned Vehicles",
    "request_reason": "Abandoned/Junk Vehicles",
    "date_created": "2025-10-08T16:46:07.000",
    "date_modified": "2025-10-08T16:46:09.000",
    "request_status": "Pending",
    "responsible_agency": "Department of Public Works",
    "final_address": "863 Filmore Ave",
    "address_councildis": "A",
    "status": "Pending",
    "rowid": "1232172",
    "final_x": "3670071.66958",
    "final_y": "551996.432534",
    "longitude": "-90.10346298167985",
    "latitude": "30.01214093271882",
    "geocoded_column": {
      "latitude": "30.01214093271882",
      "longitude": "-90.10346298167985"
    }
  },
  {
    "service_request": "2025-1232171",
    "request_type": "Trash/Recycling",
    "request_reason": "Request a Large Item Pick Up",
    "date_created": "2025-10-08T16:45:39.000",
    "date_modified": "2025-10-08T16:45:40.000",
    "request_status": "Pending",
    "responsible_agency": "Department of Sanitation",
    "final_address": "8120 Lomond Rd",
    "address_councildis": "E",
    "status": "Assigned to Contractor",
    "contractor": "Waste Pro",
    "rowid": "1232171",
    "final_x": "3702677.39095",
    "final_y": "561481.336479",
    "longitude": "-90.00009944815555",
    "latitude": "30.037218173111096",
    "geocoded_column": {
      "latitude": "30.037218173111096",
      "longitude": "-90.00009944815555"
    }
  },
  {
    "service_request": "2025-1232170",
    "request_type": "Abandoned Vehicles",
    "request_reason": "Abandoned/Junk Vehicles",
    "date_created": "2025-10-08T16:42:36.000",
    "date_modified": "2025-10-08T16:42:39.000",
    "request_status": "Pending",
    "responsible_agency": "Department of Public Works",
    "final_address": "SELMA ST & STEMWAY DR",
    "address_councildis": "D",
    "status": "Pending",
    "rowid": "1232170",
    "final_x": "3696992.5",
    "final_y": "553386.78",
    "longitude": "-90.01835846511764",
    "latitude": "30.015141882848333",
    "geocoded_column": {
      "latitude": "30.015141882848333",
      "longitude": "-90.01835846511764"
    }
  },
  {
    "service_request": "2025-1232169",
    "request_type": "Trash/Recycling",
    "request_reason": "Order Trash Cart",
    "date_created": "2025-10-08T16:40:12.000",
    "date_modified": "2025-10-08T16:40:14.000",
    "request_status": "Pending",
    "responsible_agency": "Department of Sanitation",
    "final_address": "1527 N Roman St Apt B",
    "address_councildis": "D",
    "status": "Assigned to Contractor",
    "contractor": "IV Waste",
    "rowid": "1232169",
    "final_x": "3681250.40572",
    "final_y": "537847.532809",
    "longitude": "-90.06863792445544",
    "latitude": "29.97290180833329",
    "geocoded_column": {
      "latitude": "29.97290180833329",
      "longitude": "-90.06863792445544"
    }
  },
  {
    "service_request": "2025-1232168",
    "request_type": "Trash/Recycling",
    "request_reason": "Request a Large Item Pick Up",
    "date_created": "2025-10-08T16:38:04.000",
    "date_modified": "2025-10-08T16:38:06.000",
    "request_status": "Pending",
    "responsible_agency": "Department of Sanitation",
    "final_address": "4848 Eastview Dr",
    "address_councildis": "E",
    "status": "Assigned to Contractor",
    "contractor": "Waste Pro",
    "rowid": "1232168",
    "final_x": "3704976.11012",
    "final_y": "556033.546457",
    "longitude": "-89.99303640942786",
    "latitude": "30.022165132281128",
    "geocoded_column": {
      "latitude": "30.022165132281128",
      "longitude": "-89.99303640942786"
    }
  },
  {
    "service_request": "2025-1232167",
    "request_type": "Trash/Recycling",
    "request_reason": "Order Trash Cart",
    "date_created": "2025-10-08T16:31:03.000",
    "date_modified": "2025-10-08T16:31:06.000",
    "request_status": "Pending",
    "responsible_agency": "Department of Sanitation",
    "final_address": "1718 Columbus St",
    "address_councildis": "D",
    "status": "Assigned to Contractor",
    "contractor": "IV Waste",
    "rowid": "1232167",
    "final_x": "3681268.36687",
    "final_y": "537490.164296",
    "longitude": "-90.06859365727172",
    "latitude": "29.97191862328009",
    "geocoded_column": {
      "latitude": "29.97191862328009",
      "longitude": "-90.06859365727172"
    }
  },
  {
    "service_request": "2025-1232166",
    "request_type": "Trash/Recycling",
    "request_reason": "Request a Large Item Pick Up",
    "date_created": "2025-10-08T16:29:56.000",
    "date_modified": "2025-10-08T16:29:57.000",
    "request_status": "Pending",
    "responsible_agency": "Department of Sanitation",
    "final_address": "1718 Columbus St",
    "address_councildis": "D",
    "status": "Assigned to Contractor",
    "contractor": "IV Waste",
    "rowid": "1232166",
    "final_x": "3681268.36687",
    "final_y": "537490.164296",
    "longitude": "-90.06859365727172",
    "latitude": "29.97191862328009",
    "geocoded_column": {
      "latitude": "29.97191862328009",
      "longitude": "-90.06859365727172"
    }
  },
  {
    "service_request": "2025-1232165",
    "request_type": "Trash/Recycling",
    "request_reason": "Replace Trash Cart",
    "date_created": "2025-10-08T16:29:18.000",
    "date_modified": "2025-10-08T16:29:21.000",
    "request_status": "Pending",
    "responsible_agency": "Department of Sanitation",
    "final_address": "5631 Tullis Dr",
    "address_councildis": "C",
    "status": "Assigned to Contractor",
    "contractor": "Richards Disposal",
    "rowid": "1232165",
    "final_x": "3704967.75735",
    "final_y": "512314.529137",
    "longitude": "-89.99467666671268",
    "latitude": "29.901953944309113",
    "geocoded_column": {
      "latitude": "29.901953944309113",
      "longitude": "-89.99467666671268"
    }
  },
  {
    "service_request": "2025-1232164",
    "request_type": "Trash/Recycling",
    "request_reason": "Request a Large Item Pick Up",
    "date_created": "2025-10-08T16:27:06.000",
    "date_modified": "2025-10-08T16:27:08.000",
    "request_status": "Pending",
    "responsible_agency": "Department of Sanitation",
    "final_address": "3238 Conti St",
    "address_councildis": "B",
    "status": "Assigned to Contractor",
    "contractor": "IV Waste",
    "rowid": "1232164",
    "final_x": "3674308.4443",
    "final_y": "537323.121672",
    "longitude": "-90.09057995792735",
    "latitude": "29.971668709306794",
    "geocoded_column": {
      "latitude": "29.971668709306794",
      "longitude": "-90.09057995792735"
    }
  },
  {
    "service_request": "2025-1232163",
    "request_type": "Trash/Recycling",
    "request_reason": "Illegal Dumping",
    "date_created": "2025-10-08T16:26:39.000",
    "date_modified": "2025-10-08T16:26:41.000",
    "request_status": "Pending",
    "responsible_agency": "Department of Sanitation",
    "final_address": "5779 Tullis Dr",
    "address_councildis": "C",
    "status": "Pending",
    "rowid": "1232163",
    "final_x": "3705498.08254",
    "final_y": "512776.024625",
    "longitude": "-89.99298596558158",
    "latitude": "29.90320585301054",
    "geocoded_column": {
      "latitude": "29.90320585301054",
      "longitude": "-89.99298596558158"
    }
  },
  {
    "service_request": "2025-1232162",
    "request_type": "Trash/Recycling",
    "request_reason": "Illegal Dumping",
    "date_created": "2025-10-08T16:25:41.000",
    "date_modified": "2025-10-08T16:25:42.000",
    "request_status": "Pending",
    "responsible_agency": "Department of Sanitation",
    "final_address": "5779 Tullis Dr",
    "address_councildis": "C",
    "status": "Pending",
    "rowid": "1232162",
    "final_x": "3705498.08254",
    "final_y": "512776.024625",
    "longitude": "-89.99298596558158",
    "latitude": "29.90320585301054",
    "geocoded_column": {
      "latitude": "29.90320585301054",
      "longitude": "-89.99298596558158"
    }
  },
  {
    "service_request": "2025-1232161",
    "request_type": "Drainage",
    "request_reason": "Catch Basin Not Draining",
    "date_created": "2025-10-08T16:25:37.000",
    "date_modified": "2025-10-08T16:26:38.000",
    "request_status": "Pending",
    "responsible_agency": "Sewerage & Water Board",
    "final_address": "333 St Charles Ave",
    "address_councildis": "B",
    "status": "Pending",
    "rowid": "1232161",
    "final_x": "3680784.35733",
    "final_y": "529767.341121",
    "longitude": "-90.07039106084208",
    "latitude": "29.950698171749757",
    "geocoded_column": {
      "latitude": "29.950698171749757",
      "longitude": "-90.07039106084208"
    }
  },
  {
    "service_request": "2025-1232160",
    "request_type": "Trash/Recycling",
    "request_reason": "Request a Large Item Pick Up",
    "date_created": "2025-10-08T16:24:54.000",
    "date_modified": "2025-10-08T16:24:56.000",
    "request_status": "Pending",
    "responsible_agency": "Department of Sanitation",
    "final_address": "5811 Pembrook Dr",
    "address_councildis": "C",
    "status": "Assigned to Contractor",
    "contractor": "Richards Disposal",
    "rowid": "1232160",
    "final_x": "3705135.06321",
    "final_y": "520623.833272",
    "longitude": "-89.99384210732143",
    "latitude": "29.924796296341597",
    "geocoded_column": {
      "latitude": "29.924796296341597",
      "longitude": "-89.99384210732143"
    }
  },
  {
    "service_request": "2025-1232159",
    "request_type": "Trash/Recycling",
    "request_reason": "Illegal Dumping",
    "date_created": "2025-10-08T16:23:42.000",
    "date_modified": "2025-10-08T16:23:44.000",
    "request_status": "Pending",
    "responsible_agency": "Department of Sanitation",
    "final_address": "5743 Tullis Dr",
    "address_councildis": "C",
    "status": "Pending",
    "rowid": "1232159",
    "final_x": "3705324.19863",
    "final_y": "512738.561905",
    "longitude": "-89.99353611878466",
    "latitude": "29.903108435007006",
    "geocoded_column": {
      "latitude": "29.903108435007006",
      "longitude": "-89.99353611878466"
    }
  },
  {
    "service_request": "2025-1232158",
    "request_type": "Trash/Recycling",
    "request_reason": "Illegal Dumping",
    "date_created": "2025-10-08T16:20:30.000",
    "date_modified": "2025-10-08T16:20:31.000",
    "request_status": "Pending",
    "responsible_agency": "Department of Sanitation",
    "final_address": "5743 Tullis Dr",
    "address_councildis": "C",
    "status": "Pending",
    "rowid": "1232158",
    "final_x": "3705324.19863",
    "final_y": "512738.561905",
    "longitude": "-89.99353611878466",
    "latitude": "29.903108435007006",
    "geocoded_column": {
      "latitude": "29.903108435007006",
      "longitude": "-89.99353611878466"
    }
  },
  {
    "service_request": "2025-1232157",
    "request_type": "Trash/Recycling",
    "request_reason": "Request a Large Item Pick Up",
    "date_created": "2025-10-08T16:19:08.000",
    "date_modified": "2025-10-08T16:19:10.000",
    "request_status": "Pending",
    "responsible_agency": "Department of Sanitation",
    "final_address": "1753 N Dorgenois St",
    "address_councildis": "D",
    "status": "Assigned to Contractor",
    "contractor": "IV Waste",
    "rowid": "1232157",
    "final_x": "3680258.79138",
    "final_y": "540800.879499",
    "longitude": "-90.07166693002353",
    "latitude": "29.981052545403887",
    "geocoded_column": {
      "latitude": "29.981052545403887",
      "longitude": "-90.07166693002353"
    }
  },
  {
    "service_request": "2025-1232156",
    "request_type": "Trash/Recycling",
    "request_reason": "Request a Large Item Pick Up",
    "date_created": "2025-10-08T16:15:15.000",
    "date_modified": "2025-10-08T16:15:16.000",
    "request_status": "Pending",
    "responsible_agency": "Department of Sanitation",
    "final_address": "2236 Mandeville St",
    "address_councildis": "D",
    "status": "Assigned to Contractor",
    "contractor": "IV Waste",
    "rowid": "1232156",
    "final_x": "3685391.51509",
    "final_y": "540742.417163",
    "longitude": "-90.05545757500907",
    "latitude": "29.980735398008378",
    "geocoded_column": {
      "latitude": "29.980735398008378",
      "longitude": "-90.05545757500907"
    }
  },
  {
    "service_request": "2025-1232155",
    "request_type": "Trash/Recycling",
    "request_reason": "Request a Large Item Pick Up",
    "date_created": "2025-10-08T16:10:36.000",
    "date_modified": "2025-10-08T16:10:38.000",
    "request_status": "Pending",
    "responsible_agency": "Department of Sanitation",
    "final_address": "4650 Galahad Dr",
    "address_councildis": "E",
    "status": "Assigned to Contractor",
    "contractor": "Waste Pro",
    "rowid": "1232155",
    "final_x": "3707205.58974",
    "final_y": "554798.039896",
    "longitude": "-89.98603777359891",
    "latitude": "30.018696074317223",
    "geocoded_column": {
      "latitude": "30.018696074317223",
      "longitude": "-89.98603777359891"
    }
  },
  {
    "service_request": "2025-1232154",
    "request_type": "Trash/Recycling",
    "request_reason": "Request a Large Item Pick Up",
    "date_created": "2025-10-08T16:08:51.000",
    "date_modified": "2025-10-08T16:08:52.000",
    "request_status": "Pending",
    "responsible_agency": "Department of Sanitation",
    "final_address": "6001 Wright Rd",
    "address_councildis": "E",
    "status": "Assigned to Contractor",
    "contractor": "Waste Pro",
    "rowid": "1232154",
    "final_x": "3713421.12242",
    "final_y": "562515.439455",
    "longitude": "-89.96610818194482",
    "latitude": "30.03971344021883",
    "geocoded_column": {
      "latitude": "30.03971344021883",
      "longitude": "-89.96610818194482"
    }
  },
  {
    "service_request": "2025-1232153",
    "request_type": "Trash/Recycling",
    "request_reason": "Repair Recycling Cart",
    "date_created": "2025-10-08T16:07:32.000",
    "date_modified": "2025-10-08T16:07:34.000",
    "request_status": "Pending",
    "responsible_agency": "Department of Sanitation",
    "final_address": "11200 Woodvine Ln",
    "address_councildis": "E",
    "status": "Pending",
    "rowid": "1232153",
    "final_x": "3716315.78264",
    "final_y": "559671.629981",
    "longitude": "-89.95706822068625",
    "latitude": "30.031798822599097",
    "geocoded_column": {
      "latitude": "30.031798822599097",
      "longitude": "-89.95706822068625"
    }
  },
  {
    "service_request": "2025-1232152",
    "request_type": "Trash/Recycling",
    "request_reason": "Request a Large Item Pick Up",
    "date_created": "2025-10-08T15:58:55.000",
    "date_modified": "2025-10-08T15:58:57.000",
    "request_status": "Pending",
    "responsible_agency": "Department of Sanitation",
    "final_address": "6118 Urquhart St",
    "address_councildis": "E",
    "status": "Assigned to Contractor",
    "contractor": "Waste Pro",
    "rowid": "1232152",
    "final_x": "3699922.4858",
    "final_y": "533872.328133",
    "longitude": "-90.00981332160517",
    "latitude": "29.96139153953283",
    "geocoded_column": {
      "latitude": "29.96139153953283",
      "longitude": "-90.00981332160517"
    }
  },
  {
    "service_request": "2025-1232151",
    "request_type": "Trash/Recycling",
    "request_reason": "Order Recycling Cart",
    "date_created": "2025-10-08T15:57:58.000",
    "date_modified": "2025-10-08T15:58:00.000",
    "request_status": "Pending",
    "responsible_agency": "Department of Sanitation",
    "final_address": "936 Second St",
    "address_councildis": "B",
    "status": "Pending",
    "rowid": "1232151",
    "final_x": "3678021.14229",
    "final_y": "520946.387577",
    "longitude": "-90.07942067266964",
    "latitude": "29.92652691401077",
    "geocoded_column": {
      "latitude": "29.92652691401077",
      "longitude": "-90.07942067266964"
    }
  },
  {
    "service_request": "2025-1232150",
    "request_type": "Trash/Recycling",
    "request_reason": "Request a Large Item Pick Up",
    "date_created": "2025-10-08T15:57:54.000",
    "date_modified": "2025-10-08T15:57:56.000",
    "request_status": "Pending",
    "responsible_agency": "Department of Sanitation",
    "final_address": "8310 Lomond Rd",
    "address_councildis": "E",
    "status": "Assigned to Contractor",
    "contractor": "Waste Pro",
    "rowid": "1232150",
    "final_x": "3703158.8467",
    "final_y": "561715.749151",
    "longitude": "-89.99856932031278",
    "latitude": "30.03784730405955",
    "geocoded_column": {
      "latitude": "30.03784730405955",
      "longitude": "-89.99856932031278"
    }
  },
  {
    "service_request": "2025-1232149",
    "request_type": "Trash/Recycling",
    "request_reason": "Repair Trash Cart",
    "date_created": "2025-10-08T15:56:42.000",
    "date_modified": "2025-10-08T15:56:44.000",
    "request_status": "Pending",
    "responsible_agency": "Department of Sanitation",
    "final_address": "936 Second St",
    "address_councildis": "B",
    "status": "Assigned to Contractor",
    "contractor": "IV Waste",
    "rowid": "1232149",
    "final_x": "3678021.14229",
    "final_y": "520946.387577",
    "longitude": "-90.07942067266964",
    "latitude": "29.92652691401077",
    "geocoded_column": {
      "latitude": "29.92652691401077",
      "longitude": "-90.07942067266964"
    }
  },
  {
    "service_request": "2025-1232148",
    "request_type": "Property Maintenance",
    "request_reason": "Property Maintenance",
    "date_created": "2025-10-08T15:56:35.000",
    "date_modified": "2025-10-08T15:56:36.000",
    "request_status": "Pending",
    "responsible_agency": "Department of Code Enforcement",
    "final_address": "1807 Kerlerec St",
    "address_councildis": "D",
    "status": "Pending",
    "rowid": "1232148",
    "final_x": "3680869.29851",
    "final_y": "537423.669704",
    "longitude": "-90.06985629381904",
    "latitude": "29.971747891684554",
    "geocoded_column": {
      "latitude": "29.971747891684554",
      "longitude": "-90.06985629381904"
    }
  },
  {
    "service_request": "2025-1232147",
    "request_type": "Abandoned Vehicles",
    "request_reason": "Abandoned/Junk Vehicles",
    "date_created": "2025-10-08T15:50:32.000",
    "date_modified": "2025-10-08T15:51:15.000",
    "request_status": "Pending",
    "responsible_agency": "Department of Public Works",
    "final_address": "2300 BLK Magnolia St",
    "address_councildis": "B",
    "status": "Inspected",
    "rowid": "1232147",
    "final_x": "3674872.07837",
    "final_y": "526568.176966",
    "longitude": "-90.08916871715886",
    "latitude": "29.942079384157875",
    "geocoded_column": {
      "latitude": "29.942079384157875",
      "longitude": "-90.08916871715886"
    }
  },
  {
    "service_request": "2025-1232146",
    "request_type": "Trash/Recycling",
    "request_reason": "Request a Large Item Pick Up",
    "date_created": "2025-10-08T15:49:02.000",
    "date_modified": "2025-10-08T15:49:03.000",
    "request_status": "Pending",
    "responsible_agency": "Department of Sanitation",
    "final_address": "7081 Whitmore Pl",
    "address_councildis": "E",
    "status": "Assigned to Contractor",
    "contractor": "Waste Pro",
    "rowid": "1232146",
    "final_x": "3718892.52869",
    "final_y": "569498.070694",
    "longitude": "-89.94855038926539",
    "latitude": "30.05873215845026",
    "geocoded_column": {
      "latitude": "30.05873215845026",
      "longitude": "-89.94855038926539"
    }
  },
  {
    "service_request": "2025-1232145",
    "request_type": "Trash/Recycling",
    "request_reason": "Request a Large Item Pick Up",
    "date_created": "2025-10-08T15:48:55.000",
    "date_modified": "2025-10-08T15:48:57.000",
    "request_status": "Pending",
    "responsible_agency": "Department of Sanitation",
    "final_address": "3721 Rue Nichole",
    "address_councildis": "C",
    "status": "Assigned to Contractor",
    "contractor": "Richards Disposal",
    "rowid": "1232145",
    "final_x": "3703926.39889",
    "final_y": "516806.285173",
    "longitude": "-89.99779788805958",
    "latitude": "29.914338152277136",
    "geocoded_column": {
      "latitude": "29.914338152277136",
      "longitude": "-89.99779788805958"
    }
  },
  {
    "service_request": "2025-1232144",
    "request_type": "Trash/Recycling",
    "request_reason": "Missed Trash Pick-Up",
    "date_created": "2025-10-08T15:47:13.000",
    "date_modified": "2025-10-08T16:26:59.000",
    "case_close_date": "2025-10-08T11:26:58.000",
    "request_status": "Closed",
    "responsible_agency": "Department of Sanitation",
    "final_address": "1830 Bienville Ave",
    "address_councildis": "B",
    "status": "Invalid Request",
    "contractor": "IV Waste",
    "contractor_action": "Invalid",
    "rowid": "1232144",
    "final_x": "3678287.07963",
    "final_y": "533772.338053",
    "longitude": "-90.07813766159826",
    "latitude": "29.961786012846954",
    "geocoded_column": {
      "latitude": "29.961786012846954",
      "longitude": "-90.07813766159826"
    }
  },
  {
    "service_request": "2025-1232143",
    "request_type": "Trash/Recycling",
    "request_reason": "Request a Large Item Pick Up",
    "date_created": "2025-10-08T15:46:50.000",
    "date_modified": "2025-10-08T15:47:20.000",
    "request_status": "Pending",
    "responsible_agency": "Department of Sanitation",
    "final_address": "2681 Wall Blvd",
    "address_councildis": "C",
    "status": "Assigned to Contractor",
    "contractor": "Richards Disposal",
    "rowid": "1232143",
    "final_x": "3694148.7704",
    "final_y": "523323.639227",
    "longitude": "-90.02842498127605",
    "latitude": "29.932568413764947",
    "geocoded_column": {
      "latitude": "29.932568413764947",
      "longitude": "-90.02842498127605"
    }
  },
  {
    "service_request": "2025-1232142",
    "request_type": "General Services",
    "request_reason": "General Service Request",
    "date_created": "2025-10-08T15:43:19.000",
    "date_modified": "2025-10-08T15:46:42.000",
    "case_close_date": "2025-10-08T10:46:41.000",
    "request_status": "Closed",
    "responsible_agency": "Orleans Parish Communication District",
    "final_address": "814 Dufossat St",
    "address_councildis": "B",
    "status": "Question Answered.",
    "rowid": "1232142",
    "final_x": "3667983.10426",
    "final_y": "518394.916982",
    "longitude": "-90.11119399666359",
    "latitude": "29.919809406038954",
    "geocoded_column": {
      "latitude": "29.919809406038954",
      "longitude": "-90.11119399666359"
    }
  },
  {
    "service_request": "2025-1232141",
    "request_type": "Trash/Recycling",
    "request_reason": "Request a Large Item Pick Up",
    "date_created": "2025-10-08T15:41:11.000",
    "date_modified": "2025-10-08T16:26:16.000",
    "request_status": "Pending",
    "responsible_agency": "Department of Sanitation",
    "final_address": "1304 Touro St, New Orleans, Louisiana, 70116",
    "address_councildis": "C",
    "status": "Assigned to Contractor",
    "contractor": "IV Waste",
    "rowid": "1232141",
    "final_x": "3684134.15381",
    "final_y": "537041.387016",
    "longitude": "-90.05955881375228",
    "latitude": "29.97059735452279",
    "geocoded_column": {
      "latitude": "29.97059735452279",
      "longitude": "-90.05955881375228"
    }
  },
  {
    "service_request": "2025-1232140",
    "request_type": "Property Maintenance",
    "request_reason": "Property Maintenance",
    "date_created": "2025-10-08T15:39:17.000",
    "date_modified": "2025-10-08T15:39:20.000",
    "request_status": "Pending",
    "responsible_agency": "Department of Code Enforcement",
    "final_address": "4912 Haydel St",
    "address_councildis": "E",
    "status": "Pending",
    "rowid": "1232140",
    "final_x": "3698892.81847",
    "final_y": "555310.805401",
    "longitude": "-90.01228430654155",
    "latitude": "30.020372121198914",
    "geocoded_column": {
      "latitude": "30.020372121198914",
      "longitude": "-90.01228430654155"
    }
  },
  {
    "service_request": "2025-1232139",
    "request_type": "Trash/Recycling",
    "request_reason": "Request a Large Item Pick Up",
    "date_created": "2025-10-08T15:37:19.000",
    "date_modified": "2025-10-08T15:37:21.000",
    "request_status": "Pending",
    "responsible_agency": "Department of Sanitation",
    "final_address": "5438 N Rampart St",
    "address_councildis": "E",
    "status": "Assigned to Contractor",
    "contractor": "Waste Pro",
    "rowid": "1232139",
    "final_x": "3697350.15875",
    "final_y": "533415.78234",
    "longitude": "-90.01795278847887",
    "latitude": "29.960217647694172",
    "geocoded_column": {
      "latitude": "29.960217647694172",
      "longitude": "-90.01795278847887"
    }
  },
  {
    "service_request": "2025-1232138",
    "request_type": "Trash/Recycling",
    "request_reason": "Repair Recycling Cart",
    "date_created": "2025-10-08T15:34:30.000",
    "date_modified": "2025-10-08T15:35:45.000",
    "request_status": "Pending",
    "responsible_agency": "Department of Sanitation",
    "final_address": "5019 Henri Dr",
    "address_councildis": "E",
    "status": "Pending",
    "rowid": "1232138",
    "final_x": "3730864.55271",
    "final_y": "563666.815393",
    "longitude": "-89.91093733683074",
    "latitude": "30.042295409950427",
    "geocoded_column": {
      "latitude": "30.042295409950427",
      "longitude": "-89.91093733683074"
    }
  },
  {
    "service_request": "2025-1232137",
    "request_type": "Trash/Recycling",
    "request_reason": "Illegal Dumping",
    "date_created": "2025-10-08T15:32:52.000",
    "date_modified": "2025-10-08T15:32:54.000",
    "request_status": "Pending",
    "responsible_agency": "Department of Sanitation",
    "final_address": "9001 Dinkins St",
    "address_councildis": "E",
    "status": "Pending",
    "rowid": "1232137",
    "final_x": "3705095.96759",
    "final_y": "563706.282785",
    "longitude": "-89.99237397050443",
    "latitude": "30.043258297414848",
    "geocoded_column": {
      "latitude": "30.043258297414848",
      "longitude": "-89.99237397050443"
    }
  },
  {
    "service_request": "2025-1232136",
    "request_type": "Trash/Recycling",
    "request_reason": "Repair Trash Cart",
    "date_created": "2025-10-08T15:32:51.000",
    "date_modified": "2025-10-08T15:32:53.000",
    "request_status": "Pending",
    "responsible_agency": "Department of Sanitation",
    "final_address": "2125 Alvar St",
    "address_councildis": "D",
    "status": "Assigned to Contractor",
    "contractor": "IV Waste",
    "rowid": "1232136",
    "final_x": "3692534.0655",
    "final_y": "539339.874954",
    "longitude": "-90.03294863262084",
    "latitude": "29.97665794927871",
    "geocoded_column": {
      "latitude": "29.97665794927871",
      "longitude": "-90.03294863262084"
    }
  },
  {
    "service_request": "2025-1232135",
    "request_type": "Trash/Recycling",
    "request_reason": "Order Recycling Cart",
    "date_created": "2025-10-08T15:31:07.000",
    "date_modified": "2025-10-08T15:31:09.000",
    "request_status": "Pending",
    "responsible_agency": "Department of Sanitation",
    "final_address": "1806 Mercedes Blvd",
    "address_councildis": "C",
    "status": "Pending",
    "rowid": "1232135",
    "final_x": "3698213.42474",
    "final_y": "524247.876668",
    "longitude": "-90.0155597347059",
    "latitude": "29.934981842074546",
    "geocoded_column": {
      "latitude": "29.934981842074546",
      "longitude": "-90.0155597347059"
    }
  },
  {
    "service_request": "2025-1232134",
    "request_type": "Trash/Recycling",
    "request_reason": "Request a Large Item Pick Up",
    "date_created": "2025-10-08T15:30:13.000",
    "date_modified": "2025-10-08T15:30:16.000",
    "request_status": "Pending",
    "responsible_agency": "Department of Sanitation",
    "final_address": "3321 Hamilton St",
    "address_councildis": "A",
    "status": "Assigned to Contractor",
    "contractor": "IV Waste",
    "rowid": "1232134",
    "final_x": "3664556.35623",
    "final_y": "536406.521159",
    "longitude": "-90.12140928327275",
    "latitude": "29.969435586362504",
    "geocoded_column": {
      "latitude": "29.969435586362504",
      "longitude": "-90.12140928327275"
    }
  },
  {
    "service_request": "2025-1232133",
    "request_type": "Trash/Recycling",
    "request_reason": "Replace Trash Cart",
    "date_created": "2025-10-08T15:29:17.000",
    "date_modified": "2025-10-08T15:29:19.000",
    "request_status": "Pending",
    "responsible_agency": "Department of Sanitation",
    "final_address": "4101 Odin St",
    "address_councildis": "D",
    "status": "Assigned to Contractor",
    "contractor": "IV Waste",
    "rowid": "1232133",
    "final_x": "3689061.90844",
    "final_y": "553866.841751",
    "longitude": "-90.04339824299822",
    "latitude": "30.016709740553473",
    "geocoded_column": {
      "latitude": "30.016709740553473",
      "longitude": "-90.04339824299822"
    }
  },
  {
    "service_request": "2025-1232132",
    "request_type": "Streetlights",
    "request_reason": "Streetlight Outage/Malfunction",
    "date_created": "2025-10-08T15:28:48.000",
    "date_modified": "2025-10-08T15:28:50.000",
    "request_status": "Pending",
    "responsible_agency": "Department of Public Works",
    "final_address": "3708 Preston Pl",
    "address_councildis": "C",
    "status": "Pending",
    "rowid": "1232132",
    "final_x": "3708492.66558",
    "final_y": "517395.232437",
    "longitude": "-89.98336343777682",
    "latitude": "29.915810419512944",
    "geocoded_column": {
      "latitude": "29.915810419512944",
      "longitude": "-89.98336343777682"
    }
  },
  {
    "service_request": "2025-1232131",
    "request_type": "Streetlights",
    "request_reason": "Streetlight Outage/Malfunction",
    "date_created": "2025-10-08T15:25:12.000",
    "date_modified": "2025-10-08T15:25:14.000",
    "request_status": "Pending",
    "responsible_agency": "Department of Public Works",
    "final_address": "3522 Magazine St",
    "address_councildis": "B",
    "status": "Pending",
    "rowid": "1232131",
    "final_x": "3674262.95675",
    "final_y": "519286.384887",
    "longitude": "-90.0913410421773",
    "latitude": "29.922074989819738",
    "geocoded_column": {
      "latitude": "29.922074989819738",
      "longitude": "-90.0913410421773"
    }
  },
  {
    "service_request": "2025-1232130",
    "request_type": "Abandoned Vehicles",
    "request_reason": "Abandoned/Junk Vehicles",
    "date_created": "2025-10-08T15:21:57.000",
    "date_modified": "2025-10-08T15:21:58.000",
    "request_status": "Pending",
    "responsible_agency": "Department of Public Works",
    "final_address": "622 N Pierce St",
    "address_councildis": "A",
    "status": "Pending",
    "rowid": "1232130",
    "final_x": "3672751.76577",
    "final_y": "539585.811786",
    "longitude": "-90.09541899305934",
    "latitude": "29.97793667088689",
    "geocoded_column": {
      "latitude": "29.97793667088689",
      "longitude": "-90.09541899305934"
    }
  },
  {
    "service_request": "2025-1232129",
    "request_type": "Mosquito, Termite & Rodent Control",
    "request_reason": "Mosquito Complaint",
    "date_created": "2025-10-08T15:13:08.000",
    "date_modified": "2025-10-08T15:13:09.000",
    "request_status": "Pending",
    "responsible_agency": "Mosquito, Termite & Rodent Control Board",
    "final_address": "1800 BLK Mercedes Blvd",
    "address_councildis": "C",
    "status": "Pending",
    "rowid": "1232129",
    "final_x": "3698139.71622",
    "final_y": "524036.807357",
    "longitude": "-90.0158000923466",
    "latitude": "29.934403805036585",
    "geocoded_column": {
      "latitude": "29.934403805036585",
      "longitude": "-90.0158000923466"
    }
  },
  {
    "service_request": "2025-1232128",
    "request_type": "Trash/Recycling",
    "request_reason": "Replace Trash Cart",
    "date_created": "2025-10-08T15:12:57.000",
    "date_modified": "2025-10-08T15:12:59.000",
    "request_status": "Pending",
    "responsible_agency": "Department of Sanitation",
    "final_address": "2127 N Rampart St",
    "address_councildis": "C",
    "status": "Assigned to Contractor",
    "contractor": "IV Waste",
    "rowid": "1232128",
    "final_x": "3684859.06453",
    "final_y": "535973.635271",
    "longitude": "-90.05730701630216",
    "latitude": "29.96763923000135",
    "geocoded_column": {
      "latitude": "29.96763923000135",
      "longitude": "-90.05730701630216"
    }
  },
  {
    "service_request": "2025-1232127",
    "request_type": "Trash/Recycling",
    "request_reason": "Request a Large Item Pick Up",
    "date_created": "2025-10-08T15:12:37.000",
    "date_modified": "2025-10-08T15:12:38.000",
    "request_status": "Pending",
    "responsible_agency": "Department of Sanitation",
    "final_address": "1600 S Saratoga St",
    "address_councildis": "B",
    "status": "Assigned to Contractor",
    "contractor": "IV Waste",
    "rowid": "1232127",
    "final_x": "3677384.10862",
    "final_y": "526271.997822",
    "longitude": "-90.08124791012656",
    "latitude": "29.94118975073034",
    "geocoded_column": {
      "latitude": "29.94118975073034",
      "longitude": "-90.08124791012656"
    }
  },
  {
    "service_request": "2025-1232126",
    "request_type": "Abandoned Vehicles",
    "request_reason": "Abandoned/Junk Vehicles",
    "date_created": "2025-10-08T15:12:17.000",
    "date_modified": "2025-10-08T15:12:20.000",
    "request_status": "Pending",
    "responsible_agency": "Department of Public Works",
    "final_address": "2655 Benefit St",
    "address_councildis": "D",
    "status": "Pending",
    "rowid": "1232126",
    "final_x": "3687850.34959",
    "final_y": "544720.615823",
    "longitude": "-90.04755052312464",
    "latitude": "29.991598396666987",
    "geocoded_column": {
      "latitude": "29.991598396666987",
      "longitude": "-90.04755052312464"
    }
  },
  {
    "service_request": "2025-1232125",
    "request_type": "Trash/Recycling",
    "request_reason": "Order Second Trash Cart",
    "date_created": "2025-10-08T15:09:49.000",
    "date_modified": "2025-10-08T15:09:51.000",
    "request_status": "Pending",
    "responsible_agency": "Department of Sanitation",
    "final_address": "3708 Silver Maple Ct",
    "address_councildis": "C",
    "status": "Assigned to Contractor",
    "contractor": "Richards Disposal",
    "rowid": "1232125",
    "final_x": "3703186.15716",
    "final_y": "512716.321649",
    "longitude": "-90.0002845079094",
    "latitude": "29.903115849182093",
    "geocoded_column": {
      "latitude": "29.903115849182093",
      "longitude": "-90.0002845079094"
    }
  },
  {
    "service_request": "2025-1232124",
    "request_type": "Parks & Parkways",
    "request_reason": "Request Tree Service (Right of Way/Public Property)",
    "date_created": "2025-10-08T15:00:54.000",
    "date_modified": "2025-10-08T16:01:47.000",
    "case_close_date": "2025-10-08T11:01:46.000",
    "request_status": "Closed",
    "responsible_agency": "Department of Parks & Parkway",
    "final_address": "3020 Audubon St",
    "address_councildis": "B",
    "status": "Referred to Property Owner",
    "rowid": "1232124",
    "final_x": "3668006.6073",
    "final_y": "531841.054531",
    "longitude": "-90.11066692252852",
    "latitude": "29.956781271183573",
    "geocoded_column": {
      "latitude": "29.956781271183573",
      "longitude": "-90.11066692252852"
    }
  },
  {
    "service_request": "2025-1232123",
    "request_type": "Trash/Recycling",
    "request_reason": "Repair Recycling Cart",
    "date_created": "2025-10-08T14:59:48.000",
    "date_modified": "2025-10-08T14:59:49.000",
    "request_status": "Pending",
    "responsible_agency": "Department of Sanitation",
    "final_address": "7466 Jade St",
    "address_councildis": "D",
    "status": "Pending",
    "rowid": "1232123",
    "final_x": "3670863.85057",
    "final_y": "556025.696985",
    "longitude": "-90.10082320153019",
    "latitude": "30.023196573261288",
    "geocoded_column": {
      "latitude": "30.023196573261288",
      "longitude": "-90.10082320153019"
    }
  },
  {
    "service_request": "2025-1232122",
    "request_type": "General Services",
    "request_reason": "General Service Request",
    "date_created": "2025-10-08T14:58:25.000",
    "date_modified": "2025-10-08T15:23:24.000",
    "case_close_date": "2025-10-08T10:23:22.000",
    "request_status": "Closed",
    "responsible_agency": "Orleans Parish Communication District",
    "final_address": "3020 Audubon St",
    "address_councildis": "B",
    "status": "Question Answered.",
    "rowid": "1232122",
    "final_x": "3668006.6073",
    "final_y": "531841.054531",
    "longitude": "-90.11066692252852",
    "latitude": "29.956781271183573",
    "geocoded_column": {
      "latitude": "29.956781271183573",
      "longitude": "-90.11066692252852"
    }
  },
  {
    "service_request": "2025-1232121",
    "request_type": "Abandoned Vehicles",
    "request_reason": "Abandoned/Junk Vehicles",
    "date_created": "2025-10-08T14:57:55.000",
    "date_modified": "2025-10-08T14:57:56.000",
    "request_status": "Pending",
    "responsible_agency": "Department of Public Works",
    "final_address": "9900 BLK Rockton Cir E",
    "address_councildis": "E",
    "status": "Pending",
    "rowid": "1232121",
    "final_x": "3708604.80355",
    "final_y": "562788.652425",
    "longitude": "-89.98131889921022",
    "latitude": "30.040621804459605",
    "geocoded_column": {
      "latitude": "30.040621804459605",
      "longitude": "-89.98131889921022"
    }
  },
  {
    "service_request": "2025-1232120",
    "request_type": "Abandoned Vehicles",
    "request_reason": "Abandoned/Junk Vehicles",
    "date_created": "2025-10-08T14:57:31.000",
    "date_modified": "2025-10-08T14:58:43.000",
    "request_status": "Pending",
    "responsible_agency": "Department of Public Works",
    "final_address": "7644 Lucerne St",
    "address_councildis": "E",
    "status": "Inspected",
    "rowid": "1232120",
    "final_x": "3710613.20683",
    "final_y": "565959.030307",
    "longitude": "-89.97485294563732",
    "latitude": "30.049273756240908",
    "geocoded_column": {
      "latitude": "30.049273756240908",
      "longitude": "-89.97485294563732"
    }
  },
  {
    "service_request": "2025-1232119",
    "request_type": "Trash/Recycling",
    "request_reason": "Illegal Dumping",
    "date_created": "2025-10-08T14:56:20.000",
    "date_modified": "2025-10-08T14:56:22.000",
    "request_status": "Pending",
    "responsible_agency": "Department of Sanitation",
    "final_address": "8913 Stroelitz St",
    "address_councildis": "A",
    "status": "Pending",
    "rowid": "1232119",
    "final_x": "3665805.95303",
    "final_y": "536965.78676",
    "longitude": "-90.11744419776443",
    "latitude": "29.970936980676903",
    "geocoded_column": {
      "latitude": "29.970936980676903",
      "longitude": "-90.11744419776443"
    }
  },
  {
    "service_request": "2025-1232118",
    "request_type": "Abandoned Vehicles",
    "request_reason": "Abandoned/Junk Vehicles",
    "date_created": "2025-10-08T14:53:57.000",
    "date_modified": "2025-10-08T14:55:21.000",
    "request_status": "Pending",
    "responsible_agency": "Department of Public Works",
    "final_address": "3132 Laurel St",
    "address_councildis": "B",
    "status": "Inspected",
    "rowid": "1232118",
    "final_x": "3676313.03016",
    "final_y": "519430.193975",
    "longitude": "-90.08486486406078",
    "latitude": "29.922409158624724",
    "geocoded_column": {
      "latitude": "29.922409158624724",
      "longitude": "-90.08486486406078"
    }
  },
  {
    "service_request": "2025-1232117",
    "request_type": "Trash/Recycling",
    "request_reason": "Request a Large Item Pick Up",
    "date_created": "2025-10-08T14:44:08.000",
    "date_modified": "2025-10-08T14:44:11.000",
    "request_status": "Pending",
    "responsible_agency": "Department of Sanitation",
    "final_address": "8513 Dinkins St",
    "address_councildis": "E",
    "status": "Assigned to Contractor",
    "contractor": "Waste Pro",
    "rowid": "1232117",
    "final_x": "3703505.87178",
    "final_y": "562865.413856",
    "longitude": "-89.99743028476344",
    "latitude": "30.040997310311237",
    "geocoded_column": {
      "latitude": "30.040997310311237",
      "longitude": "-89.99743028476344"
    }
  },
  {
    "service_request": "2025-1232116",
    "request_type": "Trash/Recycling",
    "request_reason": "Request a Large Item Pick Up",
    "date_created": "2025-10-08T14:41:59.000",
    "date_modified": "2025-10-08T14:42:01.000",
    "request_status": "Pending",
    "responsible_agency": "Department of Sanitation",
    "final_address": "1420 Gordon St",
    "address_councildis": "E",
    "status": "Assigned to Contractor",
    "contractor": "Waste Pro",
    "rowid": "1232116",
    "final_x": "3699534.28285",
    "final_y": "534721.313478",
    "longitude": "-90.01100825274783",
    "latitude": "29.96373826966449",
    "geocoded_column": {
      "latitude": "29.96373826966449",
      "longitude": "-90.01100825274783"
    }
  },
  {
    "service_request": "2025-1232115",
    "request_type": "Parks & Parkways",
    "request_reason": "Request Tree Service (Right of Way/Public Property)",
    "date_created": "2025-10-08T14:41:29.000",
    "date_modified": "2025-10-08T14:41:32.000",
    "request_status": "Pending",
    "responsible_agency": "Department of Parks & Parkway",
    "final_address": "7940 Vanderkloot Ave",
    "address_councildis": "E",
    "status": "Pending",
    "rowid": "1232115",
    "final_x": "3705263.06942",
    "final_y": "564133.761441",
    "longitude": "-89.99183004591627",
    "latitude": "30.04442831600162",
    "geocoded_column": {
      "latitude": "30.04442831600162",
      "longitude": "-89.99183004591627"
    }
  },
  {
    "service_request": "2025-1232114",
    "request_type": "Trash/Recycling",
    "request_reason": "Request a Large Item Pick Up",
    "date_created": "2025-10-08T14:37:44.000",
    "date_modified": "2025-10-08T14:37:48.000",
    "request_status": "Pending",
    "responsible_agency": "Department of Sanitation",
    "final_address": "2133 General Taylor St",
    "address_councildis": "B",
    "status": "Assigned to Contractor",
    "contractor": "IV Waste",
    "rowid": "1232114",
    "final_x": "3672225.62279",
    "final_y": "523065.247803",
    "longitude": "-90.09764343244865",
    "latitude": "29.93252621373094",
    "geocoded_column": {
      "latitude": "29.93252621373094",
      "longitude": "-90.09764343244865"
    }
  },
  {
    "service_request": "2025-1232113",
    "request_type": "Roads and Streets",
    "request_reason": "Sidewalk Damaged or Missing",
    "date_created": "2025-10-08T14:32:52.000",
    "date_modified": "2025-10-08T14:32:54.000",
    "request_status": "Pending",
    "responsible_agency": "Department of Public Works",
    "final_address": "2419 Pauger St",
    "address_councildis": "D",
    "status": "Pending",
    "rowid": "1232113",
    "final_x": "3683722.59311",
    "final_y": "538598.190409",
    "longitude": "-90.06080396751024",
    "latitude": "29.974890596156303",
    "geocoded_column": {
      "latitude": "29.974890596156303",
      "longitude": "-90.06080396751024"
    }
  },
  {
    "service_request": "2025-1232112",
    "request_type": "Trash/Recycling",
    "request_reason": "Request a Large Item Pick Up",
    "date_created": "2025-10-08T14:30:50.000",
    "date_modified": "2025-10-08T14:30:52.000",
    "request_status": "Pending",
    "responsible_agency": "Department of Sanitation",
    "final_address": "10218 Hammond St",
    "address_councildis": "E",
    "status": "Assigned to Contractor",
    "contractor": "Waste Pro",
    "rowid": "1232112",
    "final_x": "3713294.32344",
    "final_y": "556370.326362",
    "longitude": "-89.96674051948061",
    "latitude": "30.022820985994095",
    "geocoded_column": {
      "latitude": "30.022820985994095",
      "longitude": "-89.96674051948061"
    }
  },
  {
    "service_request": "2025-1232111",
    "request_type": "Trash/Recycling",
    "request_reason": "Request a Large Item Pick Up",
    "date_created": "2025-10-08T14:30:48.000",
    "date_modified": "2025-10-08T14:30:50.000",
    "request_status": "Pending",
    "responsible_agency": "Department of Sanitation",
    "final_address": "6019 Beechcraft St",
    "address_councildis": "D",
    "status": "Assigned to Contractor",
    "contractor": "Waste Pro",
    "rowid": "1232111",
    "final_x": "3696553.50832",
    "final_y": "553205.917463",
    "longitude": "-90.01975201524084",
    "latitude": "30.014658423984173",
    "geocoded_column": {
      "latitude": "30.014658423984173",
      "longitude": "-90.01975201524084"
    }
  },
  {
    "service_request": "2025-1232110",
    "request_type": "Trash/Recycling",
    "request_reason": "Request a Large Item Pick Up",
    "date_created": "2025-10-08T14:30:26.000",
    "date_modified": "2025-10-08T15:28:17.000",
    "request_status": "Pending",
    "responsible_agency": "Department of Sanitation",
    "final_address": "1369 Magazine St",
    "address_councildis": "B",
    "status": "Assigned to Contractor",
    "contractor": "IV Waste",
    "rowid": "1232110",
    "final_x": "3680360.29979",
    "final_y": "524676.688956",
    "longitude": "-90.0719069679646",
    "latitude": "29.936713421920427",
    "geocoded_column": {
      "latitude": "29.936713421920427",
      "longitude": "-90.0719069679646"
    }
  },
  {
    "service_request": "2025-1232109",
    "request_type": "Trash/Recycling",
    "request_reason": "Request a Large Item Pick Up",
    "date_created": "2025-10-08T14:29:26.000",
    "date_modified": "2025-10-08T14:29:28.000",
    "request_status": "Pending",
    "responsible_agency": "Department of Sanitation",
    "final_address": "4615 Francisco Verrett Dr",
    "address_councildis": "E",
    "status": "Assigned to Contractor",
    "contractor": "Waste Pro",
    "rowid": "1232109",
    "final_x": "3704343.96714",
    "final_y": "554426.287704",
    "longitude": "-89.99509312070951",
    "latitude": "30.01776610607067",
    "geocoded_column": {
      "latitude": "30.01776610607067",
      "longitude": "-89.99509312070951"
    }
  },
  {
    "service_request": "2025-1232108",
    "request_type": "Trash/Recycling",
    "request_reason": "Request a Large Item Pick Up",
    "date_created": "2025-10-08T14:28:48.000",
    "date_modified": "2025-10-08T14:29:07.000",
    "request_status": "Pending",
    "responsible_agency": "Department of Sanitation",
    "final_address": "1704 Robert St",
    "address_councildis": "B",
    "status": "Assigned to Contractor",
    "contractor": "IV Waste",
    "rowid": "1232108",
    "final_x": "3668664.63252",
    "final_y": "521874.684218",
    "longitude": "-90.10892536759722",
    "latitude": "29.92935765732026",
    "geocoded_column": {
      "latitude": "29.92935765732026",
      "longitude": "-90.10892536759722"
    }
  },
  {
    "service_request": "2025-1232107",
    "request_type": "Trash/Recycling",
    "request_reason": "Illegal Dumping",
    "date_created": "2025-10-08T14:24:15.000",
    "date_modified": "2025-10-08T14:24:17.000",
    "request_status": "Pending",
    "responsible_agency": "Department of Sanitation",
    "final_address": "1832 Wagner St",
    "address_councildis": "C",
    "status": "Pending",
    "rowid": "1232107",
    "final_x": "3690366.59248",
    "final_y": "524040.807676",
    "longitude": "-90.04033940524775",
    "latitude": "29.93465827689837",
    "geocoded_column": {
      "latitude": "29.93465827689837",
      "longitude": "-90.04033940524775"
    }
  },
  {
    "service_request": "2025-1232106",
    "request_type": "Abandoned Vehicles",
    "request_reason": "Abandoned/Junk Vehicles",
    "date_created": "2025-10-08T14:23:08.000",
    "date_modified": "2025-10-08T14:24:04.000",
    "request_status": "Pending",
    "responsible_agency": "Department of Public Works",
    "final_address": "1500 Baronne St",
    "address_councildis": "B",
    "status": "Inspected",
    "rowid": "1232106",
    "final_x": "3678441.82837",
    "final_y": "525966.989821",
    "longitude": "-90.07791904051489",
    "latitude": "29.940319256792282",
    "geocoded_column": {
      "latitude": "29.940319256792282",
      "longitude": "-90.07791904051489"
    }
  },
  {
    "service_request": "2025-1232105",
    "request_type": "Streetlights",
    "request_reason": "Streetlight Outage/Malfunction",
    "date_created": "2025-10-08T14:22:33.000",
    "date_modified": "2025-10-08T14:22:35.000",
    "request_status": "Pending",
    "responsible_agency": "Department of Public Works",
    "final_address": "5308 Prytania St",
    "address_councildis": "B",
    "status": "Pending",
    "rowid": "1232105",
    "final_x": "3667573.16941",
    "final_y": "520110.20364",
    "longitude": "-90.11243027493322",
    "latitude": "29.924537919551472",
    "geocoded_column": {
      "latitude": "29.924537919551472",
      "longitude": "-90.11243027493322"
    }
  },
  {
    "service_request": "2025-1232104",
    "request_type": "Trash/Recycling",
    "request_reason": "Request a Large Item Pick Up",
    "date_created": "2025-10-08T14:21:35.000",
    "date_modified": "2025-10-08T14:21:36.000",
    "request_status": "Pending",
    "responsible_agency": "Department of Sanitation",
    "final_address": "1216 Louisa St",
    "address_councildis": "C",
    "status": "Assigned to Contractor",
    "contractor": "IV Waste",
    "rowid": "1232104",
    "final_x": "3689649.85692",
    "final_y": "536374.220935",
    "longitude": "-90.04216337142192",
    "latitude": "29.96859313338487",
    "geocoded_column": {
      "latitude": "29.96859313338487",
      "longitude": "-90.04216337142192"
    }
  },
  {
    "service_request": "2025-1232103",
    "request_type": "Trash/Recycling",
    "request_reason": "Request a Large Item Pick Up",
    "date_created": "2025-10-08T14:21:01.000",
    "date_modified": "2025-10-08T14:21:04.000",
    "request_status": "Pending",
    "responsible_agency": "Department of Sanitation",
    "final_address": "7130 Pritchard Pl",
    "address_councildis": "B",
    "status": "Assigned to Contractor",
    "contractor": "IV Waste",
    "rowid": "1232103",
    "final_x": "3667576.44077",
    "final_y": "531458.348547",
    "longitude": "-90.11203813616999",
    "latitude": "29.95574156940693",
    "geocoded_column": {
      "latitude": "29.95574156940693",
      "longitude": "-90.11203813616999"
    }
  },
  {
    "service_request": "2025-1232102",
    "request_type": "Trash/Recycling",
    "request_reason": "MIssed Recycling Pick-Up",
    "date_created": "2025-10-08T14:19:59.000",
    "date_modified": "2025-10-08T14:20:01.000",
    "request_status": "Pending",
    "responsible_agency": "Department of Sanitation",
    "final_address": "14 Caddo Pl",
    "address_councildis": "E",
    "status": "Assigned to Contractor",
    "contractor": "Waste Pro",
    "rowid": "1232102",
    "final_x": "3725870.47366",
    "final_y": "564545.303457",
    "longitude": "-89.92668624894544",
    "latitude": "30.044880401764598",
    "geocoded_column": {
      "latitude": "30.044880401764598",
      "longitude": "-89.92668624894544"
    }
  },
  {
    "service_request": "2025-1232101",
    "request_type": "Streetlights",
    "request_reason": "Streetlight Outage/Malfunction",
    "date_created": "2025-10-08T14:18:37.000",
    "date_modified": "2025-10-08T14:18:39.000",
    "request_status": "Pending",
    "responsible_agency": "Department of Public Works",
    "final_address": "5308 Prytania St",
    "address_councildis": "B",
    "status": "Pending",
    "rowid": "1232101",
    "final_x": "3667573.16941",
    "final_y": "520110.20364",
    "longitude": "-90.11243027493322",
    "latitude": "29.924537919551472",
    "geocoded_column": {
      "latitude": "29.924537919551472",
      "longitude": "-90.11243027493322"
    }
  },
  {
    "service_request": "2025-1232100",
    "request_type": "Trash/Recycling",
    "request_reason": "Request a Large Item Pick Up",
    "date_created": "2025-10-08T14:16:17.000",
    "date_modified": "2025-10-08T14:16:47.000",
    "request_status": "Pending",
    "responsible_agency": "Department of Sanitation",
    "final_address": "4808 St Claude Ave",
    "address_councildis": "E",
    "status": "Assigned to Contractor",
    "contractor": "Waste Pro",
    "rowid": "1232100",
    "final_x": "3695140.33008",
    "final_y": "534421.409861",
    "longitude": "-90.0248946657472",
    "latitude": "29.963052336513883",
    "geocoded_column": {
      "latitude": "29.963052336513883",
      "longitude": "-90.0248946657472"
    }
  },
  {
    "service_request": "2025-1232099",
    "request_type": "Traffic Safety",
    "request_reason": "Request for Traffic Calming due to Speeding",
    "date_created": "2025-10-08T14:15:45.000",
    "date_modified": "2025-10-08T14:15:47.000",
    "request_status": "Pending",
    "responsible_agency": "Department of Public Works",
    "final_address": "2800 BLK Perdido St",
    "address_councildis": "B",
    "status": "Pending",
    "rowid": "1232099",
    "final_x": "3673018.07355",
    "final_y": "533287.160576",
    "longitude": "-90.09479292583404",
    "latitude": "29.96060959175053",
    "geocoded_column": {
      "latitude": "29.96060959175053",
      "longitude": "-90.09479292583404"
    }
  },
  {
    "service_request": "2025-1232098",
    "request_type": "Trash/Recycling",
    "request_reason": "Request a Large Item Pick Up",
    "date_created": "2025-10-08T14:12:42.000",
    "date_modified": "2025-10-08T14:13:24.000",
    "request_status": "Pending",
    "responsible_agency": "Department of Sanitation",
    "final_address": "5620 Burgundy St",
    "address_councildis": "E",
    "status": "Assigned to Contractor",
    "contractor": "Waste Pro",
    "rowid": "1232098",
    "final_x": "3697993.54531",
    "final_y": "532898.920324",
    "longitude": "-90.01593988607972",
    "latitude": "29.95877613631252",
    "geocoded_column": {
      "latitude": "29.95877613631252",
      "longitude": "-90.01593988607972"
    }
  },
  {
    "service_request": "2025-1232097",
    "request_type": "Trash/Recycling",
    "request_reason": "Request a Large Item Pick Up",
    "date_created": "2025-10-08T14:12:36.000",
    "date_modified": "2025-10-08T14:12:38.000",
    "request_status": "Pending",
    "responsible_agency": "Department of Sanitation",
    "final_address": "5954 Airway St",
    "address_councildis": "D",
    "status": "Assigned to Contractor",
    "contractor": "Waste Pro",
    "rowid": "1232097",
    "final_x": "3696541.77168",
    "final_y": "552807.857238",
    "longitude": "-90.01980351440908",
    "latitude": "30.013564277920036",
    "geocoded_column": {
      "latitude": "30.013564277920036",
      "longitude": "-90.01980351440908"
    }
  },
  {
    "service_request": "2025-1232096",
    "request_type": "Streetlights",
    "request_reason": "Streetlight Outage/Malfunction",
    "date_created": "2025-10-08T14:10:37.000",
    "date_modified": "2025-10-08T14:10:39.000",
    "request_status": "Pending",
    "responsible_agency": "Department of Public Works",
    "final_address": "920 Marigny St",
    "address_councildis": "C",
    "status": "Pending",
    "rowid": "1232096",
    "final_x": "3685432.06377",
    "final_y": "535806.347719",
    "longitude": "-90.05550336580556",
    "latitude": "29.9671616892532",
    "geocoded_column": {
      "latitude": "29.9671616892532",
      "longitude": "-90.05550336580556"
    }
  },
  {
    "service_request": "2025-1232095",
    "request_type": "Abandoned Vehicles",
    "request_reason": "Abandoned/Junk Vehicles",
    "date_created": "2025-10-08T14:09:50.000",
    "date_modified": "2025-10-08T14:09:51.000",
    "request_status": "Pending",
    "responsible_agency": "Department of Public Works",
    "final_address": "1725 Baronne St",
    "address_councildis": "B",
    "status": "Pending",
    "rowid": "1232095",
    "final_x": "3677966.42862",
    "final_y": "525364.733821",
    "longitude": "-90.07944076126076",
    "latitude": "29.938677564999605",
    "geocoded_column": {
      "latitude": "29.938677564999605",
      "longitude": "-90.07944076126076"
    }
  },
  {
    "service_request": "2025-1232094",
    "request_type": "Property Maintenance",
    "request_reason": "Property Maintenance",
    "date_created": "2025-10-08T14:09:13.000",
    "date_modified": "2025-10-08T14:09:20.000",
    "request_status": "Pending",
    "responsible_agency": "Department of Code Enforcement",
    "final_address": "4516 S Robertson St",
    "address_councildis": "B",
    "status": "Pending",
    "rowid": "1232094",
    "final_x": "3669948.49806",
    "final_y": "524303.036476",
    "longitude": "-90.10479024132798",
    "latitude": "29.935997061313838",
    "geocoded_column": {
      "latitude": "29.935997061313838",
      "longitude": "-90.10479024132798"
    }
  },
  {
    "service_request": "2025-1232093",
    "request_type": "Trash/Recycling",
    "request_reason": "Repair Recycling Cart",
    "date_created": "2025-10-08T14:07:12.000",
    "date_modified": "2025-10-08T14:07:13.000",
    "request_status": "Pending",
    "responsible_agency": "Department of Sanitation",
    "final_address": "3423 St Anthony Ave",
    "address_councildis": "D",
    "status": "Pending",
    "rowid": "1232093",
    "final_x": "3682885.25288",
    "final_y": "545230.958863",
    "longitude": "-90.06321629787222",
    "latitude": "29.993153920770954",
    "geocoded_column": {
      "latitude": "29.993153920770954",
      "longitude": "-90.06321629787222"
    }
  },
  {
    "service_request": "2025-1232092",
    "request_type": "Trash/Recycling",
    "request_reason": "Repair Trash Cart",
    "date_created": "2025-10-08T14:05:49.000",
    "date_modified": "2025-10-08T14:05:52.000",
    "request_status": "Pending",
    "responsible_agency": "Department of Sanitation",
    "final_address": "3423 St Anthony Ave",
    "address_councildis": "D",
    "status": "Assigned to Contractor",
    "contractor": "IV Waste",
    "rowid": "1232092",
    "final_x": "3682885.25288",
    "final_y": "545230.958863",
    "longitude": "-90.06321629787222",
    "latitude": "29.993153920770954",
    "geocoded_column": {
      "latitude": "29.993153920770954",
      "longitude": "-90.06321629787222"
    }
  },
  {
    "service_request": "2025-1232091",
    "request_type": "Roads and Streets",
    "request_reason": "Curb Damage",
    "date_created": "2025-10-08T14:05:26.000",
    "date_modified": "2025-10-08T14:05:28.000",
    "request_status": "Pending",
    "responsible_agency": "Department of Public Works",
    "final_address": "3701 Thalia St Apt A",
    "address_councildis": "B",
    "status": "Pending",
    "rowid": "1232091",
    "final_x": "3672884.70273",
    "final_y": "530001.764545",
    "longitude": "-90.09532617653072",
    "latitude": "29.95157980727655",
    "geocoded_column": {
      "latitude": "29.95157980727655",
      "longitude": "-90.09532617653072"
    }
  },
  {
    "service_request": "2025-1232090",
    "request_type": "Trash/Recycling",
    "request_reason": "Request a Large Item Pick Up",
    "date_created": "2025-10-08T14:03:58.000",
    "date_modified": "2025-10-08T14:04:00.000",
    "request_status": "Pending",
    "responsible_agency": "Department of Sanitation",
    "final_address": "4614 Papania Dr",
    "address_councildis": "E",
    "status": "Assigned to Contractor",
    "contractor": "Waste Pro",
    "rowid": "1232090",
    "final_x": "3715552.00472",
    "final_y": "556288.912474",
    "longitude": "-89.95960992852791",
    "latitude": "30.022522899451808",
    "geocoded_column": {
      "latitude": "30.022522899451808",
      "longitude": "-89.95960992852791"
    }
  },
  {
    "service_request": "2025-1232089",
    "request_type": "Parks & Parkways",
    "request_reason": "Request Tree Service (Right of Way/Public Property)",
    "date_created": "2025-10-08T14:03:31.000",
    "date_modified": "2025-10-08T14:03:33.000",
    "request_status": "Pending",
    "responsible_agency": "Department of Parks & Parkway",
    "final_address": "1680 Soniat St",
    "address_councildis": "B",
    "status": "Pending",
    "rowid": "1232089",
    "final_x": "3668376.85793",
    "final_y": "521666.210297",
    "longitude": "-90.10984084825654",
    "latitude": "29.928792872723662",
    "geocoded_column": {
      "latitude": "29.928792872723662",
      "longitude": "-90.10984084825654"
    }
  },
  {
    "service_request": "2025-1232088",
    "request_type": "Drainage",
    "request_reason": "Catch Basin Not Draining",
    "date_created": "2025-10-08T14:03:00.000",
    "date_modified": "2025-10-08T14:03:01.000",
    "request_status": "Pending",
    "responsible_agency": "Sewerage & Water Board",
    "final_address": "1111 Canal St",
    "address_councildis": "C",
    "status": "Pending",
    "rowid": "1232088",
    "final_x": "3679986.71823",
    "final_y": "531707.587395",
    "longitude": "-90.07284220329849",
    "latitude": "29.956057344840524",
    "geocoded_column": {
      "latitude": "29.956057344840524",
      "longitude": "-90.07284220329849"
    }
  },
  {
    "service_request": "2025-1232087",
    "request_type": "Property Maintenance",
    "request_reason": "Property Maintenance",
    "date_created": "2025-10-08T14:02:55.000",
    "date_modified": "2025-10-08T14:02:56.000",
    "request_status": "Pending",
    "responsible_agency": "Department of Code Enforcement",
    "final_address": "13635 N Nemours St",
    "address_councildis": "E",
    "status": "Pending",
    "rowid": "1232087",
    "final_x": "3726177.12838",
    "final_y": "563112.25712",
    "longitude": "-89.9257727259013",
    "latitude": "30.040929764969466",
    "geocoded_column": {
      "latitude": "30.040929764969466",
      "longitude": "-89.9257727259013"
    }
  },
  {
    "service_request": "2025-1232086",
    "request_type": "Trash/Recycling",
    "request_reason": "Repair Trash Cart",
    "date_created": "2025-10-08T14:01:03.000",
    "date_modified": "2025-10-08T14:01:05.000",
    "request_status": "Pending",
    "responsible_agency": "Department of Sanitation",
    "final_address": "7143 Parkside Ct",
    "address_councildis": "E",
    "status": "Assigned to Contractor",
    "contractor": "Waste Pro",
    "rowid": "1232086",
    "final_x": "3704551.06711",
    "final_y": "560257.163613",
    "longitude": "-89.99422346334715",
    "latitude": "30.033792100310418",
    "geocoded_column": {
      "latitude": "30.033792100310418",
      "longitude": "-89.99422346334715"
    }
  },
  {
    "service_request": "2025-1232085",
    "request_type": "General Services",
    "request_reason": "General Service Request",
    "date_created": "2025-10-08T14:00:26.000",
    "date_modified": "2025-10-08T14:06:09.000",
    "request_status": "Pending",
    "responsible_agency": "Orleans Parish Communication District",
    "final_address": "3701 Thalia St Apt A",
    "address_councildis": "B",
    "status": "Pending",
    "rowid": "1232085",
    "final_x": "3672884.70273",
    "final_y": "530001.764545",
    "longitude": "-90.09532617653072",
    "latitude": "29.95157980727655",
    "geocoded_column": {
      "latitude": "29.95157980727655",
      "longitude": "-90.09532617653072"
    }
  },
  {
    "service_request": "2025-1232084",
    "request_type": "Trash/Recycling",
    "request_reason": "Request a Large Item Pick Up",
    "date_created": "2025-10-08T13:54:12.000",
    "date_modified": "2025-10-08T13:54:13.000",
    "request_status": "Pending",
    "responsible_agency": "Department of Sanitation",
    "final_address": "5410 Durham Dr",
    "address_councildis": "C",
    "status": "Assigned to Contractor",
    "contractor": "Richards Disposal",
    "rowid": "1232084",
    "final_x": "3704034.3379",
    "final_y": "518974.990199",
    "longitude": "-89.9973773898681",
    "latitude": "29.9202978843608",
    "geocoded_column": {
      "latitude": "29.9202978843608",
      "longitude": "-89.9973773898681"
    }
  },
  {
    "service_request": "2025-1232083",
    "request_type": "Abandoned Vehicles",
    "request_reason": "Abandoned/Junk Vehicles",
    "date_created": "2025-10-08T13:53:26.000",
    "date_modified": "2025-10-08T13:53:28.000",
    "request_status": "Pending",
    "responsible_agency": "Department of Public Works",
    "final_address": "9807 E Wheaton Cir",
    "address_councildis": "E",
    "status": "Pending",
    "rowid": "1232083",
    "final_x": "3708624.70897",
    "final_y": "562443.335327",
    "longitude": "-89.98126886923541",
    "latitude": "30.039671674072103",
    "geocoded_column": {
      "latitude": "30.039671674072103",
      "longitude": "-89.98126886923541"
    }
  },
  {
    "service_request": "2025-1232082",
    "request_type": "Trash/Recycling",
    "request_reason": "Request a Large Item Pick Up",
    "date_created": "2025-10-08T13:49:57.000",
    "date_modified": "2025-10-08T13:50:33.000",
    "request_status": "Pending",
    "responsible_agency": "Department of Sanitation",
    "final_address": "519 Hendee St",
    "address_councildis": "C",
    "status": "Assigned to Contractor",
    "contractor": "Richards Disposal",
    "rowid": "1232082",
    "final_x": "3690852.20342",
    "final_y": "529614.845057",
    "longitude": "-90.03860751042099",
    "latitude": "29.949969896822694",
    "geocoded_column": {
      "latitude": "29.949969896822694",
      "longitude": "-90.03860751042099"
    }
  },
  {
    "service_request": "2025-1232081",
    "request_type": "Abandoned Vehicles",
    "request_reason": "Abandoned/Junk Vehicles",
    "date_created": "2025-10-08T13:45:41.000",
    "date_modified": "2025-10-08T13:45:43.000",
    "request_status": "Pending",
    "responsible_agency": "Department of Public Works",
    "final_address": "9835 E Wheaton Cir",
    "address_councildis": "E",
    "status": "Pending",
    "rowid": "1232081",
    "final_x": "3708783.25361",
    "final_y": "562532.005024",
    "longitude": "-89.98076451659026",
    "latitude": "30.039910335535644",
    "geocoded_column": {
      "latitude": "30.039910335535644",
      "longitude": "-89.98076451659026"
    }
  },
  {
    "service_request": "2025-1232080",
    "request_type": "Trash/Recycling",
    "request_reason": "Request a Large Item Pick Up",
    "date_created": "2025-10-08T13:44:27.000",
    "date_modified": "2025-10-08T13:44:29.000",
    "request_status": "Pending",
    "responsible_agency": "Department of Sanitation",
    "final_address": "6611 E Hermes St",
    "address_councildis": "D",
    "status": "Assigned to Contractor",
    "contractor": "Waste Pro",
    "rowid": "1232080",
    "final_x": "3697892.70275",
    "final_y": "555879.891801",
    "longitude": "-90.01542366628401",
    "latitude": "30.021968558967995",
    "geocoded_column": {
      "latitude": "30.021968558967995",
      "longitude": "-90.01542366628401"
    }
  },
  {
    "service_request": "2025-1232079",
    "request_type": "Abandoned Vehicles",
    "request_reason": "Abandoned/Junk Vehicles",
    "date_created": "2025-10-08T13:41:20.000",
    "date_modified": "2025-10-08T13:41:22.000",
    "request_status": "Pending",
    "responsible_agency": "Department of Public Works",
    "final_address": "1600 BLK Richland Rd",
    "address_councildis": "C",
    "status": "Pending",
    "rowid": "1232079",
    "final_x": "3697925.10411",
    "final_y": "524874.77845",
    "longitude": "-90.0164472095202",
    "latitude": "29.936714719507883",
    "geocoded_column": {
      "latitude": "29.936714719507883",
      "longitude": "-90.0164472095202"
    }
  },
  {
    "service_request": "2025-1232078",
    "request_type": "Trash/Recycling",
    "request_reason": "Order Second Trash Cart",
    "date_created": "2025-10-08T13:37:52.000",
    "date_modified": "2025-10-08T13:38:56.000",
    "request_status": "Pending",
    "responsible_agency": "Department of Sanitation",
    "final_address": "2127 N Derbigny St",
    "address_councildis": "D",
    "status": "Assigned to Contractor",
    "contractor": "IV Waste",
    "rowid": "1232078",
    "final_x": "3684656.37141",
    "final_y": "538539.167369",
    "longitude": "-90.05785693863237",
    "latitude": "29.97469975588999",
    "geocoded_column": {
      "latitude": "29.97469975588999",
      "longitude": "-90.05785693863237"
    }
  },
  {
    "service_request": "2025-1232077",
    "request_type": "Trash/Recycling",
    "request_reason": "Illegal Dumping",
    "date_created": "2025-10-08T13:36:11.000",
    "date_modified": "2025-10-08T13:36:13.000",
    "request_status": "Pending",
    "responsible_agency": "Department of Sanitation",
    "final_address": "5907 Boeing St",
    "address_councildis": "D",
    "status": "Pending",
    "rowid": "1232077",
    "final_x": "3696355.90224",
    "final_y": "552941.818135",
    "longitude": "-90.0203859120497",
    "latitude": "30.013938477438852",
    "geocoded_column": {
      "latitude": "30.013938477438852",
      "longitude": "-90.0203859120497"
    }
  },
  {
    "service_request": "2025-1232076",
    "request_type": "Trash/Recycling",
    "request_reason": "Illegal Dumping",
    "date_created": "2025-10-08T13:34:24.000",
    "date_modified": "2025-10-08T13:34:26.000",
    "request_status": "Pending",
    "responsible_agency": "Department of Sanitation",
    "final_address": "1700 Frenchmen St",
    "address_councildis": "D",
    "status": "Pending",
    "rowid": "1232076",
    "final_x": "3684379.23957",
    "final_y": "538511.813833",
    "longitude": "-90.05873314920596",
    "latitude": "29.974633022584438",
    "geocoded_column": {
      "latitude": "29.974633022584438",
      "longitude": "-90.05873314920596"
    }
  },
  {
    "service_request": "2025-1232075",
    "request_type": "Drainage",
    "request_reason": "Catch Basin Frame and Cover Missing or Damaged",
    "date_created": "2025-10-08T13:30:37.000",
    "date_modified": "2025-10-08T13:30:40.000",
    "request_status": "Pending",
    "responsible_agency": "Sewerage & Water Board",
    "final_address": "5035 Chef Menteur Hwy",
    "address_councildis": "D",
    "status": "Pending",
    "rowid": "1232075",
    "final_x": "3693062.23427",
    "final_y": "550655.183572",
    "longitude": "-90.03087430012353",
    "latitude": "30.00775444195717",
    "geocoded_column": {
      "latitude": "30.00775444195717",
      "longitude": "-90.03087430012353"
    }
  },
  {
    "service_request": "2025-1232074",
    "request_type": "Trash/Recycling",
    "request_reason": "Order Trash Cart",
    "date_created": "2025-10-08T13:28:40.000",
    "date_modified": "2025-10-08T13:28:42.000",
    "request_status": "Pending",
    "responsible_agency": "Department of Sanitation",
    "final_address": "6246 Erin Dr",
    "address_councildis": "E",
    "status": "Assigned to Contractor",
    "contractor": "Waste Pro",
    "rowid": "1232074",
    "final_x": "3696462.08515",
    "final_y": "558704.11926",
    "longitude": "-90.0198417333989",
    "latitude": "30.029779274912702",
    "geocoded_column": {
      "latitude": "30.029779274912702",
      "longitude": "-90.0198417333989"
    }
  },
  {
    "service_request": "2025-1232073",
    "request_type": "Trash/Recycling",
    "request_reason": "Request a Large Item Pick Up",
    "date_created": "2025-10-08T13:28:06.000",
    "date_modified": "2025-10-08T13:28:08.000",
    "request_status": "Pending",
    "responsible_agency": "Department of Sanitation",
    "final_address": "2743 Palmyra St",
    "address_councildis": "B",
    "status": "Assigned to Contractor",
    "contractor": "IV Waste",
    "rowid": "1232073",
    "final_x": "3674570.66497",
    "final_y": "534742.58439",
    "longitude": "-90.08984026691911",
    "latitude": "29.964565282013094",
    "geocoded_column": {
      "latitude": "29.964565282013094",
      "longitude": "-90.08984026691911"
    }
  },
  {
    "service_request": "2025-1232072",
    "request_type": "Trash/Recycling",
    "request_reason": "Request a Large Item Pick Up",
    "date_created": "2025-10-08T13:26:59.000",
    "date_modified": "2025-10-08T13:27:01.000",
    "request_status": "Pending",
    "responsible_agency": "Department of Sanitation",
    "final_address": "4824 Virgilian St",
    "address_councildis": "D",
    "status": "Assigned to Contractor",
    "contractor": "Waste Pro",
    "rowid": "1232072",
    "final_x": "3697356.48503",
    "final_y": "554214.968536",
    "longitude": "-90.01717839441929",
    "latitude": "30.01740759813479",
    "geocoded_column": {
      "latitude": "30.01740759813479",
      "longitude": "-90.01717839441929"
    }
  },
  {
    "service_request": "2025-1232071",
    "request_type": "Drainage",
    "request_reason": "Catch Basin Not Draining",
    "date_created": "2025-10-08T13:25:45.000",
    "date_modified": "2025-10-08T13:25:47.000",
    "request_status": "Pending",
    "responsible_agency": "Sewerage & Water Board",
    "final_address": "13219 Dwyer Blvd",
    "address_councildis": "E",
    "status": "Pending",
    "rowid": "1232071",
    "final_x": "3724422.08051",
    "final_y": "561552.355039",
    "longitude": "-89.93137952013456",
    "latitude": "30.036699839271158",
    "geocoded_column": {
      "latitude": "30.036699839271158",
      "longitude": "-89.93137952013456"
    }
  },
  {
    "service_request": "2025-1232070",
    "request_type": "Parks & Parkways",
    "request_reason": "Tree Stump (removal, grind)",
    "date_created": "2025-10-08T13:23:53.000",
    "date_modified": "2025-10-08T13:23:56.000",
    "request_status": "Pending",
    "responsible_agency": "Department of Parks & Parkway",
    "final_address": "3511 Rue Michelle",
    "address_councildis": "C",
    "status": "Pending",
    "rowid": "1232070",
    "final_x": "3703555.40714",
    "final_y": "517746.918134",
    "longitude": "-89.99893427943526",
    "latitude": "29.916936454516144",
    "geocoded_column": {
      "latitude": "29.916936454516144",
      "longitude": "-89.99893427943526"
    }
  },
  {
    "service_request": "2025-1232069",
    "request_type": "Roads and Streets",
    "request_reason": "Street Subsidence (Sinking)",
    "date_created": "2025-10-08T13:21:53.000",
    "date_modified": "2025-10-08T13:21:54.000",
    "request_status": "Pending",
    "responsible_agency": "Sewerage & Water Board",
    "final_address": "4153 Orleans Ave",
    "address_councildis": "A",
    "status": "Pending",
    "rowid": "1232069",
    "final_x": "3672284.06183",
    "final_y": "540619.120587",
    "longitude": "-90.09686095202986",
    "latitude": "29.980791803234826",
    "geocoded_column": {
      "latitude": "29.980791803234826",
      "longitude": "-90.09686095202986"
    }
  },
  {
    "service_request": "2025-1232068",
    "request_type": "Trash/Recycling",
    "request_reason": "Missed Trash Pick-Up",
    "date_created": "2025-10-08T13:21:44.000",
    "date_modified": "2025-10-08T14:26:51.000",
    "case_close_date": "2025-10-08T09:26:50.000",
    "request_status": "Closed",
    "responsible_agency": "Department of Sanitation",
    "final_address": "7712 Panola St",
    "address_councildis": "A",
    "status": "Invalid Request",
    "contractor": "IV Waste",
    "contractor_action": "Invalid",
    "rowid": "1232068",
    "final_x": "3665070.91367",
    "final_y": "529763.537153",
    "longitude": "-90.12000640947953",
    "latitude": "29.95115458113359",
    "geocoded_column": {
      "latitude": "29.95115458113359",
      "longitude": "-90.12000640947953"
    }
  },