[
  {
    "service_request": "2021-836559",
    "request_type": "Traffic Signals/Signs/Striping/Streetlights",
    "request_reason": "Traffic Signal Malfunctioning/Damaged",
    "date_created": "2021-10-24T23:29:26.000",
    "date_modified": "2021-10-24T23:29:26.000",
    "request_status": "Pending",
    "responsible_agency": "Department of Public Works",
    "final_address": "EARHART BLVD & S NORMAN C FRANCIS PKWY",
    "address_councildis": "B",
    "status": "Pending",
    "rowid": "836559",
    "final_x": "3669903.8",
    "final_y": "531879.48",
    "longitude": "-90.10467487626596",
    "latitude": "29.956831128087114",
    "geocoded_column": {
      "latitude": "29.956831128087114",
      "longitude": "-90.10467487626596"
    }
  },
  {
    "service_request": "2021-836558",
    "request_type": "Roads/Drainage",
    "request_reason": "Pothole",
    "date_created": "2021-10-24T23:21:38.000",
    "date_modified": "2021-10-24T23:21:38.000",
    "request_status": "Pending",
    "responsible_agency": "Department of Public Works",
    "final_address": "2101 S Claiborne Ave",
    "address_councildis": "B",
    "status": "Pending",
    "rowid": "836558",
    "final_x": "3674731.92315",
    "final_y": "527932.739711",
    "longitude": "-90.08956445378519",
    "latitude": "29.945835666379843",
    "geocoded_column": {
      "latitude": "29.945835666379843",
      "longitude": "-90.08956445378519"
    }
  },
  {
    "service_request": "2021-836556",
    "request_type": "Trash/Recycling",
    "request_reason": "Illegal Dumping",
    "date_created": "2021-10-24T22:11:14.000",
    "date_modified": "2021-10-24T22:11:14.000",
    "request_status": "Pending",
    "responsible_agency": "Department of Sanitation",
    "final_address": "909 Semmes St",
    "address_councildis": "C",
    "status": "Pending",
    "rowid": "836556",
    "final_x": "3688528.59747",
    "final_y": "524025.1831",
    "longitude": "-90.04614245762163",
    "latitude": "29.934672215766103",
    "geocoded_column": {
      "latitude": "29.934672215766103",
      "longitude": "-90.04614245762163"
    }
  },
  {
    "service_request": "2021-836555",
    "request_type": "Trash/Recycling",
    "request_reason": "Missed Trash Pick-Up",
    "date_created": "2021-10-24T21:54:53.000",
    "date_modified": "2021-10-24T21:54:54.000",
    "request_status": "Pending",
    "responsible_agency": "Department of Sanitation",
    "final_address": "2000 Bayou Rd",
    "address_councildis": "D",
    "status": "Assigned to Contractor",
    "contractor": "Richards Disposal",
    "rowid": "836555",
    "final_x": "3680170.6868",
    "final_y": "537120.080584",
    "longitude": "-90.07207317028373",
    "latitude": "29.970934289127584",
    "geocoded_column": {
      "latitude": "29.970934289127584",
      "longitude": "-90.07207317028373"
    }
  },
  {
    "service_request": "2021-836554",
    "request_type": "Trash/Recycling",
    "request_reason": "Repair Trash Cart",
    "date_created": "2021-10-24T21:38:29.000",
    "date_modified": "2021-10-24T21:38:29.000",
    "request_status": "Pending",
    "responsible_agency": "Department of Sanitation",
    "final_address": "3465 Vespasian St",
    "address_councildis": "C",
    "status": "Assigned to Contractor",
    "contractor": "Richards Disposal",
    "rowid": "836554",
    "final_x": "3696033.47011",
    "final_y": "522570.826618",
    "longitude": "-90.02250236373975",
    "latitude": "29.93043928524652",
    "geocoded_column": {
      "latitude": "29.93043928524652",
      "longitude": "-90.02250236373975"
    }
  },
  {
    "service_request": "2021-836553",
    "request_type": "Trash/Recycling",
    "request_reason": "Repair Trash Cart",
    "date_created": "2021-10-24T21:37:06.000",
    "date_modified": "2021-10-24T21:37:06.000",
    "request_status": "Pending",
    "responsible_agency": "Department of Sanitation",
    "final_address": "3469 Vespasian St",
    "address_councildis": "C",
    "status": "Assigned to Contractor",
    "contractor": "Richards Disposal",
    "rowid": "836553",
    "final_x": "3696053.47414",
    "final_y": "522570.257786",
    "longitude": "-90.02243923494422",
    "latitude": "29.930437091892376",
    "geocoded_column": {
      "latitude": "29.930437091892376",
      "longitude": "-90.02243923494422"
    }
  },
  {
    "service_request": "2021-836549",
    "request_type": "Roads/Drainage",
    "request_reason": "Pothole",
    "date_created": "2021-10-24T20:42:32.000",
    "date_modified": "2021-10-24T20:42:32.000",
    "request_status": "Pending",
    "responsible_agency": "Department of Public Works",
    "final_address": "6001 Franklin Ave",
    "address_councildis": "D",
    "status": "Pending",
    "rowid": "836549",
    "final_x": "3686492.05449",
    "final_y": "555251.343897",
    "longitude": "-90.05146894149112",
    "latitude": "30.020595907583584",
    "geocoded_column": {
      "latitude": "30.020595907583584",
      "longitude": "-90.05146894149112"
    }
  },
  {
    "service_request": "2021-836548",
    "request_type": "Traffic Signals/Signs/Striping/Streetlights",
    "request_reason": "Road Surface Marking Maintenance-Parking Lane",
    "date_created": "2021-10-24T20:30:00.000",
    "date_modified": "2021-10-24T20:30:00.000",
    "request_status": "Pending",
    "responsible_agency": "Department of Public Works",
    "final_address": "9013 Edinburgh St",
    "address_councildis": "A",
    "status": "Pending",
    "rowid": "836548",
    "final_x": "3665080.55712",
    "final_y": "536673.423495",
    "longitude": "-90.11974488006186",
    "latitude": "29.970154223953315",
    "geocoded_column": {
      "latitude": "29.970154223953315",
      "longitude": "-90.11974488006186"
    }
  },
  {
    "service_request": "2021-836547",
    "request_type": "Trash/Recycling",
    "request_reason": "Replace Trash Cart",
    "date_created": "2021-10-24T20:26:50.000",
    "date_modified": "2021-10-24T20:26:51.000",
    "request_status": "Pending",
    "responsible_agency": "Department of Sanitation",
    "final_address": "2719 Bristol Pl",
    "address_councildis": "C",
    "status": "Assigned to Contractor",
    "contractor": "Richards Disposal",
    "rowid": "836547",
    "final_x": "3702542.6865",
    "final_y": "520980.132217",
    "longitude": "-90.00201225489508",
    "latitude": "29.92585906920609",
    "geocoded_column": {
      "latitude": "29.92585906920609",
      "longitude": "-90.00201225489508"
    }
  },
  {
    "service_request": "2021-836546",
    "request_type": "Trash/Recycling",
    "request_reason": "Order Recycling Cart",
    "date_created": "2021-10-24T20:26:10.000",
    "date_modified": "2021-10-24T20:26:10.000",
    "request_status": "Pending",
    "responsible_agency": "Department of Sanitation",
    "final_address": "2128 St Andrew St",
    "address_councildis": "B",
    "status": "Pending",
    "rowid": "836546",
    "final_x": "3676851.91688",
    "final_y": "525814.340861",
    "longitude": "-90.08294390778713",
    "latitude": "29.939947324561064",
    "geocoded_column": {
      "latitude": "29.939947324561064",
      "longitude": "-90.08294390778713"
    }
  },
  {
    "service_request": "2021-836545",
    "request_type": "Trash/Recycling",
    "request_reason": "Start Trash Service",
    "date_created": "2021-10-24T20:25:15.000",
    "date_modified": "2021-10-24T20:25:16.000",
    "request_status": "Pending",
    "responsible_agency": "Department of Sanitation",
    "final_address": "2128 St Andrew St",
    "address_councildis": "B",
    "status": "Assigned to Contractor",
    "contractor": "Richards Disposal",
    "rowid": "836545",
    "final_x": "3676851.91688",
    "final_y": "525814.340861",
    "longitude": "-90.08294390778713",
    "latitude": "29.939947324561064",
    "geocoded_column": {
      "latitude": "29.939947324561064",
      "longitude": "-90.08294390778713"
    }
  },
  {
    "service_request": "2021-836544",
    "request_type": "Property Maintenance",
    "request_reason": "Property Maintenance",
    "date_created": "2021-10-24T20:23:35.000",
    "date_modified": "2021-10-24T20:23:35.000",
    "request_status": "Pending",
    "responsible_agency": "Department of Code Enforcement",
    "final_address": "1200 Independence St",
    "address_councildis": "D",
    "status": "Pending",
    "rowid": "836544",
    "final_x": "3691021.9606",
    "final_y": "535915.560135",
    "longitude": "-90.03784658555348",
    "latitude": "29.967289393030683",
    "geocoded_column": {
      "latitude": "29.967289393030683",
      "longitude": "-90.03784658555348"
    }
  },
  {
    "service_request": "2021-836543",
    "request_type": "Safety & Permits",
    "request_reason": "Licenses & Permits",
    "date_created": "2021-10-24T20:22:01.000",
    "date_modified": "2021-10-24T20:22:01.000",
    "request_status": "Pending",
    "responsible_agency": "Safety and Permits",
    "final_address": "442 Hancock St",
    "status": "Pending",
    "rowid": "836543",
    "final_x": "3687759.40131",
    "final_y": "524089.47046",
    "longitude": "-90.04856851345411",
    "latitude": "29.934872721393972",
    "geocoded_column": {
      "latitude": "29.934872721393972",
      "longitude": "-90.04856851345411"
    }
  },
  {
    "service_request": "2021-836542",
    "request_type": "Trash/Recycling",
    "request_reason": "Order Trash Cart",
    "date_created": "2021-10-24T20:21:51.000",
    "date_modified": "2021-10-24T20:21:52.000",
    "request_status": "Pending",
    "responsible_agency": "Department of Sanitation",
    "final_address": "9013 Edinburgh St",
    "address_councildis": "A",
    "status": "Assigned to Contractor",
    "contractor": "Richards Disposal",
    "rowid": "836542",
    "final_x": "3665080.55712",
    "final_y": "536673.423495",
    "longitude": "-90.11974488006186",
    "latitude": "29.970154223953315",
    "geocoded_column": {
      "latitude": "29.970154223953315",
      "longitude": "-90.11974488006186"
    }
  },
  {
    "service_request": "2021-836541",
    "request_type": "Property Maintenance",
    "request_reason": "Property Maintenance",
    "date_created": "2021-10-24T20:12:29.000",
    "date_modified": "2021-10-24T20:12:29.000",
    "request_status": "Pending",
    "responsible_agency": "Department of Code Enforcement",
    "final_address": "613 N Rendon St",
    "address_councildis": "A",
    "status": "Pending",
    "rowid": "836541",
    "final_x": "3674725.9275",
    "final_y": "537987.609289",
    "longitude": "-90.08923869585131",
    "latitude": "29.973483367379114",
    "geocoded_column": {
      "latitude": "29.973483367379114",
      "longitude": "-90.08923869585131"
    }
  },
  {
    "service_request": "2021-836539",
    "request_type": "Traffic Signals/Signs/Striping/Streetlights",
    "request_reason": "Street Light Outage/Malfunction",
    "date_created": "2021-10-24T20:01:27.000",
    "date_modified": "2021-10-24T20:01:27.000",
    "request_status": "Pending",
    "responsible_agency": "Department of Public Works",
    "final_address": "101 Fairway Dr",
    "address_councildis": "A",
    "status": "Pending",
    "contractor": "Royal Engineering",
    "rowid": "836539",
    "final_x": "3664233.71335",
    "final_y": "540201.984331",
    "longitude": "-90.12230153664252",
    "latitude": "29.97988122759863",
    "geocoded_column": {
      "latitude": "29.97988122759863",
      "longitude": "-90.12230153664252"
    }
  },
  {
    "service_request": "2021-836538",
    "request_type": "Trash/Recycling",
    "request_reason": "Request a Large Item Pick Up",
    "date_created": "2021-10-24T19:15:19.000",
    "date_modified": "2021-10-24T19:15:20.000",
    "request_status": "Pending",
    "responsible_agency": "Department of Sanitation",
    "final_address": "2726 Mexico St",
    "address_councildis": "D",
    "status": "Assigned to Contractor",
    "contractor": "Metro Disposal",
    "rowid": "836538",
    "final_x": "3687292.18953",
    "final_y": "556411.97065",
    "longitude": "-90.04889965224743",
    "latitude": "30.023762563313603",
    "geocoded_column": {
      "latitude": "30.023762563313603",
      "longitude": "-90.04889965224743"
    }
  },
  {
    "service_request": "2021-836537",
    "request_type": "Mayor's Request",
    "request_reason": "Requests to the Mayor",
    "date_created": "2021-10-24T19:15:16.000",
    "date_modified": "2021-10-24T19:15:16.000",
    "request_status": "Pending",
    "responsible_agency": "Executive Office of the Mayor",
    "status": "Pending",
    "rowid": "836537",
    "longitude": "0.0",
    "latitude": "0.0",
    "geocoded_column": {
      "latitude": "0.0",
      "longitude": "0.0"
    }
  },
  {
    "service_request": "2021-836536",
    "request_type": "Mayor's Request",
    "request_reason": "Requests to the Mayor",
    "date_created": "2021-10-24T19:11:54.000",
    "date_modified": "2021-10-24T19:11:54.000",
    "request_status": "Pending",
    "responsible_agency": "Executive Office of the Mayor",
    "status": "Pending",
    "rowid": "836536",
    "longitude": "0.0",
    "latitude": "0.0",
    "geocoded_column": {
      "latitude": "0.0",
      "longitude": "0.0"
    }
  },
  {
    "service_request": "2021-836535",
    "request_type": "Mayor's Request",
    "request_reason": "Requests to the Mayor",
    "date_created": "2021-10-24T19:10:03.000",
    "date_modified": "2021-10-24T19:10:03.000",
    "request_status": "Pending",
    "responsible_agency": "Executive Office of the Mayor",
    "status": "Pending",
    "rowid": "836535",
    "longitude": "0.0",
    "latitude": "0.0",
    "geocoded_column": {
      "latitude": "0.0",
      "longitude": "0.0"
    }
  },
  {
    "service_request": "2021-836534",
    "request_type": "Mayor's Request",
    "request_reason": "Requests to the Mayor",
    "date_created": "2021-10-24T19:05:10.000",
    "date_modified": "2021-10-24T19:05:10.000",
    "request_status": "Pending",
    "responsible_agency": "Executive Office of the Mayor",
    "status": "Pending",
    "rowid": "836534",
    "longitude": "0.0",
    "latitude": "0.0",
    "geocoded_column": {
      "latitude": "0.0",
      "longitude": "0.0"
    }
  },
  {
    "service_request": "2021-836533",
    "request_type": "Traffic Signals/Signs/Striping/Streetlights",
    "request_reason": "Street Light Outage/Malfunction",
    "date_created": "2021-10-24T19:05:00.000",
    "date_modified": "2021-10-24T19:05:00.000",
    "request_status": "Pending",
    "responsible_agency": "Department of Public Works",
    "final_address": "13500 Lourdes St",
    "address_councildis": "E",
    "status": "Pending",
    "contractor": "Royal Engineering",
    "rowid": "836533",
    "final_x": "3726392.02445",
    "final_y": "561015.443358",
    "longitude": "-89.92517502695367",
    "latitude": "30.035157133589824",
    "geocoded_column": {
      "latitude": "30.035157133589824",
      "longitude": "-89.92517502695367"
    }
  },
  {
    "service_request": "2021-836532",
    "request_type": "Traffic Signals/Signs/Striping/Streetlights",
    "request_reason": "Street Light Outage/Malfunction",
    "date_created": "2021-10-24T19:02:12.000",
    "date_modified": "2021-10-24T19:02:12.000",
    "request_status": "Pending",
    "responsible_agency": "Department of Public Works",
    "final_address": "4618 Herschel St",
    "address_councildis": "C",
    "status": "Pending",
    "contractor": "Royal Engineering",
    "rowid": "836532",
    "final_x": "3702059.22167",
    "final_y": "520876.690809",
    "longitude": "-90.00354218819567",
    "latitude": "29.925590077799242",
    "geocoded_column": {
      "latitude": "29.925590077799242",
      "longitude": "-90.00354218819567"
    }
  },
  {
    "service_request": "2021-836531",
    "request_type": "Mayor's Request",
    "request_reason": "Requests to the Mayor",
    "date_created": "2021-10-24T19:00:50.000",
    "date_modified": "2021-10-24T19:00:50.000",
    "request_status": "Pending",
    "responsible_agency": "Executive Office of the Mayor",
    "status": "Pending",
    "rowid": "836531",
    "longitude": "0.0",
    "latitude": "0.0",
    "geocoded_column": {
      "latitude": "0.0",
      "longitude": "0.0"
    }
  },
  {
    "service_request": "2021-836530",
    "request_type": "Mayor's Request",
    "request_reason": "Requests to the Mayor",
    "date_created": "2021-10-24T18:58:09.000",
    "date_modified": "2021-10-24T18:58:09.000",
    "request_status": "Pending",
    "responsible_agency": "Executive Office of the Mayor",
    "status": "Pending",
    "rowid": "836530",
    "longitude": "0.0",
    "latitude": "0.0",
    "geocoded_column": {
      "latitude": "0.0",
      "longitude": "0.0"
    }
  },
  {
    "service_request": "2021-836529",
    "request_type": "Roads/Drainage",
    "request_reason": "Street Subsidence (Sinking)",
    "date_created": "2021-10-24T18:57:31.000",
    "date_modified": "2021-10-24T18:57:31.000",
    "request_status": "Pending",
    "responsible_agency": "Department of Public Works",
    "final_address": "5677 Marcia Ave",
    "address_councildis": "A",
    "status": "Pending",
    "rowid": "836529",
    "final_x": "3664973.49658",
    "final_y": "545465.426896",
    "longitude": "-90.11978892272198",
    "latitude": "29.99433239570484",
    "geocoded_column": {
      "latitude": "29.99433239570484",
      "longitude": "-90.11978892272198"
    }
  },
  {
    "service_request": "2021-836528",
    "request_type": "Trash/Recycling",
    "request_reason": "Missed Trash Pick-Up",
    "date_created": "2021-10-24T18:56:16.000",
    "date_modified": "2021-10-24T18:56:16.000",
    "request_status": "Pending",
    "responsible_agency": "Department of Sanitation",
    "final_address": "5677 Marcia Ave",
    "address_councildis": "A",
    "status": "Assigned to Contractor",
    "contractor": "Metro Disposal",
    "rowid": "836528",
    "final_x": "3664973.49658",
    "final_y": "545465.426896",
    "longitude": "-90.11978892272198",
    "latitude": "29.99433239570484",
    "geocoded_column": {
      "latitude": "29.99433239570484",
      "longitude": "-90.11978892272198"
    }
  },
  {
    "service_request": "2021-836527",
    "request_type": "Traffic Signals/Signs/Striping/Streetlights",
    "request_reason": "Traffic Sign Missing/Damaged",
    "date_created": "2021-10-24T18:54:11.000",
    "date_modified": "2021-10-24T18:54:11.000",
    "request_status": "Pending",
    "responsible_agency": "Department of Public Works",
    "final_address": "5677 Marcia Ave",
    "address_councildis": "A",
    "status": "Pending",
    "rowid": "836527",
    "final_x": "3664973.49658",
    "final_y": "545465.426896",
    "longitude": "-90.11978892272198",
    "latitude": "29.99433239570484",
    "geocoded_column": {
      "latitude": "29.99433239570484",
      "longitude": "-90.11978892272198"
    }
  },
  {
    "service_request": "2021-836525",
    "request_type": "Trash/Recycling",
    "request_reason": "Request a Large Item Pick Up",
    "date_created": "2021-10-24T18:44:03.000",
    "date_modified": "2021-10-24T18:44:04.000",
    "request_status": "Pending",
    "responsible_agency": "Department of Sanitation",
    "final_address": "3713 Baronne St",
    "address_councildis": "B",
    "status": "Assigned to Contractor",
    "contractor": "Richards Disposal",
    "rowid": "836525",
    "final_x": "3672830.88596",
    "final_y": "521884.906554",
    "longitude": "-90.09577291051873",
    "latitude": "29.92926269457732",
    "geocoded_column": {
      "latitude": "29.92926269457732",
      "longitude": "-90.09577291051873"
    }
  },
  {
    "service_request": "2021-836524",
    "request_type": "Abandoned Vehicles",
    "request_reason": "Abandoned/Junk Vehicles",
    "date_created": "2021-10-24T18:42:27.000",
    "date_modified": "2021-10-24T18:42:27.000",
    "request_status": "Pending",
    "responsible_agency": "Department of Public Works",
    "final_address": "2912 Palmyra St Apt C",
    "address_councildis": "B",
    "status": "Pending",
    "rowid": "836524",
    "final_x": "3673974.47112",
    "final_y": "535052.562758",
    "longitude": "-90.09171239932815",
    "latitude": "29.965435395145203",
    "geocoded_column": {
      "latitude": "29.965435395145203",
      "longitude": "-90.09171239932815"
    }
  },
  {
    "service_request": "2021-836523",
    "request_type": "Parks & Parkways",
    "request_reason": "Request Tree Service (Right of Way/Public Property)",
    "date_created": "2021-10-24T18:23:02.000",
    "date_modified": "2021-10-24T18:23:02.000",
    "request_status": "Pending",
    "responsible_agency": "Department of Parks & Parkway",
    "final_address": "4636 Perrier St",
    "address_councildis": "B",
    "status": "Pending",
    "rowid": "836523",
    "final_x": "3669935.78855",
    "final_y": "519894.598392",
    "longitude": "-90.10497956338139",
    "latitude": "29.923875642119526",
    "geocoded_column": {
      "latitude": "29.923875642119526",
      "longitude": "-90.10497956338139"
    }
  },
  {
    "service_request": "2021-836521",
    "request_type": "Trash/Recycling",
    "request_reason": "Missed Trash Pick-Up",
    "date_created": "2021-10-24T17:58:41.000",
    "date_modified": "2021-10-24T17:58:41.000",
    "request_status": "Pending",
    "responsible_agency": "Department of Sanitation",
    "final_address": "472 Walnut St",
    "address_councildis": "A",
    "status": "Assigned to Contractor",
    "contractor": "Richards Disposal",
    "rowid": "836521",
    "final_x": "3662695.07488",
    "final_y": "523363.608187",
    "longitude": "-90.12772078290557",
    "latitude": "29.933625778170747",
    "geocoded_column": {
      "latitude": "29.933625778170747",
      "longitude": "-90.12772078290557"
    }
  },
  {
    "service_request": "2021-836520",
    "request_type": "Trash/Recycling",
    "request_reason": "Order Recycling Cart",
    "date_created": "2021-10-24T17:37:57.000",
    "date_modified": "2021-10-24T17:37:57.000",
    "request_status": "Pending",
    "responsible_agency": "Department of Sanitation",
    "final_address": "522 Madison St",
    "address_councildis": "C",
    "status": "Pending",
    "rowid": "836520",
    "final_x": "3683329.05775",
    "final_y": "532536.941444",
    "longitude": "-90.0622592021555",
    "latitude": "29.95823626354598",
    "geocoded_column": {
      "latitude": "29.95823626354598",
      "longitude": "-90.0622592021555"
    }
  },
  {
    "service_request": "2021-836519",
    "request_type": "Abandoned Vehicles",
    "request_reason": "Abandoned/Junk Vehicles",
    "date_created": "2021-10-24T17:27:01.000",
    "date_modified": "2021-10-24T17:27:01.000",
    "request_status": "Pending",
    "responsible_agency": "Department of Public Works",
    "final_address": "4132 St Charles Ave",
    "address_councildis": "B",
    "status": "Pending",
    "rowid": "836519",
    "final_x": "3671712.26548",
    "final_y": "520782.789241",
    "longitude": "-90.09934165922358",
    "latitude": "29.926265398527075",
    "geocoded_column": {
      "latitude": "29.926265398527075",
      "longitude": "-90.09934165922358"
    }
  },
  {
    "service_request": "2021-836518",
    "request_type": "Abandoned Vehicles",
    "request_reason": "Abandoned/Junk Vehicles",
    "date_created": "2021-10-24T17:22:55.000",
    "date_modified": "2021-10-24T17:22:55.000",
    "request_status": "Pending",
    "responsible_agency": "Department of Public Works",
    "final_address": "4132 St Charles Ave",
    "address_councildis": "B",
    "status": "Pending",
    "rowid": "836518",
    "final_x": "3671712.26548",
    "final_y": "520782.789241",
    "longitude": "-90.09934165922358",
    "latitude": "29.926265398527075",
    "geocoded_column": {
      "latitude": "29.926265398527075",
      "longitude": "-90.09934165922358"
    }
  },
  {
    "service_request": "2021-836517",
    "request_type": "Property Maintenance",
    "request_reason": "Property Maintenance",
    "date_created": "2021-10-24T17:22:15.000",
    "date_modified": "2021-10-24T17:22:15.000",
    "request_status": "Pending",
    "responsible_agency": "Department of Code Enforcement",
    "final_address": "1434 Burbank Dr",
    "address_councildis": "D",
    "status": "Pending",
    "rowid": "836517",
    "final_x": "3677764.31906",
    "final_y": "554191.188248",
    "longitude": "-90.07908265614057",
    "latitude": "30.01794644497867",
    "geocoded_column": {
      "latitude": "30.01794644497867",
      "longitude": "-90.07908265614057"
    }
  },
  {
    "service_request": "2021-836516",
    "request_type": "Parks & Parkways",
    "request_reason": "Request Tree Service (Right of Way/Public Property)",
    "date_created": "2021-10-24T17:21:27.000",
    "date_modified": "2021-10-24T17:21:27.000",
    "request_status": "Pending",
    "responsible_agency": "Department of Parks & Parkway",
    "final_address": "1434 Burbank Dr",
    "address_councildis": "D",
    "status": "Pending",
    "rowid": "836516",
    "final_x": "3677764.31906",
    "final_y": "554191.188248",
    "longitude": "-90.07908265614057",
    "latitude": "30.01794644497867",
    "geocoded_column": {
      "latitude": "30.01794644497867",
      "longitude": "-90.07908265614057"
    }
  },
  {
    "service_request": "2021-836515",
    "request_type": "Parks & Parkways",
    "request_reason": "Request Tree Service (Right of Way/Public Property)",
    "date_created": "2021-10-24T17:21:27.000",
    "date_modified": "2021-10-24T17:21:27.000",
    "request_status": "Pending",
    "responsible_agency": "Department of Parks & Parkway",
    "final_address": "1434 Burbank Dr",
    "address_councildis": "D",
    "status": "Pending",
    "rowid": "836515",
    "final_x": "3677764.31906",
    "final_y": "554191.188248",
    "longitude": "-90.07908265614057",
    "latitude": "30.01794644497867",
    "geocoded_column": {
      "latitude": "30.01794644497867",
      "longitude": "-90.07908265614057"
    }
  },
  {
    "service_request": "2021-836514",
    "request_type": "Safety & Permits",
    "request_reason": "Licenses & Permits",
    "date_created": "2021-10-24T17:19:19.000",
    "date_modified": "2021-10-24T17:19:19.000",
    "request_status": "Pending",
    "responsible_agency": "Safety and Permits",
    "final_address": "1434 Burbank Dr",
    "address_councildis": "D",
    "status": "Pending",
    "rowid": "836514",
    "final_x": "3677764.31906",
    "final_y": "554191.188248",
    "longitude": "-90.07908265614057",
    "latitude": "30.01794644497867",
    "geocoded_column": {
      "latitude": "30.01794644497867",
      "longitude": "-90.07908265614057"
    }
  },
  {
    "service_request": "2021-836513",
    "request_type": "Property Maintenance",
    "request_reason": "Property Maintenance",
    "date_created": "2021-10-24T17:04:07.000",
    "date_modified": "2021-10-24T17:04:07.000",
    "request_status": "Pending",
    "responsible_agency": "Department of Code Enforcement",
    "final_address": "5426 Vermillion Blvd",
    "address_councildis": "D",
    "status": "Pending",
    "rowid": "836513",
    "final_x": "3683156.56386",
    "final_y": "552800.229334",
    "longitude": "-90.0620940059551",
    "latitude": "30.01395841857109",
    "geocoded_column": {
      "latitude": "30.01395841857109",
      "longitude": "-90.0620940059551"
    }
  },
  {
    "service_request": "2021-836512",
    "request_type": "Roads/Drainage",
    "request_reason": "Pothole",
    "date_created": "2021-10-24T16:55:46.000",
    "date_modified": "2021-10-24T16:55:46.000",
    "request_status": "Pending",
    "responsible_agency": "Department of Public Works",
    "final_address": "4311 Baudin St",
    "address_councildis": "A",
    "status": "Pending",
    "rowid": "836512",
    "final_x": "3669251.08148",
    "final_y": "537773.075144",
    "longitude": "-90.10653671033768",
    "latitude": "29.9730557828114",
    "geocoded_column": {
      "latitude": "29.9730557828114",
      "longitude": "-90.10653671033768"
    }
  },
  {
    "service_request": "2021-836510",
    "request_type": "Health Related Questions",
    "request_reason": "Noise Ordinance Complaint",
    "date_created": "2021-10-24T16:47:43.000",
    "date_modified": "2021-10-24T16:47:43.000",
    "request_status": "Pending",
    "responsible_agency": "Health Department",
    "final_address": "550 Baronne St",
    "address_councildis": "B",
    "status": "Pending",
    "rowid": "836510",
    "final_x": "3679871.27515",
    "final_y": "529133.143296",
    "longitude": "-90.07329612681656",
    "latitude": "29.948981981496516",
    "geocoded_column": {
      "latitude": "29.948981981496516",
      "longitude": "-90.07329612681656"
    }
  },
  {
    "service_request": "2021-836509",
    "request_type": "Property Maintenance",
    "request_reason": "Property Maintenance",
    "date_created": "2021-10-24T16:44:52.000",
    "date_modified": "2021-10-24T16:44:52.000",
    "request_status": "Pending",
    "responsible_agency": "Department of Code Enforcement",
    "final_address": "5430 Vermillion Blvd",
    "address_councildis": "D",
    "status": "Pending",
    "rowid": "836509",
    "final_x": "3683152.63093",
    "final_y": "552849.825303",
    "longitude": "-90.06210469354386",
    "latitude": "30.014094909391517",
    "geocoded_column": {
      "latitude": "30.014094909391517",
      "longitude": "-90.06210469354386"
    }
  },
  {
    "service_request": "2021-836508",
    "request_type": "Roads/Drainage",
    "request_reason": "Catch Basin - Broken/Damage",
    "date_created": "2021-10-24T16:33:30.000",
    "date_modified": "2021-10-24T16:33:30.000",
    "request_status": "Pending",
    "responsible_agency": "Department of Public Works",
    "final_address": "926 Orleans Ave",
    "address_councildis": "C",
    "status": "Pending",
    "rowid": "836508",
    "final_x": "3681880.41384",
    "final_y": "533144.729348",
    "longitude": "-90.06681240625264",
    "latitude": "29.95995157992766",
    "geocoded_column": {
      "latitude": "29.95995157992766",
      "longitude": "-90.06681240625264"
    }
  },
  {
    "service_request": "2021-836507",
    "request_type": "Parks & Parkways",
    "request_reason": "Request Tree Service (Right of Way/Public Property)",
    "date_created": "2021-10-24T16:13:17.000",
    "date_modified": "2021-10-24T16:13:17.000",
    "request_status": "Pending",
    "responsible_agency": "Department of Parks & Parkway",
    "final_address": "831 Sixth St",
    "address_councildis": "B",
    "status": "Pending",
    "rowid": "836507",
    "final_x": "3677126.40123",
    "final_y": "519866.65388",
    "longitude": "-90.08228233845003",
    "latitude": "29.92358488893382",
    "geocoded_column": {
      "latitude": "29.92358488893382",
      "longitude": "-90.08228233845003"
    }
  },
  {
    "service_request": "2021-836506",
    "request_type": "Trash/Recycling",
    "request_reason": "Illegal Dumping",
    "date_created": "2021-10-24T16:12:21.000",
    "date_modified": "2021-10-24T16:12:21.000",
    "request_status": "Pending",
    "responsible_agency": "Department of Sanitation",
    "final_address": "831 Sixth St",
    "address_councildis": "B",
    "status": "Pending",
    "rowid": "836506",
    "final_x": "3677126.40123",
    "final_y": "519866.65388",
    "longitude": "-90.08228233845003",
    "latitude": "29.92358488893382",
    "geocoded_column": {
      "latitude": "29.92358488893382",
      "longitude": "-90.08228233845003"
    }
  },
  {
    "service_request": "2021-836503",
    "request_type": "Trash/Recycling",
    "request_reason": "Order Recycling Cart",
    "date_created": "2021-10-24T15:09:57.000",
    "date_modified": "2021-10-24T15:09:57.000",
    "request_status": "Pending",
    "responsible_agency": "Department of Sanitation",
    "final_address": "4835 Gallier Dr",
    "address_councildis": "D",
    "status": "Pending",
    "rowid": "836503",
    "final_x": "3692132.3448",
    "final_y": "551733.558229",
    "longitude": "-90.03377344343836",
    "latitude": "30.010748603986617",
    "geocoded_column": {
      "latitude": "30.010748603986617",
      "longitude": "-90.03377344343836"
    }
  },
  {
    "service_request": "2021-836502",
    "request_type": "Trash/Recycling",
    "request_reason": "Order Trash Cart",
    "date_created": "2021-10-24T15:09:34.000",
    "date_modified": "2021-10-24T15:09:35.000",
    "request_status": "Pending",
    "responsible_agency": "Department of Sanitation",
    "final_address": "4835 Gallier Dr",
    "address_councildis": "D",
    "status": "Assigned to Contractor",
    "contractor": "Metro Disposal",
    "rowid": "836502",
    "final_x": "3692132.3448",
    "final_y": "551733.558229",
    "longitude": "-90.03377344343836",
    "latitude": "30.010748603986617",
    "geocoded_column": {
      "latitude": "30.010748603986617",
      "longitude": "-90.03377344343836"
    }
  },
  {
    "service_request": "2021-836501",
    "request_type": "Trash/Recycling",
    "request_reason": "Replace Trash Cart",
    "date_created": "2021-10-24T15:00:31.000",
    "date_modified": "2021-10-24T15:00:31.000",
    "request_status": "Pending",
    "responsible_agency": "Department of Sanitation",
    "final_address": "4168 Iberville St",
    "address_councildis": "A",
    "status": "Assigned to Contractor",
    "contractor": "Richards Disposal",
    "rowid": "836501",
    "final_x": "3670908.365",
    "final_y": "538981.164298",
    "longitude": "-90.10126164664084",
    "latitude": "29.976328726539503",
    "geocoded_column": {
      "latitude": "29.976328726539503",
      "longitude": "-90.10126164664084"
    }
  },
  {
    "service_request": "2021-836500",
    "request_type": "Roads/Drainage",
    "request_reason": "Pothole",
    "date_created": "2021-10-24T14:58:01.000",
    "date_modified": "2021-10-24T14:58:01.000",
    "request_status": "Pending",
    "responsible_agency": "Department of Public Works",
    "final_address": "6343 Louisville St",
    "address_councildis": "A",
    "status": "Pending",
    "rowid": "836500",
    "final_x": "3668040.55898",
    "final_y": "549720.002964",
    "longitude": "-90.10995695062877",
    "latitude": "30.005941335069462",
    "geocoded_column": {
      "latitude": "30.005941335069462",
      "longitude": "-90.10995695062877"
    }
  },
  {
    "service_request": "2021-836499",
    "request_type": "Trash/Recycling",
    "request_reason": "Replace Trash Cart",
    "date_created": "2021-10-24T14:56:10.000",
    "date_modified": "2021-10-24T14:56:11.000",
    "request_status": "Pending",
    "responsible_agency": "Department of Sanitation",
    "final_address": "4168 Iberville St, New Orleans, Louisiana, 70119",
    "address_councildis": "A",
    "status": "Assigned to Contractor",
    "contractor": "Richards Disposal",
    "rowid": "836499",
    "final_x": "3670908.365",
    "final_y": "538981.164298",
    "longitude": "-90.10126164664084",
    "latitude": "29.976328726539503",
    "geocoded_column": {
      "latitude": "29.976328726539503",
      "longitude": "-90.10126164664084"
    }
  },
  {
    "service_request": "2021-836498",
    "request_type": "Traffic Signals/Signs/Striping/Streetlights",
    "request_reason": "Traffic Signal Malfunctioning/Damaged",
    "date_created": "2021-10-24T14:51:51.000",
    "date_modified": "2021-10-24T14:51:51.000",
    "request_status": "Pending",
    "responsible_agency": "Department of Public Works",
    "final_address": "GENERAL DE GAULLE DR & HOLIDAY DR",
    "address_councildis": "C",
    "status": "Pending",
    "rowid": "836498",
    "final_x": "3698595.0",
    "final_y": "519112.58",
    "longitude": "-90.01454170298932",
    "latitude": "29.920849468009546",
    "geocoded_column": {
      "latitude": "29.920849468009546",
      "longitude": "-90.01454170298932"
    }
  },
  {
    "service_request": "2021-836496",
    "request_type": "Trash/Recycling",
    "request_reason": "Replace Recycling Cart",
    "date_created": "2021-10-24T14:47:55.000",
    "date_modified": "2021-10-24T14:47:55.000",
    "request_status": "Pending",
    "responsible_agency": "Department of Sanitation",
    "final_address": "2814 St Claude Ave",
    "address_councildis": "C",
    "status": "Pending",
    "rowid": "836496",
    "final_x": "3687837.02902",
    "final_y": "536250.956423",
    "longitude": "-90.04789273240645",
    "latitude": "29.968310243188522",
    "geocoded_column": {
      "latitude": "29.968310243188522",
      "longitude": "-90.04789273240645"
    }
  },
  {
    "service_request": "2021-836495",
    "request_type": "Trash/Recycling",
    "request_reason": "Replace Trash Cart",
    "date_created": "2021-10-24T14:46:44.000",
    "date_modified": "2021-10-24T14:46:44.000",
    "request_status": "Pending",
    "responsible_agency": "Department of Sanitation",
    "final_address": "2814 St Claude Ave",
    "address_councildis": "C",
    "status": "Assigned to Contractor",
    "contractor": "Metro Disposal",
    "rowid": "836495",
    "final_x": "3687837.02902",
    "final_y": "536250.956423",
    "longitude": "-90.04789273240645",
    "latitude": "29.968310243188522",
    "geocoded_column": {
      "latitude": "29.968310243188522",
      "longitude": "-90.04789273240645"
    }
  },
  {
    "service_request": "2021-836493",
    "request_type": "Trash/Recycling",
    "request_reason": "Repair Trash Cart",
    "date_created": "2021-10-24T14:35:45.000",
    "date_modified": "2021-10-24T14:35:45.000",
    "request_status": "Pending",
    "responsible_agency": "Department of Sanitation",
    "final_address": "317 N Bernadotte St",
    "address_councildis": "A",
    "status": "Assigned to Contractor",
    "contractor": "Richards Disposal",
    "rowid": "836493",
    "final_x": "3669373.94497",
    "final_y": "540867.879819",
    "longitude": "-90.10604399460178",
    "latitude": "29.981561833136002",
    "geocoded_column": {
      "latitude": "29.981561833136002",
      "longitude": "-90.10604399460178"
    }
  },
  {
    "service_request": "2021-836492",
    "request_type": "Trash/Recycling",
    "request_reason": "Request a Large Item Pick Up",
    "date_created": "2021-10-24T14:35:02.000",
    "date_modified": "2021-10-24T14:35:03.000",
    "request_status": "Pending",
    "responsible_agency": "Department of Sanitation",
    "final_address": "6116 Baccich St",
    "address_councildis": "D",
    "status": "Assigned to Contractor",
    "contractor": "Metro Disposal",
    "rowid": "836492",
    "final_x": "3687399.29468",
    "final_y": "555788.456601",
    "longitude": "-90.048583312316",
    "latitude": "30.022044829864736",
    "geocoded_column": {
      "latitude": "30.022044829864736",
      "longitude": "-90.048583312316"
    }
  },
  {
    "service_request": "2021-836491",
    "request_type": "Property Maintenance",
    "request_reason": "Property Maintenance",
    "date_created": "2021-10-24T14:11:01.000",
    "date_modified": "2021-10-24T14:11:30.000",
    "request_status": "Pending",
    "responsible_agency": "Department of Code Enforcement",
    "final_address": "3232 Conti St",
    "address_councildis": "B",
    "status": "Pending",
    "rowid": "836491",
    "final_x": "3674321.36545",
    "final_y": "537303.088904",
    "longitude": "-90.0905398371126",
    "latitude": "29.971613240651145",
    "geocoded_column": {
      "latitude": "29.971613240651145",
      "longitude": "-90.0905398371126"
    }
  },
  {
    "service_request": "2021-836490",
    "request_type": "Trash/Recycling",
    "request_reason": "Replace Trash Cart",
    "date_created": "2021-10-24T14:10:25.000",
    "date_modified": "2021-10-24T14:10:26.000",
    "request_status": "Pending",
    "responsible_agency": "Department of Sanitation",
    "final_address": "4170 Iberville St, New Orleans, Louisiana, 70119",
    "address_councildis": "A",
    "status": "Assigned to Contractor",
    "contractor": "Richards Disposal",
    "rowid": "836490",
    "final_x": "3670873.71092",
    "final_y": "538933.607498",
    "longitude": "-90.10137270974295",
    "latitude": "29.97619898596662",
    "geocoded_column": {
      "latitude": "29.97619898596662",
      "longitude": "-90.10137270974295"
    }
  },
  {
    "service_request": "2021-836489",
    "request_type": "Trash/Recycling",
    "request_reason": "Illegal Dumping",
    "date_created": "2021-10-24T14:08:12.000",
    "date_modified": "2021-10-24T14:08:12.000",
    "request_status": "Pending",
    "responsible_agency": "Department of Sanitation",
    "final_address": "ANNETTE ST & BENEFIT ST",
    "address_councildis": "D",
    "status": "Pending",
    "rowid": "836489",
    "final_x": "3682497.7",
    "final_y": "544255.58",
    "longitude": "-90.06447462946576",
    "latitude": "29.990483780985667",
    "geocoded_column": {
      "latitude": "29.990483780985667",
      "longitude": "-90.06447462946576"
    }
  },
  {
    "service_request": "2021-836488",
    "request_type": "Trash/Recycling",
    "request_reason": "Replace Trash Cart",
    "date_created": "2021-10-24T13:58:40.000",
    "date_modified": "2021-10-24T13:58:41.000",
    "request_status": "Pending",
    "responsible_agency": "Department of Sanitation",
    "final_address": "3600 St Claude Ave",
    "address_councildis": "C",
    "status": "Assigned to Contractor",
    "contractor": "Metro Disposal",
    "rowid": "836488",
    "final_x": "3690742.54441",
    "final_y": "535528.452102",
    "longitude": "-90.03874279433494",
    "latitude": "29.96623366533982",
    "geocoded_column": {
      "latitude": "29.96623366533982",
      "longitude": "-90.03874279433494"
    }
  },
  {
    "service_request": "2021-836485",
    "request_type": "Trash/Recycling",
    "request_reason": "Request a Large Item Pick Up",
    "date_created": "2021-10-24T13:44:49.000",
    "date_modified": "2021-10-24T13:44:50.000",
    "request_status": "Pending",
    "responsible_agency": "Department of Sanitation",
    "final_address": "9000 Green St",
    "address_councildis": "A",
    "status": "Assigned to Contractor",
    "contractor": "Richards Disposal",
    "rowid": "836485",
    "final_x": "3660721.7527",
    "final_y": "531817.047875",
    "longitude": "-90.13367108590228",
    "latitude": "29.956926989430666",
    "geocoded_column": {
      "latitude": "29.956926989430666",
      "longitude": "-90.13367108590228"
    }
  },
  {
    "service_request": "2021-836484",
    "request_type": "Abandoned Vehicles",
    "request_reason": "Abandoned/Junk Vehicles",
    "date_created": "2021-10-24T13:40:55.000",
    "date_modified": "2021-10-24T13:40:55.000",
    "request_status": "Pending",
    "responsible_agency": "Department of Public Works",
    "final_address": "2419 Short St",
    "address_councildis": "A",
    "status": "Pending",
    "rowid": "836484",
    "final_x": "3665356.35994",
    "final_y": "531369.681218",
    "longitude": "-90.11905136516519",
    "latitude": "29.955562641087504",
    "geocoded_column": {
      "latitude": "29.955562641087504",
      "longitude": "-90.11905136516519"
    }
  },
  {
    "service_request": "2021-836481",
    "request_type": "Trash/Recycling",
    "request_reason": "Request a Large Item Pick Up",
    "date_created": "2021-10-24T13:25:40.000",
    "date_modified": "2021-10-24T13:25:41.000",
    "request_status": "Pending",
    "responsible_agency": "Department of Sanitation",
    "final_address": "3504 Cleveland Ave",
    "address_councildis": "B",
    "status": "Assigned to Contractor",
    "contractor": "Richards Disposal",
    "rowid": "836481",
    "final_x": "3672541.11124",
    "final_y": "536654.345351",
    "longitude": "-90.09618427909707",
    "latitude": "29.96988238760421",
    "geocoded_column": {
      "latitude": "29.96988238760421",
      "longitude": "-90.09618427909707"
    }
  },
  {
    "service_request": "2021-836479",
    "request_type": "Trash/Recycling",
    "request_reason": "Replace Trash Cart",
    "date_created": "2021-10-24T13:07:42.000",
    "date_modified": "2021-10-24T13:07:43.000",
    "request_status": "Pending",
    "responsible_agency": "Department of Sanitation",
    "final_address": "1703 Murl St",
    "address_councildis": "C",
    "status": "Assigned to Contractor",
    "contractor": "Richards Disposal",
    "rowid": "836479",
    "final_x": "3695306.6753",
    "final_y": "525109.750333",
    "longitude": "-90.02470519598518",
    "latitude": "29.937443297205952",
    "geocoded_column": {
      "latitude": "29.937443297205952",
      "longitude": "-90.02470519598518"
    }
  },
  {
    "service_request": "2021-836478",
    "request_type": "Traffic Signals/Signs/Striping/Streetlights",
    "request_reason": "Street Name Sign Damaged or Missing",
    "date_created": "2021-10-24T13:05:50.000",
    "date_modified": "2021-10-24T13:05:50.000",
    "request_status": "Pending",
    "responsible_agency": "Department of Public Works",
    "final_address": "2436 N Rampart St",
    "address_councildis": "C",
    "status": "Pending",
    "rowid": "836478",
    "final_x": "3686102.20169",
    "final_y": "535996.121031",
    "longitude": "-90.05338037413415",
    "latitude": "29.967662933843332",
    "geocoded_column": {
      "latitude": "29.967662933843332",
      "longitude": "-90.05338037413415"
    }
  },
  {
    "service_request": "2021-836477",
    "request_type": "Abandoned Vehicles",
    "request_reason": "Abandoned/Junk Vehicles",
    "date_created": "2021-10-24T13:00:42.000",
    "date_modified": "2021-10-24T13:01:19.000",
    "request_status": "Pending",
    "responsible_agency": "Department of Public Works",
    "final_address": "4900 Constance St",
    "address_councildis": "B",
    "status": "Pending",
    "rowid": "836477",
    "final_x": "3668938.35873",
    "final_y": "518167.990646",
    "longitude": "-90.10818637476068",
    "latitude": "29.91915738019517",
    "geocoded_column": {
      "latitude": "29.91915738019517",
      "longitude": "-90.10818637476068"
    }
  },
  {
    "service_request": "2021-836476",
    "request_type": "Property Maintenance",
    "request_reason": "Property Maintenance",
    "date_created": "2021-10-24T12:56:09.000",
    "date_modified": "2021-10-24T12:56:09.000",
    "request_status": "Pending",
    "responsible_agency": "Department of Code Enforcement",
    "final_address": "2113 Leonidas St",
    "address_councildis": "A",
    "status": "Pending",
    "rowid": "836476",
    "final_x": "3662890.86579",
    "final_y": "531974.689475",
    "longitude": "-90.12681643507378",
    "latitude": "29.957297829493157",
    "geocoded_column": {
      "latitude": "29.957297829493157",
      "longitude": "-90.12681643507378"
    }
  },
  {
    "service_request": "2021-836475",
    "request_type": "Traffic Signals/Signs/Striping/Streetlights",
    "request_reason": "Traffic Sign Missing/Damaged",
    "date_created": "2021-10-24T12:49:26.000",
    "date_modified": "2021-10-24T12:49:26.000",
    "request_status": "Pending",
    "responsible_agency": "Department of Public Works",
    "final_address": "5353 Berkley Dr",
    "address_councildis": "C",
    "status": "Pending",
    "rowid": "836475",
    "final_x": "3703732.32567",
    "final_y": "518105.796598",
    "longitude": "-89.99836265705274",
    "latitude": "29.91791758037602",
    "geocoded_column": {
      "latitude": "29.91791758037602",
      "longitude": "-89.99836265705274"
    }
  },
  {
    "service_request": "2021-836474",
    "request_type": "Roads/Drainage",
    "request_reason": "Pothole",
    "date_created": "2021-10-24T12:48:23.000",
    "date_modified": "2021-10-24T12:48:23.000",
    "request_status": "Pending",
    "responsible_agency": "Department of Public Works",
    "final_address": "1901 Monroe St",
    "address_councildis": "A",
    "status": "Pending",
    "rowid": "836474",
    "final_x": "3662098.5753",
    "final_y": "531624.230403",
    "longitude": "-90.12932988918026",
    "latitude": "29.956357095686077",
    "geocoded_column": {
      "latitude": "29.956357095686077",
      "longitude": "-90.12932988918026"
    }
  },
  {
    "service_request": "2021-836472",
    "request_type": "Trash/Recycling",
    "request_reason": "Missed Trash Pick-Up",
    "date_created": "2021-10-24T12:43:16.000",
    "date_modified": "2021-10-24T12:43:16.000",
    "request_status": "Pending",
    "responsible_agency": "Department of Sanitation",
    "final_address": "1558 N Rocheblave St",
    "address_councildis": "D",
    "status": "Assigned to Contractor",
    "contractor": "Metro Disposal",
    "rowid": "836472",
    "final_x": "3679836.15343",
    "final_y": "539327.647178",
    "longitude": "-90.0730529886429",
    "latitude": "29.97701445666532",
    "geocoded_column": {
      "latitude": "29.97701445666532",
      "longitude": "-90.0730529886429"
    }
  },
  {
    "service_request": "2021-836470",
    "request_type": "Trash/Recycling",
    "request_reason": "Request a Large Item Pick Up",
    "date_created": "2021-10-24T12:40:22.000",
    "date_modified": "2021-10-24T12:40:23.000",
    "request_status": "Pending",
    "responsible_agency": "Department of Sanitation",
    "final_address": "610 Valence St",
    "address_councildis": "B",
    "status": "Assigned to Contractor",
    "contractor": "Richards Disposal",
    "rowid": "836470",
    "final_x": "3669991.63706",
    "final_y": "517744.926646",
    "longitude": "-90.10487601934811",
    "latitude": "29.91796307958357",
    "geocoded_column": {
      "latitude": "29.91796307958357",
      "longitude": "-90.10487601934811"
    }
  },
  {
    "service_request": "2021-836468",
    "request_type": "Trash/Recycling",
    "request_reason": "Missed Trash Pick-Up",
    "date_created": "2021-10-24T12:17:40.000",
    "date_modified": "2021-10-24T12:17:40.000",
    "request_status": "Pending",
    "responsible_agency": "Department of Sanitation",
    "final_address": "1558 N Dorgenois St",
    "address_councildis": "D",
    "status": "Assigned to Contractor",
    "contractor": "Metro Disposal",
    "rowid": "836468",
    "final_x": "3679452.12783",
    "final_y": "539600.155466",
    "longitude": "-90.07425640740742",
    "latitude": "29.977775368575053",
    "geocoded_column": {
      "latitude": "29.977775368575053",
      "longitude": "-90.07425640740742"
    }
  },
  {
    "service_request": "2021-836466",
    "request_type": "Trash/Recycling",
    "request_reason": "Illegal Dumping",
    "date_created": "2021-10-24T11:41:25.000",
    "date_modified": "2021-10-24T11:41:25.000",
    "request_status": "Pending",
    "responsible_agency": "Department of Sanitation",
    "final_address": "930 Seventh St",
    "address_councildis": "B",
    "status": "Pending",
    "rowid": "836466",
    "final_x": "3676590.08955",
    "final_y": "519955.903224",
    "longitude": "-90.08397220580974",
    "latitude": "29.923846385762214",
    "geocoded_column": {
      "latitude": "29.923846385762214",
      "longitude": "-90.08397220580974"
    }
  },
  {
    "service_request": "2021-836464",
    "request_type": "Trash/Recycling",
    "request_reason": "Missed Trash Pick-Up",
    "date_created": "2021-10-24T11:27:18.000",
    "date_modified": "2021-10-24T11:27:18.000",
    "request_status": "Pending",
    "responsible_agency": "Department of Sanitation",
    "final_address": "4918 Marque Dr",
    "address_councildis": "E",
    "status": "Assigned to Contractor",
    "contractor": "Metro Disposal",
    "rowid": "836464",
    "final_x": "3709882.49873",
    "final_y": "556811.034138",
    "longitude": "-89.97750452494108",
    "latitude": "30.024144204311888",
    "geocoded_column": {
      "latitude": "30.024144204311888",
      "longitude": "-89.97750452494108"
    }
  },
  {
    "service_request": "2021-836463",
    "request_type": "Safety & Permits",
    "request_reason": "Licenses & Permits",
    "date_created": "2021-10-24T11:26:27.000",
    "date_modified": "2021-10-24T11:26:27.000",
    "request_status": "Pending",
    "responsible_agency": "Safety and Permits",
    "final_address": "718 N Rampart St",
    "address_councildis": "C",
    "status": "Pending",
    "rowid": "836463",
    "final_x": "3681507.34716",
    "final_y": "533426.65466",
    "longitude": "-90.06798063713484",
    "latitude": "29.96073811158902",
    "geocoded_column": {
      "latitude": "29.96073811158902",
      "longitude": "-90.06798063713484"
    }
  },
  {
    "service_request": "2021-836462",
    "request_type": "Property Maintenance",
    "request_reason": "Property Maintenance",
    "date_created": "2021-10-24T11:22:48.000",
    "date_modified": "2021-10-24T11:22:48.000",
    "request_status": "Pending",
    "responsible_agency": "Department of Code Enforcement",
    "final_address": "3222 Prytania St",
    "address_councildis": "B",
    "status": "Pending",
    "rowid": "836462",
    "final_x": "3674947.82657",
    "final_y": "521215.947833",
    "longitude": "-90.08911305338407",
    "latitude": "29.92736023641679",
    "geocoded_column": {
      "latitude": "29.92736023641679",
      "longitude": "-90.08911305338407"
    }
  },
  {
    "service_request": "2021-836461",
    "request_type": "COVID-19",
    "request_reason": "COVID-19 Business Non-Compliance",
    "date_created": "2021-10-24T11:21:05.000",
    "date_modified": "2021-10-24T11:21:06.000",
    "request_status": "Pending",
    "responsible_agency": "Safety and Permits",
    "final_address": "1931 St Claude Ave",
    "address_councildis": "C",
    "status": "Pending",
    "rowid": "836461",
    "final_x": "3684129.64098",
    "final_y": "536257.877191",
    "longitude": "-90.05960057173445",
    "latitude": "29.96844311212494",
    "geocoded_column": {
      "latitude": "29.96844311212494",
      "longitude": "-90.05960057173445"
    }
  },
  {
    "service_request": "2021-836460",
    "request_type": "Trash/Recycling",
    "request_reason": "Request a Large Item Pick Up",
    "date_created": "2021-10-24T11:14:40.000",
    "date_modified": "2021-10-24T11:14:41.000",
    "request_status": "Pending",
    "responsible_agency": "Department of Sanitation",
    "final_address": "1952 Treasure St",
    "address_councildis": "D",
    "status": "Assigned to Contractor",
    "contractor": "Metro Disposal",
    "rowid": "836460",
    "final_x": "3682608.03791",
    "final_y": "543850.790926",
    "longitude": "-90.06414026297766",
    "latitude": "29.989367394119828",
    "geocoded_column": {
      "latitude": "29.989367394119828",
      "longitude": "-90.06414026297766"
    }
  },
  {
    "service_request": "2021-836459",
    "request_type": "Trash/Recycling",
    "request_reason": "Request a Large Item Pick Up",
    "date_created": "2021-10-24T11:13:05.000",
    "date_modified": "2021-10-24T11:13:05.000",
    "request_status": "Pending",
    "responsible_agency": "Department of Sanitation",
    "final_address": "4914 Baccich St",
    "address_councildis": "D",
    "status": "Assigned to Contractor",
    "contractor": "Metro Disposal",
    "rowid": "836459",
    "final_x": "3687645.87254",
    "final_y": "551166.735125",
    "longitude": "-90.0479680073554",
    "latitude": "30.009329196376985",
    "geocoded_column": {
      "latitude": "30.009329196376985",
      "longitude": "-90.0479680073554"
    }
  },
  {
    "service_request": "2021-836458",
    "request_type": "Trash/Recycling",
    "request_reason": "Request a Large Item Pick Up",
    "date_created": "2021-10-24T11:09:46.000",
    "date_modified": "2021-10-24T11:09:47.000",
    "request_status": "Pending",
    "responsible_agency": "Department of Sanitation",
    "final_address": "1602 Ursulines Ave",
    "address_councildis": "D",
    "status": "Assigned to Contractor",
    "contractor": "Richards Disposal",
    "rowid": "836458",
    "final_x": "3680913.62543",
    "final_y": "535548.700998",
    "longitude": "-90.06978160008182",
    "latitude": "29.96659102852155",
    "geocoded_column": {
      "latitude": "29.96659102852155",
      "longitude": "-90.06978160008182"
    }
  },
  {
    "service_request": "2021-836457",
    "request_type": "Trash/Recycling",
    "request_reason": "Missed Trash Pick-Up",
    "date_created": "2021-10-24T11:07:53.000",
    "date_modified": "2021-10-24T11:07:53.000",
    "request_status": "Pending",
    "responsible_agency": "Department of Sanitation",
    "final_address": "1515 Pauger St, New Orleans, Louisiana, 70116",
    "address_councildis": "C",
    "status": "Assigned to Contractor",
    "contractor": "Metro Disposal",
    "rowid": "836457",
    "final_x": "3684006.7069",
    "final_y": "535267.566726",
    "longitude": "-90.06002355671197",
    "latitude": "29.965723857659448",
    "geocoded_column": {
      "latitude": "29.965723857659448",
      "longitude": "-90.06002355671197"
    }
  },
  {
    "service_request": "2021-836456",
    "request_type": "Trash/Recycling",
    "request_reason": "Missed Trash Pick-Up",
    "date_created": "2021-10-24T11:02:21.000",
    "date_modified": "2021-10-24T11:02:22.000",
    "request_status": "Pending",
    "responsible_agency": "Department of Sanitation",
    "final_address": "5419 Press Dr",
    "address_councildis": "D",
    "status": "Assigned to Contractor",
    "contractor": "Metro Disposal",
    "rowid": "836456",
    "final_x": "3689407.23171",
    "final_y": "553273.450967",
    "longitude": "-90.04232829446875",
    "latitude": "30.015067442012434",
    "geocoded_column": {
      "latitude": "30.015067442012434",
      "longitude": "-90.04232829446875"
    }
  },
  {
    "service_request": "2021-836455",
    "request_type": "Trash/Recycling",
    "request_reason": "Missed Trash Pick-Up",
    "date_created": "2021-10-24T10:35:01.000",
    "date_modified": "2021-10-24T10:35:02.000",
    "request_status": "Pending",
    "responsible_agency": "Department of Sanitation",
    "final_address": "5208 Hawthorne Pl A",
    "address_councildis": "A",
    "status": "Assigned to Contractor",
    "contractor": "Metro Disposal",
    "rowid": "836455",
    "final_x": "3667933.72314",
    "final_y": "543062.548493",
    "longitude": "-90.11051892546708",
    "latitude": "29.987638764509104",
    "geocoded_column": {
      "latitude": "29.987638764509104",
      "longitude": "-90.11051892546708"
    }
  },
  {
    "service_request": "2021-836454",
    "request_type": "Roads/Drainage",
    "request_reason": "Pothole",
    "date_created": "2021-10-24T10:29:25.000",
    "date_modified": "2021-10-24T10:29:25.000",
    "request_status": "Pending",
    "responsible_agency": "Department of Public Works",
    "final_address": "2830 Burgundy St, New Orleans, Louisiana, 70117",
    "address_councildis": "C",
    "status": "Pending",
    "rowid": "836454",
    "final_x": "3687768.35676",
    "final_y": "535443.856966",
    "longitude": "-90.04813819036315",
    "latitude": "29.96609311941086",
    "geocoded_column": {
      "latitude": "29.96609311941086",
      "longitude": "-90.04813819036315"
    }
  },
  {
    "service_request": "2021-836453",
    "request_type": "Roads/Drainage",
    "request_reason": "Pothole",
    "date_created": "2021-10-24T10:17:36.000",
    "date_modified": "2021-10-24T10:17:36.000",
    "request_status": "Pending",
    "responsible_agency": "Department of Public Works",
    "final_address": "4619 Pitt St",
    "address_councildis": "B",
    "status": "Pending",
    "rowid": "836453",
    "final_x": "3669963.39182",
    "final_y": "520543.62636",
    "longitude": "-90.10487046479045",
    "latitude": "29.925659448828902",
    "geocoded_column": {
      "latitude": "29.925659448828902",
      "longitude": "-90.10487046479045"
    }
  },
  {
    "service_request": "2021-836451",
    "request_type": "Traffic Signals/Signs/Striping/Streetlights",
    "request_reason": "Street Light Knocked Down/Leaning",
    "date_created": "2021-10-24T10:03:40.000",
    "date_modified": "2021-10-24T10:03:41.000",
    "request_status": "Pending",
    "responsible_agency": "Department of Public Works",
    "final_address": "833 S Carrollton Ave",
    "address_councildis": "A",
    "status": "Pending",
    "contractor": "Royal Engineering",
    "rowid": "836451",
    "final_x": "3661329.84531",
    "final_y": "527440.014719",
    "longitude": "-90.13189583007318",
    "latitude": "29.944874032831155",
    "geocoded_column": {
      "latitude": "29.944874032831155",
      "longitude": "-90.13189583007318"
    }
  },
  {
    "service_request": "2021-836450",
    "request_type": "Roads/Drainage",
    "request_reason": "Damaged Sidewalk",
    "date_created": "2021-10-24T09:59:16.000",
    "date_modified": "2021-10-24T09:59:16.000",
    "request_status": "Pending",
    "responsible_agency": "Department of Public Works",
    "final_address": "HURST ST & BROADWAY ST",
    "address_councildis": "A",
    "status": "Pending",
    "rowid": "836450",
    "final_x": "3662239.63",
    "final_y": "523598.16",
    "longitude": "-90.12915082424685",
    "latitude": "29.934283890369247",
    "geocoded_column": {
      "latitude": "29.934283890369247",
      "longitude": "-90.12915082424685"
    }
  },
  {
    "service_request": "2021-836449",
    "request_type": "Roads/Drainage",
    "request_reason": "Street Subsidence (Sinking)",
    "date_created": "2021-10-24T09:59:02.000",
    "date_modified": "2021-10-24T09:59:02.000",
    "request_status": "Pending",
    "responsible_agency": "Department of Public Works",
    "final_address": "HURST ST & BROADWAY ST",
    "address_councildis": "A",
    "status": "Pending",
    "rowid": "836449",
    "final_x": "3662239.63",
    "final_y": "523598.16",
    "longitude": "-90.12915082424685",
    "latitude": "29.934283890369247",
    "geocoded_column": {
      "latitude": "29.934283890369247",
      "longitude": "-90.12915082424685"
    }
  },
  {
    "service_request": "2021-836448",
    "request_type": "Roads/Drainage",
    "request_reason": "Damaged Property",
    "date_created": "2021-10-24T09:59:00.000",
    "date_modified": "2021-10-24T09:59:00.000",
    "request_status": "Pending",
    "responsible_agency": "Department of Public Works",
    "final_address": "HURST ST & BROADWAY ST",
    "address_councildis": "A",
    "status": "Pending",
    "rowid": "836448",
    "final_x": "3662239.63",
    "final_y": "523598.16",
    "longitude": "-90.12915082424685",
    "latitude": "29.934283890369247",
    "geocoded_column": {
      "latitude": "29.934283890369247",
      "longitude": "-90.12915082424685"
    }
  },
  {
    "service_request": "2021-836447",
    "request_type": "Trash/Recycling",
    "request_reason": "Damaged Property",
    "date_created": "2021-10-24T09:58:42.000",
    "date_modified": "2021-10-24T09:58:42.000",
    "request_status": "Pending",
    "responsible_agency": "Department of Public Works",
    "final_address": "HURST ST & BROADWAY ST",
    "address_councildis": "A",
    "status": "Pending",
    "rowid": "836447",
    "final_x": "3662239.63",
    "final_y": "523598.16",
    "longitude": "-90.12915082424685",
    "latitude": "29.934283890369247",
    "geocoded_column": {
      "latitude": "29.934283890369247",
      "longitude": "-90.12915082424685"
    }
  },
  {
    "service_request": "2021-836446",
    "request_type": "Roads/Drainage",
    "request_reason": "Street Subsidence (Sinking)",
    "date_created": "2021-10-24T09:57:36.000",
    "date_modified": "2021-10-24T09:57:36.000",
    "request_status": "Pending",
    "responsible_agency": "Department of Public Works",
    "final_address": "HURST ST & BROADWAY ST",
    "address_councildis": "A",
    "status": "Pending",
    "rowid": "836446",
    "final_x": "3662239.63",
    "final_y": "523598.16",
    "longitude": "-90.12915082424685",
    "latitude": "29.934283890369247",
    "geocoded_column": {
      "latitude": "29.934283890369247",
      "longitude": "-90.12915082424685"
    }
  },
  {
    "service_request": "2021-836445",
    "request_type": "Trash/Recycling",
    "request_reason": "Request a Large Item Pick Up",
    "date_created": "2021-10-24T09:55:40.000",
    "date_modified": "2021-10-24T09:55:40.000",
    "request_status": "Pending",
    "responsible_agency": "Department of Sanitation",
    "final_address": "7030 Vicksburg St",
    "address_councildis": "A",
    "status": "Assigned to Contractor",
    "contractor": "Metro Disposal",
    "rowid": "836445",
    "final_x": "3669427.67642",
    "final_y": "554212.899992",
    "longitude": "-90.10542259742357",
    "latitude": "30.018254425057947",
    "geocoded_column": {
      "latitude": "30.018254425057947",
      "longitude": "-90.10542259742357"
    }
  },
  {
    "service_request": "2021-836443",
    "request_type": "Trash/Recycling",
    "request_reason": "Missed Trash Pick-Up",
    "date_created": "2021-10-24T09:46:18.000",
    "date_modified": "2021-10-24T09:46:18.000",
    "request_status": "Pending",
    "responsible_agency": "Department of Sanitation",
    "final_address": "4823 Montegut Dr",
    "address_councildis": "D",
    "status": "Assigned to Contractor",
    "contractor": "Metro Disposal",
    "rowid": "836443",
    "final_x": "3689977.9704",
    "final_y": "550818.418965",
    "longitude": "-90.04061254702067",
    "latitude": "30.008299316472044",
    "geocoded_column": {
      "latitude": "30.008299316472044",
      "longitude": "-90.04061254702067"
    }
  },
  {
    "service_request": "2021-836441",
    "request_type": "Property Maintenance",
    "request_reason": "Property Maintenance",
    "date_created": "2021-10-24T08:59:04.000",
    "date_modified": "2021-10-24T08:59:04.000",
    "request_status": "Pending",
    "responsible_agency": "Department of Code Enforcement",
    "final_address": "8705 Apricot St",
    "address_councildis": "A",
    "status": "Pending",
    "rowid": "836441",
    "final_x": "3664241.11124",
    "final_y": "534121.595013",
    "longitude": "-90.12248111100676",
    "latitude": "29.963161955841667",
    "geocoded_column": {
      "latitude": "29.963161955841667",
      "longitude": "-90.12248111100676"
    }
  },
  {
    "service_request": "2021-836440",
    "request_type": "Property Maintenance",
    "request_reason": "Property Maintenance",
    "date_created": "2021-10-24T08:55:14.000",
    "date_modified": "2021-10-24T08:55:14.000",
    "request_status": "Pending",
    "responsible_agency": "Department of Code Enforcement",
    "final_address": "8711 Apricot St",
    "address_councildis": "A",
    "status": "Pending",
    "rowid": "836440",
    "final_x": "3664204.35098",
    "final_y": "534156.473285",
    "longitude": "-90.12259603230788",
    "latitude": "29.96325892773447",
    "geocoded_column": {
      "latitude": "29.96325892773447",
      "longitude": "-90.12259603230788"
    }
  },
  {
    "service_request": "2021-836436",
    "request_type": "Trash/Recycling",
    "request_reason": "Replace Trash Cart",
    "date_created": "2021-10-24T08:00:44.000",
    "date_modified": "2021-10-24T08:00:45.000",
    "request_status": "Pending",
    "responsible_agency": "Department of Sanitation",
    "final_address": "2610 Bienville Ave",
    "address_councildis": "B",
    "status": "Assigned to Contractor",
    "contractor": "Richards Disposal",
    "rowid": "836436",
    "final_x": "3676135.85077",
    "final_y": "535405.781638",
    "longitude": "-90.08487470110194",
    "latitude": "29.966342052062863",
    "geocoded_column": {
      "latitude": "29.966342052062863",
      "longitude": "-90.08487470110194"
    }
  },
  {
    "service_request": "2021-836435",
    "request_type": "Trash/Recycling",
    "request_reason": "Illegal Dumping",
    "date_created": "2021-10-24T07:14:16.000",
    "date_modified": "2021-10-24T07:14:16.000",
    "request_status": "Pending",
    "responsible_agency": "Department of Sanitation",
    "final_address": "2918 Constance St",
    "address_councildis": "B",
    "status": "Pending",
    "rowid": "836435",
    "final_x": "3676712.37275",
    "final_y": "520110.25164",
    "longitude": "-90.08358088755922",
    "latitude": "29.924267127247962",
    "geocoded_column": {
      "latitude": "29.924267127247962",
      "longitude": "-90.08358088755922"
    }
  },
  {
    "service_request": "2021-836434",
    "request_type": "Trash/Recycling",
    "request_reason": "Illegal Dumping",
    "date_created": "2021-10-24T06:37:44.000",
    "date_modified": "2021-10-24T06:37:44.000",
    "request_status": "Pending",
    "responsible_agency": "Department of Sanitation",
    "final_address": "1118 Calliope St",
    "address_councildis": "B",
    "status": "Pending",
    "rowid": "836434",
    "final_x": "3681228.79208",
    "final_y": "526025.408638",
    "longitude": "-90.06911812127078",
    "latitude": "29.94039563444078",
    "geocoded_column": {
      "latitude": "29.94039563444078",
      "longitude": "-90.06911812127078"
    }
  },
  {
    "service_request": "2021-836432",
    "request_type": "Traffic Signals/Signs/Striping/Streetlights",
    "request_reason": "Street Light Outage/Malfunction",
    "date_created": "2021-10-24T05:40:48.000",
    "date_modified": "2021-10-24T05:40:49.000",
    "request_status": "Pending",
    "responsible_agency": "Department of Public Works",
    "final_address": "11424 Campbell Ln",
    "address_councildis": "E",
    "status": "Pending",
    "contractor": "Royal Engineering",
    "rowid": "836432",
    "final_x": "3718171.64108",
    "final_y": "561449.274911",
    "longitude": "-89.95113591497139",
    "latitude": "30.03662520659886",
    "geocoded_column": {
      "latitude": "30.03662520659886",
      "longitude": "-89.95113591497139"
    }
  },
  {
    "service_request": "2021-836431",
    "request_type": "Traffic Signals/Signs/Striping/Streetlights",
    "request_reason": "Street Light Outage/Malfunction",
    "date_created": "2021-10-24T01:23:15.000",
    "date_modified": "2021-10-24T01:23:15.000",
    "request_status": "Pending",
    "responsible_agency": "Department of Public Works",
    "final_address": "6508 Orleans Ave",
    "address_councildis": "A",
    "status": "Pending",
    "contractor": "Royal Engineering",
    "rowid": "836431",
    "final_x": "3671160.26356",
    "final_y": "550597.502996",
    "longitude": "-90.10007120373695",
    "latitude": "30.008262197512423",
    "geocoded_column": {
      "latitude": "30.008262197512423",
      "longitude": "-90.10007120373695"
    }
  },
  {
    "service_request": "2021-836430",
    "request_type": "Safety & Permits",
    "request_reason": "Licenses & Permits",
    "date_created": "2021-10-23T23:56:28.000",
    "date_modified": "2021-10-23T23:56:28.000",
    "request_status": "Pending",
    "responsible_agency": "Safety and Permits",
    "final_address": "638 Bartholomew St",
    "address_councildis": "C",
    "status": "Pending",
    "rowid": "836430",
    "final_x": "3691352.53091",
    "final_y": "533787.437189",
    "longitude": "-90.03687868427389",
    "latitude": "29.96142752082298",
    "geocoded_column": {
      "latitude": "29.96142752082298",
      "longitude": "-90.03687868427389"
    }
  },
  {
    "service_request": "2021-836428",
    "request_type": "Trash/Recycling",
    "request_reason": "Missed Trash Pick-Up",
    "date_created": "2021-10-23T22:21:30.000",
    "date_modified": "2021-10-23T22:21:31.000",
    "request_status": "Pending",
    "responsible_agency": "Department of Sanitation",
    "final_address": "816 Solomon Pl",
    "address_councildis": "A",
    "status": "Assigned to Contractor",
    "contractor": "Richards Disposal",
    "rowid": "836428",
    "final_x": "3672541.61339",
    "final_y": "540715.572171",
    "longitude": "-90.09604419962777",
    "latitude": "29.98104936769916",
    "geocoded_column": {
      "latitude": "29.98104936769916",
      "longitude": "-90.09604419962777"
    }
  },
  {
    "service_request": "2021-836427",
    "request_type": "Property Maintenance",
    "request_reason": "Property Maintenance",
    "date_created": "2021-10-23T21:13:46.000",
    "date_modified": "2021-10-23T21:13:46.000",
    "request_status": "Pending",
    "responsible_agency": "Department of Code Enforcement",
    "final_address": "232 28Th St",
    "address_councildis": "A",
    "status": "Pending",
    "rowid": "836427",
    "final_x": "3665528.8752",
    "final_y": "550170.05538",
    "longitude": "-90.11787690485842",
    "latitude": "30.007252319739372",
    "geocoded_column": {
      "latitude": "30.007252319739372",
      "longitude": "-90.11787690485842"
    }
  },
  {
    "service_request": "2021-836426",
    "request_type": "Abandoned Vehicles",
    "request_reason": "Vehicle Blocking Your Driveway",
    "date_created": "2021-10-23T21:05:40.000",
    "date_modified": "2021-10-23T21:05:40.000",
    "request_status": "Pending",
    "responsible_agency": "Department of Public Works",
    "final_address": "529 Esplanade Ave",
    "address_councildis": "C",
    "status": "Pending",
    "rowid": "836426",
    "final_x": "3684519.16079",
    "final_y": "534151.174597",
    "longitude": "-90.05844447441287",
    "latitude": "29.962638496228887",
    "geocoded_column": {
      "latitude": "29.962638496228887",
      "longitude": "-90.05844447441287"
    }
  },
  {
    "service_request": "2021-836425",
    "request_type": "Abandoned Vehicles",
    "request_reason": "Vehicle Blocking Your Driveway",
    "date_created": "2021-10-23T21:04:10.000",
    "date_modified": "2021-10-23T21:04:10.000",
    "request_status": "Pending",
    "responsible_agency": "Department of Public Works",
    "final_address": "529 Esplanade Ave",
    "address_councildis": "C",
    "status": "Pending",
    "rowid": "836425",
    "final_x": "3684519.16079",
    "final_y": "534151.174597",
    "longitude": "-90.05844447441287",
    "latitude": "29.962638496228887",
    "geocoded_column": {
      "latitude": "29.962638496228887",
      "longitude": "-90.05844447441287"
    }
  },
  {
    "service_request": "2021-836424",
    "request_type": "Roads/Drainage",
    "request_reason": "Street Subsidence (Sinking)",
    "date_created": "2021-10-23T20:48:35.000",
    "date_modified": "2021-10-23T20:48:35.000",
    "request_status": "Pending",
    "responsible_agency": "Department of Public Works",
    "final_address": "600 BLK Kenilworth St",
    "address_councildis": "A",
    "status": "Pending",
    "rowid": "836424",
    "final_x": "3668210.28592",
    "final_y": "545973.538746",
    "longitude": "-90.10954715248559",
    "latitude": "29.995634872315495",
    "geocoded_column": {
      "latitude": "29.995634872315495",
      "longitude": "-90.10954715248559"
    }
  },
  {
    "service_request": "2021-836423",
    "request_type": "Abandoned Vehicles",
    "request_reason": "Abandoned/Junk Vehicles",
    "date_created": "2021-10-23T20:13:53.000",
    "date_modified": "2021-10-23T20:13:53.000",
    "request_status": "Pending",
    "responsible_agency": "Department of Public Works",
    "final_address": "6985 Queensway Dr",
    "address_councildis": "E",
    "status": "Pending",
    "rowid": "836423",
    "final_x": "3719458.94655",
    "final_y": "569211.758182",
    "longitude": "-89.94677096774464",
    "latitude": "30.057926084085334",
    "geocoded_column": {
      "latitude": "30.057926084085334",
      "longitude": "-89.94677096774464"
    }
  },
  {
    "service_request": "2021-836422",
    "request_type": "Abandoned Vehicles",
    "request_reason": "Abandoned/Junk Vehicles",
    "date_created": "2021-10-23T20:06:14.000",
    "date_modified": "2021-10-23T20:06:14.000",
    "request_status": "Pending",
    "responsible_agency": "Department of Public Works",
    "final_address": "6968 Whitmore Pl",
    "address_councildis": "E",
    "status": "Pending",
    "rowid": "836422",
    "final_x": "3719178.46975",
    "final_y": "568903.926181",
    "longitude": "-89.94766927785734",
    "latitude": "30.057089003221638",
    "geocoded_column": {
      "latitude": "30.057089003221638",
      "longitude": "-89.94766927785734"
    }
  },
  {
    "service_request": "2021-836421",
    "request_type": "Traffic Signals/Signs/Striping/Streetlights",
    "request_reason": "Street Light Outage/Malfunction",
    "date_created": "2021-10-23T19:49:48.000",
    "date_modified": "2021-10-23T19:49:49.000",
    "request_status": "Pending",
    "responsible_agency": "Department of Public Works",
    "final_address": "4007 Vendome Pl",
    "address_councildis": "B",
    "status": "Pending",
    "contractor": "Royal Engineering",
    "rowid": "836421",
    "final_x": "3668754.87822",
    "final_y": "529870.132225",
    "longitude": "-90.10837064754975",
    "latitude": "29.951339905710167",
    "geocoded_column": {
      "latitude": "29.951339905710167",
      "longitude": "-90.10837064754975"
    }
  },
  {
    "service_request": "2021-836420",
    "request_type": "Parks & Parkways",
    "request_reason": "Request Tree Service (Right of Way/Public Property)",
    "date_created": "2021-10-23T19:05:38.000",
    "date_modified": "2021-10-23T19:06:09.000",
    "request_status": "Pending",
    "responsible_agency": "Department of Parks & Parkway",
    "final_address": "804 Alix St",
    "address_councildis": "C",
    "status": "Pending",
    "rowid": "836420",
    "final_x": "3687926.00028",
    "final_y": "530376.23629",
    "longitude": "-90.04781989887054",
    "latitude": "29.95215405269258",
    "geocoded_column": {
      "latitude": "29.95215405269258",
      "longitude": "-90.04781989887054"
    }
  },
  {
    "service_request": "2021-836419",
    "request_type": "Traffic Signals/Signs/Striping/Streetlights",
    "request_reason": "Traffic Signal Malfunctioning/Damaged",
    "date_created": "2021-10-23T18:52:43.000",
    "date_modified": "2021-10-23T18:52:43.000",
    "request_status": "Pending",
    "responsible_agency": "Department of Public Works",
    "final_address": "Intersection at MacArthur and Holiday",
    "status": "Pending",
    "rowid": "836419",
    "longitude": "0.0",
    "latitude": "0.0",
    "geocoded_column": {
      "latitude": "0.0",
      "longitude": "0.0"
    }
  },
  {
    "service_request": "2021-836416",
    "request_type": "Trash/Recycling",
    "request_reason": "Request a Large Item Pick Up",
    "date_created": "2021-10-23T18:37:18.000",
    "date_modified": "2021-10-23T18:37:18.000",
    "request_status": "Pending",
    "responsible_agency": "Department of Sanitation",
    "final_address": "3630 Huntlee Dr",
    "address_councildis": "C",
    "status": "Assigned to Contractor",
    "contractor": "Richards Disposal",
    "rowid": "836416",
    "final_x": "3701767.10487",
    "final_y": "517651.793206",
    "longitude": "-90.00458235529516",
    "latitude": "29.91673203659517",
    "geocoded_column": {
      "latitude": "29.91673203659517",
      "longitude": "-90.00458235529516"
    }
  },
  {
    "service_request": "2021-836415",
    "request_type": "Property Maintenance",
    "request_reason": "Property Maintenance",
    "date_created": "2021-10-23T18:15:11.000",
    "date_modified": "2021-10-23T18:15:11.000",
    "request_status": "Pending",
    "responsible_agency": "Department of Code Enforcement",
    "final_address": "2328 S Roman St",
    "address_councildis": "B",
    "status": "Pending",
    "rowid": "836415",
    "final_x": "3673950.07598",
    "final_y": "528052.503231",
    "longitude": "-90.09202891417951",
    "latitude": "29.946188289000094",
    "geocoded_column": {
      "latitude": "29.946188289000094",
      "longitude": "-90.09202891417951"
    }
  },
  {
    "service_request": "2021-836413",
    "request_type": "Traffic Signals/Signs/Striping/Streetlights",
    "request_reason": "Street Light Outage/Malfunction",
    "date_created": "2021-10-23T18:09:20.000",
    "date_modified": "2021-10-23T18:09:20.000",
    "request_status": "Pending",
    "responsible_agency": "Department of Public Works",
    "final_address": "1466 Mandolin St",
    "address_councildis": "D",
    "status": "Pending",
    "contractor": "Royal Engineering",
    "rowid": "836413",
    "final_x": "3678449.30818",
    "final_y": "547956.031314",
    "longitude": "-90.07713433354566",
    "latitude": "30.00078136363834",
    "geocoded_column": {
      "latitude": "30.00078136363834",
      "longitude": "-90.07713433354566"
    }
  },
  {
    "service_request": "2021-836412",
    "request_type": "Roads/Drainage",
    "request_reason": "Catch Basin - Clogged",
    "date_created": "2021-10-23T17:57:50.000",
    "date_modified": "2021-10-23T18:00:33.000",
    "request_status": "Pending",
    "responsible_agency": "Department of Public Works",
    "final_address": "4938 Wright Rd",
    "address_councildis": "E",
    "status": "Pending",
    "rowid": "836412",
    "final_x": "3716482.67871",
    "final_y": "557847.070875",
    "longitude": "-89.95661010049872",
    "latitude": "30.0267765024358",
    "geocoded_column": {
      "latitude": "30.0267765024358",
      "longitude": "-89.95661010049872"
    }
  },
  {
    "service_request": "2021-836410",
    "request_type": "Roads/Drainage",
    "request_reason": "Pothole",
    "date_created": "2021-10-23T17:31:36.000",
    "date_modified": "2021-10-23T17:31:36.000",
    "request_status": "Pending",
    "responsible_agency": "Department of Public Works",
    "final_address": "1323 Kentucky St",
    "address_councildis": "D",
    "status": "Pending",
    "rowid": "836410",
    "final_x": "3693602.92643",
    "final_y": "535852.792327",
    "longitude": "-90.02969815295465",
    "latitude": "29.967036315374227",
    "geocoded_column": {
      "latitude": "29.967036315374227",
      "longitude": "-90.02969815295465"
    }
  },
  {
    "service_request": "2021-836408",
    "request_type": "Roads/Drainage",
    "request_reason": "Catch Basin - Clogged",
    "date_created": "2021-10-23T16:58:30.000",
    "date_modified": "2021-10-23T16:58:30.000",
    "request_status": "Pending",
    "responsible_agency": "Department of Public Works",
    "final_address": "1020 Pauline St",
    "address_councildis": "C",
    "status": "Pending",
    "rowid": "836408",
    "final_x": "3691117.51459",
    "final_y": "535195.48679",
    "longitude": "-90.03757054119713",
    "latitude": "29.965306473488177",
    "geocoded_column": {
      "latitude": "29.965306473488177",
      "longitude": "-90.03757054119713"
    }
  },
  {
    "service_request": "2021-836407",
    "request_type": "Abandoned Vehicles",
    "request_reason": "Abandoned/Junk Vehicles",
    "date_created": "2021-10-23T16:33:38.000",
    "date_modified": "2021-10-23T16:33:38.000",
    "request_status": "Pending",
    "responsible_agency": "Department of Public Works",
    "final_address": "2643 Republic St",
    "address_councildis": "D",
    "status": "Pending",
    "rowid": "836407",
    "final_x": "3680784.23074",
    "final_y": "542022.267148",
    "longitude": "-90.0699648238289",
    "latitude": "29.984395016244164",
    "geocoded_column": {
      "latitude": "29.984395016244164",
      "longitude": "-90.0699648238289"
    }
  },
  {
    "service_request": "2021-836406",
    "request_type": "Abandoned Vehicles",
    "request_reason": "Abandoned/Junk Vehicles",
    "date_created": "2021-10-23T16:10:27.000",
    "date_modified": "2021-10-23T16:10:27.000",
    "request_status": "Pending",
    "responsible_agency": "Department of Public Works",
    "final_address": "1624 Governor Nicholls St",
    "address_councildis": "D",
    "status": "Pending",
    "rowid": "836406",
    "final_x": "3681053.66491",
    "final_y": "535996.985415",
    "longitude": "-90.06932374016128",
    "latitude": "29.96781940987393",
    "geocoded_column": {
      "latitude": "29.96781940987393",
      "longitude": "-90.06932374016128"
    }
  },
  {
    "service_request": "2021-836405",
    "request_type": "Traffic Signals/Signs/Striping/Streetlights",
    "request_reason": "Striping/Road Surface Markings",
    "date_created": "2021-10-23T15:55:59.000",
    "date_modified": "2021-10-23T15:55:59.000",
    "request_status": "Pending",
    "responsible_agency": "Department of Public Works",
    "final_address": "CANAL BLVD & CITY PARK AVE",
    "address_councildis": "A",
    "status": "Pending",
    "rowid": "836405",
    "final_x": "3667987.5",
    "final_y": "541115.08",
    "longitude": "-90.11041471405822",
    "latitude": "29.98228230942653",
    "geocoded_column": {
      "latitude": "29.98228230942653",
      "longitude": "-90.11041471405822"
    }
  },
  {
    "service_request": "2021-836404",
    "request_type": "Traffic Signals/Signs/Striping/Streetlights",
    "request_reason": "Striping/Road Surface Markings",
    "date_created": "2021-10-23T15:55:34.000",
    "date_modified": "2021-10-23T15:55:34.000",
    "request_status": "Pending",
    "responsible_agency": "Department of Public Works",
    "final_address": "MARTIN LUTHER KING JR BLVD & S CLAIBORNE AVE",
    "address_councildis": "B",
    "status": "Pending",
    "rowid": "836404",
    "final_x": "3675047.7",
    "final_y": "528193.58",
    "longitude": "-90.08855849278287",
    "latitude": "29.946543462384728",
    "geocoded_column": {
      "latitude": "29.946543462384728",
      "longitude": "-90.08855849278287"
    }
  },
  {
    "service_request": "2021-836403",
    "request_type": "Trash/Recycling",
    "request_reason": "Request a Large Item Pick Up",
    "date_created": "2021-10-23T15:49:24.000",
    "date_modified": "2021-10-23T15:49:24.000",
    "request_status": "Pending",
    "responsible_agency": "Department of Sanitation",
    "final_address": "4523 Bienville Ave",
    "address_councildis": "A",
    "status": "Assigned to Contractor",
    "contractor": "Richards Disposal",
    "rowid": "836403",
    "final_x": "3670044.61505",
    "final_y": "540202.514635",
    "longitude": "-90.10394824849574",
    "latitude": "29.9797125357925",
    "geocoded_column": {
      "latitude": "29.9797125357925",
      "longitude": "-90.10394824849574"
    }
  },
  {
    "service_request": "2021-836401",
    "request_type": "Trash/Recycling",
    "request_reason": "Request a Large Item Pick Up",
    "date_created": "2021-10-23T15:38:05.000",
    "date_modified": "2021-10-23T15:38:06.000",
    "request_status": "Pending",
    "responsible_agency": "Department of Sanitation",
    "final_address": "2323 Gravier St",
    "address_councildis": "B",
    "status": "Assigned to Contractor",
    "contractor": "Richards Disposal",
    "rowid": "836401",
    "final_x": "3675392.9659",
    "final_y": "532685.67226",
    "longitude": "-90.08731413246724",
    "latitude": "29.958884902569952",
    "geocoded_column": {
      "latitude": "29.958884902569952",
      "longitude": "-90.08731413246724"
    }
  },
  {
    "service_request": "2021-836400",
    "request_type": "Abandoned Vehicles",
    "request_reason": "Abandoned/Junk Vehicles",
    "date_created": "2021-10-23T15:37:59.000",
    "date_modified": "2021-10-23T15:37:59.000",
    "request_status": "Pending",
    "responsible_agency": "Department of Public Works",
    "final_address": "2200 BLK Joseph St",
    "address_councildis": "A",
    "status": "Pending",
    "rowid": "836400",
    "final_x": "3667308.59218",
    "final_y": "524286.145769",
    "longitude": "-90.11312508247993",
    "latitude": "29.936028181263733",
    "geocoded_column": {
      "latitude": "29.936028181263733",
      "longitude": "-90.11312508247993"
    }
  },
  {
    "service_request": "2021-836399",
    "request_type": "Trash/Recycling",
    "request_reason": "Order Recycling Cart",
    "date_created": "2021-10-23T15:33:12.000",
    "date_modified": "2021-10-23T15:33:12.000",
    "request_status": "Pending",
    "responsible_agency": "Department of Sanitation",
    "final_address": "3145 N Rampart St",
    "address_councildis": "C",
    "status": "Pending",
    "rowid": "836399",
    "final_x": "3689255.38134",
    "final_y": "535501.81351",
    "longitude": "-90.04344015765649",
    "latitude": "29.966206535069144",
    "geocoded_column": {
      "latitude": "29.966206535069144",
      "longitude": "-90.04344015765649"
    }
  },
  {
    "service_request": "2021-836397",
    "request_type": "Trash/Recycling",
    "request_reason": "Illegal Dumping",
    "date_created": "2021-10-23T15:18:39.000",
    "date_modified": "2021-10-23T15:18:39.000",
    "request_status": "Pending",
    "responsible_agency": "Department of Sanitation",
    "final_address": "1228 S Lopez St, New Orleans, Louisiana, 70125",
    "address_councildis": "B",
    "status": "Pending",
    "rowid": "836397",
    "final_x": "3670697.72315",
    "final_y": "531688.903427",
    "longitude": "-90.10217437880424",
    "latitude": "29.956283673578916",
    "geocoded_column": {
      "latitude": "29.956283673578916",
      "longitude": "-90.10217437880424"
    }
  },
  {
    "service_request": "2021-836396",
    "request_type": "Roads/Drainage",
    "request_reason": "Catch Basin - Clogged",
    "date_created": "2021-10-23T15:16:37.000",
    "date_modified": "2021-10-23T15:16:37.000",
    "request_status": "Pending",
    "responsible_agency": "Department of Public Works",
    "final_address": "1020 Pauline St",
    "address_councildis": "C",
    "status": "Pending",
    "rowid": "836396",
    "final_x": "3691117.51459",
    "final_y": "535195.48679",
    "longitude": "-90.03757054119713",
    "latitude": "29.965306473488177",
    "geocoded_column": {
      "latitude": "29.965306473488177",
      "longitude": "-90.03757054119713"
    }
  },
  {
    "service_request": "2021-836394",
    "request_type": "Abandoned Vehicles",
    "request_reason": "Abandoned/Junk Vehicles",
    "date_created": "2021-10-23T14:57:17.000",
    "date_modified": "2021-10-23T14:57:17.000",
    "request_status": "Pending",
    "responsible_agency": "Department of Public Works",
    "final_address": "927 Caffin Ave",
    "address_councildis": "E",
    "status": "Pending",
    "rowid": "836394",
    "final_x": "3697927.68138",
    "final_y": "533186.190852",
    "longitude": "-90.01613743846853",
    "latitude": "29.959568110431164",
    "geocoded_column": {
      "latitude": "29.959568110431164",
      "longitude": "-90.01613743846853"
    }
  },
  {
    "service_request": "2021-836391",
    "request_type": "Abandoned Vehicles",
    "request_reason": "Abandoned/Junk Vehicles",
    "date_created": "2021-10-23T14:38:44.000",
    "date_modified": "2021-10-23T14:42:47.000",
    "request_status": "Pending",
    "responsible_agency": "Department of Public Works",
    "final_address": "10138 Lakewood St",
    "address_councildis": "E",
    "status": "Pending",
    "rowid": "836391",
    "final_x": "3713064.8419",
    "final_y": "556850.360666",
    "longitude": "-89.9674475402169",
    "latitude": "30.02414841443978",
    "geocoded_column": {
      "latitude": "30.02414841443978",
      "longitude": "-89.9674475402169"
    }
  },
  {
    "service_request": "2021-836385",
    "request_type": "Trash/Recycling",
    "request_reason": "Request a Large Item Pick Up",
    "date_created": "2021-10-23T13:47:14.000",
    "date_modified": "2021-10-23T13:47:14.000",
    "request_status": "Pending",
    "responsible_agency": "Department of Sanitation",
    "final_address": "4416 Canal St",
    "address_councildis": "A",
    "status": "Assigned to Contractor",
    "contractor": "Richards Disposal",
    "rowid": "836385",
    "final_x": "3669802.26516",
    "final_y": "539216.683274",
    "longitude": "-90.104747075169",
    "latitude": "29.977008980597954",
    "geocoded_column": {
      "latitude": "29.977008980597954",
      "longitude": "-90.104747075169"
    }
  },
  {
    "service_request": "2021-836384",
    "request_type": "Safety & Permits",
    "request_reason": "Short term Rental (Enforcement)",
    "date_created": "2021-10-23T13:46:45.000",
    "date_modified": "2021-10-23T13:46:45.000",
    "request_status": "Pending",
    "responsible_agency": "Safety and Permits",
    "final_address": "735 Dumaine St",
    "address_councildis": "C",
    "status": "Pending",
    "rowid": "836384",
    "final_x": "3682787.03157",
    "final_y": "533239.137476",
    "longitude": "-90.06394620658189",
    "latitude": "29.960183584425756",
    "geocoded_column": {
      "latitude": "29.960183584425756",
      "longitude": "-90.06394620658189"
    }
  },
  {
    "service_request": "2021-836383",
    "request_type": "Roads/Drainage",
    "request_reason": "Catch Basin - Clogged",
    "date_created": "2021-10-23T13:41:14.000",
    "date_modified": "2021-10-23T13:41:14.000",
    "request_status": "Pending",
    "responsible_agency": "Department of Public Works",
    "final_address": "1020 Pauline St",
    "address_councildis": "C",
    "status": "Pending",
    "rowid": "836383",
    "final_x": "3691117.51459",
    "final_y": "535195.48679",
    "longitude": "-90.03757054119713",
    "latitude": "29.965306473488177",
    "geocoded_column": {
      "latitude": "29.965306473488177",
      "longitude": "-90.03757054119713"
    }
  },
  {
    "service_request": "2021-836382",
    "request_type": "Traffic Signals/Signs/Striping/Streetlights",
    "request_reason": "Street Name Sign Damaged or Missing",
    "date_created": "2021-10-23T13:20:14.000",
    "date_modified": "2021-10-23T13:20:14.000",
    "request_status": "Pending",
    "responsible_agency": "Department of Public Works",
    "final_address": "MARAIS ST & FRANCE ST",
    "address_councildis": "D",
    "status": "Pending",
    "rowid": "836382",
    "final_x": "3692473.4",
    "final_y": "535511.88",
    "longitude": "-90.03327740360804",
    "latitude": "29.966134213481375",
    "geocoded_column": {
      "latitude": "29.966134213481375",
      "longitude": "-90.03327740360804"
    }
  },
  {
    "service_request": "2021-836381",
    "request_type": "Roads/Drainage",
    "request_reason": "Damaged Sidewalk",
    "date_created": "2021-10-23T13:05:07.000",
    "date_modified": "2021-10-23T13:05:07.000",
    "request_status": "Pending",
    "responsible_agency": "Department of Public Works",
    "final_address": "6300 Patton St",
    "address_councildis": "A",
    "status": "Pending",
    "rowid": "836381",
    "final_x": "3663132.03335",
    "final_y": "519081.911031",
    "longitude": "-90.12648368934737",
    "latitude": "29.92183980548909",
    "geocoded_column": {
      "latitude": "29.92183980548909",
      "longitude": "-90.12648368934737"
    }
  },
  {
    "service_request": "2021-836378",
    "request_type": "Traffic Signals/Signs/Striping/Streetlights",
    "request_reason": "Street Light Outage/Malfunction",
    "date_created": "2021-10-23T12:38:31.000",
    "date_modified": "2021-10-23T12:38:32.000",
    "request_status": "Pending",
    "responsible_agency": "Department of Public Works",
    "final_address": "3526 Laurel St",
    "address_councildis": "B",
    "status": "Pending",
    "contractor": "Royal Engineering",
    "rowid": "836378",
    "final_x": "3674497.37652",
    "final_y": "518588.610423",
    "longitude": "-90.09062496359184",
    "latitude": "29.920149344990683",
    "geocoded_column": {
      "latitude": "29.920149344990683",
      "longitude": "-90.09062496359184"
    }
  },
  {
    "service_request": "2021-836377",
    "request_type": "Roads/Drainage",
    "request_reason": "Man hole cover issue",
    "date_created": "2021-10-23T12:37:15.000",
    "date_modified": "2021-10-23T12:37:15.000",
    "request_status": "Pending",
    "responsible_agency": "Department of Public Works",
    "final_address": "ST CLAUDE AVE & ELYSIAN FIELDS AVE",
    "address_councildis": "C",
    "status": "Pending",
    "rowid": "836377",
    "final_x": "3684957.9",
    "final_y": "536360.38",
    "longitude": "-90.05698128744078",
    "latitude": "29.96869961706654",
    "geocoded_column": {
      "latitude": "29.96869961706654",
      "longitude": "-90.05698128744078"
    }
  },
  {
    "service_request": "2021-836376",
    "request_type": "EMS",
    "request_reason": "EMS General",
    "date_created": "2021-10-23T12:29:47.000",
    "date_modified": "2021-10-23T12:29:47.000",
    "request_status": "Pending",
    "responsible_agency": "Emergency Medical Services",
    "status": "Pending",
    "rowid": "836376",
    "longitude": "0.0",
    "latitude": "0.0",
    "geocoded_column": {
      "latitude": "0.0",
      "longitude": "0.0"
    }
  },
  {
    "service_request": "2021-836375",
    "request_type": "Traffic Signals/Signs/Striping/Streetlights",
    "request_reason": "Street Name Sign Damaged or Missing",
    "date_created": "2021-10-23T12:21:14.000",
    "date_modified": "2021-10-23T12:21:14.000",
    "request_status": "Pending",
    "responsible_agency": "Department of Public Works",
    "final_address": "2490 Verbena St",
    "address_councildis": "D",
    "status": "Pending",
    "rowid": "836375",
    "final_x": "3686219.38294",
    "final_y": "547689.22709",
    "longitude": "-90.05259756987667",
    "latitude": "29.999811233495812",
    "geocoded_column": {
      "latitude": "29.999811233495812",
      "longitude": "-90.05259756987667"
    }
  },
  {
    "service_request": "2021-836374",
    "request_type": "Trash/Recycling",
    "request_reason": "Request a Large Item Pick Up",
    "date_created": "2021-10-23T12:17:52.000",
    "date_modified": "2021-10-23T12:17:53.000",
    "request_status": "Pending",
    "responsible_agency": "Department of Sanitation",
    "final_address": "629 S Alexander St, New Orleans, Louisiana, 70119",
    "address_councildis": "A",
    "status": "Assigned to Contractor",
    "contractor": "Richards Disposal",
    "rowid": "836374",
    "final_x": "3668618.22433",
    "final_y": "537417.793288",
    "longitude": "-90.10854739691166",
    "latitude": "29.97209749246204",
    "geocoded_column": {
      "latitude": "29.97209749246204",
      "longitude": "-90.10854739691166"
    }
  },
  {
    "service_request": "2021-836372",
    "request_type": "Roads/Drainage",
    "request_reason": "Catch Basin - Broken/Damage",
    "date_created": "2021-10-23T12:14:22.000",
    "date_modified": "2021-10-23T12:14:22.000",
    "request_status": "Pending",
    "responsible_agency": "Department of Public Works",
    "final_address": "2430 Hollygrove St",
    "address_councildis": "A",
    "status": "Pending",
    "rowid": "836372",
    "final_x": "3662711.05357",
    "final_y": "533984.610757",
    "longitude": "-90.12731742993725",
    "latitude": "29.962829663640353",
    "geocoded_column": {
      "latitude": "29.962829663640353",
      "longitude": "-90.12731742993725"
    }
  },
  {
    "service_request": "2021-836371",
    "request_type": "Traffic Signals/Signs/Striping/Streetlights",
    "request_reason": "Traffic Signal Malfunctioning/Damaged",
    "date_created": "2021-10-23T12:13:51.000",
    "date_modified": "2021-10-23T12:13:51.000",
    "request_status": "Pending",
    "responsible_agency": "Department of Public Works",
    "final_address": "JEFFERSON AVE & ST CHARLES AVE",
    "address_councildis": "A",
    "status": "Pending",
    "rowid": "836371",
    "final_x": "3667368.3",
    "final_y": "521602.28",
    "longitude": "-90.11302681964649",
    "latitude": "29.92864665761511",
    "geocoded_column": {
      "latitude": "29.92864665761511",
      "longitude": "-90.11302681964649"
    }
  },
  {
    "service_request": "2021-836370",
    "request_type": "Trash/Recycling",
    "request_reason": "Illegal Dumping",
    "date_created": "2021-10-23T12:10:08.000",
    "date_modified": "2021-10-23T12:10:09.000",
    "request_status": "Pending",
    "responsible_agency": "Department of Sanitation",
    "final_address": "7613 Dominican St",
    "address_councildis": "A",
    "status": "Pending",
    "rowid": "836370",
    "final_x": "3661314.7239",
    "final_y": "525218.627645",
    "longitude": "-90.13201710490601",
    "latitude": "29.938766359533616",
    "geocoded_column": {
      "latitude": "29.938766359533616",
      "longitude": "-90.13201710490601"
    }
  },