[
  {
    "service_request": "2022-862562",
    "request_type": "Trash/Recycling",
    "request_reason": "Illegal Dumping",
    "date_created": "2022-02-21T23:57:40.000",
    "date_modified": "2022-02-21T23:57:40.000",
    "request_status": "Pending",
    "responsible_agency": "Department of Sanitation",
    "final_address": "14780 Chef Menteur Hwy",
    "address_councildis": "E",
    "status": "Pending",
    "rowid": "862562",
    "final_x": "3732075.85293",
    "final_y": "561869.646879",
    "longitude": "-89.90717991441795",
    "latitude": "30.03731255004862",
    "geocoded_column": {
      "latitude": "30.03731255004862",
      "longitude": "-89.90717991441795"
    }
  },
  {
    "service_request": "2022-862561",
    "request_type": "Trash/Recycling",
    "request_reason": "Replace Trash Cart",
    "date_created": "2022-02-21T22:49:34.000",
    "date_modified": "2022-02-21T22:49:35.000",
    "request_status": "Pending",
    "responsible_agency": "Department of Sanitation",
    "final_address": "2634 Gordon St",
    "address_councildis": "E",
    "status": "Assigned to Contractor",
    "contractor": "Metro Disposal",
    "rowid": "862561",
    "final_x": "3701388.08669",
    "final_y": "539084.440522",
    "longitude": "-90.00499443710099",
    "latitude": "29.975676336655294",
    "geocoded_column": {
      "latitude": "29.975676336655294",
      "longitude": "-90.00499443710099"
    }
  },
  {
    "service_request": "2022-862560",
    "request_type": "Roads/Drainage",
    "request_reason": "Street Subsidence (Sinking)",
    "date_created": "2022-02-21T22:12:43.000",
    "date_modified": "2022-02-21T22:12:43.000",
    "request_status": "Pending",
    "responsible_agency": "Department of Public Works",
    "final_address": "8324 Morrison Rd",
    "address_councildis": "E",
    "status": "Pending",
    "rowid": "862560",
    "final_x": "3703661.29316",
    "final_y": "560702.61795",
    "longitude": "-89.99701881678726",
    "latitude": "30.03504548755415",
    "geocoded_column": {
      "latitude": "30.03504548755415",
      "longitude": "-89.99701881678726"
    }
  },
  {
    "service_request": "2022-862559",
    "request_type": "Roads/Drainage",
    "request_reason": "Pothole",
    "date_created": "2022-02-21T21:35:42.000",
    "date_modified": "2022-02-21T21:35:42.000",
    "request_status": "Pending",
    "responsible_agency": "Department of Public Works",
    "final_address": "640 Pauline St",
    "address_councildis": "C",
    "status": "Pending",
    "rowid": "862559",
    "final_x": "3690808.12304",
    "final_y": "533928.846085",
    "longitude": "-90.03859277862686",
    "latitude": "29.96183327164464",
    "geocoded_column": {
      "latitude": "29.96183327164464",
      "longitude": "-90.03859277862686"
    }
  },
  {
    "service_request": "2022-862558",
    "request_type": "Roads/Drainage",
    "request_reason": "Street Subsidence (Sinking)",
    "date_created": "2022-02-21T21:33:30.000",
    "date_modified": "2022-02-21T21:33:30.000",
    "request_status": "Pending",
    "responsible_agency": "Department of Public Works",
    "final_address": "640 Pauline St",
    "address_councildis": "C",
    "status": "Pending",
    "rowid": "862558",
    "final_x": "3690808.12304",
    "final_y": "533928.846085",
    "longitude": "-90.03859277862686",
    "latitude": "29.96183327164464",
    "geocoded_column": {
      "latitude": "29.96183327164464",
      "longitude": "-90.03859277862686"
    }
  },
  {
    "service_request": "2022-862557",
    "request_type": "Traffic Signals/Signs/Striping/Streetlights",
    "request_reason": "Street Light Outage/Malfunction",
    "date_created": "2022-02-21T21:30:22.000",
    "date_modified": "2022-02-21T21:30:23.000",
    "request_status": "Pending",
    "responsible_agency": "Department of Public Works",
    "final_address": "640 Pauline St",
    "address_councildis": "C",
    "status": "Pending",
    "contractor": "Royal Engineering",
    "rowid": "862557",
    "final_x": "3690808.12304",
    "final_y": "533928.846085",
    "longitude": "-90.03859277862686",
    "latitude": "29.96183327164464",
    "geocoded_column": {
      "latitude": "29.96183327164464",
      "longitude": "-90.03859277862686"
    }
  },
  {
    "service_request": "2022-862556",
    "request_type": "Abandoned Vehicles",
    "request_reason": "Abandoned/Junk Vehicles",
    "date_created": "2022-02-21T21:08:27.000",
    "date_modified": "2022-02-21T21:08:27.000",
    "request_status": "Pending",
    "responsible_agency": "Department of Public Works",
    "final_address": "1325 Annunciation St Apt 425",
    "address_councildis": "B",
    "status": "Pending",
    "rowid": "862556",
    "final_x": "3681114.99547",
    "final_y": "524894.7255",
    "longitude": "-90.06951676833708",
    "latitude": "29.937290083550582",
    "geocoded_column": {
      "latitude": "29.937290083550582",
      "longitude": "-90.06951676833708"
    }
  },
  {
    "service_request": "2022-862555",
    "request_type": "Abandoned Vehicles",
    "request_reason": "Abandoned/Junk Vehicles",
    "date_created": "2022-02-21T21:07:36.000",
    "date_modified": "2022-02-21T21:07:36.000",
    "request_status": "Pending",
    "responsible_agency": "Department of Public Works",
    "final_address": "3919 Mithra St",
    "address_councildis": "D",
    "status": "Pending",
    "rowid": "862555",
    "final_x": "3688550.33916",
    "final_y": "553073.399319",
    "longitude": "-90.0450427674266",
    "latitude": "30.014543892397224",
    "geocoded_column": {
      "latitude": "30.014543892397224",
      "longitude": "-90.0450427674266"
    }
  },
  {
    "service_request": "2022-862554",
    "request_type": "Roads/Drainage",
    "request_reason": "Pothole",
    "date_created": "2022-02-21T21:01:29.000",
    "date_modified": "2022-02-21T21:01:29.000",
    "request_status": "Pending",
    "responsible_agency": "Department of Public Works",
    "final_address": "1700 BLK Laharpe St",
    "address_councildis": "D",
    "status": "Pending",
    "rowid": "862554",
    "final_x": "3681519.11166",
    "final_y": "537811.720424",
    "longitude": "-90.06779054961554",
    "latitude": "29.972795179049633",
    "geocoded_column": {
      "latitude": "29.972795179049633",
      "longitude": "-90.06779054961554"
    }
  },
  {
    "service_request": "2022-862552",
    "request_type": "Traffic Signals/Signs/Striping/Streetlights",
    "request_reason": "Street Light Outage/Malfunction",
    "date_created": "2022-02-21T20:58:39.000",
    "date_modified": "2022-02-21T20:58:41.000",
    "request_status": "Pending",
    "responsible_agency": "Department of Public Works",
    "final_address": "1538 N Roman St",
    "address_councildis": "D",
    "status": "Pending",
    "contractor": "Royal Engineering",
    "rowid": "862552",
    "final_x": "3681374.51829",
    "final_y": "537858.862537",
    "longitude": "-90.06824555849134",
    "latitude": "29.97292919392905",
    "geocoded_column": {
      "latitude": "29.97292919392905",
      "longitude": "-90.06824555849134"
    }
  },
  {
    "service_request": "2022-862551",
    "request_type": "Trash/Recycling",
    "request_reason": "Replace Trash Cart",
    "date_created": "2022-02-21T20:24:01.000",
    "date_modified": "2022-02-21T20:24:02.000",
    "request_status": "Pending",
    "responsible_agency": "Department of Sanitation",
    "final_address": "417 16Th St",
    "address_councildis": "A",
    "status": "Assigned to Contractor",
    "contractor": "Metro Disposal",
    "rowid": "862551",
    "final_x": "3664623.7785",
    "final_y": "548511.97365",
    "longitude": "-90.12079180253694",
    "latitude": "30.00271953534681",
    "geocoded_column": {
      "latitude": "30.00271953534681",
      "longitude": "-90.12079180253694"
    }
  },
  {
    "service_request": "2022-862550",
    "request_type": "Trash/Recycling",
    "request_reason": "Illegal Dumping",
    "date_created": "2022-02-21T19:55:53.000",
    "date_modified": "2022-02-21T19:55:53.000",
    "request_status": "Pending",
    "responsible_agency": "Department of Sanitation",
    "final_address": "13123 N Interstate 10 Service Rd",
    "address_councildis": "E",
    "status": "Pending",
    "rowid": "862550",
    "final_x": "3718298.12172",
    "final_y": "567913.663269",
    "longitude": "-89.9504896729805",
    "latitude": "30.054395433243684",
    "geocoded_column": {
      "latitude": "30.054395433243684",
      "longitude": "-89.9504896729805"
    }
  },
  {
    "service_request": "2022-862549",
    "request_type": "Abandoned Vehicles",
    "request_reason": "Abandoned/Junk Vehicles",
    "date_created": "2022-02-21T19:46:46.000",
    "date_modified": "2022-02-21T19:46:46.000",
    "request_status": "Pending",
    "responsible_agency": "Department of Public Works",
    "final_address": "131 S Bernadotte St",
    "address_councildis": "A",
    "status": "Pending",
    "rowid": "862549",
    "final_x": "3668561.47988",
    "final_y": "539877.13633",
    "longitude": "-90.10864359087388",
    "latitude": "29.97886152652021",
    "geocoded_column": {
      "latitude": "29.97886152652021",
      "longitude": "-90.10864359087388"
    }
  },
  {
    "service_request": "2022-862548",
    "request_type": "Trash/Recycling",
    "request_reason": "Missed Trash Pick-Up",
    "date_created": "2022-02-21T19:28:35.000",
    "date_modified": "2022-02-21T19:28:35.000",
    "request_status": "Pending",
    "responsible_agency": "Department of Sanitation",
    "final_address": "2473 Jay St",
    "address_councildis": "D",
    "status": "Assigned to Contractor",
    "contractor": "Metro Disposal",
    "rowid": "862548",
    "final_x": "3685266.25986",
    "final_y": "557528.277595",
    "longitude": "-90.05526183224387",
    "latitude": "30.026894280973874",
    "geocoded_column": {
      "latitude": "30.026894280973874",
      "longitude": "-90.05526183224387"
    }
  },
  {
    "service_request": "2022-862547",
    "request_type": "Trash/Recycling",
    "request_reason": "Missed Trash Pick-Up",
    "date_created": "2022-02-21T19:08:23.000",
    "date_modified": "2022-02-21T19:08:24.000",
    "request_status": "Pending",
    "responsible_agency": "Department of Sanitation",
    "final_address": "321 N Johnson St",
    "address_councildis": "B",
    "status": "Assigned to Contractor",
    "contractor": "Richards Disposal",
    "rowid": "862547",
    "final_x": "3677789.99733",
    "final_y": "534512.566981",
    "longitude": "-90.07968179351673",
    "latitude": "29.963836354745148",
    "geocoded_column": {
      "latitude": "29.963836354745148",
      "longitude": "-90.07968179351673"
    }
  },
  {
    "service_request": "2022-862546",
    "request_type": "Traffic Signals/Signs/Striping/Streetlights",
    "request_reason": "Street Light Outage/Malfunction",
    "date_created": "2022-02-21T19:01:59.000",
    "date_modified": "2022-02-21T19:02:00.000",
    "request_status": "Pending",
    "responsible_agency": "Department of Public Works",
    "final_address": "1700 Killdeer St",
    "address_councildis": "D",
    "status": "Pending",
    "contractor": "Royal Engineering",
    "rowid": "862546",
    "final_x": "3678816.28386",
    "final_y": "557349.634203",
    "longitude": "-90.07564931413896",
    "latitude": "30.026599316875014",
    "geocoded_column": {
      "latitude": "30.026599316875014",
      "longitude": "-90.07564931413896"
    }
  },
  {
    "service_request": "2022-862545",
    "request_type": "Trash/Recycling",
    "request_reason": "MIssed Recycling Pick-Up",
    "date_created": "2022-02-21T18:31:02.000",
    "date_modified": "2022-02-21T18:31:02.000",
    "request_status": "Pending",
    "responsible_agency": "Department of Sanitation",
    "final_address": "8134 Belfast St",
    "address_councildis": "A",
    "status": "Pending",
    "rowid": "862545",
    "final_x": "3665339.83482",
    "final_y": "532475.577988",
    "longitude": "-90.11906654014317",
    "latitude": "29.958603977710823",
    "geocoded_column": {
      "latitude": "29.958603977710823",
      "longitude": "-90.11906654014317"
    }
  },
  {
    "service_request": "2022-862544",
    "request_type": "Trash/Recycling",
    "request_reason": "Request a Large Item Pick Up",
    "date_created": "2022-02-21T18:27:59.000",
    "date_modified": "2022-02-21T18:28:00.000",
    "request_status": "Pending",
    "responsible_agency": "Department of Sanitation",
    "final_address": "40 Cypress Grove Ct Unit 23",
    "address_councildis": "C",
    "status": "Assigned to Contractor",
    "contractor": "Richards Disposal",
    "rowid": "862544",
    "final_x": "3704969.08299",
    "final_y": "511978.250864",
    "longitude": "-89.99468488161202",
    "latitude": "29.901029250742344",
    "geocoded_column": {
      "latitude": "29.901029250742344",
      "longitude": "-89.99468488161202"
    }
  },
  {
    "service_request": "2022-862543",
    "request_type": "Trash/Recycling",
    "request_reason": "Replace Trash Cart",
    "date_created": "2022-02-21T18:20:21.000",
    "date_modified": "2022-02-21T18:20:21.000",
    "request_status": "Pending",
    "responsible_agency": "Department of Sanitation",
    "final_address": "7367 Chef Menteur Hwy",
    "address_councildis": "E",
    "status": "Assigned to Contractor",
    "contractor": "Metro Disposal",
    "rowid": "862543",
    "final_x": "3702439.29188",
    "final_y": "552418.926358",
    "longitude": "-90.00118484812147",
    "latitude": "30.01230765577533",
    "geocoded_column": {
      "latitude": "30.01230765577533",
      "longitude": "-90.00118484812147"
    }
  },
  {
    "service_request": "2022-862541",
    "request_type": "Trash/Recycling",
    "request_reason": "Missed Trash Pick-Up",
    "date_created": "2022-02-21T18:12:14.000",
    "date_modified": "2022-02-21T18:12:15.000",
    "request_status": "Pending",
    "responsible_agency": "Department of Sanitation",
    "final_address": "531 Second St",
    "address_councildis": "B",
    "status": "Assigned to Contractor",
    "contractor": "Richards Disposal",
    "rowid": "862541",
    "final_x": "3678946.68136",
    "final_y": "519703.907704",
    "longitude": "-90.07654202089383",
    "latitude": "29.923082616838766",
    "geocoded_column": {
      "latitude": "29.923082616838766",
      "longitude": "-90.07654202089383"
    }
  },
  {
    "service_request": "2022-862540",
    "request_type": "Traffic Signals/Signs/Striping/Streetlights",
    "request_reason": "Street Light Outage/Malfunction",
    "date_created": "2022-02-21T18:11:29.000",
    "date_modified": "2022-02-21T18:11:30.000",
    "request_status": "Pending",
    "responsible_agency": "Department of Public Works",
    "final_address": "5946 Jamison St",
    "address_councildis": "D",
    "status": "Pending",
    "contractor": "Royal Engineering",
    "rowid": "862540",
    "final_x": "3696376.49847",
    "final_y": "553423.060695",
    "longitude": "-90.02030341549538",
    "latitude": "30.01526106465315",
    "geocoded_column": {
      "latitude": "30.01526106465315",
      "longitude": "-90.02030341549538"
    }
  },
  {
    "service_request": "2022-862539",
    "request_type": "Traffic Signals/Signs/Striping/Streetlights",
    "request_reason": "Street Light Outage/Malfunction",
    "date_created": "2022-02-21T18:11:07.000",
    "date_modified": "2022-02-21T18:11:08.000",
    "request_status": "Pending",
    "responsible_agency": "Department of Public Works",
    "final_address": "5946 Jamison St",
    "address_councildis": "D",
    "status": "Pending",
    "contractor": "Royal Engineering",
    "rowid": "862539",
    "final_x": "3696376.49847",
    "final_y": "553423.060695",
    "longitude": "-90.02030341549538",
    "latitude": "30.01526106465315",
    "geocoded_column": {
      "latitude": "30.01526106465315",
      "longitude": "-90.02030341549538"
    }
  },
  {
    "service_request": "2022-862538",
    "request_type": "Roads/Drainage",
    "request_reason": "Accessibility Ramps, Curbs and Sidewalk Repair",
    "date_created": "2022-02-21T18:10:37.000",
    "date_modified": "2022-02-21T18:10:37.000",
    "request_status": "Pending",
    "responsible_agency": "Department of Public Works",
    "final_address": "1220 N Miro St",
    "address_councildis": "D",
    "status": "Pending",
    "rowid": "862538",
    "final_x": "3679333.86472",
    "final_y": "537486.49812",
    "longitude": "-90.07470325080669",
    "latitude": "29.97196711244058",
    "geocoded_column": {
      "latitude": "29.97196711244058",
      "longitude": "-90.07470325080669"
    }
  },
  {
    "service_request": "2022-862537",
    "request_type": "Trash/Recycling",
    "request_reason": "MIssed Recycling Pick-Up",
    "date_created": "2022-02-21T17:54:30.000",
    "date_modified": "2022-02-21T17:54:31.000",
    "request_status": "Pending",
    "responsible_agency": "Department of Sanitation",
    "final_address": "2916 1st St, New Orleans, Louisiana, 70113",
    "status": "Assigned to Contractor",
    "rowid": "862537",
    "longitude": "0.0",
    "latitude": "0.0",
    "geocoded_column": {
      "latitude": "0.0",
      "longitude": "0.0"
    }
  },
  {
    "service_request": "2022-862536",
    "request_type": "Traffic Signals/Signs/Striping/Streetlights",
    "request_reason": "Street Light Outage/Malfunction",
    "date_created": "2022-02-21T17:47:39.000",
    "date_modified": "2022-02-21T17:47:40.000",
    "request_status": "Pending",
    "responsible_agency": "Department of Public Works",
    "final_address": "4758 Eunice Dr",
    "address_councildis": "E",
    "status": "Pending",
    "contractor": "Royal Engineering",
    "rowid": "862536",
    "final_x": "3710459.32011",
    "final_y": "555886.416985",
    "longitude": "-89.97571651072892",
    "latitude": "30.021583089894538",
    "geocoded_column": {
      "latitude": "30.021583089894538",
      "longitude": "-89.97571651072892"
    }
  },
  {
    "service_request": "2022-862535",
    "request_type": "Trash/Recycling",
    "request_reason": "Request a Large Item Pick Up",
    "date_created": "2022-02-21T17:38:16.000",
    "date_modified": "2022-02-21T17:38:17.000",
    "request_status": "Pending",
    "responsible_agency": "Department of Sanitation",
    "final_address": "920 Music St",
    "address_councildis": "C",
    "status": "Assigned to Contractor",
    "contractor": "Metro Disposal",
    "rowid": "862535",
    "final_x": "3686863.08297",
    "final_y": "535912.566215",
    "longitude": "-90.050980450747",
    "latitude": "29.96740979491691",
    "geocoded_column": {
      "latitude": "29.96740979491691",
      "longitude": "-90.050980450747"
    }
  },
  {
    "service_request": "2022-862534",
    "request_type": "Abandoned Vehicles",
    "request_reason": "Abandoned/Junk Vehicles",
    "date_created": "2022-02-21T17:34:33.000",
    "date_modified": "2022-02-21T17:34:33.000",
    "request_status": "Pending",
    "responsible_agency": "Department of Public Works",
    "final_address": "2570 Jonquil St",
    "address_councildis": "D",
    "status": "Pending",
    "rowid": "862534",
    "final_x": "3686883.11932",
    "final_y": "547159.021329",
    "longitude": "-90.05051955484664",
    "latitude": "29.998332943493224",
    "geocoded_column": {
      "latitude": "29.998332943493224",
      "longitude": "-90.05051955484664"
    }
  },
  {
    "service_request": "2022-862533",
    "request_type": "Trash/Recycling",
    "request_reason": "Request a Large Item Pick Up",
    "date_created": "2022-02-21T17:30:48.000",
    "date_modified": "2022-02-21T17:30:49.000",
    "request_status": "Pending",
    "responsible_agency": "Department of Sanitation",
    "final_address": "927 Dublin St",
    "address_councildis": "A",
    "status": "Assigned to Contractor",
    "contractor": "Richards Disposal",
    "rowid": "862533",
    "final_x": "3661166.78624",
    "final_y": "527966.860735",
    "longitude": "-90.13239322580853",
    "latitude": "29.94632739157086",
    "geocoded_column": {
      "latitude": "29.94632739157086",
      "longitude": "-90.13239322580853"
    }
  },
  {
    "service_request": "2022-862532",
    "request_type": "Abandoned Vehicles",
    "request_reason": "Abandoned/Junk Vehicles",
    "date_created": "2022-02-21T17:27:47.000",
    "date_modified": "2022-02-21T17:27:47.000",
    "request_status": "Pending",
    "responsible_agency": "Department of Public Works",
    "final_address": "4838 Rosalia Dr",
    "address_councildis": "E",
    "status": "Pending",
    "rowid": "862532",
    "final_x": "3711056.58065",
    "final_y": "556578.426714",
    "longitude": "-89.97380340288049",
    "latitude": "30.023466373965782",
    "geocoded_column": {
      "latitude": "30.023466373965782",
      "longitude": "-89.97380340288049"
    }
  },
  {
    "service_request": "2022-862530",
    "request_type": "Traffic Signals/Signs/Striping/Streetlights",
    "request_reason": "Traffic Sign Missing/Damaged",
    "date_created": "2022-02-21T17:09:24.000",
    "date_modified": "2022-02-21T17:09:24.000",
    "request_status": "Pending",
    "responsible_agency": "Department of Public Works",
    "final_address": "OLIVE ST & LIVINGSTON ST",
    "address_councildis": "A",
    "status": "Pending",
    "rowid": "862530",
    "final_x": "3663601.9",
    "final_y": "537488.88",
    "longitude": "-90.12438748300704",
    "latitude": "29.97243943887448",
    "geocoded_column": {
      "latitude": "29.97243943887448",
      "longitude": "-90.12438748300704"
    }
  },
  {
    "service_request": "2022-862529",
    "request_type": "Trash/Recycling",
    "request_reason": "Missed Trash Pick-Up",
    "date_created": "2022-02-21T17:08:32.000",
    "date_modified": "2022-02-21T17:08:33.000",
    "request_status": "Pending",
    "responsible_agency": "Department of Sanitation",
    "final_address": "1017 N Galvez St",
    "address_councildis": "D",
    "status": "Assigned to Contractor",
    "contractor": "Richards Disposal",
    "rowid": "862529",
    "final_x": "3679100.6845",
    "final_y": "536739.366599",
    "longitude": "-90.07546557407653",
    "latitude": "29.969919797818687",
    "geocoded_column": {
      "latitude": "29.969919797818687",
      "longitude": "-90.07546557407653"
    }
  },
  {
    "service_request": "2022-862528",
    "request_type": "Traffic Signals/Signs/Striping/Streetlights",
    "request_reason": "Traffic Sign Missing/Damaged",
    "date_created": "2022-02-21T17:08:05.000",
    "date_modified": "2022-02-21T17:08:05.000",
    "request_status": "Pending",
    "responsible_agency": "Department of Public Works",
    "final_address": "1334 St Bernard Ave",
    "address_councildis": "C",
    "status": "Pending",
    "rowid": "862528",
    "final_x": "3682684.29973",
    "final_y": "536788.052296",
    "longitude": "-90.06414648075155",
    "latitude": "29.96994500907147",
    "geocoded_column": {
      "latitude": "29.96994500907147",
      "longitude": "-90.06414648075155"
    }
  },
  {
    "service_request": "2022-862527",
    "request_type": "Traffic Signals/Signs/Striping/Streetlights",
    "request_reason": "Traffic Sign Missing/Damaged",
    "date_created": "2022-02-21T17:01:10.000",
    "date_modified": "2022-02-21T17:01:10.000",
    "request_status": "Pending",
    "responsible_agency": "Department of Public Works",
    "final_address": "2527 St Bernard Ave",
    "address_councildis": "D",
    "status": "Pending",
    "rowid": "862527",
    "final_x": "3680565.36539",
    "final_y": "541264.801292",
    "longitude": "-90.07068248565021",
    "latitude": "29.98231888321053",
    "geocoded_column": {
      "latitude": "29.98231888321053",
      "longitude": "-90.07068248565021"
    }
  },
  {
    "service_request": "2022-862526",
    "request_type": "Property Maintenance",
    "request_reason": "Property Maintenance",
    "date_created": "2022-02-21T16:59:33.000",
    "date_modified": "2022-02-21T16:59:33.000",
    "request_status": "Pending",
    "responsible_agency": "Department of Code Enforcement",
    "final_address": "2239 Josephine St",
    "address_councildis": "B",
    "status": "Pending",
    "rowid": "862526",
    "final_x": "3676351.09512",
    "final_y": "526025.53331",
    "longitude": "-90.08451781069654",
    "latitude": "29.940543052232904",
    "geocoded_column": {
      "latitude": "29.940543052232904",
      "longitude": "-90.08451781069654"
    }
  },
  {
    "service_request": "2022-862525",
    "request_type": "Trash/Recycling",
    "request_reason": "Replace Trash Cart",
    "date_created": "2022-02-21T16:57:22.000",
    "date_modified": "2022-02-21T16:57:23.000",
    "request_status": "Pending",
    "responsible_agency": "Department of Sanitation",
    "final_address": "138 N Broad St",
    "address_councildis": "B",
    "status": "Assigned to Contractor",
    "contractor": "Richards Disposal",
    "rowid": "862525",
    "final_x": "3675668.93819",
    "final_y": "535356.284166",
    "longitude": "-90.08635090582142",
    "latitude": "29.966219930791304",
    "geocoded_column": {
      "latitude": "29.966219930791304",
      "longitude": "-90.08635090582142"
    }
  },
  {
    "service_request": "2022-862524",
    "request_type": "Trash/Recycling",
    "request_reason": "Missed Trash Pick-Up",
    "date_created": "2022-02-21T16:55:49.000",
    "date_modified": "2022-02-21T16:55:49.000",
    "request_status": "Pending",
    "responsible_agency": "Department of Sanitation",
    "final_address": "2228 Tricou St",
    "address_councildis": "E",
    "status": "Assigned to Contractor",
    "contractor": "Metro Disposal",
    "rowid": "862524",
    "final_x": "3701787.41732",
    "final_y": "537221.405896",
    "longitude": "-90.00380152094841",
    "latitude": "29.970540933358343",
    "geocoded_column": {
      "latitude": "29.970540933358343",
      "longitude": "-90.00380152094841"
    }
  },
  {
    "service_request": "2022-862523",
    "request_type": "Trash/Recycling",
    "request_reason": "Replace Trash Cart",
    "date_created": "2022-02-21T16:52:06.000",
    "date_modified": "2022-02-21T16:52:07.000",
    "request_status": "Pending",
    "responsible_agency": "Department of Sanitation",
    "final_address": "138 N Broad St",
    "address_councildis": "B",
    "status": "Assigned to Contractor",
    "contractor": "Richards Disposal",
    "rowid": "862523",
    "final_x": "3675668.93819",
    "final_y": "535356.284166",
    "longitude": "-90.08635090582142",
    "latitude": "29.966219930791304",
    "geocoded_column": {
      "latitude": "29.966219930791304",
      "longitude": "-90.08635090582142"
    }
  },
  {
    "service_request": "2022-862522",
    "request_type": "Trash/Recycling",
    "request_reason": "Request a Large Item Pick Up",
    "date_created": "2022-02-21T16:50:57.000",
    "date_modified": "2022-02-21T16:50:58.000",
    "request_status": "Pending",
    "responsible_agency": "Department of Sanitation",
    "final_address": "4215 S Broad St",
    "address_councildis": "B",
    "status": "Assigned to Contractor",
    "contractor": "Richards Disposal",
    "rowid": "862522",
    "final_x": "3670441.04385",
    "final_y": "529373.988417",
    "longitude": "-90.10306337152018",
    "latitude": "29.94992599985655",
    "geocoded_column": {
      "latitude": "29.94992599985655",
      "longitude": "-90.10306337152018"
    }
  },
  {
    "service_request": "2022-862521",
    "request_type": "Traffic Signals/Signs/Striping/Streetlights",
    "request_reason": "Traffic Signal Malfunctioning/Damaged",
    "date_created": "2022-02-21T16:38:53.000",
    "date_modified": "2022-02-21T16:39:55.000",
    "request_status": "Pending",
    "responsible_agency": "Department of Public Works",
    "final_address": "CANAL ST & S GALVEZ ST",
    "address_councildis": "B",
    "status": "Pending",
    "rowid": "862521",
    "final_x": "3676994.9",
    "final_y": "533820.38",
    "longitude": "-90.0822165030091",
    "latitude": "29.961956970183454",
    "geocoded_column": {
      "latitude": "29.961956970183454",
      "longitude": "-90.0822165030091"
    }
  },
  {
    "service_request": "2022-862520",
    "request_type": "Trash/Recycling",
    "request_reason": "Request a Large Item Pick Up",
    "date_created": "2022-02-21T16:36:11.000",
    "date_modified": "2022-02-21T16:36:12.000",
    "request_status": "Pending",
    "responsible_agency": "Department of Sanitation",
    "final_address": "1011 N Rocheblave St, New Orleans, Louisiana, 70119",
    "address_councildis": "D",
    "status": "Assigned to Contractor",
    "contractor": "Richards Disposal",
    "rowid": "862520",
    "final_x": "3678265.95432",
    "final_y": "537367.602952",
    "longitude": "-90.07807999836189",
    "latitude": "29.97167240253669",
    "geocoded_column": {
      "latitude": "29.97167240253669",
      "longitude": "-90.07807999836189"
    }
  },
  {
    "service_request": "2022-862519",
    "request_type": "Trash/Recycling",
    "request_reason": "Repair Recycling Cart",
    "date_created": "2022-02-21T16:35:32.000",
    "date_modified": "2022-02-21T16:35:32.000",
    "request_status": "Pending",
    "responsible_agency": "Department of Sanitation",
    "final_address": "4014 Fairmont Dr",
    "address_councildis": "D",
    "status": "Pending",
    "rowid": "862519",
    "final_x": "3684703.3718",
    "final_y": "547008.089937",
    "longitude": "-90.05741066599593",
    "latitude": "29.997984856183308",
    "geocoded_column": {
      "latitude": "29.997984856183308",
      "longitude": "-90.05741066599593"
    }
  },
  {
    "service_request": "2022-862518",
    "request_type": "Trash/Recycling",
    "request_reason": "Repair Recycling Cart",
    "date_created": "2022-02-21T16:33:19.000",
    "date_modified": "2022-02-21T16:33:19.000",
    "request_status": "Pending",
    "responsible_agency": "Department of Sanitation",
    "final_address": "2677 Cupid St",
    "address_councildis": "C",
    "status": "Pending",
    "rowid": "862518",
    "final_x": "3700278.62487",
    "final_y": "521015.971193",
    "longitude": "-90.00915786963078",
    "latitude": "29.926029751337783",
    "geocoded_column": {
      "latitude": "29.926029751337783",
      "longitude": "-90.00915786963078"
    }
  },
  {
    "service_request": "2022-862517",
    "request_type": "Traffic Signals/Signs/Striping/Streetlights",
    "request_reason": "Street Light Knocked Down/Leaning",
    "date_created": "2022-02-21T16:30:30.000",
    "date_modified": "2022-02-21T16:30:31.000",
    "request_status": "Pending",
    "responsible_agency": "Department of Public Works",
    "final_address": "MORRISON RD & DUNE DR",
    "address_councildis": "E",
    "status": "Pending",
    "contractor": "Royal Engineering",
    "rowid": "862517",
    "final_x": "3715786.9",
    "final_y": "568458.18",
    "longitude": "-89.9584063291963",
    "latitude": "30.0559757217612",
    "geocoded_column": {
      "latitude": "30.0559757217612",
      "longitude": "-89.9584063291963"
    }
  },
  {
    "service_request": "2022-862516",
    "request_type": "Traffic Signals/Signs/Striping/Streetlights",
    "request_reason": "Street Name Sign Damaged or Missing",
    "date_created": "2022-02-21T16:29:33.000",
    "date_modified": "2022-02-21T16:29:34.000",
    "request_status": "Pending",
    "responsible_agency": "Department of Public Works",
    "final_address": "MORRISON RD & DUNE DR",
    "address_councildis": "E",
    "status": "Pending",
    "rowid": "862516",
    "final_x": "3715786.9",
    "final_y": "568458.18",
    "longitude": "-89.9584063291963",
    "latitude": "30.0559757217612",
    "geocoded_column": {
      "latitude": "30.0559757217612",
      "longitude": "-89.9584063291963"
    }
  },
  {
    "service_request": "2022-862515",
    "request_type": "Trash/Recycling",
    "request_reason": "Missed Trash Pick-Up",
    "date_created": "2022-02-21T16:29:13.000",
    "date_modified": "2022-02-21T16:29:13.000",
    "request_status": "Pending",
    "responsible_agency": "Department of Sanitation",
    "final_address": "7811 Allison Rd, New Orleans, Louisiana, 70126",
    "address_councildis": "E",
    "status": "Assigned to Contractor",
    "contractor": "Metro Disposal",
    "rowid": "862515",
    "final_x": "3699905.67204",
    "final_y": "561066.477534",
    "longitude": "-90.00887380920388",
    "latitude": "30.036165856668973",
    "geocoded_column": {
      "latitude": "30.036165856668973",
      "longitude": "-90.00887380920388"
    }
  },
  {
    "service_request": "2022-862514",
    "request_type": "Tax and Revenue",
    "request_reason": "Occupational License Tax",
    "date_created": "2022-02-21T16:25:22.000",
    "date_modified": "2022-02-21T16:25:22.000",
    "request_status": "Pending",
    "responsible_agency": "Bureau of Revenue",
    "status": "Pending",
    "rowid": "862514",
    "longitude": "0.0",
    "latitude": "0.0",
    "geocoded_column": {
      "latitude": "0.0",
      "longitude": "0.0"
    }
  },
  {
    "service_request": "2022-862513",
    "request_type": "Trash/Recycling",
    "request_reason": "Replace Recycling Cart",
    "date_created": "2022-02-21T16:24:03.000",
    "date_modified": "2022-02-21T16:24:03.000",
    "request_status": "Pending",
    "responsible_agency": "Department of Sanitation",
    "final_address": "6203 Memphis St",
    "address_councildis": "A",
    "status": "Pending",
    "rowid": "862513",
    "final_x": "3669378.14695",
    "final_y": "548624.718483",
    "longitude": "-90.10576825158472",
    "latitude": "30.00289034933838",
    "geocoded_column": {
      "latitude": "30.00289034933838",
      "longitude": "-90.10576825158472"
    }
  },
  {
    "service_request": "2022-862512",
    "request_type": "Trash/Recycling",
    "request_reason": "Request a Large Item Pick Up",
    "date_created": "2022-02-21T16:19:31.000",
    "date_modified": "2022-02-21T16:19:32.000",
    "request_status": "Pending",
    "responsible_agency": "Department of Sanitation",
    "final_address": "6527 West End Blvd",
    "address_councildis": "A",
    "status": "Assigned to Contractor",
    "contractor": "Metro Disposal",
    "rowid": "862512",
    "final_x": "3666726.08122",
    "final_y": "551104.866517",
    "longitude": "-90.11406315775392",
    "latitude": "30.00978775139419",
    "geocoded_column": {
      "latitude": "30.00978775139419",
      "longitude": "-90.11406315775392"
    }
  },
  {
    "service_request": "2022-862511",
    "request_type": "Abandoned Vehicles",
    "request_reason": "Abandoned/Junk Vehicles",
    "date_created": "2022-02-21T16:16:19.000",
    "date_modified": "2022-02-21T16:16:48.000",
    "request_status": "Pending",
    "responsible_agency": "Department of Public Works",
    "final_address": "800 BLK Thayer St",
    "address_councildis": "C",
    "status": "Pending",
    "rowid": "862511",
    "final_x": "3689461.15188",
    "final_y": "528465.079997",
    "longitude": "-90.04304057332203",
    "latitude": "29.946851583254492",
    "geocoded_column": {
      "latitude": "29.946851583254492",
      "longitude": "-90.04304057332203"
    }
  },
  {
    "service_request": "2022-862510",
    "request_type": "Abandoned Vehicles",
    "request_reason": "Abandoned/Junk Vehicles",
    "date_created": "2022-02-21T16:07:01.000",
    "date_modified": "2022-02-21T16:07:01.000",
    "request_status": "Pending",
    "responsible_agency": "Department of Public Works",
    "final_address": "4500 Lynhuber Dr",
    "address_councildis": "D",
    "status": "Pending",
    "rowid": "862510",
    "final_x": "3698085.44515",
    "final_y": "552996.146775",
    "longitude": "-90.0149194951639",
    "latitude": "30.01403325573364",
    "geocoded_column": {
      "latitude": "30.01403325573364",
      "longitude": "-90.0149194951639"
    }
  },
  {
    "service_request": "2022-862509",
    "request_type": "Roads/Drainage",
    "request_reason": "Pothole",
    "date_created": "2022-02-21T16:03:02.000",
    "date_modified": "2022-02-21T16:03:02.000",
    "request_status": "Pending",
    "responsible_agency": "Department of Public Works",
    "final_address": "1000 BLK Desire St",
    "address_councildis": "C",
    "status": "Pending",
    "rowid": "862509",
    "final_x": "3690129.6804",
    "final_y": "535489.49016",
    "longitude": "-90.04067958800863",
    "latitude": "29.966145558711876",
    "geocoded_column": {
      "latitude": "29.966145558711876",
      "longitude": "-90.04067958800863"
    }
  },
  {
    "service_request": "2022-862508",
    "request_type": "Abandoned Vehicles",
    "request_reason": "Abandoned/Junk Vehicles",
    "date_created": "2022-02-21T16:02:22.000",
    "date_modified": "2022-02-21T16:02:22.000",
    "request_status": "Pending",
    "responsible_agency": "Department of Public Works",
    "final_address": "501 S Scott St",
    "address_councildis": "B",
    "status": "Pending",
    "rowid": "862508",
    "final_x": "3670740.66228",
    "final_y": "536553.269127",
    "longitude": "-90.10187371329756",
    "latitude": "29.969657790307764",
    "geocoded_column": {
      "latitude": "29.969657790307764",
      "longitude": "-90.10187371329756"
    }
  },
  {
    "service_request": "2022-862507",
    "request_type": "Abandoned Vehicles",
    "request_reason": "Abandoned/Junk Vehicles",
    "date_created": "2022-02-21T16:02:19.000",
    "date_modified": "2022-02-21T16:02:19.000",
    "request_status": "Pending",
    "responsible_agency": "Department of Public Works",
    "final_address": "501 S Scott St",
    "address_councildis": "B",
    "status": "Pending",
    "rowid": "862507",
    "final_x": "3670740.66228",
    "final_y": "536553.269127",
    "longitude": "-90.10187371329756",
    "latitude": "29.969657790307764",
    "geocoded_column": {
      "latitude": "29.969657790307764",
      "longitude": "-90.10187371329756"
    }
  },
  {
    "service_request": "2022-862506",
    "request_type": "Trash/Recycling",
    "request_reason": "Order Trash Cart",
    "date_created": "2022-02-21T16:01:35.000",
    "date_modified": "2022-02-21T16:01:36.000",
    "request_status": "Pending",
    "responsible_agency": "Department of Sanitation",
    "final_address": "4875 Alsace St",
    "address_councildis": "E",
    "status": "Assigned to Contractor",
    "contractor": "Metro Disposal",
    "rowid": "862506",
    "final_x": "3730570.44",
    "final_y": "562884.52144",
    "longitude": "-89.91189750174813",
    "latitude": "30.040154464624447",
    "geocoded_column": {
      "latitude": "30.040154464624447",
      "longitude": "-89.91189750174813"
    }
  },
  {
    "service_request": "2022-862505",
    "request_type": "Abandoned Vehicles",
    "request_reason": "Abandoned/Junk Vehicles",
    "date_created": "2022-02-21T15:55:46.000",
    "date_modified": "2022-02-21T15:55:46.000",
    "request_status": "Pending",
    "responsible_agency": "Department of Public Works",
    "final_address": "4116 Prytania St",
    "address_councildis": "B",
    "status": "Pending",
    "rowid": "862505",
    "final_x": "3671852.56423",
    "final_y": "520362.412024",
    "longitude": "-90.09891307101228",
    "latitude": "29.925105340436552",
    "geocoded_column": {
      "latitude": "29.925105340436552",
      "longitude": "-90.09891307101228"
    }
  },
  {
    "service_request": "2022-862504",
    "request_type": "Abandoned Vehicles",
    "request_reason": "Abandoned/Junk Vehicles",
    "date_created": "2022-02-21T15:55:40.000",
    "date_modified": "2022-02-21T15:55:40.000",
    "request_status": "Pending",
    "responsible_agency": "Department of Public Works",
    "status": "Inspected",
    "rowid": "862504",
    "longitude": "0.0",
    "latitude": "0.0",
    "geocoded_column": {
      "latitude": "0.0",
      "longitude": "0.0"
    }
  },
  {
    "service_request": "2022-862503",
    "request_type": "Health Related Questions",
    "request_reason": "Noise Ordinance Complaint",
    "date_created": "2022-02-21T15:54:31.000",
    "date_modified": "2022-02-21T15:54:31.000",
    "request_status": "Pending",
    "responsible_agency": "Health Department",
    "final_address": "4900 BLK Cernay St",
    "address_councildis": "E",
    "status": "Pending",
    "rowid": "862503",
    "final_x": "3727617.56408",
    "final_y": "561912.069205",
    "longitude": "-89.92126726485833",
    "latitude": "30.037581014744838",
    "geocoded_column": {
      "latitude": "30.037581014744838",
      "longitude": "-89.92126726485833"
    }
  },
  {
    "service_request": "2022-862502",
    "request_type": "Traffic Signals/Signs/Striping/Streetlights",
    "request_reason": "Street Light Outage/Malfunction",
    "date_created": "2022-02-21T15:51:02.000",
    "date_modified": "2022-02-21T15:51:06.000",
    "request_status": "Pending",
    "responsible_agency": "Department of Public Works",
    "final_address": "1700 BLK Saint Denis St",
    "address_councildis": "D",
    "status": "Pending",
    "contractor": "Royal Engineering",
    "rowid": "862502",
    "final_x": "3680612.73716",
    "final_y": "545956.830118",
    "longitude": "-90.07036951718192",
    "latitude": "29.995218877511146",
    "geocoded_column": {
      "latitude": "29.995218877511146",
      "longitude": "-90.07036951718192"
    }
  },
  {
    "service_request": "2022-862501",
    "request_type": "Abandoned Vehicles",
    "request_reason": "Abandoned/Junk Vehicles",
    "date_created": "2022-02-21T15:50:34.000",
    "date_modified": "2022-02-21T15:50:34.000",
    "request_status": "Pending",
    "responsible_agency": "Department of Public Works",
    "status": "Inspected",
    "rowid": "862501",
    "longitude": "0.0",
    "latitude": "0.0",
    "geocoded_column": {
      "latitude": "0.0",
      "longitude": "0.0"
    }
  },
  {
    "service_request": "2022-862500",
    "request_type": "Safety & Permits",
    "request_reason": "Licenses & Permits",
    "date_created": "2022-02-21T15:46:57.000",
    "date_modified": "2022-02-21T15:46:57.000",
    "request_status": "Pending",
    "responsible_agency": "Safety and Permits",
    "final_address": "1137 Esplanade Ave",
    "address_councildis": "C",
    "status": "Pending",
    "rowid": "862500",
    "final_x": "3682803.91362",
    "final_y": "535457.53063",
    "longitude": "-90.06381528341335",
    "latitude": "29.966282890061382",
    "geocoded_column": {
      "latitude": "29.966282890061382",
      "longitude": "-90.06381528341335"
    }
  },
  {
    "service_request": "2022-862499",
    "request_type": "Trash/Recycling",
    "request_reason": "Request a Large Item Pick Up",
    "date_created": "2022-02-21T15:46:54.000",
    "date_modified": "2022-02-21T15:46:55.000",
    "request_status": "Pending",
    "responsible_agency": "Department of Sanitation",
    "final_address": "2018 Delachaise St",
    "address_councildis": "B",
    "status": "Assigned to Contractor",
    "contractor": "Richards Disposal",
    "rowid": "862499",
    "final_x": "3673166.99924",
    "final_y": "522847.205627",
    "longitude": "-90.09467902420118",
    "latitude": "29.93189872021982",
    "geocoded_column": {
      "latitude": "29.93189872021982",
      "longitude": "-90.09467902420118"
    }
  },
  {
    "service_request": "2022-862498",
    "request_type": "Trash/Recycling",
    "request_reason": "Request a Large Item Pick Up",
    "date_created": "2022-02-21T15:45:23.000",
    "date_modified": "2022-02-21T15:45:24.000",
    "request_status": "Pending",
    "responsible_agency": "Department of Sanitation",
    "final_address": "4329 Baudin St, New Orleans, Louisiana, 70119",
    "address_councildis": "A",
    "status": "Assigned to Contractor",
    "contractor": "Richards Disposal",
    "rowid": "862498",
    "final_x": "3669128.93281",
    "final_y": "537859.337673",
    "longitude": "-90.10691956498127",
    "latitude": "29.973296571203473",
    "geocoded_column": {
      "latitude": "29.973296571203473",
      "longitude": "-90.10691956498127"
    }
  },
  {
    "service_request": "2022-862497",
    "request_type": "Safety & Permits",
    "request_reason": "Construction permit",
    "date_created": "2022-02-21T15:44:36.000",
    "date_modified": "2022-02-21T15:44:36.000",
    "request_status": "Pending",
    "responsible_agency": "Department of Code Enforcement",
    "final_address": "2525 St Charles Ave",
    "address_councildis": "B",
    "status": "Pending",
    "rowid": "862497",
    "final_x": "3676476.79214",
    "final_y": "522986.155067",
    "longitude": "-90.08422557027542",
    "latitude": "29.932181990698187",
    "geocoded_column": {
      "latitude": "29.932181990698187",
      "longitude": "-90.08422557027542"
    }
  },
  {
    "service_request": "2022-862496",
    "request_type": "Abandoned Vehicles",
    "request_reason": "Abandoned/Junk Vehicles",
    "date_created": "2022-02-21T15:39:29.000",
    "date_modified": "2022-02-21T15:48:38.000",
    "request_status": "Pending",
    "responsible_agency": "Department of Public Works",
    "status": "Inspected",
    "rowid": "862496",
    "longitude": "0.0",
    "latitude": "0.0",
    "geocoded_column": {
      "latitude": "0.0",
      "longitude": "0.0"
    }
  },
  {
    "service_request": "2022-862495",
    "request_type": "Abandoned Vehicles",
    "request_reason": "Abandoned/Junk Vehicles",
    "date_created": "2022-02-21T15:38:10.000",
    "date_modified": "2022-02-21T15:38:10.000",
    "request_status": "Pending",
    "responsible_agency": "Department of Public Works",
    "final_address": "40933 Dwyer Rd",
    "address_councildis": "E",
    "status": "Pending",
    "rowid": "862495",
    "final_x": "3721049.64422",
    "final_y": "559272.728284",
    "longitude": "-89.94212445698547",
    "latitude": "30.030544816359527",
    "geocoded_column": {
      "latitude": "30.030544816359527",
      "longitude": "-89.94212445698547"
    }
  },
  {
    "service_request": "2022-862494",
    "request_type": "Trash/Recycling",
    "request_reason": "Request a Large Item Pick Up",
    "date_created": "2022-02-21T15:38:10.000",
    "date_modified": "2022-02-21T15:38:10.000",
    "request_status": "Pending",
    "responsible_agency": "Department of Sanitation",
    "final_address": "111 Egret St, New Orleans, Louisiana, 70124",
    "address_councildis": "D",
    "status": "Assigned to Contractor",
    "contractor": "Metro Disposal",
    "rowid": "862494",
    "final_x": "3673608.99393",
    "final_y": "555871.256217",
    "longitude": "-90.09215441425657",
    "latitude": "30.022690440306643",
    "geocoded_column": {
      "latitude": "30.022690440306643",
      "longitude": "-90.09215441425657"
    }
  },
  {
    "service_request": "2022-862493",
    "request_type": "Trash/Recycling",
    "request_reason": "Request a Large Item Pick Up",
    "date_created": "2022-02-21T15:36:57.000",
    "date_modified": "2022-02-21T15:36:58.000",
    "request_status": "Pending",
    "responsible_agency": "Department of Sanitation",
    "final_address": "5831 Vicksburg St",
    "address_councildis": "A",
    "status": "Assigned to Contractor",
    "contractor": "Metro Disposal",
    "rowid": "862493",
    "final_x": "3668862.36916",
    "final_y": "546177.249232",
    "longitude": "-90.1074803891596",
    "latitude": "29.99617584009648",
    "geocoded_column": {
      "latitude": "29.99617584009648",
      "longitude": "-90.1074803891596"
    }
  },
  {
    "service_request": "2022-862492",
    "request_type": "Trash/Recycling",
    "request_reason": "Order Trash Cart",
    "date_created": "2022-02-21T15:35:12.000",
    "date_modified": "2022-02-21T15:35:13.000",
    "request_status": "Pending",
    "responsible_agency": "Department of Sanitation",
    "final_address": "New Orleans,LA",
    "status": "Assigned to Contractor",
    "rowid": "862492",
    "longitude": "0.0",
    "latitude": "0.0",
    "geocoded_column": {
      "latitude": "0.0",
      "longitude": "0.0"
    }
  },
  {
    "service_request": "2022-862491",
    "request_type": "Roads/Drainage",
    "request_reason": "Accessibility Ramps, Curbs and Sidewalk Repair",
    "date_created": "2022-02-21T15:34:12.000",
    "date_modified": "2022-02-21T15:34:12.000",
    "request_status": "Pending",
    "responsible_agency": "Department of Public Works",
    "final_address": "4801 Knight Dr",
    "address_councildis": "E",
    "status": "Pending",
    "rowid": "862491",
    "final_x": "3708155.25073",
    "final_y": "556044.565465",
    "longitude": "-89.98299079827353",
    "latitude": "30.022092797757136",
    "geocoded_column": {
      "latitude": "30.022092797757136",
      "longitude": "-89.98299079827353"
    }
  },
  {
    "service_request": "2022-862490",
    "request_type": "Roads/Drainage",
    "request_reason": "Debris in Roadway",
    "date_created": "2022-02-21T15:33:39.000",
    "date_modified": "2022-02-21T15:33:39.000",
    "request_status": "Pending",
    "responsible_agency": "Department of Public Works",
    "final_address": "1614 Painters St",
    "address_councildis": "D",
    "status": "Pending",
    "rowid": "862490",
    "final_x": "3687362.49878",
    "final_y": "538498.587209",
    "longitude": "-90.04931177569073",
    "latitude": "29.974505069728085",
    "geocoded_column": {
      "latitude": "29.974505069728085",
      "longitude": "-90.04931177569073"
    }
  },
  {
    "service_request": "2022-862489",
    "request_type": "Property Maintenance",
    "request_reason": "Property Maintenance",
    "date_created": "2022-02-21T15:28:25.000",
    "date_modified": "2022-02-21T15:28:25.000",
    "request_status": "Pending",
    "responsible_agency": "Department of Code Enforcement",
    "final_address": "4901 Bonita Dr",
    "address_councildis": "E",
    "status": "Pending",
    "rowid": "862489",
    "final_x": "3704457.0113",
    "final_y": "556047.898457",
    "longitude": "-89.99467608960494",
    "latitude": "30.022221280077144",
    "geocoded_column": {
      "latitude": "30.022221280077144",
      "longitude": "-89.99467608960494"
    }
  },
  {
    "service_request": "2022-862488",
    "request_type": "Trash/Recycling",
    "request_reason": "Order Trash Cart",
    "date_created": "2022-02-21T15:25:31.000",
    "date_modified": "2022-02-21T15:25:31.000",
    "request_status": "Pending",
    "responsible_agency": "Department of Sanitation",
    "final_address": "1914 Stephen Girard St, New Orleans, Louisiana, 70122",
    "address_councildis": "D",
    "status": "Assigned to Contractor",
    "contractor": "Metro Disposal",
    "rowid": "862488",
    "final_x": "3681976.77576",
    "final_y": "548621.380691",
    "longitude": "-90.06596756568922",
    "latitude": "30.00250403014837",
    "geocoded_column": {
      "latitude": "30.00250403014837",
      "longitude": "-90.06596756568922"
    }
  },
  {
    "service_request": "2022-862487",
    "request_type": "Trash/Recycling",
    "request_reason": "Order Trash Cart",
    "date_created": "2022-02-21T15:23:50.000",
    "date_modified": "2022-02-21T15:23:51.000",
    "request_status": "Pending",
    "responsible_agency": "Department of Sanitation",
    "final_address": "428 12Th St",
    "address_councildis": "A",
    "status": "Assigned to Contractor",
    "contractor": "Metro Disposal",
    "rowid": "862487",
    "final_x": "3664526.35188",
    "final_y": "547813.15861",
    "longitude": "-90.12112294297955",
    "latitude": "30.000800868709415",
    "geocoded_column": {
      "latitude": "30.000800868709415",
      "longitude": "-90.12112294297955"
    }
  },
  {
    "service_request": "2022-862486",
    "request_type": "Traffic Signals/Signs/Striping/Streetlights",
    "request_reason": "Traffic Signal Malfunctioning/Damaged",
    "date_created": "2022-02-21T15:23:43.000",
    "date_modified": "2022-02-21T15:23:43.000",
    "request_status": "Pending",
    "responsible_agency": "Department of Public Works",
    "final_address": "CANAL ST & DAUPHINE ST",
    "address_councildis": "C",
    "status": "Pending",
    "rowid": "862486",
    "final_x": "3680651.4",
    "final_y": "531147.58",
    "longitude": "-90.0707628512661",
    "latitude": "29.95449739199053",
    "geocoded_column": {
      "latitude": "29.95449739199053",
      "longitude": "-90.0707628512661"
    }
  },
  {
    "service_request": "2022-862485",
    "request_type": "Trash/Recycling",
    "request_reason": "Replace Trash Cart",
    "date_created": "2022-02-21T15:23:05.000",
    "date_modified": "2022-02-21T15:23:06.000",
    "request_status": "Pending",
    "responsible_agency": "Department of Sanitation",
    "final_address": "1203 N Galvez St",
    "address_councildis": "D",
    "status": "Assigned to Contractor",
    "contractor": "Richards Disposal",
    "rowid": "862485",
    "final_x": "3679433.14978",
    "final_y": "537233.538824",
    "longitude": "-90.07439846997",
    "latitude": "29.971268562208273",
    "geocoded_column": {
      "latitude": "29.971268562208273",
      "longitude": "-90.07439846997"
    }
  },
  {
    "service_request": "2022-862484",
    "request_type": "Trash/Recycling",
    "request_reason": "Illegal Dumping",
    "date_created": "2022-02-21T15:17:46.000",
    "date_modified": "2022-02-21T15:17:46.000",
    "request_status": "Pending",
    "responsible_agency": "Department of Sanitation",
    "final_address": "40933 Dwyer Rd",
    "address_councildis": "E",
    "status": "Pending",
    "rowid": "862484",
    "final_x": "3721049.64422",
    "final_y": "559272.728284",
    "longitude": "-89.94212445698547",
    "latitude": "30.030544816359527",
    "geocoded_column": {
      "latitude": "30.030544816359527",
      "longitude": "-89.94212445698547"
    }
  },
  {
    "service_request": "2022-862483",
    "request_type": "Trash/Recycling",
    "request_reason": "Request a Large Item Pick Up",
    "date_created": "2022-02-21T15:16:55.000",
    "date_modified": "2022-02-21T15:16:55.000",
    "request_status": "Pending",
    "responsible_agency": "Department of Sanitation",
    "final_address": "3831 Lennox Blvd",
    "address_councildis": "C",
    "status": "Assigned to Contractor",
    "contractor": "Richards Disposal",
    "rowid": "862483",
    "final_x": "3700465.48061",
    "final_y": "517125.426165",
    "longitude": "-90.00870999961347",
    "latitude": "29.915326146081327",
    "geocoded_column": {
      "latitude": "29.915326146081327",
      "longitude": "-90.00870999961347"
    }
  },
  {
    "service_request": "2022-862482",
    "request_type": "Trash/Recycling",
    "request_reason": "Request a Large Item Pick Up",
    "date_created": "2022-02-21T15:07:06.000",
    "date_modified": "2022-02-21T15:07:07.000",
    "request_status": "Pending",
    "responsible_agency": "Department of Sanitation",
    "final_address": "2227 Cambronne St",
    "address_councildis": "A",
    "status": "Assigned to Contractor",
    "contractor": "Richards Disposal",
    "rowid": "862482",
    "final_x": "3663718.47571",
    "final_y": "531840.034179",
    "longitude": "-90.12420756861849",
    "latitude": "29.95690358370799",
    "geocoded_column": {
      "latitude": "29.95690358370799",
      "longitude": "-90.12420756861849"
    }
  },
  {
    "service_request": "2022-862481",
    "request_type": "Roads/Drainage",
    "request_reason": "Pothole",
    "date_created": "2022-02-21T15:05:55.000",
    "date_modified": "2022-02-21T15:05:55.000",
    "request_status": "Pending",
    "responsible_agency": "Department of Public Works",
    "final_address": "4040 Eagle St",
    "address_councildis": "A",
    "status": "Pending",
    "rowid": "862481",
    "final_x": "3666891.54471",
    "final_y": "537588.835016",
    "longitude": "-90.11399480828592",
    "latitude": "29.97261843607686",
    "geocoded_column": {
      "latitude": "29.97261843607686",
      "longitude": "-90.11399480828592"
    }
  },
  {
    "service_request": "2022-862480",
    "request_type": "Trash/Recycling",
    "request_reason": "Replace Trash Cart",
    "date_created": "2022-02-21T15:05:03.000",
    "date_modified": "2022-02-21T15:05:57.000",
    "request_status": "Pending",
    "responsible_agency": "Department of Sanitation",
    "final_address": "New Orleans,LA",
    "address_councildis": "E",
    "status": "Assigned to Contractor",
    "contractor": "Metro Disposal",
    "rowid": "862480",
    "final_x": "3704884.88849",
    "final_y": "564043.876769",
    "longitude": "-89.99302858351035",
    "latitude": "30.044193337556813",
    "geocoded_column": {
      "latitude": "30.044193337556813",
      "longitude": "-89.99302858351035"
    }
  },
  {
    "service_request": "2022-862479",
    "request_type": "Trash/Recycling",
    "request_reason": "Missed Trash Pick-Up",
    "date_created": "2022-02-21T15:01:27.000",
    "date_modified": "2022-02-21T15:01:29.000",
    "request_status": "Pending",
    "responsible_agency": "Department of Sanitation",
    "final_address": "610 River Oaks Dr",
    "address_councildis": "C",
    "status": "Assigned to Contractor",
    "contractor": "Richards Disposal",
    "rowid": "862479",
    "final_x": "3701544.70705",
    "final_y": "520533.116216",
    "longitude": "-90.00517891330645",
    "latitude": "29.924661774819956",
    "geocoded_column": {
      "latitude": "29.924661774819956",
      "longitude": "-90.00517891330645"
    }
  },
  {
    "service_request": "2022-862478",
    "request_type": "Trash/Recycling",
    "request_reason": "Request a Large Item Pick Up",
    "date_created": "2022-02-21T15:00:34.000",
    "date_modified": "2022-02-21T15:00:35.000",
    "request_status": "Pending",
    "responsible_agency": "Department of Sanitation",
    "final_address": "3030 General Pershing St",
    "address_councildis": "B",
    "status": "Assigned to Contractor",
    "contractor": "Richards Disposal",
    "rowid": "862478",
    "final_x": "3670682.55419",
    "final_y": "526181.521086",
    "longitude": "-90.1024090954524",
    "latitude": "29.941140624396812",
    "geocoded_column": {
      "latitude": "29.941140624396812",
      "longitude": "-90.1024090954524"
    }
  },
  {
    "service_request": "2022-862475",
    "request_type": "Roads/Drainage",
    "request_reason": "Alley Way",
    "date_created": "2022-02-21T14:56:45.000",
    "date_modified": "2022-02-21T14:56:45.000",
    "request_status": "Pending",
    "responsible_agency": "Department of Public Works",
    "final_address": "6712 Orleans Ave",
    "address_councildis": "A",
    "status": "Pending",
    "rowid": "862475",
    "final_x": "3671237.72161",
    "final_y": "552015.740246",
    "longitude": "-90.0997782526155",
    "latitude": "30.01215955701992",
    "geocoded_column": {
      "latitude": "30.01215955701992",
      "longitude": "-90.0997782526155"
    }
  },
  {
    "service_request": "2022-862474",
    "request_type": "Trash/Recycling",
    "request_reason": "Request a Large Item Pick Up",
    "date_created": "2022-02-21T14:56:27.000",
    "date_modified": "2022-02-21T14:56:28.000",
    "request_status": "Pending",
    "responsible_agency": "Department of Sanitation",
    "final_address": "1917 Upperline St",
    "address_councildis": "B",
    "status": "Assigned to Contractor",
    "contractor": "Richards Disposal",
    "rowid": "862474",
    "final_x": "3669151.64967",
    "final_y": "521938.802746",
    "longitude": "-90.10738577525973",
    "latitude": "29.929519644215603",
    "geocoded_column": {
      "latitude": "29.929519644215603",
      "longitude": "-90.10738577525973"
    }
  },
  {
    "service_request": "2022-862473",
    "request_type": "Abandoned Vehicles",
    "request_reason": "Abandoned/Junk Vehicles",
    "date_created": "2022-02-21T14:55:41.000",
    "date_modified": "2022-02-21T14:55:41.000",
    "request_status": "Pending",
    "responsible_agency": "Department of Public Works",
    "final_address": "40933 Dwyer Rd",
    "address_councildis": "E",
    "status": "Pending",
    "rowid": "862473",
    "final_x": "3721049.64422",
    "final_y": "559272.728284",
    "longitude": "-89.94212445698547",
    "latitude": "30.030544816359527",
    "geocoded_column": {
      "latitude": "30.030544816359527",
      "longitude": "-89.94212445698547"
    }
  },
  {
    "service_request": "2022-862472",
    "request_type": "Trash/Recycling",
    "request_reason": "Request a Large Item Pick Up",
    "date_created": "2022-02-21T14:53:11.000",
    "date_modified": "2022-02-21T14:53:12.000",
    "request_status": "Pending",
    "responsible_agency": "Department of Sanitation",
    "final_address": "4630 Anson St",
    "address_councildis": "C",
    "status": "Assigned to Contractor",
    "contractor": "Richards Disposal",
    "rowid": "862472",
    "final_x": "3702251.25297",
    "final_y": "521618.745209",
    "longitude": "-90.0029088107356",
    "latitude": "29.92762434123319",
    "geocoded_column": {
      "latitude": "29.92762434123319",
      "longitude": "-90.0029088107356"
    }
  },
  {
    "service_request": "2022-862471",
    "request_type": "Roads/Drainage",
    "request_reason": "Street Flooding / Drainage",
    "date_created": "2022-02-21T14:48:25.000",
    "date_modified": "2022-02-21T14:51:01.000",
    "request_status": "Pending",
    "responsible_agency": "Department of Public Works",
    "final_address": "4100 BLK Pauger St",
    "address_councildis": "D",
    "status": "Pending",
    "rowid": "862471",
    "final_x": "3682941.7289",
    "final_y": "547814.363148",
    "longitude": "-90.0629474244776",
    "latitude": "30.000255639359384",
    "geocoded_column": {
      "latitude": "30.000255639359384",
      "longitude": "-90.0629474244776"
    }
  },
  {
    "service_request": "2022-862470",
    "request_type": "Trash/Recycling",
    "request_reason": "MIssed Recycling Pick-Up",
    "date_created": "2022-02-21T14:47:51.000",
    "date_modified": "2022-02-21T14:47:52.000",
    "request_status": "Pending",
    "responsible_agency": "Department of Sanitation",
    "final_address": "1359 Magazine St",
    "address_councildis": "B",
    "status": "Assigned to Contractor",
    "contractor": "Richards Disposal",
    "rowid": "862470",
    "final_x": "3680379.00667",
    "final_y": "524761.252028",
    "longitude": "-90.07184497036754",
    "latitude": "29.93694537608828",
    "geocoded_column": {
      "latitude": "29.93694537608828",
      "longitude": "-90.07184497036754"
    }
  },
  {
    "service_request": "2022-862469",
    "request_type": "Trash/Recycling",
    "request_reason": "Missed Trash Pick-Up",
    "date_created": "2022-02-21T14:47:19.000",
    "date_modified": "2022-02-21T14:47:20.000",
    "request_status": "Pending",
    "responsible_agency": "Department of Sanitation",
    "final_address": "2233 St Ann St",
    "address_councildis": "D",
    "status": "Assigned to Contractor",
    "contractor": "Richards Disposal",
    "rowid": "862469",
    "final_x": "3678373.58741",
    "final_y": "536164.386951",
    "longitude": "-90.07778171436611",
    "latitude": "29.968360727610758",
    "geocoded_column": {
      "latitude": "29.968360727610758",
      "longitude": "-90.07778171436611"
    }
  },
  {
    "service_request": "2022-862466",
    "request_type": "Traffic Signals/Signs/Striping/Streetlights",
    "request_reason": "Street Name Sign Damaged or Missing",
    "date_created": "2022-02-21T14:40:39.000",
    "date_modified": "2022-02-21T14:40:39.000",
    "request_status": "Pending",
    "responsible_agency": "Department of Public Works",
    "final_address": "900 Howard Ave",
    "address_councildis": "B",
    "status": "Pending",
    "rowid": "862466",
    "final_x": "3679280.57096",
    "final_y": "527611.107455",
    "longitude": "-90.07521400248727",
    "latitude": "29.944814739164837",
    "geocoded_column": {
      "latitude": "29.944814739164837",
      "longitude": "-90.07521400248727"
    }
  },
  {
    "service_request": "2022-862465",
    "request_type": "Traffic Signals/Signs/Striping/Streetlights",
    "request_reason": "Street Light Outage/Malfunction",
    "date_created": "2022-02-21T14:40:15.000",
    "date_modified": "2022-02-21T14:40:16.000",
    "request_status": "Pending",
    "responsible_agency": "Department of Public Works",
    "final_address": "5754 Pasteur Blvd",
    "address_councildis": "D",
    "status": "Pending",
    "contractor": "Royal Engineering",
    "rowid": "862465",
    "final_x": "3682671.4701",
    "final_y": "554462.722328",
    "longitude": "-90.06356844651391",
    "latitude": "30.01854445677738",
    "geocoded_column": {
      "latitude": "30.01854445677738",
      "longitude": "-90.06356844651391"
    }
  },
  {
    "service_request": "2022-862464",
    "request_type": "Abandoned Vehicles",
    "request_reason": "Vehicle Blocking Your Driveway",
    "date_created": "2022-02-21T14:35:21.000",
    "date_modified": "2022-02-21T14:35:21.000",
    "request_status": "Pending",
    "responsible_agency": "Department of Public Works",
    "final_address": "608 Tchoupitoulas St",
    "address_councildis": "B",
    "status": "Pending",
    "rowid": "862464",
    "final_x": "3681816.77039",
    "final_y": "528529.583552",
    "longitude": "-90.06717441727928",
    "latitude": "29.947263425951",
    "geocoded_column": {
      "latitude": "29.947263425951",
      "longitude": "-90.06717441727928"
    }
  },
  {
    "service_request": "2022-862463",
    "request_type": "Traffic Signals/Signs/Striping/Streetlights",
    "request_reason": "Additional signage",
    "date_created": "2022-02-21T14:32:27.000",
    "date_modified": "2022-02-21T14:32:27.000",
    "request_status": "Pending",
    "responsible_agency": "Department of Public Works",
    "final_address": "1800 St Bernard Ave",
    "address_councildis": "D",
    "status": "Pending",
    "rowid": "862463",
    "final_x": "3681766.26364",
    "final_y": "538494.435209",
    "longitude": "-90.06698616896747",
    "latitude": "29.97466490011377",
    "geocoded_column": {
      "latitude": "29.97466490011377",
      "longitude": "-90.06698616896747"
    }
  },
  {
    "service_request": "2022-862462",
    "request_type": "Trash/Recycling",
    "request_reason": "Missed Trash Pick-Up",
    "date_created": "2022-02-21T14:31:57.000",
    "date_modified": "2022-02-21T14:31:58.000",
    "request_status": "Pending",
    "responsible_agency": "Department of Sanitation",
    "final_address": "222 S Bernadotte St",
    "address_councildis": "A",
    "status": "Assigned to Contractor",
    "contractor": "Richards Disposal",
    "rowid": "862462",
    "final_x": "3668481.10273",
    "final_y": "539542.897354",
    "longitude": "-90.10890873375813",
    "latitude": "29.977944844030226",
    "geocoded_column": {
      "latitude": "29.977944844030226",
      "longitude": "-90.10890873375813"
    }
  },
  {
    "service_request": "2022-862461",
    "request_type": "Trash/Recycling",
    "request_reason": "Repair Trash Cart",
    "date_created": "2022-02-21T14:29:35.000",
    "date_modified": "2022-02-21T14:29:36.000",
    "request_status": "Pending",
    "responsible_agency": "Department of Sanitation",
    "final_address": "4555 Marque Dr",
    "address_councildis": "E",
    "status": "Assigned to Contractor",
    "contractor": "Metro Disposal",
    "rowid": "862461",
    "final_x": "3710285.29285",
    "final_y": "554573.283928",
    "longitude": "-89.97631552309558",
    "latitude": "30.017978155034506",
    "geocoded_column": {
      "latitude": "30.017978155034506",
      "longitude": "-89.97631552309558"
    }
  },
  {
    "service_request": "2022-862460",
    "request_type": "Trash/Recycling",
    "request_reason": "Request a Large Item Pick Up",
    "date_created": "2022-02-21T14:28:55.000",
    "date_modified": "2022-02-21T14:28:56.000",
    "request_status": "Pending",
    "responsible_agency": "Department of Sanitation",
    "final_address": "4011 Erato St",
    "address_councildis": "B",
    "status": "Assigned to Contractor",
    "contractor": "Richards Disposal",
    "rowid": "862460",
    "final_x": "3671652.99924",
    "final_y": "531085.902658",
    "longitude": "-90.0991784385573",
    "latitude": "29.95459736372876",
    "geocoded_column": {
      "latitude": "29.95459736372876",
      "longitude": "-90.0991784385573"
    }
  },
  {
    "service_request": "2022-862458",
    "request_type": "Trash/Recycling",
    "request_reason": "Illegal Dumping",
    "date_created": "2022-02-21T14:24:06.000",
    "date_modified": "2022-02-21T14:24:06.000",
    "request_status": "Pending",
    "responsible_agency": "Department of Sanitation",
    "final_address": "1201 N Claiborne Ave",
    "address_councildis": "D",
    "status": "Pending",
    "rowid": "862458",
    "final_x": "3680951.51867",
    "final_y": "536356.234567",
    "longitude": "-90.06963380872918",
    "latitude": "29.968810319533404",
    "geocoded_column": {
      "latitude": "29.968810319533404",
      "longitude": "-90.06963380872918"
    }
  },
  {
    "service_request": "2022-862457",
    "request_type": "Trash/Recycling",
    "request_reason": "Repair Trash Cart",
    "date_created": "2022-02-21T14:17:28.000",
    "date_modified": "2022-02-21T14:17:29.000",
    "request_status": "Pending",
    "responsible_agency": "Department of Sanitation",
    "final_address": "129 N Genois St",
    "address_councildis": "B",
    "status": "Assigned to Contractor",
    "contractor": "Richards Disposal",
    "rowid": "862457",
    "final_x": "3672765.09147",
    "final_y": "537485.606088",
    "longitude": "-90.09544856602389",
    "latitude": "29.972161422386442",
    "geocoded_column": {
      "latitude": "29.972161422386442",
      "longitude": "-90.09544856602389"
    }
  },
  {
    "service_request": "2022-862456",
    "request_type": "COVID-19",
    "request_reason": "COVID-19 Business Non-Compliance",
    "date_created": "2022-02-21T14:14:44.000",
    "date_modified": "2022-02-21T14:14:46.000",
    "request_status": "Pending",
    "responsible_agency": "Safety and Permits",
    "final_address": "545 St Charles Ave",
    "address_councildis": "B",
    "status": "Pending",
    "rowid": "862456",
    "final_x": "3680580.1853",
    "final_y": "528976.663552",
    "longitude": "-90.0710632336451",
    "latitude": "29.948530260367836",
    "geocoded_column": {
      "latitude": "29.948530260367836",
      "longitude": "-90.0710632336451"
    }
  },
  {
    "service_request": "2022-862455",
    "request_type": "Trash/Recycling",
    "request_reason": "Request a Large Item Pick Up",
    "date_created": "2022-02-21T14:14:03.000",
    "date_modified": "2022-02-21T14:14:04.000",
    "request_status": "Pending",
    "responsible_agency": "Department of Sanitation",
    "final_address": "1214 N Tonti St",
    "address_councildis": "D",
    "status": "Assigned to Contractor",
    "contractor": "Richards Disposal",
    "rowid": "862455",
    "final_x": "3679025.3037",
    "final_y": "537662.883848",
    "longitude": "-90.07567162211993",
    "latitude": "29.97246142850661",
    "geocoded_column": {
      "latitude": "29.97246142850661",
      "longitude": "-90.07567162211993"
    }
  },
  {
    "service_request": "2022-862453",
    "request_type": "Trash/Recycling",
    "request_reason": "Request a Large Item Pick Up",
    "date_created": "2022-02-21T14:07:21.000",
    "date_modified": "2022-02-21T14:07:38.000",
    "request_status": "Pending",
    "responsible_agency": "Department of Sanitation",
    "final_address": "7935 Grant St",
    "address_councildis": "E",
    "status": "Assigned to Contractor",
    "contractor": "Metro Disposal",
    "rowid": "862453",
    "final_x": "3704652.46705",
    "final_y": "554356.1094",
    "longitude": "-89.9941209801738",
    "latitude": "30.017563232175895",
    "geocoded_column": {
      "latitude": "30.017563232175895",
      "longitude": "-89.9941209801738"
    }
  },
  {
    "service_request": "2022-862452",
    "request_type": "Trash/Recycling",
    "request_reason": "Illegal Dumping",
    "date_created": "2022-02-21T14:06:40.000",
    "date_modified": "2022-02-21T14:10:12.000",
    "request_status": "Pending",
    "responsible_agency": "Department of Code Enforcement",
    "final_address": "EXPEDITION DR & MICHOUD BLVD",
    "address_councildis": "E",
    "status": "Pending",
    "rowid": "862452",
    "final_x": "3725733.6",
    "final_y": "571493.08",
    "longitude": "-89.92684929827833",
    "latitude": "30.063988486737323",
    "geocoded_column": {
      "latitude": "30.063988486737323",
      "longitude": "-89.92684929827833"
    }
  },
  {
    "service_request": "2022-862451",
    "request_type": "Trash/Recycling",
    "request_reason": "Request a Large Item Pick Up",
    "date_created": "2022-02-21T14:04:26.000",
    "date_modified": "2022-02-21T14:04:27.000",
    "request_status": "Pending",
    "responsible_agency": "Department of Sanitation",
    "final_address": "5836 Sylvia Dr, New Orleans, Louisiana, 70124",
    "address_councildis": "A",
    "status": "Assigned to Contractor",
    "contractor": "Metro Disposal",
    "rowid": "862451",
    "final_x": "3664422.37396",
    "final_y": "546663.868177",
    "longitude": "-90.12148981673094",
    "latitude": "29.997643738039276",
    "geocoded_column": {
      "latitude": "29.997643738039276",
      "longitude": "-90.12148981673094"
    }
  },
  {
    "service_request": "2022-862450",
    "request_type": "Trash/Recycling",
    "request_reason": "Illegal Dumping",
    "date_created": "2022-02-21T14:02:27.000",
    "date_modified": "2022-02-21T14:02:27.000",
    "request_status": "Pending",
    "responsible_agency": "Department of Sanitation",
    "final_address": "3039 General Taylor St",
    "address_councildis": "B",
    "status": "Pending",
    "rowid": "862450",
    "final_x": "3671440.57313",
    "final_y": "526331.230398",
    "longitude": "-90.10001079581704",
    "latitude": "29.941529863808878",
    "geocoded_column": {
      "latitude": "29.941529863808878",
      "longitude": "-90.10001079581704"
    }
  },
  {
    "service_request": "2022-862449",
    "request_type": "Abandoned Vehicles",
    "request_reason": "Abandoned/Junk Vehicles",
    "date_created": "2022-02-21T13:59:59.000",
    "date_modified": "2022-02-21T13:59:59.000",
    "request_status": "Pending",
    "responsible_agency": "Department of Public Works",
    "final_address": "530 Webster St",
    "address_councildis": "A",
    "status": "Pending",
    "rowid": "862449",
    "final_x": "3663817.43168",
    "final_y": "518708.360695",
    "longitude": "-90.12433260937108",
    "latitude": "29.9207927911165",
    "geocoded_column": {
      "latitude": "29.9207927911165",
      "longitude": "-90.12433260937108"
    }
  },
  {
    "service_request": "2022-862448",
    "request_type": "Property Maintenance",
    "request_reason": "Property Maintenance",
    "date_created": "2022-02-21T13:52:47.000",
    "date_modified": "2022-02-21T13:52:47.000",
    "request_status": "Pending",
    "responsible_agency": "Department of Code Enforcement",
    "final_address": "13000 BLK Calais St",
    "address_councildis": "E",
    "status": "Pending",
    "rowid": "862448",
    "final_x": "3724200.57551",
    "final_y": "560472.683304",
    "longitude": "-89.93212123663977",
    "latitude": "30.033738634679203",
    "geocoded_column": {
      "latitude": "30.033738634679203",
      "longitude": "-89.93212123663977"
    }
  },
  {
    "service_request": "2022-862447",
    "request_type": "Trash/Recycling",
    "request_reason": "Order Trash Cart",
    "date_created": "2022-02-21T13:52:38.000",
    "date_modified": "2022-02-21T13:52:39.000",
    "request_status": "Pending",
    "responsible_agency": "Department of Sanitation",
    "final_address": "6153 Catina St",
    "address_councildis": "A",
    "status": "Assigned to Contractor",
    "contractor": "Metro Disposal",
    "rowid": "862447",
    "final_x": "3666923.71572",
    "final_y": "548739.699795",
    "longitude": "-90.11351830551484",
    "latitude": "30.00327858142252",
    "geocoded_column": {
      "latitude": "30.00327858142252",
      "longitude": "-90.11351830551484"
    }
  },
  {
    "service_request": "2022-862446",
    "request_type": "Trash/Recycling",
    "request_reason": "Request a Large Item Pick Up",
    "date_created": "2022-02-21T13:51:55.000",
    "date_modified": "2022-02-21T13:51:55.000",
    "request_status": "Pending",
    "responsible_agency": "Department of Sanitation",
    "final_address": "4401 Vixen St",
    "address_councildis": "C",
    "status": "Assigned to Contractor",
    "contractor": "Richards Disposal",
    "rowid": "862446",
    "final_x": "3699851.69904",
    "final_y": "520629.049016",
    "longitude": "-90.01051964152194",
    "latitude": "29.924979407489335",
    "geocoded_column": {
      "latitude": "29.924979407489335",
      "longitude": "-90.01051964152194"
    }
  },
  {
    "service_request": "2022-862445",
    "request_type": "Trash/Recycling",
    "request_reason": "Repair Recycling Cart",
    "date_created": "2022-02-21T13:46:30.000",
    "date_modified": "2022-02-21T13:46:30.000",
    "request_status": "Pending",
    "responsible_agency": "Department of Sanitation",
    "final_address": "8728 Plum St",
    "address_councildis": "A",
    "status": "Pending",
    "rowid": "862445",
    "final_x": "3660410.39872",
    "final_y": "530203.055873",
    "longitude": "-90.1347075618921",
    "latitude": "29.95249799014472",
    "geocoded_column": {
      "latitude": "29.95249799014472",
      "longitude": "-90.1347075618921"
    }
  },
  {
    "service_request": "2022-862444",
    "request_type": "Trash/Recycling",
    "request_reason": "Request a Large Item Pick Up",
    "date_created": "2022-02-21T13:45:35.000",
    "date_modified": "2022-02-21T13:45:36.000",
    "request_status": "Pending",
    "responsible_agency": "Department of Sanitation",
    "final_address": "609 Barracks St",
    "address_councildis": "C",
    "status": "Assigned to Contractor",
    "contractor": "Empire Services",
    "rowid": "862444",
    "final_x": "3684112.77852",
    "final_y": "534050.297093",
    "longitude": "-90.05973131398561",
    "latitude": "29.96237354412858",
    "geocoded_column": {
      "latitude": "29.96237354412858",
      "longitude": "-90.05973131398561"
    }
  },
  {
    "service_request": "2022-862443",
    "request_type": "Trash/Recycling",
    "request_reason": "Replace Trash Cart",
    "date_created": "2022-02-21T13:45:24.000",
    "date_modified": "2022-02-21T13:45:25.000",
    "request_status": "Pending",
    "responsible_agency": "Department of Sanitation",
    "final_address": "1629 Pauger St",
    "address_councildis": "C",
    "status": "Assigned to Contractor",
    "contractor": "Metro Disposal",
    "rowid": "862443",
    "final_x": "3683941.84194",
    "final_y": "535741.278855",
    "longitude": "-90.06021177621467",
    "latitude": "29.967028384234997",
    "geocoded_column": {
      "latitude": "29.967028384234997",
      "longitude": "-90.06021177621467"
    }
  },
  {
    "service_request": "2022-862442",
    "request_type": "Trash/Recycling",
    "request_reason": "Repair Trash Cart",
    "date_created": "2022-02-21T13:44:00.000",
    "date_modified": "2022-02-21T13:44:01.000",
    "request_status": "Pending",
    "responsible_agency": "Department of Sanitation",
    "final_address": "8728 Plum St",
    "address_councildis": "A",
    "status": "Assigned to Contractor",
    "contractor": "Richards Disposal",
    "rowid": "862442",
    "final_x": "3660410.39872",
    "final_y": "530203.055873",
    "longitude": "-90.1347075618921",
    "latitude": "29.95249799014472",
    "geocoded_column": {
      "latitude": "29.95249799014472",
      "longitude": "-90.1347075618921"
    }
  },
  {
    "service_request": "2022-862441",
    "request_type": "Trash/Recycling",
    "request_reason": "Order Recycling Cart",
    "date_created": "2022-02-21T13:41:25.000",
    "date_modified": "2022-02-21T13:41:26.000",
    "request_status": "Pending",
    "responsible_agency": "Department of Sanitation",
    "final_address": "1522 Independence St",
    "address_councildis": "D",
    "status": "Pending",
    "contractor": "Metro Disposal",
    "rowid": "862441",
    "final_x": "3691323.57174",
    "final_y": "537193.543816",
    "longitude": "-90.03684843232239",
    "latitude": "29.97079401763539",
    "geocoded_column": {
      "latitude": "29.97079401763539",
      "longitude": "-90.03684843232239"
    }
  },
  {
    "service_request": "2022-862440",
    "request_type": "Trash/Recycling",
    "request_reason": "Order Trash Cart",
    "date_created": "2022-02-21T13:40:54.000",
    "date_modified": "2022-02-21T13:40:55.000",
    "request_status": "Pending",
    "responsible_agency": "Department of Sanitation",
    "final_address": "1522 Independence St",
    "address_councildis": "D",
    "status": "Assigned to Contractor",
    "contractor": "Metro Disposal",
    "rowid": "862440",
    "final_x": "3691323.57174",
    "final_y": "537193.543816",
    "longitude": "-90.03684843232239",
    "latitude": "29.97079401763539",
    "geocoded_column": {
      "latitude": "29.97079401763539",
      "longitude": "-90.03684843232239"
    }
  },
  {
    "service_request": "2022-862439",
    "request_type": "Trash/Recycling",
    "request_reason": "Start Trash Service",
    "date_created": "2022-02-21T13:40:37.000",
    "date_modified": "2022-02-21T13:40:37.000",
    "request_status": "Pending",
    "responsible_agency": "Department of Sanitation",
    "final_address": "1522 Independence St",
    "address_councildis": "D",
    "status": "Assigned to Contractor",
    "contractor": "Metro Disposal",
    "rowid": "862439",
    "final_x": "3691323.57174",
    "final_y": "537193.543816",
    "longitude": "-90.03684843232239",
    "latitude": "29.97079401763539",
    "geocoded_column": {
      "latitude": "29.97079401763539",
      "longitude": "-90.03684843232239"
    }
  },
  {
    "service_request": "2022-862438",
    "request_type": "Trash/Recycling",
    "request_reason": "Request a Large Item Pick Up",
    "date_created": "2022-02-21T13:39:13.000",
    "date_modified": "2022-02-21T13:39:14.000",
    "request_status": "Pending",
    "responsible_agency": "Department of Sanitation",
    "final_address": "1502 Poland Ave",
    "address_councildis": "D",
    "status": "Assigned to Contractor",
    "contractor": "Metro Disposal",
    "rowid": "862438",
    "final_x": "3693352.57347",
    "final_y": "536568.067207",
    "longitude": "-90.03046308146065",
    "latitude": "29.96901089752048",
    "geocoded_column": {
      "latitude": "29.96901089752048",
      "longitude": "-90.03046308146065"
    }
  },
  {
    "service_request": "2022-862437",
    "request_type": "Roads/Drainage",
    "request_reason": "Damaged Sidewalk",
    "date_created": "2022-02-21T13:36:20.000",
    "date_modified": "2022-02-21T13:37:12.000",
    "request_status": "Pending",
    "responsible_agency": "Department of Public Works",
    "final_address": "3342 Trafalgar St",
    "address_councildis": "A",
    "status": "Pending",
    "rowid": "862437",
    "final_x": "3677786.6349",
    "final_y": "543145.536141",
    "longitude": "-90.07939407174584",
    "latitude": "29.98757415200389",
    "geocoded_column": {
      "latitude": "29.98757415200389",
      "longitude": "-90.07939407174584"
    }
  },
  {
    "service_request": "2022-862436",
    "request_type": "Property Maintenance",
    "request_reason": "Property Maintenance",
    "date_created": "2022-02-21T13:32:04.000",
    "date_modified": "2022-02-21T13:32:05.000",
    "request_status": "Pending",
    "responsible_agency": "Department of Code Enforcement",
    "final_address": "3815 Camp St",
    "address_councildis": "B",
    "status": "Pending",
    "rowid": "862436",
    "final_x": "3673158.2546",
    "final_y": "519424.213751",
    "longitude": "-90.0948234297533",
    "latitude": "29.922486853560848",
    "geocoded_column": {
      "latitude": "29.922486853560848",
      "longitude": "-90.0948234297533"
    }
  },
  {
    "service_request": "2022-862435",
    "request_type": "Trash/Recycling",
    "request_reason": "Request a Large Item Pick Up",
    "date_created": "2022-02-21T13:29:08.000",
    "date_modified": "2022-02-21T13:29:09.000",
    "request_status": "Pending",
    "responsible_agency": "Department of Sanitation",
    "final_address": "6854 Milne Blvd, New Orleans, Louisiana, 70124",
    "address_councildis": "A",
    "status": "Assigned to Contractor",
    "contractor": "Metro Disposal",
    "rowid": "862435",
    "final_x": "3667479.80961",
    "final_y": "553192.122839",
    "longitude": "-90.11161154006415",
    "latitude": "30.015504899528953",
    "geocoded_column": {
      "latitude": "30.015504899528953",
      "longitude": "-90.11161154006415"
    }
  },
  {
    "service_request": "2022-862433",
    "request_type": "Abandoned Vehicles",
    "request_reason": "Abandoned/Junk Vehicles",
    "date_created": "2022-02-21T13:27:58.000",
    "date_modified": "2022-02-21T13:29:04.000",
    "request_status": "Pending",
    "responsible_agency": "Department of Public Works",
    "final_address": "6060 Chatham Dr",
    "address_councildis": "D",
    "status": "Pending",
    "rowid": "862433",
    "final_x": "3679485.7469",
    "final_y": "554915.519576",
    "longitude": "-90.07361844313826",
    "latitude": "30.019886169283073",
    "geocoded_column": {
      "latitude": "30.019886169283073",
      "longitude": "-90.07361844313826"
    }
  },
  {
    "service_request": "2022-862432",
    "request_type": "Trash/Recycling",
    "request_reason": "Order Trash Cart",
    "date_created": "2022-02-21T13:27:02.000",
    "date_modified": "2022-02-21T13:27:03.000",
    "request_status": "Pending",
    "responsible_agency": "Department of Sanitation",
    "final_address": "5215 Mandeville St",
    "address_councildis": "D",
    "status": "Assigned to Contractor",
    "contractor": "Metro Disposal",
    "rowid": "862432",
    "final_x": "3684609.5501",
    "final_y": "552197.777686",
    "longitude": "-90.05752451021895",
    "latitude": "30.012257492377163",
    "geocoded_column": {
      "latitude": "30.012257492377163",
      "longitude": "-90.05752451021895"
    }
  },
  {
    "service_request": "2022-862431",
    "request_type": "Trash/Recycling",
    "request_reason": "Request a Large Item Pick Up",
    "date_created": "2022-02-21T13:25:38.000",
    "date_modified": "2022-02-21T13:25:39.000",
    "request_status": "Pending",
    "responsible_agency": "Department of Sanitation",
    "final_address": "1826 Hillary St",
    "address_councildis": "A",
    "status": "Assigned to Contractor",
    "contractor": "Richards Disposal",
    "rowid": "862431",
    "final_x": "3664842.44653",
    "final_y": "528914.609472",
    "longitude": "-90.12075616427738",
    "latitude": "29.948826954608485",
    "geocoded_column": {
      "latitude": "29.948826954608485",
      "longitude": "-90.12075616427738"
    }
  },
  {
    "service_request": "2022-862430",
    "request_type": "Abandoned Vehicles",
    "request_reason": "Abandoned/Junk Vehicles",
    "date_created": "2022-02-21T13:24:19.000",
    "date_modified": "2022-02-21T13:24:19.000",
    "request_status": "Pending",
    "responsible_agency": "Department of Public Works",
    "final_address": "Baudin St & S Scott St, New Orleans, Louisiana, 70119",
    "address_councildis": "B",
    "status": "Pending",
    "rowid": "862430",
    "final_x": "3670804.2",
    "final_y": "536544.68",
    "longitude": "-90.10167334664548",
    "latitude": "29.969632295324196",
    "geocoded_column": {
      "latitude": "29.969632295324196",
      "longitude": "-90.10167334664548"
    }
  },
  {
    "service_request": "2022-862429",
    "request_type": "Abandoned Vehicles",
    "request_reason": "Abandoned/Junk Vehicles",
    "date_created": "2022-02-21T13:24:13.000",
    "date_modified": "2022-02-21T13:24:13.000",
    "request_status": "Pending",
    "responsible_agency": "Department of Public Works",
    "final_address": "2570 Jonquil St",
    "address_councildis": "D",
    "status": "Pending",
    "rowid": "862429",
    "final_x": "3686883.11932",
    "final_y": "547159.021329",
    "longitude": "-90.05051955484664",
    "latitude": "29.998332943493224",
    "geocoded_column": {
      "latitude": "29.998332943493224",
      "longitude": "-90.05051955484664"
    }
  },
  {
    "service_request": "2022-862428",
    "request_type": "Abandoned Vehicles",
    "request_reason": "Abandoned/Junk Vehicles",
    "date_created": "2022-02-21T13:20:55.000",
    "date_modified": "2022-02-21T13:21:50.000",
    "request_status": "Pending",
    "responsible_agency": "Department of Public Works",
    "final_address": "10341 Chevy Chase Dr",
    "address_councildis": "E",
    "status": "Pending",
    "rowid": "862428",
    "final_x": "3710446.86443",
    "final_y": "563583.468896",
    "longitude": "-89.97546765900145",
    "latitude": "30.042747339706164",
    "geocoded_column": {
      "latitude": "30.042747339706164",
      "longitude": "-89.97546765900145"
    }
  },
  {
    "service_request": "2022-862427",
    "request_type": "Property Maintenance",
    "request_reason": "Property Maintenance",
    "date_created": "2022-02-21T13:20:51.000",
    "date_modified": "2022-02-21T13:20:51.000",
    "request_status": "Pending",
    "responsible_agency": "Department of Code Enforcement",
    "final_address": "5101 De Montluzin St",
    "address_councildis": "D",
    "status": "Pending",
    "rowid": "862427",
    "final_x": "3687111.61167",
    "final_y": "551649.722709",
    "longitude": "-90.04963882220093",
    "latitude": "30.010673703682233",
    "geocoded_column": {
      "latitude": "30.010673703682233",
      "longitude": "-90.04963882220093"
    }
  },
  {
    "service_request": "2022-862426",
    "request_type": "Trash/Recycling",
    "request_reason": "Repair Trash Cart",
    "date_created": "2022-02-21T13:20:39.000",
    "date_modified": "2022-02-21T13:20:40.000",
    "request_status": "Pending",
    "responsible_agency": "Department of Sanitation",
    "final_address": "1004 N Lopez St",
    "address_councildis": "A",
    "status": "Assigned to Contractor",
    "contractor": "Richards Disposal",
    "rowid": "862426",
    "final_x": "3676020.98062",
    "final_y": "538977.86977",
    "longitude": "-90.08511457450227",
    "latitude": "29.976167518413646",
    "geocoded_column": {
      "latitude": "29.976167518413646",
      "longitude": "-90.08511457450227"
    }
  },
  {
    "service_request": "2022-862425",
    "request_type": "Abandoned Vehicles",
    "request_reason": "Abandoned/Junk Vehicles",
    "date_created": "2022-02-21T13:19:19.000",
    "date_modified": "2022-02-21T13:20:06.000",
    "request_status": "Pending",
    "responsible_agency": "Department of Public Works",
    "final_address": "10311 Plainfield Dr",
    "address_councildis": "E",
    "status": "Pending",
    "rowid": "862425",
    "final_x": "3710564.69803",
    "final_y": "562996.239968",
    "longitude": "-89.97511725951598",
    "latitude": "30.041128855377025",
    "geocoded_column": {
      "latitude": "30.041128855377025",
      "longitude": "-89.97511725951598"
    }
  },
  {
    "service_request": "2022-862424",
    "request_type": "Roads/Drainage",
    "request_reason": "Street Subsidence (Sinking)",
    "date_created": "2022-02-21T13:18:14.000",
    "date_modified": "2022-02-21T13:18:14.000",
    "request_status": "Pending",
    "responsible_agency": "Department of Public Works",
    "final_address": "709 Philip St",
    "address_councildis": "B",
    "status": "Pending",
    "rowid": "862424",
    "final_x": "3679400.24962",
    "final_y": "520783.772665",
    "longitude": "-90.07507284925431",
    "latitude": "29.926038206516726",
    "geocoded_column": {
      "latitude": "29.926038206516726",
      "longitude": "-90.07507284925431"
    }
  },
  {
    "service_request": "2022-862423",
    "request_type": "Trash/Recycling",
    "request_reason": "Replace Trash Cart",
    "date_created": "2022-02-21T13:18:11.000",
    "date_modified": "2022-02-21T13:18:11.000",
    "request_status": "Pending",
    "responsible_agency": "Department of Sanitation",
    "final_address": "434 39Th St",
    "address_councildis": "A",
    "status": "Assigned to Contractor",
    "contractor": "Metro Disposal",
    "rowid": "862423",
    "final_x": "3664777.19501",
    "final_y": "552970.197463",
    "longitude": "-90.12015801902348",
    "latitude": "30.014973638900663",
    "geocoded_column": {
      "latitude": "30.014973638900663",
      "longitude": "-90.12015801902348"
    }
  },
  {
    "service_request": "2022-862422",
    "request_type": "Abandoned Vehicles",
    "request_reason": "Abandoned/Junk Vehicles",
    "date_created": "2022-02-21T13:18:00.000",
    "date_modified": "2022-02-21T13:18:35.000",
    "request_status": "Pending",
    "responsible_agency": "Department of Public Works",
    "final_address": "10311 Plainfield Dr",
    "address_councildis": "E",
    "status": "Pending",
    "rowid": "862422",
    "final_x": "3710564.69803",
    "final_y": "562996.239968",
    "longitude": "-89.97511725951598",
    "latitude": "30.041128855377025",
    "geocoded_column": {
      "latitude": "30.041128855377025",
      "longitude": "-89.97511725951598"
    }
  },
  {
    "service_request": "2022-862421",
    "request_type": "Trash/Recycling",
    "request_reason": "Missed Trash Pick-Up",
    "date_created": "2022-02-21T13:14:23.000",
    "date_modified": "2022-02-21T13:14:23.000",
    "request_status": "Pending",
    "responsible_agency": "Department of Sanitation",
    "final_address": "8221 Curran Rd, New Orleans, Louisiana, 70126",
    "address_councildis": "E",
    "status": "Assigned to Contractor",
    "contractor": "Metro Disposal",
    "rowid": "862421",
    "final_x": "3702843.94372",
    "final_y": "562033.958815",
    "longitude": "-89.9995527788093",
    "latitude": "30.03873233837447",
    "geocoded_column": {
      "latitude": "30.03873233837447",
      "longitude": "-89.9995527788093"
    }
  },
  {
    "service_request": "2022-862420",
    "request_type": "Trash/Recycling",
    "request_reason": "Missed Trash Pick-Up",
    "date_created": "2022-02-21T13:11:40.000",
    "date_modified": "2022-02-21T13:11:41.000",
    "request_status": "Pending",
    "responsible_agency": "Department of Sanitation",
    "final_address": "1237 Horace St",
    "address_councildis": "C",
    "status": "Assigned to Contractor",
    "contractor": "Richards Disposal",
    "rowid": "862420",
    "final_x": "3696310.63696",
    "final_y": "526683.426238",
    "longitude": "-90.0214787566446",
    "latitude": "29.941738796275118",
    "geocoded_column": {
      "latitude": "29.941738796275118",
      "longitude": "-90.0214787566446"
    }
  },
  {
    "service_request": "2022-862418",
    "request_type": "Trash/Recycling",
    "request_reason": "Order Recycling Cart",
    "date_created": "2022-02-21T13:06:28.000",
    "date_modified": "2022-02-21T13:06:29.000",
    "request_status": "Pending",
    "responsible_agency": "Department of Sanitation",
    "final_address": "5201 Patterson St",
    "address_councildis": "C",
    "status": "Pending",
    "rowid": "862418",
    "final_x": "3703360.17297",
    "final_y": "523576.317947",
    "longitude": "-89.99933630167776",
    "latitude": "29.9329715340263",
    "geocoded_column": {
      "latitude": "29.9329715340263",
      "longitude": "-89.99933630167776"
    }
  },
  {
    "service_request": "2022-862417",
    "request_type": "Trash/Recycling",
    "request_reason": "Order Trash Cart",
    "date_created": "2022-02-21T13:04:26.000",
    "date_modified": "2022-02-21T14:18:16.000",
    "request_status": "Pending",
    "responsible_agency": "Department of Sanitation",
    "final_address": "New Orleans,LA",
    "address_councildis": "B",
    "status": "Assigned to Contractor",
    "contractor": "Richards Disposal",
    "rowid": "862417",
    "final_x": "3671256.0098",
    "final_y": "522746.821178",
    "longitude": "-90.10071523763239",
    "latitude": "29.931679359189676",
    "geocoded_column": {
      "latitude": "29.931679359189676",
      "longitude": "-90.10071523763239"
    }
  },
  {
    "service_request": "2022-862416",
    "request_type": "Trash/Recycling",
    "request_reason": "MIssed Recycling Pick-Up",
    "date_created": "2022-02-21T13:03:43.000",
    "date_modified": "2022-02-21T13:03:44.000",
    "request_status": "Pending",
    "responsible_agency": "Department of Sanitation",
    "final_address": "6434 Peony St",
    "address_councildis": "C",
    "status": "Assigned to Contractor",
    "contractor": "Richards Disposal",
    "rowid": "862416",
    "final_x": "3707817.77233",
    "final_y": "516484.177013",
    "longitude": "-89.98552746634157",
    "latitude": "29.91332717911587",
    "geocoded_column": {
      "latitude": "29.91332717911587",
      "longitude": "-89.98552746634157"
    }
  },
  {
    "service_request": "2022-862414",
    "request_type": "Traffic Signals/Signs/Striping/Streetlights",
    "request_reason": "Street Light Outage/Malfunction",
    "date_created": "2022-02-21T12:56:41.000",
    "date_modified": "2022-02-21T12:56:42.000",
    "request_status": "Pending",
    "responsible_agency": "Department of Public Works",
    "final_address": "2100 BLK Third St",
    "address_councildis": "B",
    "status": "Pending",
    "contractor": "Royal Engineering",
    "rowid": "862414",
    "final_x": "3675357.48193",
    "final_y": "524510.780491",
    "longitude": "-90.08770680498151",
    "latitude": "29.936407717179762",
    "geocoded_column": {
      "latitude": "29.936407717179762",
      "longitude": "-90.08770680498151"
    }
  },
  {
    "service_request": "2022-862413",
    "request_type": "Trash/Recycling",
    "request_reason": "Request a Large Item Pick Up",
    "date_created": "2022-02-21T12:52:43.000",
    "date_modified": "2022-02-21T14:25:23.000",
    "request_status": "Pending",
    "responsible_agency": "Department of Sanitation",
    "final_address": "4082 Fairmont Dr, New Orleans, Louisiana, 70122",
    "address_councildis": "D",
    "status": "Assigned to Contractor",
    "contractor": "Metro Disposal",
    "rowid": "862413",
    "final_x": "3684449.57967",
    "final_y": "547413.503697",
    "longitude": "-90.05819813814705",
    "latitude": "29.999107366708664",
    "geocoded_column": {
      "latitude": "29.999107366708664",
      "longitude": "-90.05819813814705"
    }
  },
  {
    "service_request": "2022-862412",
    "request_type": "Traffic Signals/Signs/Striping/Streetlights",
    "request_reason": "Traffic Signal Malfunctioning/Damaged",
    "date_created": "2022-02-21T12:52:18.000",
    "date_modified": "2022-02-21T12:52:18.000",
    "request_status": "Pending",
    "responsible_agency": "Department of Public Works",
    "final_address": "3400 S Claiborne Ave",
    "address_councildis": "B",
    "status": "Pending",
    "rowid": "862412",
    "final_x": "3672139.41991",
    "final_y": "526001.76147",
    "longitude": "-90.09781560952406",
    "latitude": "29.940603230055334",
    "geocoded_column": {
      "latitude": "29.940603230055334",
      "longitude": "-90.09781560952406"
    }
  },
  {
    "service_request": "2022-862411",
    "request_type": "Property Maintenance",
    "request_reason": "Property Maintenance",
    "date_created": "2022-02-21T12:48:19.000",
    "date_modified": "2022-02-21T12:48:19.000",
    "request_status": "Pending",
    "responsible_agency": "Department of Code Enforcement",
    "final_address": "2609 St Claude Ave",
    "address_councildis": "C",
    "status": "Pending",
    "rowid": "862411",
    "final_x": "3687268.55855",
    "final_y": "536614.324167",
    "longitude": "-90.04967512802371",
    "latitude": "29.969326900712144",
    "geocoded_column": {
      "latitude": "29.969326900712144",
      "longitude": "-90.04967512802371"
    }
  },