[
  {
    "service_request": "2024-1077417",
    "request_type": "Roads/Drainage",
    "request_reason": "Pothole",
    "date_created": "2024-03-20T23:07:45.000",
    "date_modified": "2024-03-20T23:07:45.000",
    "request_status": "Pending",
    "responsible_agency": "Department of Public Works",
    "final_address": "1200 BLK Amelia St",
    "address_councildis": "B",
    "status": "Pending",
    "rowid": "1077417",
    "final_x": "3673521.46558",
    "final_y": "519660.816109",
    "longitude": "-90.09366883741032",
    "latitude": "29.923126634409968",
    "geocoded_column": {
      "latitude": "29.923126634409968",
      "longitude": "-90.09366883741032"
    }
  },
  {
    "service_request": "2024-1077416",
    "request_type": "Trash/Recycling",
    "request_reason": "Missed Trash Pick-Up",
    "date_created": "2024-03-20T22:34:49.000",
    "date_modified": "2024-03-20T22:34:49.000",
    "request_status": "Pending",
    "responsible_agency": "Department of Sanitation",
    "final_address": "4635 Mendez St",
    "address_councildis": "D",
    "status": "Assigned to Contractor",
    "contractor": "IV Waste",
    "rowid": "1077416",
    "final_x": "3690908.89539",
    "final_y": "554084.468056",
    "longitude": "-90.03755478887165",
    "latitude": "30.017250830677483",
    "geocoded_column": {
      "latitude": "30.017250830677483",
      "longitude": "-90.03755478887165"
    }
  },
  {
    "service_request": "2024-1077415",
    "request_type": "Health Related Request",
    "request_reason": "Noise Ordinance Complaint",
    "date_created": "2024-03-20T22:19:26.000",
    "date_modified": "2024-03-20T22:19:26.000",
    "request_status": "Pending",
    "responsible_agency": "Health Department",
    "final_address": "1015 N Claiborne Ave, New Orleans, Louisiana, 70116",
    "address_councildis": "D",
    "status": "Pending",
    "rowid": "1077415",
    "final_x": "3680383.01128",
    "final_y": "535722.163847",
    "longitude": "-90.07145124149515",
    "latitude": "29.967084070169896",
    "geocoded_column": {
      "latitude": "29.967084070169896",
      "longitude": "-90.07145124149515"
    }
  },
  {
    "service_request": "2024-1077414",
    "request_type": "Roads/Drainage",
    "request_reason": "Road Shoulder Repair",
    "date_created": "2024-03-20T22:16:45.000",
    "date_modified": "2024-03-20T22:16:45.000",
    "request_status": "Pending",
    "responsible_agency": "Department of Public Works",
    "final_address": "3600 BLK Coliseum St",
    "address_councildis": "B",
    "status": "Pending",
    "rowid": "1077414",
    "final_x": "3673679.77859",
    "final_y": "520234.645014",
    "longitude": "-90.09314949821882",
    "latitude": "29.924699769259288",
    "geocoded_column": {
      "latitude": "29.924699769259288",
      "longitude": "-90.09314949821882"
    }
  },
  {
    "service_request": "2024-1077413",
    "request_type": "Trash/Recycling",
    "request_reason": "MIssed Recycling Pick-Up",
    "date_created": "2024-03-20T22:16:00.000",
    "date_modified": "2024-03-20T22:16:00.000",
    "request_status": "Pending",
    "responsible_agency": "Department of Sanitation",
    "final_address": "6545 West End Blvd",
    "address_councildis": "A",
    "status": "Assigned to Contractor",
    "contractor": "IV Waste",
    "rowid": "1077413",
    "final_x": "3666734.63642",
    "final_y": "551353.515925",
    "longitude": "-90.11402776930372",
    "latitude": "30.010471200138856",
    "geocoded_column": {
      "latitude": "30.010471200138856",
      "longitude": "-90.11402776930372"
    }
  },
  {
    "service_request": "2024-1077412",
    "request_type": "Traffic Signals/Signs/Striping/Streetlights",
    "request_reason": "Street Light Outage/Malfunction",
    "date_created": "2024-03-20T22:08:47.000",
    "date_modified": "2024-03-20T22:08:48.000",
    "request_status": "Pending",
    "responsible_agency": "Department of Public Works",
    "final_address": "3400 St Charles Ave",
    "address_councildis": "B",
    "status": "Assigned to Contractor",
    "contractor": "Legacy Professional Services",
    "rowid": "1077412",
    "final_x": "3674160.2002",
    "final_y": "521433.044281",
    "longitude": "-90.0915919698577",
    "latitude": "29.927980674708987",
    "geocoded_column": {
      "latitude": "29.927980674708987",
      "longitude": "-90.0915919698577"
    }
  },
  {
    "service_request": "2024-1077411",
    "request_type": "Trash/Recycling",
    "request_reason": "Request a Large Item Pick Up",
    "date_created": "2024-03-20T22:06:23.000",
    "date_modified": "2024-03-20T22:06:24.000",
    "request_status": "Pending",
    "responsible_agency": "Department of Sanitation",
    "final_address": "14073 Wales St",
    "address_councildis": "E",
    "status": "Assigned to Contractor",
    "contractor": "Waste Pro",
    "rowid": "1077411",
    "final_x": "3718411.58604",
    "final_y": "572884.692137",
    "longitude": "-89.94994134629324",
    "latitude": "30.068059925635858",
    "geocoded_column": {
      "latitude": "30.068059925635858",
      "longitude": "-89.94994134629324"
    }
  },
  {
    "service_request": "2024-1077410",
    "request_type": "Roads/Drainage",
    "request_reason": "Accessibility Ramps, Curbs and Sidewalk Repair",
    "date_created": "2024-03-20T21:55:59.000",
    "date_modified": "2024-03-20T21:55:59.000",
    "request_status": "Pending",
    "responsible_agency": "Department of Public Works",
    "final_address": "1601 Burdette St",
    "address_councildis": "A",
    "status": "Pending",
    "rowid": "1077410",
    "final_x": "3663798.37754",
    "final_y": "528653.434176",
    "longitude": "-90.12406145590433",
    "latitude": "29.94813914582865",
    "geocoded_column": {
      "latitude": "29.94813914582865",
      "longitude": "-90.12406145590433"
    }
  },
  {
    "service_request": "2024-1077409",
    "request_type": "Trash/Recycling",
    "request_reason": "Replace Trash Cart",
    "date_created": "2024-03-20T21:44:13.000",
    "date_modified": "2024-03-20T21:44:14.000",
    "request_status": "Pending",
    "responsible_agency": "Department of Sanitation",
    "final_address": "6214 N Derbigny St",
    "address_councildis": "E",
    "status": "Assigned to Contractor",
    "contractor": "Waste Pro",
    "rowid": "1077409",
    "final_x": "3700828.37284",
    "final_y": "535189.160582",
    "longitude": "-90.00690456993638",
    "latitude": "29.964983554201797",
    "geocoded_column": {
      "latitude": "29.964983554201797",
      "longitude": "-90.00690456993638"
    }
  },
  {
    "service_request": "2024-1077408",
    "request_type": "Trash/Recycling",
    "request_reason": "Order Trash Cart",
    "date_created": "2024-03-20T21:42:39.000",
    "date_modified": "2024-03-20T21:42:40.000",
    "request_status": "Pending",
    "responsible_agency": "Department of Sanitation",
    "final_address": "1200 BLK Bourbon St",
    "address_councildis": "C",
    "status": "Assigned to Contractor",
    "contractor": "Empire Services",
    "rowid": "1077408",
    "final_x": "3683477.82625",
    "final_y": "534274.382354",
    "longitude": "-90.06172854722628",
    "latitude": "29.963009092049766",
    "geocoded_column": {
      "latitude": "29.963009092049766",
      "longitude": "-90.06172854722628"
    }
  },
  {
    "service_request": "2024-1077407",
    "request_type": "Trash/Recycling",
    "request_reason": "Request a Large Item Pick Up",
    "date_created": "2024-03-20T21:37:16.000",
    "date_modified": "2024-03-20T21:37:18.000",
    "request_status": "Pending",
    "responsible_agency": "Department of Sanitation",
    "final_address": "2809 St Charles Ave",
    "address_councildis": "B",
    "status": "Assigned to Contractor",
    "contractor": "Richards Disposal",
    "rowid": "1077407",
    "final_x": "3675795.02344",
    "final_y": "522531.79001",
    "longitude": "-90.08639345918574",
    "latitude": "29.93095305294322",
    "geocoded_column": {
      "latitude": "29.93095305294322",
      "longitude": "-90.08639345918574"
    }
  },
  {
    "service_request": "2024-1077406",
    "request_type": "Trash/Recycling",
    "request_reason": "Request a Large Item Pick Up",
    "date_created": "2024-03-20T21:29:35.000",
    "date_modified": "2024-03-20T21:29:35.000",
    "request_status": "Pending",
    "responsible_agency": "Department of Sanitation",
    "final_address": "406 Huntlee Dr",
    "address_councildis": "C",
    "status": "Assigned to Contractor",
    "contractor": "Richards Disposal",
    "rowid": "1077406",
    "final_x": "3701914.01079",
    "final_y": "522270.241594",
    "longitude": "-90.00394953480962",
    "latitude": "29.929426493034768",
    "geocoded_column": {
      "latitude": "29.929426493034768",
      "longitude": "-90.00394953480962"
    }
  },
  {
    "service_request": "2024-1077405",
    "request_type": "Trash/Recycling",
    "request_reason": "MIssed Recycling Pick-Up",
    "date_created": "2024-03-20T21:20:27.000",
    "date_modified": "2024-03-20T21:20:28.000",
    "request_status": "Pending",
    "responsible_agency": "Department of Sanitation",
    "final_address": "3315 Chestnut St",
    "address_councildis": "B",
    "status": "Assigned to Contractor",
    "contractor": "Richards Disposal",
    "rowid": "1077405",
    "final_x": "3674957.27086",
    "final_y": "520448.399736",
    "longitude": "-90.08910955005064",
    "latitude": "29.92524944494753",
    "geocoded_column": {
      "latitude": "29.92524944494753",
      "longitude": "-90.08910955005064"
    }
  },
  {
    "service_request": "2024-1077404",
    "request_type": "Health Related Request",
    "request_reason": "Noise Ordinance Complaint",
    "date_created": "2024-03-20T21:11:15.000",
    "date_modified": "2024-03-20T21:11:15.000",
    "request_status": "Pending",
    "responsible_agency": "Health Department",
    "final_address": "1015 N Claiborne Ave, New Orleans, Louisiana, 70116",
    "address_councildis": "D",
    "status": "Pending",
    "rowid": "1077404",
    "final_x": "3680383.01128",
    "final_y": "535722.163847",
    "longitude": "-90.07145124149515",
    "latitude": "29.967084070169896",
    "geocoded_column": {
      "latitude": "29.967084070169896",
      "longitude": "-90.07145124149515"
    }
  },
  {
    "service_request": "2024-1077403",
    "request_type": "Trash/Recycling",
    "request_reason": "Request a Large Item Pick Up",
    "date_created": "2024-03-20T21:10:36.000",
    "date_modified": "2024-03-20T21:10:38.000",
    "request_status": "Pending",
    "responsible_agency": "Department of Sanitation",
    "final_address": "6000 BLK Cameron Blvd",
    "address_councildis": "D",
    "status": "Assigned to Contractor",
    "contractor": "IV Waste",
    "rowid": "1077403",
    "final_x": "3682366.2599",
    "final_y": "554970.343259",
    "longitude": "-90.06451503839337",
    "latitude": "30.019949524837326",
    "geocoded_column": {
      "latitude": "30.019949524837326",
      "longitude": "-90.06451503839337"
    }
  },
  {
    "service_request": "2024-1077402",
    "request_type": "Traffic Signals/Signs/Striping/Streetlights",
    "request_reason": "Street Light Outage/Malfunction",
    "date_created": "2024-03-20T20:48:18.000",
    "date_modified": "2024-03-20T20:48:19.000",
    "request_status": "Pending",
    "responsible_agency": "Department of Public Works",
    "final_address": "6954 Memphis St",
    "address_councildis": "A",
    "status": "Assigned to Contractor",
    "contractor": "Legacy Professional Services",
    "rowid": "1077402",
    "final_x": "3669684.10273",
    "final_y": "553719.380631",
    "longitude": "-90.10462910469525",
    "latitude": "30.01688986358228",
    "geocoded_column": {
      "latitude": "30.01688986358228",
      "longitude": "-90.10462910469525"
    }
  },
  {
    "service_request": "2024-1077401",
    "request_type": "Abandoned Vehicles",
    "request_reason": "Abandoned/Junk Vehicles",
    "date_created": "2024-03-20T20:43:39.000",
    "date_modified": "2024-03-20T20:43:39.000",
    "request_status": "Pending",
    "responsible_agency": "Department of Public Works",
    "final_address": "2535 Esplanade Ave",
    "address_councildis": "D",
    "status": "Pending",
    "rowid": "1077401",
    "final_x": "3678606.41787",
    "final_y": "538743.581577",
    "longitude": "-90.07695711507003",
    "latitude": "29.975445610914935",
    "geocoded_column": {
      "latitude": "29.975445610914935",
      "longitude": "-90.07695711507003"
    }
  },
  {
    "service_request": "2024-1077400",
    "request_type": "Traffic Signals/Signs/Striping/Streetlights",
    "request_reason": "Street Light Outage/Malfunction",
    "date_created": "2024-03-20T20:40:29.000",
    "date_modified": "2024-03-20T20:40:29.000",
    "request_status": "Pending",
    "responsible_agency": "Department of Public Works",
    "final_address": "1308 Esplanade Ave",
    "address_councildis": "C",
    "status": "Assigned to Contractor",
    "contractor": "Legacy Professional Services",
    "rowid": "1077400",
    "final_x": "3682011.74824",
    "final_y": "535909.870215",
    "longitude": "-90.06630112904976",
    "latitude": "29.967550777446046",
    "geocoded_column": {
      "latitude": "29.967550777446046",
      "longitude": "-90.06630112904976"
    }
  },
  {
    "service_request": "2024-1077399",
    "request_type": "Roads/Drainage",
    "request_reason": "Street Subsidence (Sinking)",
    "date_created": "2024-03-20T20:40:24.000",
    "date_modified": "2024-03-20T20:40:24.000",
    "request_status": "Pending",
    "responsible_agency": "Department of Public Works",
    "final_address": "6535 Louisville St",
    "address_councildis": "A",
    "status": "Pending",
    "rowid": "1077399",
    "final_x": "3668175.33069",
    "final_y": "551071.415509",
    "longitude": "-90.10948557252463",
    "latitude": "30.009653290328632",
    "geocoded_column": {
      "latitude": "30.009653290328632",
      "longitude": "-90.10948557252463"
    }
  },
  {
    "service_request": "2024-1077398",
    "request_type": "Roads/Drainage",
    "request_reason": "Catch Basin - Clogged",
    "date_created": "2024-03-20T20:09:35.000",
    "date_modified": "2024-03-20T20:09:35.000",
    "request_status": "Pending",
    "responsible_agency": "Department of Public Works",
    "final_address": "2738 Allen Toussaint Blvd",
    "address_councildis": "D",
    "status": "Pending",
    "rowid": "1077398",
    "final_x": "3687395.7247",
    "final_y": "555968.674137",
    "longitude": "-90.04858820780156",
    "latitude": "30.022540471192595",
    "geocoded_column": {
      "latitude": "30.022540471192595",
      "longitude": "-90.04858820780156"
    }
  },
  {
    "service_request": "2024-1077397",
    "request_type": "Trash/Recycling",
    "request_reason": "MIssed Recycling Pick-Up",
    "date_created": "2024-03-20T19:00:48.000",
    "date_modified": "2024-03-20T19:00:49.000",
    "request_status": "Pending",
    "responsible_agency": "Department of Sanitation",
    "final_address": "4956 Painters St",
    "address_councildis": "D",
    "status": "Assigned to Contractor",
    "contractor": "IV Waste",
    "rowid": "1077397",
    "final_x": "3686061.26358",
    "final_y": "551388.691797",
    "longitude": "-90.05296648630976",
    "latitude": "30.00998827755513",
    "geocoded_column": {
      "latitude": "30.00998827755513",
      "longitude": "-90.05296648630976"
    }
  },
  {
    "service_request": "2024-1077396",
    "request_type": "Roads/Drainage",
    "request_reason": "Road Shoulder Repair",
    "date_created": "2024-03-20T18:55:43.000",
    "date_modified": "2024-03-20T18:55:43.000",
    "request_status": "Pending",
    "responsible_agency": "Department of Public Works",
    "final_address": "1421 General Taylor St",
    "address_councildis": "B",
    "status": "Pending",
    "rowid": "1077396",
    "final_x": "3672783.68392",
    "final_y": "520716.466425",
    "longitude": "-90.09596175059541",
    "latitude": "29.926051261619584",
    "geocoded_column": {
      "latitude": "29.926051261619584",
      "longitude": "-90.09596175059541"
    }
  },
  {
    "service_request": "2024-1077395",
    "request_type": "Safety & Permits",
    "request_reason": "Licenses & Permits",
    "date_created": "2024-03-20T18:48:18.000",
    "date_modified": "2024-03-20T18:48:18.000",
    "request_status": "Pending",
    "responsible_agency": "Safety and Permits",
    "final_address": "239 Decatur St",
    "address_councildis": "C",
    "status": "Pending",
    "rowid": "1077395",
    "final_x": "3682217.7686",
    "final_y": "530812.101058",
    "longitude": "-90.06582859514297",
    "latitude": "29.953527388208997",
    "geocoded_column": {
      "latitude": "29.953527388208997",
      "longitude": "-90.06582859514297"
    }
  },
  {
    "service_request": "2024-1077393",
    "request_type": "Roads/Drainage",
    "request_reason": "Street Subsidence (Sinking)",
    "date_created": "2024-03-20T18:39:55.000",
    "date_modified": "2024-03-20T18:39:55.000",
    "request_status": "Pending",
    "responsible_agency": "Department of Public Works",
    "final_address": "VIOLA ST & GRANT ST",
    "address_councildis": "E",
    "status": "Pending",
    "rowid": "1077393",
    "final_x": "3704087.8",
    "final_y": "554245.68",
    "longitude": "-89.99590916365344",
    "latitude": "30.017277728096648",
    "geocoded_column": {
      "latitude": "30.017277728096648",
      "longitude": "-89.99590916365344"
    }
  },
  {
    "service_request": "2024-1077392",
    "request_type": "Traffic Signals/Signs/Striping/Streetlights",
    "request_reason": "Traffic Sign Missing/Damaged",
    "date_created": "2024-03-20T18:39:27.000",
    "date_modified": "2024-03-20T18:39:27.000",
    "request_status": "Pending",
    "responsible_agency": "Department of Public Works",
    "final_address": "4557 Lafon Dr",
    "address_councildis": "E",
    "status": "Pending",
    "rowid": "1077392",
    "final_x": "3701320.87914",
    "final_y": "553307.883735",
    "longitude": "-90.00468581324968",
    "latitude": "30.01478765595906",
    "geocoded_column": {
      "latitude": "30.01478765595906",
      "longitude": "-90.00468581324968"
    }
  },
  {
    "service_request": "2024-1077391",
    "request_type": "Traffic Signals/Signs/Striping/Streetlights",
    "request_reason": "Traffic Sign Missing/Damaged",
    "date_created": "2024-03-20T18:38:28.000",
    "date_modified": "2024-03-20T18:38:28.000",
    "request_status": "Pending",
    "responsible_agency": "Department of Public Works",
    "final_address": "4557 Lafon Dr",
    "address_councildis": "E",
    "status": "Pending",
    "rowid": "1077391",
    "final_x": "3701320.87914",
    "final_y": "553307.883735",
    "longitude": "-90.00468581324968",
    "latitude": "30.01478765595906",
    "geocoded_column": {
      "latitude": "30.01478765595906",
      "longitude": "-90.00468581324968"
    }
  },
  {
    "service_request": "2024-1077390",
    "request_type": "Traffic Signals/Signs/Striping/Streetlights",
    "request_reason": "Traffic Sign Missing/Damaged",
    "date_created": "2024-03-20T18:35:34.000",
    "date_modified": "2024-03-20T18:35:34.000",
    "request_status": "Pending",
    "responsible_agency": "Department of Public Works",
    "final_address": "4557 Lafon Dr",
    "address_councildis": "E",
    "status": "Pending",
    "rowid": "1077390",
    "final_x": "3701320.87914",
    "final_y": "553307.883735",
    "longitude": "-90.00468581324968",
    "latitude": "30.01478765595906",
    "geocoded_column": {
      "latitude": "30.01478765595906",
      "longitude": "-90.00468581324968"
    }
  },
  {
    "service_request": "2024-1077389",
    "request_type": "Abandoned Vehicles",
    "request_reason": "Vehicle Blocking Your Driveway",
    "date_created": "2024-03-20T18:35:33.000",
    "date_modified": "2024-03-20T18:35:33.000",
    "request_status": "Pending",
    "responsible_agency": "Department of Public Works",
    "final_address": "1031 Henriette Delille St, New Orleans, Louisiana, 70116",
    "address_councildis": "C",
    "status": "Pending",
    "rowid": "1077389",
    "final_x": "3681851.85519",
    "final_y": "534737.509574",
    "longitude": "-90.0668469959105",
    "latitude": "29.964332048849617",
    "geocoded_column": {
      "latitude": "29.964332048849617",
      "longitude": "-90.0668469959105"
    }
  },
  {
    "service_request": "2024-1077388",
    "request_type": "Trash/Recycling",
    "request_reason": "Replace Trash Cart",
    "date_created": "2024-03-20T18:27:49.000",
    "date_modified": "2024-03-20T18:27:50.000",
    "request_status": "Pending",
    "responsible_agency": "Department of Sanitation",
    "final_address": "3006 St Peter St",
    "address_councildis": "A",
    "status": "Assigned to Contractor",
    "contractor": "Richards Disposal",
    "rowid": "1077388",
    "final_x": "3675573.28181",
    "final_y": "537628.667656",
    "longitude": "-90.08657490532232",
    "latitude": "29.972471075851068",
    "geocoded_column": {
      "latitude": "29.972471075851068",
      "longitude": "-90.08657490532232"
    }
  },
  {
    "service_request": "2024-1077387",
    "request_type": "Roads/Drainage",
    "request_reason": "Street Subsidence (Sinking)",
    "date_created": "2024-03-20T18:26:35.000",
    "date_modified": "2024-03-20T18:26:35.000",
    "request_status": "Pending",
    "responsible_agency": "Department of Public Works",
    "final_address": "7010 Bundy Rd",
    "address_councildis": "E",
    "status": "Pending",
    "rowid": "1077387",
    "final_x": "3706962.74552",
    "final_y": "560783.376158",
    "longitude": "-89.98658279375458",
    "latitude": "30.035161260025752",
    "geocoded_column": {
      "latitude": "30.035161260025752",
      "longitude": "-89.98658279375458"
    }
  },
  {
    "service_request": "2024-1077386",
    "request_type": "Trash/Recycling",
    "request_reason": "Replace Trash Cart",
    "date_created": "2024-03-20T18:25:48.000",
    "date_modified": "2024-03-20T18:25:48.000",
    "request_status": "Pending",
    "responsible_agency": "Department of Sanitation",
    "final_address": "3004 St Peter St",
    "address_councildis": "A",
    "status": "Assigned to Contractor",
    "contractor": "Richards Disposal",
    "rowid": "1077386",
    "final_x": "3675579.89512",
    "final_y": "537623.471624",
    "longitude": "-90.08655419785096",
    "latitude": "29.97245659067325",
    "geocoded_column": {
      "latitude": "29.97245659067325",
      "longitude": "-90.08655419785096"
    }
  },
  {
    "service_request": "2024-1077385",
    "request_type": "Trash/Recycling",
    "request_reason": "Dead Animal Pick Up",
    "date_created": "2024-03-20T18:25:42.000",
    "date_modified": "2024-03-20T18:25:43.000",
    "request_status": "Pending",
    "responsible_agency": "Department of Sanitation",
    "final_address": "9226 Fig St",
    "address_councildis": "A",
    "status": "Assigned to Contractor",
    "contractor": "Richards Disposal",
    "rowid": "1077385",
    "final_x": "3663243.74195",
    "final_y": "535877.504007",
    "longitude": "-90.12557225481635",
    "latitude": "29.968019072109456",
    "geocoded_column": {
      "latitude": "29.968019072109456",
      "longitude": "-90.12557225481635"
    }
  },
  {
    "service_request": "2024-1077384",
    "request_type": "Trash/Recycling",
    "request_reason": "Dead Animal Pick Up",
    "date_created": "2024-03-20T18:23:55.000",
    "date_modified": "2024-03-20T18:23:55.000",
    "request_status": "Pending",
    "responsible_agency": "Department of Sanitation",
    "final_address": "9226 Fig St",
    "address_councildis": "A",
    "status": "Assigned to Contractor",
    "contractor": "Richards Disposal",
    "rowid": "1077384",
    "final_x": "3663243.74195",
    "final_y": "535877.504007",
    "longitude": "-90.12557225481635",
    "latitude": "29.968019072109456",
    "geocoded_column": {
      "latitude": "29.968019072109456",
      "longitude": "-90.12557225481635"
    }
  },
  {
    "service_request": "2024-1077383",
    "request_type": "Roads/Drainage",
    "request_reason": "Street Subsidence (Sinking)",
    "date_created": "2024-03-20T18:23:28.000",
    "date_modified": "2024-03-20T18:23:28.000",
    "request_status": "Pending",
    "responsible_agency": "Department of Public Works",
    "final_address": "7010 Bundy Rd",
    "address_councildis": "E",
    "status": "Pending",
    "rowid": "1077383",
    "final_x": "3706962.74552",
    "final_y": "560783.376158",
    "longitude": "-89.98658279375458",
    "latitude": "30.035161260025752",
    "geocoded_column": {
      "latitude": "30.035161260025752",
      "longitude": "-89.98658279375458"
    }
  },
  {
    "service_request": "2024-1077382",
    "request_type": "Trash/Recycling",
    "request_reason": "Dead Animal Pick Up",
    "date_created": "2024-03-20T18:22:57.000",
    "date_modified": "2024-03-20T18:22:58.000",
    "request_status": "Pending",
    "responsible_agency": "Department of Sanitation",
    "final_address": "9226 Fig St",
    "address_councildis": "A",
    "status": "Assigned to Contractor",
    "contractor": "Richards Disposal",
    "rowid": "1077382",
    "final_x": "3663243.74195",
    "final_y": "535877.504007",
    "longitude": "-90.12557225481635",
    "latitude": "29.968019072109456",
    "geocoded_column": {
      "latitude": "29.968019072109456",
      "longitude": "-90.12557225481635"
    }
  },
  {
    "service_request": "2024-1077381",
    "request_type": "Property Maintenance",
    "request_reason": "Property Maintenance",
    "date_created": "2024-03-20T18:21:05.000",
    "date_modified": "2024-03-20T18:21:05.000",
    "request_status": "Pending",
    "responsible_agency": "Department of Code Enforcement",
    "final_address": "731 Valence St",
    "address_councildis": "B",
    "status": "Pending",
    "rowid": "1077381",
    "final_x": "3670041.70286",
    "final_y": "518204.240374",
    "longitude": "-90.10470244302185",
    "latitude": "29.919224571159106",
    "geocoded_column": {
      "latitude": "29.919224571159106",
      "longitude": "-90.10470244302185"
    }
  },
  {
    "service_request": "2024-1077380",
    "request_type": "Healthy Homes",
    "request_reason": "Healthy Homes",
    "date_created": "2024-03-20T18:20:10.000",
    "date_modified": "2024-03-20T18:20:10.000",
    "request_status": "Pending",
    "responsible_agency": "Department of Code Enforcement",
    "final_address": "2621 Ramsey Dr",
    "address_councildis": "C",
    "status": "Pending",
    "rowid": "1077380",
    "final_x": "3703073.19358",
    "final_y": "521338.394681",
    "longitude": "-90.0003244577771",
    "latitude": "29.92682720763228",
    "geocoded_column": {
      "latitude": "29.92682720763228",
      "longitude": "-90.0003244577771"
    }
  },
  {
    "service_request": "2024-1077379",
    "request_type": "Trash/Recycling",
    "request_reason": "Repair Trash Cart",
    "date_created": "2024-03-20T18:01:19.000",
    "date_modified": "2024-03-20T18:01:20.000",
    "request_status": "Pending",
    "responsible_agency": "Department of Sanitation",
    "final_address": "1012 Valence St",
    "address_councildis": "B",
    "status": "Assigned to Contractor",
    "contractor": "Richards Disposal",
    "rowid": "1077379",
    "final_x": "3669845.02273",
    "final_y": "519154.534775",
    "longitude": "-90.10529111625263",
    "latitude": "29.92184337726024",
    "geocoded_column": {
      "latitude": "29.92184337726024",
      "longitude": "-90.10529111625263"
    }
  },
  {
    "service_request": "2024-1077378",
    "request_type": "Abandoned Vehicles",
    "request_reason": "Abandoned/Junk Vehicles",
    "date_created": "2024-03-20T18:00:39.000",
    "date_modified": "2024-03-20T18:00:39.000",
    "request_status": "Pending",
    "responsible_agency": "Department of Public Works",
    "final_address": "3916 Odin St",
    "address_councildis": "D",
    "status": "Pending",
    "rowid": "1077378",
    "final_x": "3688469.92719",
    "final_y": "553862.956439",
    "longitude": "-90.04526878660592",
    "latitude": "30.016717368370315",
    "geocoded_column": {
      "latitude": "30.016717368370315",
      "longitude": "-90.04526878660592"
    }
  },
  {
    "service_request": "2024-1077377",
    "request_type": "Trash/Recycling",
    "request_reason": "Order Trash Cart",
    "date_created": "2024-03-20T17:59:42.000",
    "date_modified": "2024-03-20T17:59:43.000",
    "request_status": "Pending",
    "responsible_agency": "Department of Sanitation",
    "final_address": "3300 Somerset Dr",
    "address_councildis": "C",
    "status": "Assigned to Contractor",
    "contractor": "Richards Disposal",
    "rowid": "1077377",
    "final_x": "3702603.16497",
    "final_y": "519186.813111",
    "longitude": "-90.00188712310757",
    "latitude": "29.920926128658532",
    "geocoded_column": {
      "latitude": "29.920926128658532",
      "longitude": "-90.00188712310757"
    }
  },
  {
    "service_request": "2024-1077376",
    "request_type": "Roads/Drainage",
    "request_reason": "Catch Basin - Clogged",
    "date_created": "2024-03-20T17:56:58.000",
    "date_modified": "2024-03-20T17:56:58.000",
    "request_status": "Pending",
    "responsible_agency": "Department of Public Works",
    "final_address": "8016 Belfast St",
    "address_councildis": "A",
    "status": "Pending",
    "rowid": "1077376",
    "final_x": "3665779.20384",
    "final_y": "532128.607427",
    "longitude": "-90.11769074611695",
    "latitude": "29.95763711224815",
    "geocoded_column": {
      "latitude": "29.95763711224815",
      "longitude": "-90.11769074611695"
    }
  },
  {
    "service_request": "2024-1077375",
    "request_type": "Trash/Recycling",
    "request_reason": "Missed Trash Pick-Up",
    "date_created": "2024-03-20T17:41:56.000",
    "date_modified": "2024-03-20T17:41:57.000",
    "request_status": "Pending",
    "responsible_agency": "Department of Sanitation",
    "final_address": "4332 Magazine St",
    "address_councildis": "B",
    "status": "Assigned to Contractor",
    "contractor": "Richards Disposal",
    "rowid": "1077375",
    "final_x": "3671176.36513",
    "final_y": "518713.323255",
    "longitude": "-90.10110360059795",
    "latitude": "29.92059088488764",
    "geocoded_column": {
      "latitude": "29.92059088488764",
      "longitude": "-90.10110360059795"
    }
  },
  {
    "service_request": "2024-1077374",
    "request_type": "Tax and Revenue",
    "request_reason": "Personal Property Tax Question",
    "date_created": "2024-03-20T17:34:11.000",
    "date_modified": "2024-03-20T17:34:11.000",
    "request_status": "Pending",
    "responsible_agency": "Bureau of Treasury",
    "final_address": "1716 Marengo St",
    "address_councildis": "B",
    "status": "Pending",
    "rowid": "1077374",
    "final_x": "3671805.66343",
    "final_y": "521504.600889",
    "longitude": "-90.09902228300098",
    "latitude": "29.92824738311538",
    "geocoded_column": {
      "latitude": "29.92824738311538",
      "longitude": "-90.09902228300098"
    }
  },
  {
    "service_request": "2024-1077373",
    "request_type": "Trash/Recycling",
    "request_reason": "Start Trash Service",
    "date_created": "2024-03-20T17:31:46.000",
    "date_modified": "2024-03-20T17:31:46.000",
    "request_status": "Pending",
    "responsible_agency": "Department of Sanitation",
    "final_address": "1938 Port St",
    "address_councildis": "D",
    "status": "Assigned to Contractor",
    "contractor": "IV Waste",
    "rowid": "1077373",
    "final_x": "3688235.14569",
    "final_y": "539698.325194",
    "longitude": "-90.04651320114266",
    "latitude": "29.977777008620443",
    "geocoded_column": {
      "latitude": "29.977777008620443",
      "longitude": "-90.04651320114266"
    }
  },
  {
    "service_request": "2024-1077372",
    "request_type": "Trash/Recycling",
    "request_reason": "Replace Trash Cart",
    "date_created": "2024-03-20T17:29:41.000",
    "date_modified": "2024-03-20T17:29:42.000",
    "request_status": "Pending",
    "responsible_agency": "Department of Sanitation",
    "final_address": "2803 Audubon St",
    "address_councildis": "B",
    "status": "Assigned to Contractor",
    "contractor": "Richards Disposal",
    "rowid": "1077372",
    "final_x": "3667563.51226",
    "final_y": "531106.101506",
    "longitude": "-90.11209081465638",
    "latitude": "29.954773384310023",
    "geocoded_column": {
      "latitude": "29.954773384310023",
      "longitude": "-90.11209081465638"
    }
  },
  {
    "service_request": "2024-1077371",
    "request_type": "Trash/Recycling",
    "request_reason": "Request a Large Item Pick Up",
    "date_created": "2024-03-20T17:21:42.000",
    "date_modified": "2024-03-20T17:21:43.000",
    "request_status": "Pending",
    "responsible_agency": "Department of Sanitation",
    "final_address": "New Orleans,LA",
    "status": "Assigned to Contractor",
    "rowid": "1077371",
    "longitude": "0.0",
    "latitude": "0.0",
    "geocoded_column": {
      "latitude": "0.0",
      "longitude": "0.0"
    }
  },
  {
    "service_request": "2024-1077370",
    "request_type": "Roads/Drainage",
    "request_reason": "Catch Basin - Clogged",
    "date_created": "2024-03-20T17:18:59.000",
    "date_modified": "2024-03-20T17:18:59.000",
    "request_status": "Pending",
    "responsible_agency": "Department of Public Works",
    "final_address": "47 S Lark St, New Orleans, Louisiana, 70124",
    "address_councildis": "D",
    "status": "Pending",
    "rowid": "1077370",
    "final_x": "3675338.82357",
    "final_y": "555997.446489",
    "longitude": "-90.08668421035736",
    "latitude": "30.022985782926906",
    "geocoded_column": {
      "latitude": "30.022985782926906",
      "longitude": "-90.08668421035736"
    }
  },
  {
    "service_request": "2024-1077368",
    "request_type": "Trash/Recycling",
    "request_reason": "Order Trash Cart",
    "date_created": "2024-03-20T17:16:44.000",
    "date_modified": "2024-03-20T17:16:44.000",
    "request_status": "Pending",
    "responsible_agency": "Department of Sanitation",
    "final_address": "306 Homedale Street",
    "address_councildis": "A",
    "status": "Assigned to Contractor",
    "contractor": "IV Waste",
    "rowid": "1077368",
    "final_x": "3666889.10337",
    "final_y": "544595.792399",
    "longitude": "-90.11376698732964",
    "latitude": "29.991885274484122",
    "geocoded_column": {
      "latitude": "29.991885274484122",
      "longitude": "-90.11376698732964"
    }
  },
  {
    "service_request": "2024-1077367",
    "request_type": "Trash/Recycling",
    "request_reason": "Request a Large Item Pick Up",
    "date_created": "2024-03-20T17:14:48.000",
    "date_modified": "2024-03-20T17:14:48.000",
    "request_status": "Pending",
    "responsible_agency": "Department of Sanitation",
    "final_address": "3230 Nashville Ave",
    "address_councildis": "A",
    "status": "Assigned to Contractor",
    "contractor": "Richards Disposal",
    "rowid": "1077367",
    "final_x": "3667867.32545",
    "final_y": "527725.338623",
    "longitude": "-90.11124534092289",
    "latitude": "29.945468480840393",
    "geocoded_column": {
      "latitude": "29.945468480840393",
      "longitude": "-90.11124534092289"
    }
  },
  {
    "service_request": "2024-1077366",
    "request_type": "Traffic Signals/Signs/Striping/Streetlights",
    "request_reason": "Street Name Sign Damaged or Missing",
    "date_created": "2024-03-20T17:14:39.000",
    "date_modified": "2024-03-20T17:14:39.000",
    "request_status": "Pending",
    "responsible_agency": "Department of Public Works",
    "final_address": "GRAVIER ST & BARONNE ST",
    "address_councildis": "B",
    "status": "Pending",
    "rowid": "1077366",
    "final_x": "3680140.3",
    "final_y": "530388.48",
    "longitude": "-90.07240308134462",
    "latitude": "29.952425598239618",
    "geocoded_column": {
      "latitude": "29.952425598239618",
      "longitude": "-90.07240308134462"
    }
  },
  {
    "service_request": "2024-1077365",
    "request_type": "Trash/Recycling",
    "request_reason": "Request a Large Item Pick Up",
    "date_created": "2024-03-20T17:13:05.000",
    "date_modified": "2024-03-20T17:13:06.000",
    "request_status": "Pending",
    "responsible_agency": "Department of Sanitation",
    "final_address": "6065 Annunciation St",
    "address_councildis": "A",
    "status": "Assigned to Contractor",
    "contractor": "Richards Disposal",
    "rowid": "1077365",
    "final_x": "3663796.13856",
    "final_y": "518063.20447",
    "longitude": "-90.12442130792117",
    "latitude": "29.919019430211467",
    "geocoded_column": {
      "latitude": "29.919019430211467",
      "longitude": "-90.12442130792117"
    }
  },
  {
    "service_request": "2024-1077364",
    "request_type": "Trash/Recycling",
    "request_reason": "Missed Trash Pick-Up",
    "date_created": "2024-03-20T17:12:39.000",
    "date_modified": "2024-03-20T17:12:39.000",
    "request_status": "Pending",
    "responsible_agency": "Department of Sanitation",
    "final_address": "3228 Burdette St",
    "address_councildis": "B",
    "status": "Assigned to Contractor",
    "contractor": "Richards Disposal",
    "rowid": "1077364",
    "final_x": "3667725.41159",
    "final_y": "533087.4169",
    "longitude": "-90.11151288592542",
    "latitude": "29.96021660511229",
    "geocoded_column": {
      "latitude": "29.96021660511229",
      "longitude": "-90.11151288592542"
    }
  },
  {
    "service_request": "2024-1077363",
    "request_type": "Trash/Recycling",
    "request_reason": "Repair Recycling Cart",
    "date_created": "2024-03-20T17:01:59.000",
    "date_modified": "2024-03-20T17:01:59.000",
    "request_status": "Pending",
    "responsible_agency": "Department of Sanitation",
    "final_address": "3816 Cleveland Ave",
    "address_councildis": "A",
    "status": "Pending",
    "rowid": "1077363",
    "final_x": "3671664.22087",
    "final_y": "537328.13556",
    "longitude": "-90.09893066499582",
    "latitude": "29.971761087393524",
    "geocoded_column": {
      "latitude": "29.971761087393524",
      "longitude": "-90.09893066499582"
    }
  },
  {
    "service_request": "2024-1077362",
    "request_type": "Trash/Recycling",
    "request_reason": "Request a Large Item Pick Up",
    "date_created": "2024-03-20T17:00:30.000",
    "date_modified": "2024-03-20T17:00:31.000",
    "request_status": "Pending",
    "responsible_agency": "Department of Sanitation",
    "final_address": "325 S St Patrick St",
    "address_councildis": "A",
    "status": "Assigned to Contractor",
    "contractor": "Richards Disposal",
    "rowid": "1077362",
    "final_x": "3668475.52167",
    "final_y": "539061.934922",
    "longitude": "-90.10894259259986",
    "latitude": "29.976622523364362",
    "geocoded_column": {
      "latitude": "29.976622523364362",
      "longitude": "-90.10894259259986"
    }
  },
  {
    "service_request": "2024-1077361",
    "request_type": "Traffic Signals/Signs/Striping/Streetlights",
    "request_reason": "Traffic Signal Malfunctioning/Damaged",
    "date_created": "2024-03-20T17:00:27.000",
    "date_modified": "2024-03-20T17:00:27.000",
    "request_status": "Pending",
    "responsible_agency": "Department of Public Works",
    "final_address": "LOUISIANA AVE & ST CHARLES AVE",
    "address_councildis": "B",
    "status": "Pending",
    "rowid": "1077361",
    "final_x": "3674222.3",
    "final_y": "521573.08",
    "longitude": "-90.09139114344369",
    "latitude": "29.928363877118993",
    "geocoded_column": {
      "latitude": "29.928363877118993",
      "longitude": "-90.09139114344369"
    }
  },
  {
    "service_request": "2024-1077360",
    "request_type": "Trash/Recycling",
    "request_reason": "Request a Large Item Pick Up",
    "date_created": "2024-03-20T16:58:03.000",
    "date_modified": "2024-03-20T16:58:03.000",
    "request_status": "Pending",
    "responsible_agency": "Department of Sanitation",
    "final_address": "919 Hagan St",
    "address_councildis": "A",
    "status": "Assigned to Contractor",
    "contractor": "Richards Disposal",
    "rowid": "1077360",
    "final_x": "3675197.55541",
    "final_y": "539225.452362",
    "longitude": "-90.08770669629075",
    "latitude": "29.976872924464825",
    "geocoded_column": {
      "latitude": "29.976872924464825",
      "longitude": "-90.08770669629075"
    }
  },
  {
    "service_request": "2024-1077359",
    "request_type": "Trash/Recycling",
    "request_reason": "Repair Recycling Cart",
    "date_created": "2024-03-20T16:55:24.000",
    "date_modified": "2024-03-20T16:55:24.000",
    "request_status": "Pending",
    "responsible_agency": "Department of Sanitation",
    "final_address": "2 Grand Teton Ct",
    "address_councildis": "C",
    "status": "Pending",
    "rowid": "1077359",
    "final_x": "3699233.36202",
    "final_y": "516635.542389",
    "longitude": "-90.01261681927222",
    "latitude": "29.91401823973218",
    "geocoded_column": {
      "latitude": "29.91401823973218",
      "longitude": "-90.01261681927222"
    }
  },
  {
    "service_request": "2024-1077358",
    "request_type": "Trash/Recycling",
    "request_reason": "Request a Large Item Pick Up",
    "date_created": "2024-03-20T16:50:51.000",
    "date_modified": "2024-03-20T18:18:48.000",
    "case_close_date": "2024-03-20T13:18:48.000",
    "request_status": "Closed",
    "responsible_agency": "Department of Sanitation",
    "final_address": "7440 Alabama St",
    "address_councildis": "D",
    "status": "Assigned to Contractor",
    "contractor": "Waste Pro",
    "contractor_action": "Completed",
    "rowid": "1077358",
    "final_x": "3695001.17603",
    "final_y": "558056.641883",
    "longitude": "-90.02448154306744",
    "latitude": "30.028044924776378",
    "geocoded_column": {
      "latitude": "30.028044924776378",
      "longitude": "-90.02448154306744"
    }
  },
  {
    "service_request": "2024-1077357",
    "request_type": "Trash/Recycling",
    "request_reason": "Order Recycling Cart",
    "date_created": "2024-03-20T16:50:06.000",
    "date_modified": "2024-03-20T16:50:07.000",
    "request_status": "Pending",
    "responsible_agency": "Department of Sanitation",
    "final_address": "5332 Magazine St",
    "address_councildis": "B",
    "status": "Pending",
    "rowid": "1077357",
    "final_x": "3667234.18676",
    "final_y": "518639.978615",
    "longitude": "-90.11354973694569",
    "latitude": "29.920505191308298",
    "geocoded_column": {
      "latitude": "29.920505191308298",
      "longitude": "-90.11354973694569"
    }
  },
  {
    "service_request": "2024-1077356",
    "request_type": "Trash/Recycling",
    "request_reason": "Request a Large Item Pick Up",
    "date_created": "2024-03-20T16:49:12.000",
    "date_modified": "2024-03-20T16:49:12.000",
    "request_status": "Pending",
    "responsible_agency": "Department of Sanitation",
    "final_address": "2225 Painters St",
    "address_councildis": "D",
    "status": "Assigned to Contractor",
    "contractor": "IV Waste",
    "rowid": "1077356",
    "final_x": "3687254.22409",
    "final_y": "540769.597963",
    "longitude": "-90.0495733754415",
    "latitude": "29.980752884252624",
    "geocoded_column": {
      "latitude": "29.980752884252624",
      "longitude": "-90.0495733754415"
    }
  },
  {
    "service_request": "2024-1077355",
    "request_type": "Trash/Recycling",
    "request_reason": "Order Recycling Cart",
    "date_created": "2024-03-20T16:47:51.000",
    "date_modified": "2024-03-20T16:47:51.000",
    "request_status": "Pending",
    "responsible_agency": "Department of Sanitation",
    "final_address": "3045 College Ct",
    "address_councildis": "B",
    "status": "Pending",
    "rowid": "1077355",
    "final_x": "3668433.51681",
    "final_y": "531700.559875",
    "longitude": "-90.10932361335163",
    "latitude": "29.956382424533164",
    "geocoded_column": {
      "latitude": "29.956382424533164",
      "longitude": "-90.10932361335163"
    }
  },
  {
    "service_request": "2024-1077354",
    "request_type": "Trash/Recycling",
    "request_reason": "Illegal Dumping",
    "date_created": "2024-03-20T16:45:43.000",
    "date_modified": "2024-03-20T16:45:44.000",
    "request_status": "Pending",
    "responsible_agency": "Department of Sanitation",
    "final_address": "3161 Mansfield Ave",
    "address_councildis": "C",
    "status": "Pending",
    "rowid": "1077354",
    "final_x": "3709047.13707",
    "final_y": "518555.554103",
    "longitude": "-89.98157012289155",
    "latitude": "29.918982925399398",
    "geocoded_column": {
      "latitude": "29.918982925399398",
      "longitude": "-89.98157012289155"
    }
  },
  {
    "service_request": "2024-1077353",
    "request_type": "Trash/Recycling",
    "request_reason": "Order Recycling Cart",
    "date_created": "2024-03-20T16:44:40.000",
    "date_modified": "2024-03-20T16:44:40.000",
    "request_status": "Pending",
    "responsible_agency": "Department of Sanitation",
    "final_address": "8318 Oleander St",
    "address_councildis": "A",
    "status": "Pending",
    "rowid": "1077353",
    "final_x": "3666079.28628",
    "final_y": "534237.239045",
    "longitude": "-90.11667246993777",
    "latitude": "29.963426399472482",
    "geocoded_column": {
      "latitude": "29.963426399472482",
      "longitude": "-90.11667246993777"
    }
  },
  {
    "service_request": "2024-1077352",
    "request_type": "Trash/Recycling",
    "request_reason": "Repair Trash Cart",
    "date_created": "2024-03-20T16:43:56.000",
    "date_modified": "2024-03-20T16:43:57.000",
    "request_status": "Pending",
    "responsible_agency": "Department of Sanitation",
    "final_address": "5334 Magazine St",
    "address_councildis": "B",
    "status": "Assigned to Contractor",
    "contractor": "Richards Disposal",
    "rowid": "1077352",
    "final_x": "3667206.32141",
    "final_y": "518644.953975",
    "longitude": "-90.11363752798941",
    "latitude": "29.920519687606777",
    "geocoded_column": {
      "latitude": "29.920519687606777",
      "longitude": "-90.11363752798941"
    }
  },
  {
    "service_request": "2024-1077351",
    "request_type": "Trash/Recycling",
    "request_reason": "Request a Large Item Pick Up",
    "date_created": "2024-03-20T16:43:00.000",
    "date_modified": "2024-03-20T18:18:08.000",
    "case_close_date": "2024-03-20T13:18:08.000",
    "request_status": "Closed",
    "responsible_agency": "Department of Sanitation",
    "final_address": "4534 Eastview Dr",
    "address_councildis": "E",
    "status": "Assigned to Contractor",
    "contractor": "Waste Pro",
    "contractor_action": "Completed",
    "rowid": "1077351",
    "final_x": "3705186.63409",
    "final_y": "554004.187864",
    "longitude": "-89.99244624907323",
    "latitude": "30.01657840622146",
    "geocoded_column": {
      "latitude": "30.01657840622146",
      "longitude": "-89.99244624907323"
    }
  },
  {
    "service_request": "2024-1077350",
    "request_type": "Trash/Recycling",
    "request_reason": "Repair Trash Cart",
    "date_created": "2024-03-20T16:42:42.000",
    "date_modified": "2024-03-20T16:42:43.000",
    "request_status": "Pending",
    "responsible_agency": "Department of Sanitation",
    "final_address": "5332 Magazine St",
    "address_councildis": "B",
    "status": "Assigned to Contractor",
    "contractor": "Richards Disposal",
    "rowid": "1077350",
    "final_x": "3667234.18676",
    "final_y": "518639.978615",
    "longitude": "-90.11354973694569",
    "latitude": "29.920505191308298",
    "geocoded_column": {
      "latitude": "29.920505191308298",
      "longitude": "-90.11354973694569"
    }
  },
  {
    "service_request": "2024-1077349",
    "request_type": "Trash/Recycling",
    "request_reason": "Replace Trash Cart",
    "date_created": "2024-03-20T16:42:27.000",
    "date_modified": "2024-03-20T16:42:27.000",
    "request_status": "Pending",
    "responsible_agency": "Department of Sanitation",
    "final_address": "12 Fontainebleau Dr",
    "address_councildis": "A",
    "status": "Assigned to Contractor",
    "contractor": "Richards Disposal",
    "rowid": "1077349",
    "final_x": "3665601.99751",
    "final_y": "531780.781571",
    "longitude": "-90.11826196111153",
    "latitude": "29.956685872991745",
    "geocoded_column": {
      "latitude": "29.956685872991745",
      "longitude": "-90.11826196111153"
    }
  },
  {
    "service_request": "2024-1077347",
    "request_type": "Trash/Recycling",
    "request_reason": "Request a Large Item Pick Up",
    "date_created": "2024-03-20T16:38:05.000",
    "date_modified": "2024-03-20T16:38:06.000",
    "request_status": "Pending",
    "responsible_agency": "Department of Sanitation",
    "final_address": "6320 Orleans Ave",
    "address_councildis": "A",
    "status": "Assigned to Contractor",
    "contractor": "IV Waste",
    "rowid": "1077347",
    "final_x": "3671024.27879",
    "final_y": "549287.741267",
    "longitude": "-90.10054534227785",
    "latitude": "30.00466483621735",
    "geocoded_column": {
      "latitude": "30.00466483621735",
      "longitude": "-90.10054534227785"
    }
  },
  {
    "service_request": "2024-1077346",
    "request_type": "Trash/Recycling",
    "request_reason": "Repair Trash Cart",
    "date_created": "2024-03-20T16:31:25.000",
    "date_modified": "2024-03-20T16:31:26.000",
    "request_status": "Pending",
    "responsible_agency": "Department of Sanitation",
    "final_address": "4142 St Peter St",
    "address_councildis": "A",
    "status": "Assigned to Contractor",
    "contractor": "Richards Disposal",
    "rowid": "1077346",
    "final_x": "3672204.43476",
    "final_y": "540158.038411",
    "longitude": "-90.09712816142508",
    "latitude": "29.979526346933607",
    "geocoded_column": {
      "latitude": "29.979526346933607",
      "longitude": "-90.09712816142508"
    }
  },
  {
    "service_request": "2024-1077345",
    "request_type": "Trash/Recycling",
    "request_reason": "Request a Large Item Pick Up",
    "date_created": "2024-03-20T16:30:05.000",
    "date_modified": "2024-03-20T18:17:43.000",
    "case_close_date": "2024-03-20T13:17:43.000",
    "request_status": "Closed",
    "responsible_agency": "Department of Sanitation",
    "final_address": "4719 Virgilian St",
    "address_councildis": "D",
    "status": "Assigned to Contractor",
    "contractor": "Waste Pro",
    "contractor_action": "Completed",
    "rowid": "1077345",
    "final_x": "3697573.29437",
    "final_y": "553614.334103",
    "longitude": "-90.0165151768813",
    "latitude": "30.01574923102479",
    "geocoded_column": {
      "latitude": "30.01574923102479",
      "longitude": "-90.0165151768813"
    }
  },
  {
    "service_request": "2024-1077344",
    "request_type": "Trash/Recycling",
    "request_reason": "Request a Large Item Pick Up",
    "date_created": "2024-03-20T16:24:23.000",
    "date_modified": "2024-03-20T16:24:24.000",
    "request_status": "Pending",
    "responsible_agency": "Department of Sanitation",
    "final_address": "4528 S Rocheblave St",
    "address_councildis": "B",
    "status": "Assigned to Contractor",
    "contractor": "Richards Disposal",
    "rowid": "1077344",
    "final_x": "3669523.40378",
    "final_y": "528383.827904",
    "longitude": "-90.10599428276413",
    "latitude": "29.947230441151326",
    "geocoded_column": {
      "latitude": "29.947230441151326",
      "longitude": "-90.10599428276413"
    }
  },
  {
    "service_request": "2024-1077343",
    "request_type": "Trash/Recycling",
    "request_reason": "Request a Large Item Pick Up",
    "date_created": "2024-03-20T16:22:58.000",
    "date_modified": "2024-03-20T18:17:08.000",
    "case_close_date": "2024-03-20T13:17:08.000",
    "request_status": "Closed",
    "responsible_agency": "Department of Sanitation",
    "final_address": "6422 Kuebel Dr A",
    "address_councildis": "E",
    "status": "Assigned to Contractor",
    "contractor": "Waste Pro",
    "contractor_action": "Completed",
    "rowid": "1077343",
    "final_x": "3696500.0401",
    "final_y": "560129.220701",
    "longitude": "-90.0196701680361",
    "latitude": "30.033696560903945",
    "geocoded_column": {
      "latitude": "30.033696560903945",
      "longitude": "-90.0196701680361"
    }
  },
  {
    "service_request": "2024-1077342",
    "request_type": "Trash/Recycling",
    "request_reason": "Repair Recycling Cart",
    "date_created": "2024-03-20T16:17:53.000",
    "date_modified": "2024-03-20T16:17:53.000",
    "request_status": "Pending",
    "responsible_agency": "Department of Sanitation",
    "final_address": "2830 Annunciation St",
    "address_councildis": "B",
    "status": "Pending",
    "contractor": "Richards Disposal",
    "rowid": "1077342",
    "final_x": "3677465.36789",
    "final_y": "519721.09932",
    "longitude": "-90.08121736614572",
    "latitude": "29.923174480395623",
    "geocoded_column": {
      "latitude": "29.923174480395623",
      "longitude": "-90.08121736614572"
    }
  },
  {
    "service_request": "2024-1077341",
    "request_type": "Trash/Recycling",
    "request_reason": "Request a Large Item Pick Up",
    "date_created": "2024-03-20T16:17:35.000",
    "date_modified": "2024-03-20T16:17:35.000",
    "request_status": "Pending",
    "responsible_agency": "Department of Sanitation",
    "final_address": "2829 Burgundy St",
    "address_councildis": "C",
    "status": "Assigned to Contractor",
    "contractor": "IV Waste",
    "rowid": "1077341",
    "final_x": "3687759.79939",
    "final_y": "535498.875334",
    "longitude": "-90.04816326552141",
    "latitude": "29.96624466466092",
    "geocoded_column": {
      "latitude": "29.96624466466092",
      "longitude": "-90.04816326552141"
    }
  },
  {
    "service_request": "2024-1077340",
    "request_type": "Trash/Recycling",
    "request_reason": "MIssed Recycling Pick-Up",
    "date_created": "2024-03-20T16:17:19.000",
    "date_modified": "2024-03-20T16:17:20.000",
    "request_status": "Pending",
    "responsible_agency": "Department of Sanitation",
    "final_address": "2830 Annunciation St",
    "address_councildis": "B",
    "status": "Assigned to Contractor",
    "contractor": "Richards Disposal",
    "rowid": "1077340",
    "final_x": "3677465.36789",
    "final_y": "519721.09932",
    "longitude": "-90.08121736614572",
    "latitude": "29.923174480395623",
    "geocoded_column": {
      "latitude": "29.923174480395623",
      "longitude": "-90.08121736614572"
    }
  },
  {
    "service_request": "2024-1077339",
    "request_type": "Property Maintenance",
    "request_reason": "Property Maintenance",
    "date_created": "2024-03-20T16:16:51.000",
    "date_modified": "2024-03-20T16:16:51.000",
    "request_status": "Pending",
    "responsible_agency": "Department of Code Enforcement",
    "final_address": "1909 Eagle St",
    "address_councildis": "A",
    "status": "Pending",
    "rowid": "1077339",
    "final_x": "3661872.40243",
    "final_y": "531908.420291",
    "longitude": "-90.1300346477103",
    "latitude": "29.95714505867078",
    "geocoded_column": {
      "latitude": "29.95714505867078",
      "longitude": "-90.1300346477103"
    }
  },
  {
    "service_request": "2024-1077338",
    "request_type": "Trash/Recycling",
    "request_reason": "Illegal Dumping",
    "date_created": "2024-03-20T16:15:36.000",
    "date_modified": "2024-03-20T16:15:36.000",
    "request_status": "Pending",
    "responsible_agency": "Department of Sanitation",
    "final_address": "3690 Bennett St",
    "address_councildis": "C",
    "status": "Pending",
    "rowid": "1077338",
    "final_x": "3710333.77598",
    "final_y": "516641.230581",
    "longitude": "-89.97758040086073",
    "latitude": "29.913677406192196",
    "geocoded_column": {
      "latitude": "29.913677406192196",
      "longitude": "-89.97758040086073"
    }
  },
  {
    "service_request": "2024-1077337",
    "request_type": "Mosquito, Termite & Rodent Control",
    "request_reason": "Rodent Complaint (Rats)",
    "date_created": "2024-03-20T16:15:33.000",
    "date_modified": "2024-03-20T16:15:34.000",
    "request_status": "Pending",
    "responsible_agency": "Mosquito, Termite & Rodent Control Board",
    "final_address": "2902 Louisiana Ave",
    "address_councildis": "B",
    "status": "Pending",
    "rowid": "1077337",
    "final_x": "3672261.84814",
    "final_y": "525759.161341",
    "longitude": "-90.09743734340746",
    "latitude": "29.939932528312326",
    "geocoded_column": {
      "latitude": "29.939932528312326",
      "longitude": "-90.09743734340746"
    }
  },
  {
    "service_request": "2024-1077336",
    "request_type": "Abandoned Vehicles",
    "request_reason": "Abandoned/Junk Vehicles",
    "date_created": "2024-03-20T16:12:37.000",
    "date_modified": "2024-03-20T16:12:37.000",
    "request_status": "Pending",
    "responsible_agency": "Department of Public Works",
    "final_address": "2800 BLK S Roman St",
    "address_councildis": "B",
    "status": "Pending",
    "rowid": "1077336",
    "final_x": "3672565.97865",
    "final_y": "527190.942453",
    "longitude": "-90.0964283606359",
    "latitude": "29.943860435478815",
    "geocoded_column": {
      "latitude": "29.943860435478815",
      "longitude": "-90.0964283606359"
    }
  },
  {
    "service_request": "2024-1077335",
    "request_type": "Roads/Drainage",
    "request_reason": "Catch Basin - Clogged",
    "date_created": "2024-03-20T16:11:10.000",
    "date_modified": "2024-03-20T16:11:10.000",
    "request_status": "Pending",
    "responsible_agency": "Department of Public Works",
    "final_address": "2500 Governor Nicholls St",
    "address_councildis": "D",
    "status": "Pending",
    "rowid": "1077335",
    "final_x": "3678581.73954",
    "final_y": "537784.58356",
    "longitude": "-90.07706826253708",
    "latitude": "29.972809440205925",
    "geocoded_column": {
      "latitude": "29.972809440205925",
      "longitude": "-90.07706826253708"
    }
  },
  {
    "service_request": "2024-1077334",
    "request_type": "Trash/Recycling",
    "request_reason": "Missed Trash Pick-Up",
    "date_created": "2024-03-20T16:09:43.000",
    "date_modified": "2024-03-20T16:09:44.000",
    "request_status": "Pending",
    "responsible_agency": "Department of Sanitation",
    "final_address": "1617 Foucher St",
    "address_councildis": "B",
    "status": "Assigned to Contractor",
    "contractor": "Richards Disposal",
    "rowid": "1077334",
    "final_x": "3673500.12321",
    "final_y": "521436.794297",
    "longitude": "-90.09367555628937",
    "latitude": "29.928010638568235",
    "geocoded_column": {
      "latitude": "29.928010638568235",
      "longitude": "-90.09367555628937"
    }
  },
  {
    "service_request": "2024-1077333",
    "request_type": "Trash/Recycling",
    "request_reason": "Request a Large Item Pick Up",
    "date_created": "2024-03-20T16:08:39.000",
    "date_modified": "2024-03-20T16:08:39.000",
    "request_status": "Pending",
    "responsible_agency": "Department of Sanitation",
    "final_address": "1702 Alvar St",
    "address_councildis": "D",
    "status": "Assigned to Contractor",
    "contractor": "IV Waste",
    "rowid": "1077333",
    "final_x": "3692014.84093",
    "final_y": "537682.397",
    "longitude": "-90.03464782914524",
    "latitude": "29.972116666187357",
    "geocoded_column": {
      "latitude": "29.972116666187357",
      "longitude": "-90.03464782914524"
    }
  },
  {
    "service_request": "2024-1077332",
    "request_type": "Trash/Recycling",
    "request_reason": "Request a Large Item Pick Up",
    "date_created": "2024-03-20T16:06:08.000",
    "date_modified": "2024-03-20T18:15:59.000",
    "case_close_date": "2024-03-20T13:15:59.000",
    "request_status": "Closed",
    "responsible_agency": "Department of Sanitation",
    "final_address": "7040 Crowder Blvd",
    "address_councildis": "E",
    "status": "Assigned to Contractor",
    "contractor": "Waste Pro",
    "contractor_action": "Completed",
    "rowid": "1077332",
    "final_x": "3704304.90295",
    "final_y": "559611.840029",
    "longitude": "-89.99502518370585",
    "latitude": "30.032025620679985",
    "geocoded_column": {
      "latitude": "30.032025620679985",
      "longitude": "-89.99502518370585"
    }
  },
  {
    "service_request": "2024-1077331",
    "request_type": "Traffic Signals/Signs/Striping/Streetlights",
    "request_reason": "Traffic Sign Missing/Damaged",
    "date_created": "2024-03-20T16:05:33.000",
    "date_modified": "2024-03-20T16:05:34.000",
    "request_status": "Pending",
    "responsible_agency": "Department of Public Works",
    "final_address": "N DORGENOIS ST & TUPELO ST",
    "address_councildis": "E",
    "status": "Pending",
    "rowid": "1077331",
    "final_x": "3701510.5",
    "final_y": "538308.48",
    "longitude": "-90.00463624227821",
    "latitude": "29.9735388248607",
    "geocoded_column": {
      "latitude": "29.9735388248607",
      "longitude": "-90.00463624227821"
    }
  },
  {
    "service_request": "2024-1077330",
    "request_type": "Roads/Drainage",
    "request_reason": "Pothole",
    "date_created": "2024-03-20T16:02:42.000",
    "date_modified": "2024-03-20T16:02:42.000",
    "request_status": "Pending",
    "responsible_agency": "Department of Public Works",
    "final_address": "4216 Chestnut St",
    "address_councildis": "B",
    "status": "Pending",
    "rowid": "1077330",
    "final_x": "3671574.31393",
    "final_y": "519539.203703",
    "longitude": "-90.09981939416457",
    "latitude": "29.922850019854593",
    "geocoded_column": {
      "latitude": "29.922850019854593",
      "longitude": "-90.09981939416457"
    }
  },
  {
    "service_request": "2024-1077329",
    "request_type": "Trash/Recycling",
    "request_reason": "Replace Trash Cart",
    "date_created": "2024-03-20T15:59:19.000",
    "date_modified": "2024-03-20T15:59:20.000",
    "request_status": "Pending",
    "responsible_agency": "Department of Sanitation",
    "final_address": "330 S Clark St",
    "address_councildis": "B",
    "status": "Assigned to Contractor",
    "contractor": "Richards Disposal",
    "rowid": "1077329",
    "final_x": "3672254.33652",
    "final_y": "536132.148615",
    "longitude": "-90.0971077351953",
    "latitude": "29.968455033000307",
    "geocoded_column": {
      "latitude": "29.968455033000307",
      "longitude": "-90.0971077351953"
    }
  },
  {
    "service_request": "2024-1077328",
    "request_type": "Roads/Drainage",
    "request_reason": "Catch Basin - Clogged",
    "date_created": "2024-03-20T15:56:28.000",
    "date_modified": "2024-03-20T15:56:28.000",
    "request_status": "Pending",
    "responsible_agency": "Department of Public Works",
    "final_address": "ABUNDANCE ST & ST ROCH AVE",
    "address_councildis": "D",
    "status": "Pending",
    "rowid": "1077328",
    "final_x": "3685932.9",
    "final_y": "543786.78",
    "longitude": "-90.05364026084193",
    "latitude": "29.989089704093477",
    "geocoded_column": {
      "latitude": "29.989089704093477",
      "longitude": "-90.05364026084193"
    }
  },
  {
    "service_request": "2024-1077327",
    "request_type": "Roads/Drainage",
    "request_reason": "Catch Basin - Clogged",
    "date_created": "2024-03-20T15:55:51.000",
    "date_modified": "2024-03-20T15:55:52.000",
    "request_status": "Pending",
    "responsible_agency": "Department of Public Works",
    "final_address": "ABUNDANCE ST & SPAIN ST",
    "address_councildis": "D",
    "status": "Pending",
    "rowid": "1077327",
    "final_x": "3685547.7",
    "final_y": "543759.28",
    "longitude": "-90.05485796015611",
    "latitude": "29.989025912172618",
    "geocoded_column": {
      "latitude": "29.989025912172618",
      "longitude": "-90.05485796015611"
    }
  },
  {
    "service_request": "2024-1077326",
    "request_type": "Roads/Drainage",
    "request_reason": "Catch Basin - Clogged",
    "date_created": "2024-03-20T15:53:41.000",
    "date_modified": "2024-03-20T15:53:41.000",
    "request_status": "Pending",
    "responsible_agency": "Department of Public Works",
    "final_address": "1924 N Galvez St",
    "address_councildis": "D",
    "status": "Pending",
    "rowid": "1077326",
    "final_x": "3683062.88693",
    "final_y": "539804.243658",
    "longitude": "-90.06284525077749",
    "latitude": "29.978226950834035",
    "geocoded_column": {
      "latitude": "29.978226950834035",
      "longitude": "-90.06284525077749"
    }
  },
  {
    "service_request": "2024-1077325",
    "request_type": "Roads/Drainage",
    "request_reason": "Pothole",
    "date_created": "2024-03-20T15:52:36.000",
    "date_modified": "2024-03-20T15:52:36.000",
    "request_status": "Pending",
    "responsible_agency": "Department of Public Works",
    "final_address": "1301 Constantinople St",
    "address_councildis": "B",
    "status": "Pending",
    "rowid": "1077325",
    "final_x": "3672430.66305",
    "final_y": "520250.7726",
    "longitude": "-90.09709199725775",
    "latitude": "29.924781230435865",
    "geocoded_column": {
      "latitude": "29.924781230435865",
      "longitude": "-90.09709199725775"
    }
  },
  {
    "service_request": "2024-1077324",
    "request_type": "Trash/Recycling",
    "request_reason": "Request a Large Item Pick Up",
    "date_created": "2024-03-20T15:50:00.000",
    "date_modified": "2024-03-20T18:15:30.000",
    "case_close_date": "2024-03-20T13:15:30.000",
    "request_status": "Closed",
    "responsible_agency": "Department of Sanitation",
    "final_address": "5019 Warren Dr",
    "address_councildis": "E",
    "status": "Assigned to Contractor",
    "contractor": "Waste Pro",
    "contractor_action": "Completed",
    "rowid": "1077324",
    "final_x": "3713392.46098",
    "final_y": "557625.187291",
    "longitude": "-89.96638312875324",
    "latitude": "30.026268138811623",
    "geocoded_column": {
      "latitude": "30.026268138811623",
      "longitude": "-89.96638312875324"
    }
  },
  {
    "service_request": "2024-1077323",
    "request_type": "Trash/Recycling",
    "request_reason": "Order Recycling Cart",
    "date_created": "2024-03-20T15:44:50.000",
    "date_modified": "2024-03-20T15:44:50.000",
    "request_status": "Pending",
    "responsible_agency": "Department of Sanitation",
    "final_address": "2428 State St",
    "address_councildis": "A",
    "status": "Pending",
    "rowid": "1077323",
    "final_x": "3666706.52609",
    "final_y": "525637.828285",
    "longitude": "-90.11498045319338",
    "latitude": "29.939762490775944",
    "geocoded_column": {
      "latitude": "29.939762490775944",
      "longitude": "-90.11498045319338"
    }
  },
  {
    "service_request": "2024-1077322",
    "request_type": "Trash/Recycling",
    "request_reason": "Repair Trash Cart",
    "date_created": "2024-03-20T15:44:14.000",
    "date_modified": "2024-03-20T15:44:15.000",
    "request_status": "Pending",
    "responsible_agency": "Department of Sanitation",
    "final_address": "3740 Fairmont Dr",
    "address_councildis": "D",
    "status": "Assigned to Contractor",
    "contractor": "IV Waste",
    "rowid": "1077322",
    "final_x": "3685129.1533",
    "final_y": "546352.779088",
    "longitude": "-90.0560887062547",
    "latitude": "29.996169943024867",
    "geocoded_column": {
      "latitude": "29.996169943024867",
      "longitude": "-90.0560887062547"
    }
  },
  {
    "service_request": "2024-1077321",
    "request_type": "Trash/Recycling",
    "request_reason": "Repair Recycling Cart",
    "date_created": "2024-03-20T15:43:46.000",
    "date_modified": "2024-03-20T15:43:46.000",
    "request_status": "Pending",
    "responsible_agency": "Department of Sanitation",
    "final_address": "3740 Fairmont Dr",
    "address_councildis": "D",
    "status": "Pending",
    "rowid": "1077321",
    "final_x": "3685129.1533",
    "final_y": "546352.779088",
    "longitude": "-90.0560887062547",
    "latitude": "29.996169943024867",
    "geocoded_column": {
      "latitude": "29.996169943024867",
      "longitude": "-90.0560887062547"
    }
  },
  {
    "service_request": "2024-1077320",
    "request_type": "Trash/Recycling",
    "request_reason": "Request a Large Item Pick Up",
    "date_created": "2024-03-20T15:40:56.000",
    "date_modified": "2024-03-20T15:40:57.000",
    "request_status": "Pending",
    "responsible_agency": "Department of Sanitation",
    "final_address": "1135 Philip St",
    "address_councildis": "B",
    "status": "Assigned to Contractor",
    "contractor": "Richards Disposal",
    "rowid": "1077320",
    "final_x": "3678404.33051",
    "final_y": "522111.522682",
    "longitude": "-90.0781707638938",
    "latitude": "29.92971911958499",
    "geocoded_column": {
      "latitude": "29.92971911958499",
      "longitude": "-90.0781707638938"
    }
  },
  {
    "service_request": "2024-1077319",
    "request_type": "Parks & Parkways",
    "request_reason": "Request Tree Service (Right of Way/Public Property)",
    "date_created": "2024-03-20T15:37:47.000",
    "date_modified": "2024-03-20T15:37:47.000",
    "request_status": "Pending",
    "responsible_agency": "Department of Parks & Parkway",
    "final_address": "3811 Ford St",
    "address_councildis": "D",
    "status": "Pending",
    "rowid": "1077319",
    "final_x": "3688965.12591",
    "final_y": "547368.144529",
    "longitude": "-90.04393509038067",
    "latitude": "29.998843701022466",
    "geocoded_column": {
      "latitude": "29.998843701022466",
      "longitude": "-90.04393509038067"
    }
  },
  {
    "service_request": "2024-1077318",
    "request_type": "Property Maintenance",
    "request_reason": "Property Maintenance",
    "date_created": "2024-03-20T15:35:36.000",
    "date_modified": "2024-03-20T15:41:46.000",
    "request_status": "Pending",
    "responsible_agency": "Department of Code Enforcement",
    "final_address": "11342 Pressburg St",
    "address_councildis": "E",
    "status": "Pending",
    "rowid": "1077318",
    "final_x": "3717266.61458",
    "final_y": "557505.501275",
    "longitude": "-89.95414596508766",
    "latitude": "30.02581140064734",
    "geocoded_column": {
      "latitude": "30.02581140064734",
      "longitude": "-89.95414596508766"
    }
  },
  {
    "service_request": "2024-1077317",
    "request_type": "Trash/Recycling",
    "request_reason": "Order Trash Cart",
    "date_created": "2024-03-20T15:32:24.000",
    "date_modified": "2024-03-20T15:32:25.000",
    "request_status": "Pending",
    "responsible_agency": "Department of Sanitation",
    "final_address": "3429 Willow St",
    "address_councildis": "B",
    "status": "Assigned to Contractor",
    "contractor": "Richards Disposal",
    "rowid": "1077317",
    "final_x": "3672119.26324",
    "final_y": "525689.729469",
    "longitude": "-90.09788986941514",
    "latitude": "29.939745841238995",
    "geocoded_column": {
      "latitude": "29.939745841238995",
      "longitude": "-90.09788986941514"
    }
  },
  {
    "service_request": "2024-1077316",
    "request_type": "Roads/Drainage",
    "request_reason": "Pothole",
    "date_created": "2024-03-20T15:30:57.000",
    "date_modified": "2024-03-20T15:30:57.000",
    "request_status": "Pending",
    "responsible_agency": "Department of Public Works",
    "final_address": "3938 Clermont Dr",
    "address_councildis": "D",
    "status": "Pending",
    "rowid": "1077316",
    "final_x": "3685049.73468",
    "final_y": "546998.964241",
    "longitude": "-90.05631683412619",
    "latitude": "29.997949154313208",
    "geocoded_column": {
      "latitude": "29.997949154313208",
      "longitude": "-90.05631683412619"
    }
  },
  {
    "service_request": "2024-1077315",
    "request_type": "Trash/Recycling",
    "request_reason": "Illegal Dumping",
    "date_created": "2024-03-20T15:28:17.000",
    "date_modified": "2024-03-20T15:29:29.000",
    "request_status": "Pending",
    "responsible_agency": "Department of Sanitation",
    "final_address": "547 Wagner St",
    "address_councildis": "C",
    "status": "Pending",
    "rowid": "1077315",
    "final_x": "3690523.97078",
    "final_y": "529415.370433",
    "longitude": "-90.0396510008933",
    "latitude": "29.949431604238836",
    "geocoded_column": {
      "latitude": "29.949431604238836",
      "longitude": "-90.0396510008933"
    }
  },
  {
    "service_request": "2024-1077314",
    "request_type": "Trash/Recycling",
    "request_reason": "Request a Large Item Pick Up",
    "date_created": "2024-03-20T15:27:25.000",
    "date_modified": "2024-03-20T15:27:26.000",
    "request_status": "Pending",
    "responsible_agency": "Department of Sanitation",
    "final_address": "4410 Eastern St",
    "address_councildis": "D",
    "status": "Assigned to Contractor",
    "contractor": "IV Waste",
    "rowid": "1077314",
    "final_x": "3688077.74415",
    "final_y": "549242.284115",
    "longitude": "-90.04667185214494",
    "latitude": "30.00402433125678",
    "geocoded_column": {
      "latitude": "30.00402433125678",
      "longitude": "-90.04667185214494"
    }
  },
  {
    "service_request": "2024-1077313",
    "request_type": "Abandoned Vehicles",
    "request_reason": "Vehicle Blocking Your Driveway",
    "date_created": "2024-03-20T15:27:18.000",
    "date_modified": "2024-03-20T15:32:57.000",
    "request_status": "Pending",
    "responsible_agency": "Department of Public Works",
    "final_address": "New Orleans,LA",
    "address_councildis": "B",
    "rowid": "1077313",
    "final_x": "3671870.46081",
    "final_y": "518613.993783",
    "longitude": "-90.09891603562247",
    "latitude": "29.920297217885782",
    "geocoded_column": {
      "latitude": "29.920297217885782",
      "longitude": "-90.09891603562247"
    }
  },
  {
    "service_request": "2024-1077312",
    "request_type": "Trash/Recycling",
    "request_reason": "Request a Large Item Pick Up",
    "date_created": "2024-03-20T15:27:05.000",
    "date_modified": "2024-03-20T18:14:59.000",
    "case_close_date": "2024-03-20T13:14:59.000",
    "request_status": "Closed",
    "responsible_agency": "Department of Sanitation",
    "final_address": "5438 N Rampart St",
    "address_councildis": "E",
    "status": "Assigned to Contractor",
    "contractor": "Waste Pro",
    "contractor_action": "Completed",
    "rowid": "1077312",
    "final_x": "3697350.15875",
    "final_y": "533415.78234",
    "longitude": "-90.01795278847887",
    "latitude": "29.960217647694172",
    "geocoded_column": {
      "latitude": "29.960217647694172",
      "longitude": "-90.01795278847887"
    }
  },
  {
    "service_request": "2024-1077310",
    "request_type": "Roads/Drainage",
    "request_reason": "Pothole",
    "date_created": "2024-03-20T15:23:36.000",
    "date_modified": "2024-03-20T15:23:37.000",
    "request_status": "Pending",
    "responsible_agency": "Department of Public Works",
    "final_address": "8711 Olive St",
    "address_councildis": "A",
    "status": "Pending",
    "rowid": "1077310",
    "final_x": "3665622.77882",
    "final_y": "535703.734215",
    "longitude": "-90.11806496010719",
    "latitude": "29.967472097713582",
    "geocoded_column": {
      "latitude": "29.967472097713582",
      "longitude": "-90.11806496010719"
    }
  },
  {
    "service_request": "2024-1077309",
    "request_type": "Traffic Signals/Signs/Striping/Streetlights",
    "request_reason": "Street Light Outage/Malfunction",
    "date_created": "2024-03-20T15:23:35.000",
    "date_modified": "2024-03-20T15:23:35.000",
    "request_status": "Pending",
    "responsible_agency": "Department of Public Works",
    "final_address": "7957 Vanderkloot Ave",
    "address_councildis": "E",
    "status": "Assigned to Contractor",
    "contractor": "Legacy Professional Services",
    "rowid": "1077309",
    "final_x": "3705411.44017",
    "final_y": "564279.311137",
    "longitude": "-89.99135574306119",
    "latitude": "30.044823742751667",
    "geocoded_column": {
      "latitude": "30.044823742751667",
      "longitude": "-89.99135574306119"
    }
  },
  {
    "service_request": "2024-1077308",
    "request_type": "Parks & Parkways",
    "request_reason": "Tree Stump (removal, grind)",
    "date_created": "2024-03-20T15:22:44.000",
    "date_modified": "2024-03-20T15:22:44.000",
    "request_status": "Pending",
    "responsible_agency": "Department of Parks & Parkway",
    "final_address": "1137 St Andrew St",
    "address_councildis": "B",
    "status": "Pending",
    "rowid": "1077308",
    "final_x": "3679312.36226",
    "final_y": "522880.795259",
    "longitude": "-90.07527760426606",
    "latitude": "29.931806985565245",
    "geocoded_column": {
      "latitude": "29.931806985565245",
      "longitude": "-90.07527760426606"
    }
  },
  {
    "service_request": "2024-1077307",
    "request_type": "Trash/Recycling",
    "request_reason": "Request a Large Item Pick Up",
    "date_created": "2024-03-20T15:22:28.000",
    "date_modified": "2024-03-20T15:22:28.000",
    "request_status": "Pending",
    "responsible_agency": "Department of Sanitation",
    "final_address": "2248 Bayou Rd",
    "address_councildis": "D",
    "status": "Assigned to Contractor",
    "contractor": "IV Waste",
    "rowid": "1077307",
    "final_x": "3679133.49979",
    "final_y": "538396.911241",
    "longitude": "-90.07530446812672",
    "latitude": "29.97447648544373",
    "geocoded_column": {
      "latitude": "29.97447648544373",
      "longitude": "-90.07530446812672"
    }
  },
  {
    "service_request": "2024-1077306",
    "request_type": "Roads/Drainage",
    "request_reason": "Pothole",
    "date_created": "2024-03-20T15:22:25.000",
    "date_modified": "2024-03-20T15:22:25.000",
    "request_status": "Pending",
    "responsible_agency": "Department of Public Works",
    "final_address": "8830 Olive St",
    "address_councildis": "A",
    "status": "Pending",
    "rowid": "1077306",
    "final_x": "3665189.48896",
    "final_y": "536001.142983",
    "longitude": "-90.11942335318153",
    "latitude": "29.968302502302198",
    "geocoded_column": {
      "latitude": "29.968302502302198",
      "longitude": "-90.11942335318153"
    }
  },
  {
    "service_request": "2024-1077305",
    "request_type": "Roads/Drainage",
    "request_reason": "Pothole",
    "date_created": "2024-03-20T15:20:54.000",
    "date_modified": "2024-03-20T15:20:55.000",
    "request_status": "Pending",
    "responsible_agency": "Department of Public Works",
    "final_address": "3400 BLK Hamilton St",
    "address_councildis": "A",
    "status": "Pending",
    "rowid": "1077305",
    "final_x": "3664756.34105",
    "final_y": "536679.972359",
    "longitude": "-90.12076857359165",
    "latitude": "29.970181669112392",
    "geocoded_column": {
      "latitude": "29.970181669112392",
      "longitude": "-90.12076857359165"
    }
  },
  {
    "service_request": "2024-1077304",
    "request_type": "Roads/Drainage",
    "request_reason": "Pothole",
    "date_created": "2024-03-20T15:19:52.000",
    "date_modified": "2024-03-20T15:19:53.000",
    "request_status": "Pending",
    "responsible_agency": "Department of Public Works",
    "final_address": "EDINBURGH ST & HOLLYGROVE ST",
    "address_councildis": "A",
    "status": "Pending",
    "rowid": "1077304",
    "final_x": "3665134.1",
    "final_y": "536578.38",
    "longitude": "-90.11957896486221",
    "latitude": "29.96989132642854",
    "geocoded_column": {
      "latitude": "29.96989132642854",
      "longitude": "-90.11957896486221"
    }
  },
  {
    "service_request": "2024-1077303",
    "request_type": "Trash/Recycling",
    "request_reason": "Illegal Dumping",
    "date_created": "2024-03-20T15:18:30.000",
    "date_modified": "2024-03-20T15:18:30.000",
    "request_status": "Pending",
    "responsible_agency": "Department of Sanitation",
    "final_address": "1135 St Andrew St",
    "address_councildis": "B",
    "status": "Pending",
    "rowid": "1077303",
    "final_x": "3679323.84559",
    "final_y": "522868.673787",
    "longitude": "-90.07524177280013",
    "latitude": "29.931773308816666",
    "geocoded_column": {
      "latitude": "29.931773308816666",
      "longitude": "-90.07524177280013"
    }
  },
  {
    "service_request": "2024-1077302",
    "request_type": "Roads/Drainage",
    "request_reason": "Pothole",
    "date_created": "2024-03-20T15:18:06.000",
    "date_modified": "2024-03-20T15:18:06.000",
    "request_status": "Pending",
    "responsible_agency": "Department of Public Works",
    "final_address": "3420 General Ogden St",
    "address_councildis": "A",
    "status": "Pending",
    "rowid": "1077302",
    "final_x": "3665234.04724",
    "final_y": "536217.517639",
    "longitude": "-90.11927539550211",
    "latitude": "29.968896162960228",
    "geocoded_column": {
      "latitude": "29.968896162960228",
      "longitude": "-90.11927539550211"
    }
  },
  {
    "service_request": "2024-1077301",
    "request_type": "Roads/Drainage",
    "request_reason": "Pothole",
    "date_created": "2024-03-20T15:15:48.000",
    "date_modified": "2024-03-20T15:15:48.000",
    "request_status": "Pending",
    "responsible_agency": "Department of Public Works",
    "final_address": "GENERAL OGDEN ST & OLIVE ST",
    "address_councildis": "A",
    "status": "Pending",
    "rowid": "1077301",
    "final_x": "3665152.5",
    "final_y": "536082.28",
    "longitude": "-90.11953745216599",
    "latitude": "29.968526679706294",
    "geocoded_column": {
      "latitude": "29.968526679706294",
      "longitude": "-90.11953745216599"
    }
  },
  {
    "service_request": "2024-1077300",
    "request_type": "Roads/Drainage",
    "request_reason": "Pothole",
    "date_created": "2024-03-20T15:13:55.000",
    "date_modified": "2024-03-20T15:13:55.000",
    "request_status": "Pending",
    "responsible_agency": "Department of Public Works",
    "final_address": "9100 BLK Olive St",
    "address_councildis": "A",
    "status": "Pending",
    "rowid": "1077300",
    "final_x": "3664508.78938",
    "final_y": "536668.363459",
    "longitude": "-90.12155075880598",
    "latitude": "29.970156949362085",
    "geocoded_column": {
      "latitude": "29.970156949362085",
      "longitude": "-90.12155075880598"
    }
  },
  {
    "service_request": "2024-1077299",
    "request_type": "Trash/Recycling",
    "request_reason": "Request a Large Item Pick Up",
    "date_created": "2024-03-20T15:12:34.000",
    "date_modified": "2024-03-20T15:34:46.000",
    "request_status": "Pending",
    "responsible_agency": "Department of Sanitation",
    "final_address": "1137 Saint Andrew St, New Orleans, Louisiana, 70130",
    "address_councildis": "B",
    "status": "Assigned to Contractor",
    "contractor": "Richards Disposal",
    "rowid": "1077299",
    "final_x": "3679312.36226",
    "final_y": "522880.795259",
    "longitude": "-90.07527760426606",
    "latitude": "29.931806985565245",
    "geocoded_column": {
      "latitude": "29.931806985565245",
      "longitude": "-90.07527760426606"
    }
  },
  {
    "service_request": "2024-1077298",
    "request_type": "Trash/Recycling",
    "request_reason": "Missed Trash Pick-Up",
    "date_created": "2024-03-20T15:11:17.000",
    "date_modified": "2024-03-20T15:11:17.000",
    "request_status": "Pending",
    "responsible_agency": "Department of Sanitation",
    "final_address": "2107 Martin Luther King, Jr. Blvd",
    "address_councildis": "B",
    "status": "Assigned to Contractor",
    "contractor": "Richards Disposal",
    "rowid": "1077298",
    "final_x": "3677529.60373",
    "final_y": "526667.535486",
    "longitude": "-90.08077490365419",
    "latitude": "29.942272976166134",
    "geocoded_column": {
      "latitude": "29.942272976166134",
      "longitude": "-90.08077490365419"
    }
  },
  {
    "service_request": "2024-1077297",
    "request_type": "Abandoned Vehicles",
    "request_reason": "Abandoned/Junk Vehicles",
    "date_created": "2024-03-20T15:11:13.000",
    "date_modified": "2024-03-20T15:12:37.000",
    "request_status": "Pending",
    "responsible_agency": "Department of Public Works",
    "final_address": "4917 Maid Marion Dr",
    "address_councildis": "E",
    "status": "Pending",
    "rowid": "1077297",
    "final_x": "3716974.96856",
    "final_y": "557721.900123",
    "longitude": "-89.95505929153268",
    "latitude": "30.026416060093403",
    "geocoded_column": {
      "latitude": "30.026416060093403",
      "longitude": "-89.95505929153268"
    }
  },
  {
    "service_request": "2024-1077296",
    "request_type": "Traffic Signals/Signs/Striping/Streetlights",
    "request_reason": "Striping/Road Surface Markings",
    "date_created": "2024-03-20T15:10:56.000",
    "date_modified": "2024-03-20T15:10:56.000",
    "request_status": "Pending",
    "responsible_agency": "Department of Public Works",
    "final_address": "1936 Conti St",
    "address_councildis": "B",
    "status": "Pending",
    "rowid": "1077296",
    "final_x": "3678247.44187",
    "final_y": "534315.541445",
    "longitude": "-90.07824404232711",
    "latitude": "29.96328083184204",
    "geocoded_column": {
      "latitude": "29.96328083184204",
      "longitude": "-90.07824404232711"
    }
  },
  {
    "service_request": "2024-1077295",
    "request_type": "Trash/Recycling",
    "request_reason": "Return Trash Cart",
    "date_created": "2024-03-20T15:08:16.000",
    "date_modified": "2024-03-20T15:08:17.000",
    "request_status": "Pending",
    "responsible_agency": "Department of Sanitation",
    "final_address": "4827 Prytania St",
    "address_councildis": "B",
    "status": "Assigned to Contractor",
    "contractor": "Richards Disposal",
    "rowid": "1077295",
    "final_x": "3669204.9561",
    "final_y": "520195.294776",
    "longitude": "-90.10727638860548",
    "latitude": "29.9247239841353",
    "geocoded_column": {
      "latitude": "29.9247239841353",
      "longitude": "-90.10727638860548"
    }
  },
  {
    "service_request": "2024-1077294",
    "request_type": "Roads/Drainage",
    "request_reason": "Pothole",
    "date_created": "2024-03-20T15:02:34.000",
    "date_modified": "2024-03-20T15:02:34.000",
    "request_status": "Pending",
    "responsible_agency": "Department of Public Works",
    "final_address": "1312 Milan St",
    "address_councildis": "B",
    "status": "Pending",
    "rowid": "1077294",
    "final_x": "3671625.82823",
    "final_y": "520286.919608",
    "longitude": "-90.09963137110304",
    "latitude": "29.92490447494246",
    "geocoded_column": {
      "latitude": "29.92490447494246",
      "longitude": "-90.09963137110304"
    }
  },
  {
    "service_request": "2024-1077293",
    "request_type": "Trash/Recycling",
    "request_reason": "Replace Trash Cart",
    "date_created": "2024-03-20T15:02:21.000",
    "date_modified": "2024-03-20T15:02:21.000",
    "request_status": "Pending",
    "responsible_agency": "Department of Sanitation",
    "final_address": "3219 Danneel St",
    "address_councildis": "B",
    "status": "Assigned to Contractor",
    "contractor": "Richards Disposal",
    "rowid": "1077293",
    "final_x": "3674027.32731",
    "final_y": "523097.151419",
    "longitude": "-90.09195450750728",
    "latitude": "29.93256038970183",
    "geocoded_column": {
      "latitude": "29.93256038970183",
      "longitude": "-90.09195450750728"
    }
  },
  {
    "service_request": "2024-1077292",
    "request_type": "Abandoned Vehicles",
    "request_reason": "Abandoned/Junk Vehicles",
    "date_created": "2024-03-20T14:59:42.000",
    "date_modified": "2024-03-20T14:59:42.000",
    "request_status": "Pending",
    "responsible_agency": "Department of Public Works",
    "final_address": "6641 Milne Blvd",
    "address_councildis": "A",
    "status": "Pending",
    "rowid": "1077292",
    "final_x": "3667563.73293",
    "final_y": "551788.156246",
    "longitude": "-90.11139368503642",
    "latitude": "30.0116420239191",
    "geocoded_column": {
      "latitude": "30.0116420239191",
      "longitude": "-90.11139368503642"
    }
  },
  {
    "service_request": "2024-1077291",
    "request_type": "Trash/Recycling",
    "request_reason": "Request a Large Item Pick Up",
    "date_created": "2024-03-20T14:59:30.000",
    "date_modified": "2024-03-20T18:14:17.000",
    "case_close_date": "2024-03-20T13:14:17.000",
    "request_status": "Closed",
    "responsible_agency": "Department of Sanitation",
    "final_address": "7601 Ebbtide Dr",
    "address_councildis": "E",
    "status": "Assigned to Contractor",
    "contractor": "Waste Pro",
    "contractor_action": "Completed",
    "rowid": "1077291",
    "final_x": "3702308.20285",
    "final_y": "561374.145502",
    "longitude": "-90.00127009626208",
    "latitude": "30.036935246114254",
    "geocoded_column": {
      "latitude": "30.036935246114254",
      "longitude": "-90.00127009626208"
    }
  },
  {
    "service_request": "2024-1077290",
    "request_type": "Trash/Recycling",
    "request_reason": "Request a Large Item Pick Up",
    "date_created": "2024-03-20T14:58:36.000",
    "date_modified": "2024-03-20T14:58:37.000",
    "request_status": "Pending",
    "responsible_agency": "Department of Sanitation",
    "final_address": "6618 Milne Blvd",
    "address_councildis": "A",
    "status": "Assigned to Contractor",
    "contractor": "IV Waste",
    "rowid": "1077290",
    "final_x": "3667357.14989",
    "final_y": "551865.044182",
    "longitude": "-90.11204378023557",
    "latitude": "30.01185949473345",
    "geocoded_column": {
      "latitude": "30.01185949473345",
      "longitude": "-90.11204378023557"
    }
  },
  {
    "service_request": "2024-1077289",
    "request_type": "Trash/Recycling",
    "request_reason": "Repair Trash Cart",
    "date_created": "2024-03-20T14:53:59.000",
    "date_modified": "2024-03-20T14:54:00.000",
    "request_status": "Pending",
    "responsible_agency": "Department of Sanitation",
    "final_address": "2024 Milan St",
    "address_councildis": "B",
    "status": "Assigned to Contractor",
    "contractor": "Richards Disposal",
    "rowid": "1077289",
    "final_x": "3671387.74676",
    "final_y": "522609.649658",
    "longitude": "-90.10030401788308",
    "latitude": "29.931298284324097",
    "geocoded_column": {
      "latitude": "29.931298284324097",
      "longitude": "-90.10030401788308"
    }
  },
  {
    "service_request": "2024-1077288",
    "request_type": "Trash/Recycling",
    "request_reason": "Illegal Dumping",
    "date_created": "2024-03-20T14:49:57.000",
    "date_modified": "2024-03-20T14:49:58.000",
    "request_status": "Pending",
    "responsible_agency": "Department of Sanitation",
    "final_address": "6821 Mayo Rd Apt D",
    "address_councildis": "E",
    "status": "Pending",
    "rowid": "1077288",
    "final_x": "3702162.27639",
    "final_y": "557338.594011",
    "longitude": "-90.0018794432436",
    "latitude": "30.02584371047751",
    "geocoded_column": {
      "latitude": "30.02584371047751",
      "longitude": "-90.0018794432436"
    }
  },
  {
    "service_request": "2024-1077287",
    "request_type": "Property Maintenance",
    "request_reason": "Property Maintenance",
    "date_created": "2024-03-20T14:48:51.000",
    "date_modified": "2024-03-20T14:48:51.000",
    "request_status": "Pending",
    "responsible_agency": "Department of Code Enforcement",
    "final_address": "1938 Spain St",
    "address_councildis": "D",
    "status": "Pending",
    "rowid": "1077287",
    "final_x": "3685831.76604",
    "final_y": "539655.321226",
    "longitude": "-90.05410540437705",
    "latitude": "29.977732759291563",
    "geocoded_column": {
      "latitude": "29.977732759291563",
      "longitude": "-90.05410540437705"
    }
  },
  {
    "service_request": "2024-1077286",
    "request_type": "Traffic Signals/Signs/Striping/Streetlights",
    "request_reason": "Traffic Signal Malfunctioning/Damaged",
    "date_created": "2024-03-20T14:47:07.000",
    "date_modified": "2024-03-20T14:47:08.000",
    "request_status": "Pending",
    "responsible_agency": "Department of Public Works",
    "final_address": "LOUISIANA AVE & ST CHARLES AVE",
    "address_councildis": "B",
    "status": "Pending",
    "rowid": "1077286",
    "final_x": "3674182.9",
    "final_y": "521553.38",
    "longitude": "-90.0915161948047",
    "latitude": "29.92831088265581",
    "geocoded_column": {
      "latitude": "29.92831088265581",
      "longitude": "-90.0915161948047"
    }
  },
  {
    "service_request": "2024-1077285",
    "request_type": "Safety & Permits",
    "request_reason": "Construction permit",
    "date_created": "2024-03-20T14:46:28.000",
    "date_modified": "2024-03-20T14:46:28.000",
    "request_status": "Pending",
    "responsible_agency": "Department of Code Enforcement",
    "final_address": "10 Lark St",
    "address_councildis": "D",
    "status": "Pending",
    "rowid": "1077285",
    "final_x": "3676045.58401",
    "final_y": "556499.208154",
    "longitude": "-90.08443372243211",
    "latitude": "30.024344283574596",
    "geocoded_column": {
      "latitude": "30.024344283574596",
      "longitude": "-90.08443372243211"
    }
  },
  {
    "service_request": "2024-1077284",
    "request_type": "Property Maintenance",
    "request_reason": "Property Maintenance",
    "date_created": "2024-03-20T14:44:46.000",
    "date_modified": "2024-03-20T14:44:46.000",
    "request_status": "Pending",
    "responsible_agency": "Department of Code Enforcement",
    "final_address": "2436 N Rampart St",
    "address_councildis": "C",
    "status": "Pending",
    "rowid": "1077284",
    "final_x": "3686102.20169",
    "final_y": "535996.121031",
    "longitude": "-90.05338037413415",
    "latitude": "29.967662933843332",
    "geocoded_column": {
      "latitude": "29.967662933843332",
      "longitude": "-90.05338037413415"
    }
  },
  {
    "service_request": "2024-1077283",
    "request_type": "Trash/Recycling",
    "request_reason": "Request a Large Item Pick Up",
    "date_created": "2024-03-20T14:42:33.000",
    "date_modified": "2024-03-20T18:11:06.000",
    "case_close_date": "2024-03-20T13:11:06.000",
    "request_status": "Closed",
    "responsible_agency": "Department of Sanitation",
    "final_address": "6821 Mayo Rd Apt A",
    "address_councildis": "E",
    "status": "Assigned to Contractor",
    "contractor": "Waste Pro",
    "contractor_action": "Completed",
    "rowid": "1077283",
    "final_x": "3702122.69303",
    "final_y": "557330.607899",
    "longitude": "-90.00200481371809",
    "latitude": "30.025823016394295",
    "geocoded_column": {
      "latitude": "30.025823016394295",
      "longitude": "-90.00200481371809"
    }
  },
  {
    "service_request": "2024-1077282",
    "request_type": "Trash/Recycling",
    "request_reason": "Request a Large Item Pick Up",
    "date_created": "2024-03-20T14:41:14.000",
    "date_modified": "2024-03-20T14:41:24.000",
    "request_status": "Pending",
    "responsible_agency": "Department of Sanitation",
    "final_address": "2308 Dauphine St",
    "address_councildis": "C",
    "status": "Assigned to Contractor",
    "contractor": "IV Waste",
    "rowid": "1077282",
    "final_x": "3685603.80105",
    "final_y": "535244.20519",
    "longitude": "-90.0549808244843",
    "latitude": "29.965610724972848",
    "geocoded_column": {
      "latitude": "29.965610724972848",
      "longitude": "-90.0549808244843"
    }
  },
  {
    "service_request": "2024-1077281",
    "request_type": "Trash/Recycling",
    "request_reason": "Request a Large Item Pick Up",
    "date_created": "2024-03-20T14:40:08.000",
    "date_modified": "2024-03-20T18:13:20.000",
    "case_close_date": "2024-03-20T13:13:20.000",
    "request_status": "Closed",
    "responsible_agency": "Department of Sanitation",
    "final_address": "5744 Dauphine St",
    "address_councildis": "E",
    "status": "Assigned to Contractor",
    "contractor": "Waste Pro",
    "contractor_action": "Completed",
    "rowid": "1077281",
    "final_x": "3698510.09488",
    "final_y": "532386.289283",
    "longitude": "-90.01432739857351",
    "latitude": "29.957350242787413",
    "geocoded_column": {
      "latitude": "29.957350242787413",
      "longitude": "-90.01432739857351"
    }
  },
  {
    "service_request": "2024-1077280",
    "request_type": "Abandoned Vehicles",
    "request_reason": "Abandoned/Junk Vehicles",
    "date_created": "2024-03-20T14:33:27.000",
    "date_modified": "2024-03-20T14:33:27.000",
    "request_status": "Pending",
    "responsible_agency": "Department of Public Works",
    "final_address": "5000 BLK Wilton Dr",
    "address_councildis": "D",
    "status": "Pending",
    "rowid": "1077280",
    "final_x": "3681940.87624",
    "final_y": "551590.217145",
    "longitude": "-90.06597724115646",
    "latitude": "30.0106683529748",
    "geocoded_column": {
      "latitude": "30.0106683529748",
      "longitude": "-90.06597724115646"
    }
  },
  {
    "service_request": "2024-1077279",
    "request_type": "Trash/Recycling",
    "request_reason": "MIssed Recycling Pick-Up",
    "date_created": "2024-03-20T14:28:45.000",
    "date_modified": "2024-03-20T14:28:45.000",
    "request_status": "Pending",
    "responsible_agency": "Department of Sanitation",
    "final_address": "3400 Nashville Ave",
    "address_councildis": "A",
    "status": "Assigned to Contractor",
    "contractor": "Richards Disposal",
    "rowid": "1077279",
    "final_x": "3667993.44583",
    "final_y": "528194.613376",
    "longitude": "-90.1108313290352",
    "latitude": "29.94675513491268",
    "geocoded_column": {
      "latitude": "29.94675513491268",
      "longitude": "-90.1108313290352"
    }
  },
  {
    "service_request": "2024-1077278",
    "request_type": "Trash/Recycling",
    "request_reason": "Replace Trash Cart",
    "date_created": "2024-03-20T14:21:56.000",
    "date_modified": "2024-03-20T14:21:56.000",
    "request_status": "Pending",
    "responsible_agency": "Department of Sanitation",
    "final_address": "2423 Chartres St",
    "address_councildis": "C",
    "status": "Assigned to Contractor",
    "contractor": "IV Waste",
    "rowid": "1077278",
    "final_x": "3686117.63823",
    "final_y": "534617.359302",
    "longitude": "-90.0533802631079",
    "latitude": "29.9638713433095",
    "geocoded_column": {
      "latitude": "29.9638713433095",
      "longitude": "-90.0533802631079"
    }
  },
  {
    "service_request": "2024-1077277",
    "request_type": "Trash/Recycling",
    "request_reason": "Replace Trash Cart",
    "date_created": "2024-03-20T14:21:53.000",
    "date_modified": "2024-03-20T14:21:54.000",
    "case_close_date": "2024-03-14T19:00:00.000",
    "request_status": "Pending",
    "responsible_agency": "Department of Sanitation",
    "final_address": "6453 Bellaire Dr",
    "address_councildis": "A",
    "status": "Assigned to Contractor",
    "contractor": "IV Waste",
    "rowid": "1077277",
    "final_x": "3664532.28807",
    "final_y": "550942.018005",
    "longitude": "-90.12099961102334",
    "latitude": "30.009403979222135",
    "geocoded_column": {
      "latitude": "30.009403979222135",
      "longitude": "-90.12099961102334"
    }
  },