[
  {
    "service_request": "2026-1268998",
    "request_type": "Roads and Streets",
    "request_reason": "Curb Damage",
    "date_created": "2026-03-26T23:32:33.000",
    "date_modified": "2026-03-26T23:32:34.000",
    "request_status": "Pending",
    "responsible_agency": "Department of Public Works",
    "final_address": "1913 Governor Nicholls St",
    "address_councildis": "C",
    "status": "Pending",
    "rowid": "1268998",
    "final_x": "3680242.13013",
    "final_y": "536604.556871",
    "longitude": "-90.07186546695388",
    "latitude": "29.969514613619317",
    "geocoded_column": {
      "latitude": "29.969514613619317",
      "longitude": "-90.07186546695388"
    }
  },
  {
    "service_request": "2026-1268997",
    "request_type": "Roads and Streets",
    "request_reason": "Sidewalk Damaged or Missing",
    "date_created": "2026-03-26T23:29:25.000",
    "date_modified": "2026-03-26T23:29:27.000",
    "request_status": "Pending",
    "responsible_agency": "Department of Public Works",
    "final_address": "1913 Governor Nicholls St",
    "address_councildis": "C",
    "status": "Pending",
    "rowid": "1268997",
    "final_x": "3680242.13013",
    "final_y": "536604.556871",
    "longitude": "-90.07186546695388",
    "latitude": "29.969514613619317",
    "geocoded_column": {
      "latitude": "29.969514613619317",
      "longitude": "-90.07186546695388"
    }
  },
  {
    "service_request": "2026-1268996",
    "request_type": "Trash/Recycling",
    "request_reason": "Request a Large Item Pick Up",
    "date_created": "2026-03-26T23:13:41.000",
    "date_modified": "2026-03-26T23:13:43.000",
    "request_status": "Pending",
    "responsible_agency": "Department of Sanitation",
    "final_address": "1715 France St",
    "address_councildis": "D",
    "status": "Assigned to Contractor",
    "contractor": "IV Waste",
    "rowid": "1268996",
    "final_x": "3693020.20886",
    "final_y": "537521.33044",
    "longitude": "-90.03147850327866",
    "latitude": "29.97164242045645",
    "geocoded_column": {
      "latitude": "29.97164242045645",
      "longitude": "-90.03147850327866"
    }
  },
  {
    "service_request": "2026-1268995",
    "request_type": "Streetlights",
    "request_reason": "Streetlight Outage/Malfunction",
    "date_created": "2026-03-26T22:27:17.000",
    "date_modified": "2026-03-26T22:27:19.000",
    "request_status": "Pending",
    "responsible_agency": "Department of Public Works",
    "final_address": "3310 Vincennes Pl",
    "address_councildis": "B",
    "status": "Pending",
    "rowid": "1268995",
    "final_x": "3667850.25012",
    "final_y": "528286.778304",
    "longitude": "-90.11128034792002",
    "latitude": "29.947012758609755",
    "geocoded_column": {
      "latitude": "29.947012758609755",
      "longitude": "-90.11128034792002"
    }
  },
  {
    "service_request": "2026-1268994",
    "request_type": "Trash/Recycling",
    "request_reason": "Replace Trash Cart",
    "date_created": "2026-03-26T22:05:23.000",
    "date_modified": "2026-03-26T22:05:25.000",
    "request_status": "Pending",
    "responsible_agency": "Department of Sanitation",
    "final_address": "4716 Pontchartrain Blvd",
    "address_councildis": "A",
    "status": "Assigned to Contractor",
    "contractor": "IV Waste",
    "rowid": "1268994",
    "final_x": "3667531.56026",
    "final_y": "538381.171849",
    "longitude": "-90.11194684252528",
    "latitude": "29.974778354588306",
    "geocoded_column": {
      "latitude": "29.974778354588306",
      "longitude": "-90.11194684252528"
    }
  },
  {
    "service_request": "2026-1268993",
    "request_type": "Trash/Recycling",
    "request_reason": "Request a Large Item Pick Up",
    "date_created": "2026-03-26T21:51:50.000",
    "date_modified": "2026-03-26T21:51:53.000",
    "request_status": "Pending",
    "responsible_agency": "Department of Sanitation",
    "final_address": "325 Delaronde St",
    "address_councildis": "C",
    "status": "Assigned to Contractor",
    "contractor": "Richards Disposal",
    "rowid": "1268993",
    "final_x": "3686460.1965",
    "final_y": "530877.009986",
    "longitude": "-90.05243053824753",
    "latitude": "29.95357614516989",
    "geocoded_column": {
      "latitude": "29.95357614516989",
      "longitude": "-90.05243053824753"
    }
  },
  {
    "service_request": "2026-1268992",
    "request_type": "Trash/Recycling",
    "request_reason": "Order Recycling Cart",
    "date_created": "2026-03-26T21:40:56.000",
    "date_modified": "2026-03-26T21:40:59.000",
    "request_status": "Pending",
    "responsible_agency": "Department of Sanitation",
    "final_address": "1910 Flood St",
    "address_councildis": "E",
    "status": "Pending",
    "rowid": "1268992",
    "final_x": "3698498.16016",
    "final_y": "536937.017096",
    "longitude": "-90.01419965419728",
    "latitude": "29.969863498549323",
    "geocoded_column": {
      "latitude": "29.969863498549323",
      "longitude": "-90.01419965419728"
    }
  },
  {
    "service_request": "2026-1268991",
    "request_type": "Trash/Recycling",
    "request_reason": "Request a Large Item Pick Up",
    "date_created": "2026-03-26T21:38:14.000",
    "date_modified": "2026-03-26T21:38:16.000",
    "request_status": "Pending",
    "responsible_agency": "Department of Sanitation",
    "final_address": "911 Race St",
    "address_councildis": "B",
    "status": "Assigned to Contractor",
    "contractor": "IV Waste",
    "rowid": "1268991",
    "final_x": "3680883.94293",
    "final_y": "523720.705403",
    "longitude": "-90.0702870714362",
    "latitude": "29.934068922331125",
    "geocoded_column": {
      "latitude": "29.934068922331125",
      "longitude": "-90.0702870714362"
    }
  },
  {
    "service_request": "2026-1268990",
    "request_type": "Trash/Recycling",
    "request_reason": "Order Trash Cart",
    "date_created": "2026-03-26T21:36:05.000",
    "date_modified": "2026-03-26T21:36:06.000",
    "request_status": "Pending",
    "responsible_agency": "Department of Sanitation",
    "final_address": "121 S Genois St",
    "address_councildis": "B",
    "status": "Assigned to Contractor",
    "contractor": "IV Waste",
    "rowid": "1268990",
    "final_x": "3672416.89627",
    "final_y": "537028.742856",
    "longitude": "-90.09656380046604",
    "latitude": "29.97091554150588",
    "geocoded_column": {
      "latitude": "29.97091554150588",
      "longitude": "-90.09656380046604"
    }
  },
  {
    "service_request": "2026-1268989",
    "request_type": "Trash/Recycling",
    "request_reason": "Repair Trash Cart",
    "date_created": "2026-03-26T21:35:43.000",
    "date_modified": "2026-03-26T21:35:44.000",
    "request_status": "Pending",
    "responsible_agency": "Department of Sanitation",
    "final_address": "4610 Orleans Ave",
    "address_councildis": "A",
    "status": "Assigned to Contractor",
    "contractor": "IV Waste",
    "rowid": "1268989",
    "final_x": "3670697.16481",
    "final_y": "541504.044556",
    "longitude": "-90.10184304558328",
    "latitude": "29.98327203278501",
    "geocoded_column": {
      "latitude": "29.98327203278501",
      "longitude": "-90.10184304558328"
    }
  },
  {
    "service_request": "2026-1268988",
    "request_type": "Trash/Recycling",
    "request_reason": "Order Recycling Cart",
    "date_created": "2026-03-26T21:33:04.000",
    "date_modified": "2026-03-26T21:33:07.000",
    "request_status": "Pending",
    "responsible_agency": "Department of Sanitation",
    "final_address": "4610 Orleans Ave",
    "address_councildis": "A",
    "status": "Pending",
    "rowid": "1268988",
    "final_x": "3670697.16481",
    "final_y": "541504.044556",
    "longitude": "-90.10184304558328",
    "latitude": "29.98327203278501",
    "geocoded_column": {
      "latitude": "29.98327203278501",
      "longitude": "-90.10184304558328"
    }
  },
  {
    "service_request": "2026-1268987",
    "request_type": "Trash/Recycling",
    "request_reason": "Start Trash Service",
    "date_created": "2026-03-26T21:14:33.000",
    "date_modified": "2026-03-26T21:14:36.000",
    "request_status": "Pending",
    "responsible_agency": "Department of Sanitation",
    "final_address": "10101 Dreux Ave",
    "address_councildis": "E",
    "status": "Assigned to Contractor",
    "contractor": "Waste Pro",
    "rowid": "1268987",
    "final_x": "3712890.5443",
    "final_y": "555958.810585",
    "longitude": "-89.96803184910942",
    "latitude": "30.021702714868166",
    "geocoded_column": {
      "latitude": "30.021702714868166",
      "longitude": "-89.96803184910942"
    }
  },
  {
    "service_request": "2026-1268986",
    "request_type": "Health Related Request",
    "request_reason": "Noise Ordinance Complaint",
    "date_created": "2026-03-26T20:54:01.000",
    "date_modified": "2026-03-26T20:54:03.000",
    "request_status": "Pending",
    "responsible_agency": "Health Department",
    "final_address": "801 Bourbon St, New Orleans, Louisiana, 70116",
    "address_councildis": "C",
    "status": "Pending",
    "rowid": "1268986",
    "final_x": "3682490.98735",
    "final_y": "533018.672772",
    "longitude": "-90.06488875731978",
    "latitude": "29.959586396383013",
    "geocoded_column": {
      "latitude": "29.959586396383013",
      "longitude": "-90.06488875731978"
    }
  },
  {
    "service_request": "2026-1268985",
    "request_type": "Health Related Request",
    "request_reason": "Noise Ordinance Complaint",
    "date_created": "2026-03-26T20:53:35.000",
    "date_modified": "2026-03-26T20:53:38.000",
    "request_status": "Pending",
    "responsible_agency": "Health Department",
    "final_address": "800 Bourbon St, New Orleans, Louisiana, 70116",
    "address_councildis": "C",
    "status": "Pending",
    "rowid": "1268985",
    "final_x": "3682553.51528",
    "final_y": "533013.631428",
    "longitude": "-90.06469148499534",
    "latitude": "29.95957063099051",
    "geocoded_column": {
      "latitude": "29.95957063099051",
      "longitude": "-90.06469148499534"
    }
  },
  {
    "service_request": "2026-1268984",
    "request_type": "Trash/Recycling",
    "request_reason": "Request a Large Item Pick Up",
    "date_created": "2026-03-26T20:37:30.000",
    "date_modified": "2026-03-26T20:37:32.000",
    "request_status": "Pending",
    "responsible_agency": "Department of Sanitation",
    "final_address": "5013 Iberville St Apt 1A",
    "address_councildis": "A",
    "status": "Assigned to Contractor",
    "contractor": "IV Waste",
    "rowid": "1268984",
    "final_x": "3668430.98042",
    "final_y": "541011.797515",
    "longitude": "-90.10901746768853",
    "latitude": "29.981985295675145",
    "geocoded_column": {
      "latitude": "29.981985295675145",
      "longitude": "-90.10901746768853"
    }
  },
  {
    "service_request": "2026-1268983",
    "request_type": "Health Related Request",
    "request_reason": "Noise Ordinance Complaint",
    "date_created": "2026-03-26T20:26:35.000",
    "date_modified": "2026-03-26T20:26:39.000",
    "request_status": "Pending",
    "responsible_agency": "Health Department",
    "final_address": "3823 Saint Charles Ave, New Orleans, Louisiana, 70115",
    "address_councildis": "B",
    "status": "Pending",
    "rowid": "1268983",
    "final_x": "3672661.70804",
    "final_y": "521117.682297",
    "longitude": "-90.0963331208186",
    "latitude": "29.927158097750944",
    "geocoded_column": {
      "latitude": "29.927158097750944",
      "longitude": "-90.0963331208186"
    }
  },
  {
    "service_request": "2026-1268982",
    "request_type": "Roads and Streets",
    "request_reason": "Pothole",
    "date_created": "2026-03-26T20:10:19.000",
    "date_modified": "2026-03-26T20:10:21.000",
    "request_status": "Pending",
    "responsible_agency": "Department of Public Works",
    "final_address": "0 BLK Annunciation St",
    "address_councildis": "E",
    "status": "Pending",
    "rowid": "1268982",
    "final_x": "3713405.91305",
    "final_y": "559269.453099",
    "longitude": "-89.96627863494602",
    "latitude": "30.030788775553656",
    "geocoded_column": {
      "latitude": "30.030788775553656",
      "longitude": "-89.96627863494602"
    }
  },
  {
    "service_request": "2026-1268981",
    "request_type": "Roads and Streets",
    "request_reason": "Debris in Driving Lanes",
    "date_created": "2026-03-26T20:04:56.000",
    "date_modified": "2026-03-26T20:04:58.000",
    "request_status": "Pending",
    "responsible_agency": "Department of Public Works",
    "final_address": "1204 St Mary St",
    "address_councildis": "B",
    "status": "Pending",
    "rowid": "1268981",
    "final_x": "3679400.74338",
    "final_y": "523156.879803",
    "longitude": "-90.07498902332853",
    "latitude": "29.932563458851476",
    "geocoded_column": {
      "latitude": "29.932563458851476",
      "longitude": "-90.07498902332853"
    }
  },
  {
    "service_request": "2026-1268980",
    "request_type": "Trash/Recycling",
    "request_reason": "Request a Large Item Pick Up",
    "date_created": "2026-03-26T19:56:25.000",
    "date_modified": "2026-03-26T19:56:27.000",
    "request_status": "Pending",
    "responsible_agency": "Department of Sanitation",
    "final_address": "3401 Annunciation St",
    "address_councildis": "B",
    "status": "Assigned to Contractor",
    "contractor": "IV Waste",
    "rowid": "1268980",
    "final_x": "3675348.05326",
    "final_y": "518605.898231",
    "longitude": "-90.08793918760863",
    "latitude": "29.920171485210638",
    "geocoded_column": {
      "latitude": "29.920171485210638",
      "longitude": "-90.08793918760863"
    }
  },
  {
    "service_request": "2026-1268979",
    "request_type": "Trash/Recycling",
    "request_reason": "Replace Trash Cart",
    "date_created": "2026-03-26T19:55:23.000",
    "date_modified": "2026-03-26T19:55:25.000",
    "request_status": "Pending",
    "responsible_agency": "Department of Sanitation",
    "final_address": "5301 Laurel St",
    "address_councildis": "B",
    "status": "Assigned to Contractor",
    "contractor": "IV Waste",
    "rowid": "1268979",
    "final_x": "3667350.22138",
    "final_y": "517925.400118",
    "longitude": "-90.11320748677133",
    "latitude": "29.91853692799008",
    "geocoded_column": {
      "latitude": "29.91853692799008",
      "longitude": "-90.11320748677133"
    }
  },
  {
    "service_request": "2026-1268978",
    "request_type": "Property Maintenance",
    "request_reason": "Property Maintenance",
    "date_created": "2026-03-26T19:51:44.000",
    "date_modified": "2026-03-26T19:51:48.000",
    "request_status": "Pending",
    "responsible_agency": "Department of Code Enforcement",
    "final_address": "5009 Camp St",
    "address_councildis": "B",
    "status": "Pending",
    "rowid": "1268978",
    "final_x": "3668560.62074",
    "final_y": "518999.077559",
    "longitude": "-90.10935068271841",
    "latitude": "29.921453707079813",
    "geocoded_column": {
      "latitude": "29.921453707079813",
      "longitude": "-90.10935068271841"
    }
  },
  {
    "service_request": "2026-1268977",
    "request_type": "Trash/Recycling",
    "request_reason": "Return Trash Cart",
    "date_created": "2026-03-26T19:44:04.000",
    "date_modified": "2026-03-26T19:44:06.000",
    "request_status": "Pending",
    "responsible_agency": "Department of Sanitation",
    "final_address": "7412 Zimple St",
    "address_councildis": "A",
    "status": "Assigned to Contractor",
    "contractor": "IV Waste",
    "rowid": "1268977",
    "final_x": "3663354.79405",
    "final_y": "526585.026238",
    "longitude": "-90.12553087591728",
    "latitude": "29.942464551519446",
    "geocoded_column": {
      "latitude": "29.942464551519446",
      "longitude": "-90.12553087591728"
    }
  },
  {
    "service_request": "2026-1268976",
    "request_type": "Streetlights",
    "request_reason": "Streetlight Outage/Malfunction",
    "date_created": "2026-03-26T19:40:15.000",
    "date_modified": "2026-03-26T19:40:18.000",
    "request_status": "Pending",
    "responsible_agency": "Department of Public Works",
    "final_address": "10931 Kinneil Rd",
    "address_councildis": "E",
    "status": "Pending",
    "rowid": "1268976",
    "final_x": "3711385.83154",
    "final_y": "564347.671393",
    "longitude": "-89.9724714906061",
    "latitude": "30.0448179604578",
    "geocoded_column": {
      "latitude": "30.0448179604578",
      "longitude": "-89.9724714906061"
    }
  },
  {
    "service_request": "2026-1268975",
    "request_type": "Drainage",
    "request_reason": "Catch Basin Frame and Cover Missing or Damaged",
    "date_created": "2026-03-26T19:07:46.000",
    "date_modified": "2026-03-26T19:07:49.000",
    "request_status": "Pending",
    "responsible_agency": "Sewerage & Water Board",
    "final_address": "211 Eliza St",
    "address_councildis": "C",
    "status": "Pending",
    "rowid": "1268975",
    "final_x": "3686145.41654",
    "final_y": "529238.537217",
    "longitude": "-90.05348226556501",
    "latitude": "29.94908057629106",
    "geocoded_column": {
      "latitude": "29.94908057629106",
      "longitude": "-90.05348226556501"
    }
  },
  {
    "service_request": "2026-1268974",
    "request_type": "Trash/Recycling",
    "request_reason": "Order Recycling Cart",
    "date_created": "2026-03-26T19:02:15.000",
    "date_modified": "2026-03-26T19:02:17.000",
    "request_status": "Pending",
    "responsible_agency": "Department of Sanitation",
    "final_address": "4516 Freret St",
    "address_councildis": "B",
    "status": "Pending",
    "rowid": "1268974",
    "final_x": "3669970.10606",
    "final_y": "523956.404988",
    "longitude": "-90.10473375781446",
    "latitude": "29.935043299317307",
    "geocoded_column": {
      "latitude": "29.935043299317307",
      "longitude": "-90.10473375781446"
    }
  },
  {
    "service_request": "2026-1268973",
    "request_type": "Roads and Streets",
    "request_reason": "Pothole",
    "date_created": "2026-03-26T19:01:50.000",
    "date_modified": "2026-03-26T19:01:52.000",
    "request_status": "Pending",
    "responsible_agency": "Department of Public Works",
    "final_address": "211 Eliza St",
    "address_councildis": "C",
    "status": "Pending",
    "rowid": "1268973",
    "final_x": "3686145.41654",
    "final_y": "529238.537217",
    "longitude": "-90.05348226556501",
    "latitude": "29.94908057629106",
    "geocoded_column": {
      "latitude": "29.94908057629106",
      "longitude": "-90.05348226556501"
    }
  },
  {
    "service_request": "2026-1268972",
    "request_type": "Trash/Recycling",
    "request_reason": "Request a Large Item Pick Up",
    "date_created": "2026-03-26T19:00:19.000",
    "date_modified": "2026-03-26T19:00:22.000",
    "request_status": "Pending",
    "responsible_agency": "Department of Sanitation",
    "final_address": "7310 Fieldston Rd",
    "address_councildis": "E",
    "status": "Assigned to Contractor",
    "contractor": "Waste Pro",
    "rowid": "1268972",
    "final_x": "3700728.13431",
    "final_y": "559689.504861",
    "longitude": "-90.0063250809042",
    "latitude": "30.032353551062187",
    "geocoded_column": {
      "latitude": "30.032353551062187",
      "longitude": "-90.0063250809042"
    }
  },
  {
    "service_request": "2026-1268971",
    "request_type": "Property Maintenance",
    "request_reason": "Property Maintenance",
    "date_created": "2026-03-26T18:30:47.000",
    "date_modified": "2026-03-26T18:30:50.000",
    "request_status": "Pending",
    "responsible_agency": "Department of Code Enforcement",
    "final_address": "844 Nunez St",
    "address_councildis": "C",
    "status": "Pending",
    "rowid": "1268971",
    "final_x": "3687000.43081",
    "final_y": "528480.931584",
    "longitude": "-90.05080939269712",
    "latitude": "29.946971131748448",
    "geocoded_column": {
      "latitude": "29.946971131748448",
      "longitude": "-90.05080939269712"
    }
  },
  {
    "service_request": "2026-1268970",
    "request_type": "Abandoned Vehicles",
    "request_reason": "Abandoned/Junk Vehicles",
    "date_created": "2026-03-26T18:29:46.000",
    "date_modified": "2026-03-26T18:29:48.000",
    "request_status": "Pending",
    "responsible_agency": "Department of Public Works",
    "final_address": "440 Homer St",
    "address_councildis": "C",
    "status": "Pending",
    "rowid": "1268970",
    "final_x": "3686874.21724",
    "final_y": "528365.836096",
    "longitude": "-90.05121196092561",
    "latitude": "29.946658542148672",
    "geocoded_column": {
      "latitude": "29.946658542148672",
      "longitude": "-90.05121196092561"
    }
  },
  {
    "service_request": "2026-1268969",
    "request_type": "Abandoned Vehicles",
    "request_reason": "Abandoned/Junk Vehicles",
    "date_created": "2026-03-26T18:29:10.000",
    "date_modified": "2026-03-26T18:29:12.000",
    "request_status": "Pending",
    "responsible_agency": "Department of Public Works",
    "final_address": "844 Nunez St",
    "address_councildis": "C",
    "status": "Pending",
    "rowid": "1268969",
    "final_x": "3687000.43081",
    "final_y": "528480.931584",
    "longitude": "-90.05080939269712",
    "latitude": "29.946971131748448",
    "geocoded_column": {
      "latitude": "29.946971131748448",
      "longitude": "-90.05080939269712"
    }
  },
  {
    "service_request": "2026-1268968",
    "request_type": "Business Issues",
    "request_reason": "Illegal Business",
    "date_created": "2026-03-26T18:25:40.000",
    "date_modified": "2026-03-26T18:25:42.000",
    "request_status": "Pending",
    "responsible_agency": "Bureau of Revenue",
    "final_address": "440 Homer St",
    "address_councildis": "C",
    "status": "Pending",
    "rowid": "1268968",
    "final_x": "3686874.21724",
    "final_y": "528365.836096",
    "longitude": "-90.05121196092561",
    "latitude": "29.946658542148672",
    "geocoded_column": {
      "latitude": "29.946658542148672",
      "longitude": "-90.05121196092561"
    }
  },
  {
    "service_request": "2026-1268967",
    "request_type": "General Services",
    "request_reason": "General Service Request",
    "date_created": "2026-03-26T18:23:38.000",
    "date_modified": "2026-03-26T18:23:39.000",
    "request_status": "Pending",
    "responsible_agency": "Orleans Parish Communication District",
    "final_address": "3876 Pauger St",
    "address_councildis": "D",
    "status": "Pending",
    "rowid": "1268967",
    "final_x": "3683123.42498",
    "final_y": "544939.272719",
    "longitude": "-90.06247417230585",
    "latitude": "29.992344626184984",
    "geocoded_column": {
      "latitude": "29.992344626184984",
      "longitude": "-90.06247417230585"
    }
  },
  {
    "service_request": "2026-1268966",
    "request_type": "General Services",
    "request_reason": "General Service Request",
    "date_created": "2026-03-26T18:21:06.000",
    "date_modified": "2026-03-26T18:21:08.000",
    "request_status": "Pending",
    "responsible_agency": "Orleans Parish Communication District",
    "final_address": "3876 Pauger St",
    "address_councildis": "D",
    "status": "Pending",
    "rowid": "1268966",
    "final_x": "3683123.42498",
    "final_y": "544939.272719",
    "longitude": "-90.06247417230585",
    "latitude": "29.992344626184984",
    "geocoded_column": {
      "latitude": "29.992344626184984",
      "longitude": "-90.06247417230585"
    }
  },
  {
    "service_request": "2026-1268965",
    "request_type": "General Services",
    "request_reason": "General Service Request",
    "date_created": "2026-03-26T18:14:42.000",
    "date_modified": "2026-03-26T18:14:44.000",
    "request_status": "Pending",
    "responsible_agency": "Orleans Parish Communication District",
    "final_address": "4237 Alfred St",
    "address_councildis": "D",
    "status": "Pending",
    "rowid": "1268965",
    "final_x": "3677646.23106",
    "final_y": "547826.883346",
    "longitude": "-90.07967577812066",
    "latitude": "30.00045043651846",
    "geocoded_column": {
      "latitude": "30.00045043651846",
      "longitude": "-90.07967577812066"
    }
  },
  {
    "service_request": "2026-1268964",
    "request_type": "Property Maintenance",
    "request_reason": "Property Maintenance",
    "date_created": "2026-03-26T18:05:12.000",
    "date_modified": "2026-03-26T18:05:14.000",
    "request_status": "Pending",
    "responsible_agency": "Department of Code Enforcement",
    "final_address": "4237 Alfred St",
    "address_councildis": "D",
    "status": "Pending",
    "rowid": "1268964",
    "final_x": "3677646.23106",
    "final_y": "547826.883346",
    "longitude": "-90.07967577812066",
    "latitude": "30.00045043651846",
    "geocoded_column": {
      "latitude": "30.00045043651846",
      "longitude": "-90.07967577812066"
    }
  },
  {
    "service_request": "2026-1268963",
    "request_type": "Trash/Recycling",
    "request_reason": "Order Trash Cart",
    "date_created": "2026-03-26T17:53:30.000",
    "date_modified": "2026-03-26T17:53:32.000",
    "request_status": "Pending",
    "responsible_agency": "Department of Sanitation",
    "final_address": "4516 Freret St",
    "address_councildis": "B",
    "status": "Assigned to Contractor",
    "contractor": "IV Waste",
    "rowid": "1268963",
    "final_x": "3669970.10606",
    "final_y": "523956.404988",
    "longitude": "-90.10473375781446",
    "latitude": "29.935043299317307",
    "geocoded_column": {
      "latitude": "29.935043299317307",
      "longitude": "-90.10473375781446"
    }
  },
  {
    "service_request": "2026-1268962",
    "request_type": "Roads and Streets",
    "request_reason": "Push-up/Pavement Expansion",
    "date_created": "2026-03-26T17:44:52.000",
    "date_modified": "2026-03-26T17:44:54.000",
    "request_status": "Pending",
    "responsible_agency": "Department of Public Works",
    "final_address": "2000 BLK Halsey Ave",
    "address_councildis": "C",
    "status": "Pending",
    "rowid": "1268962",
    "final_x": "3697749.9962",
    "final_y": "523357.728007",
    "longitude": "-90.01705504788644",
    "latitude": "29.932548886842326",
    "geocoded_column": {
      "latitude": "29.932548886842326",
      "longitude": "-90.01705504788644"
    }
  },
  {
    "service_request": "2026-1268961",
    "request_type": "General Services",
    "request_reason": "General Service Request",
    "date_created": "2026-03-26T17:08:16.000",
    "date_modified": "2026-03-26T17:08:18.000",
    "request_status": "Pending",
    "responsible_agency": "Orleans Parish Communication District",
    "final_address": "7523 Maple St",
    "address_councildis": "A",
    "status": "Pending",
    "rowid": "1268961",
    "final_x": "3662474.97709",
    "final_y": "526060.81843",
    "longitude": "-90.12832607716831",
    "latitude": "29.94104861789462",
    "geocoded_column": {
      "latitude": "29.94104861789462",
      "longitude": "-90.12832607716831"
    }
  },
  {
    "service_request": "2026-1268960",
    "request_type": "Trash/Recycling",
    "request_reason": "Request a Large Item Pick Up",
    "date_created": "2026-03-26T17:05:40.000",
    "date_modified": "2026-03-26T17:05:42.000",
    "request_status": "Pending",
    "responsible_agency": "Department of Sanitation",
    "final_address": "6933 Lake Willow Dr",
    "address_councildis": "E",
    "status": "Assigned to Contractor",
    "contractor": "Waste Pro",
    "rowid": "1268960",
    "final_x": "3702796.48682",
    "final_y": "558824.772316",
    "longitude": "-89.99982078445142",
    "latitude": "30.02990984665359",
    "geocoded_column": {
      "latitude": "30.02990984665359",
      "longitude": "-89.99982078445142"
    }
  },
  {
    "service_request": "2026-1268959",
    "request_type": "General Services",
    "request_reason": "General Service Request",
    "date_created": "2026-03-26T17:01:52.000",
    "date_modified": "2026-03-26T17:01:54.000",
    "request_status": "Pending",
    "responsible_agency": "Orleans Parish Communication District",
    "final_address": "3310 Magazine St",
    "address_councildis": "B",
    "status": "Pending",
    "rowid": "1268959",
    "final_x": "3675311.25057",
    "final_y": "519705.878392",
    "longitude": "-90.08801762084411",
    "latitude": "29.923197176868143",
    "geocoded_column": {
      "latitude": "29.923197176868143",
      "longitude": "-90.08801762084411"
    }
  },
  {
    "service_request": "2026-1268958",
    "request_type": "Trash/Recycling",
    "request_reason": "Request a Large Item Pick Up",
    "date_created": "2026-03-26T17:00:08.000",
    "date_modified": "2026-03-26T17:00:09.000",
    "request_status": "Pending",
    "responsible_agency": "Department of Sanitation",
    "final_address": "2127 St Ann St",
    "address_councildis": "C",
    "status": "Assigned to Contractor",
    "contractor": "IV Waste",
    "rowid": "1268958",
    "final_x": "3678683.52232",
    "final_y": "535918.730887",
    "longitude": "-90.07681143249759",
    "latitude": "29.96767591558673",
    "geocoded_column": {
      "latitude": "29.96767591558673",
      "longitude": "-90.07681143249759"
    }
  },
  {
    "service_request": "2026-1268957",
    "request_type": "Streetlights",
    "request_reason": "Streetlight Outage/Malfunction",
    "date_created": "2026-03-26T16:53:16.000",
    "date_modified": "2026-03-26T16:53:19.000",
    "request_status": "Pending",
    "responsible_agency": "Department of Public Works",
    "final_address": "6820 Mayo Rd",
    "address_councildis": "E",
    "status": "Pending",
    "rowid": "1268957",
    "final_x": "3701906.78557",
    "final_y": "557195.985371",
    "longitude": "-90.0026919876365",
    "latitude": "30.025459752254257",
    "geocoded_column": {
      "latitude": "30.025459752254257",
      "longitude": "-90.0026919876365"
    }
  },
  {
    "service_request": "2026-1268956",
    "request_type": "Trash/Recycling",
    "request_reason": "Request a Large Item Pick Up",
    "date_created": "2026-03-26T16:48:02.000",
    "date_modified": "2026-03-26T16:48:05.000",
    "request_status": "Pending",
    "responsible_agency": "Department of Sanitation",
    "final_address": "4408 Dodt Ave",
    "address_councildis": "E",
    "status": "Assigned to Contractor",
    "contractor": "Waste Pro",
    "rowid": "1268956",
    "final_x": "3705542.14654",
    "final_y": "553419.154455",
    "longitude": "-89.99134463924374",
    "latitude": "30.014958345232625",
    "geocoded_column": {
      "latitude": "30.014958345232625",
      "longitude": "-89.99134463924374"
    }
  },
  {
    "service_request": "2026-1268955",
    "request_type": "Trash/Recycling",
    "request_reason": "Repair Trash Cart",
    "date_created": "2026-03-26T16:43:38.000",
    "date_modified": "2026-03-26T16:43:40.000",
    "request_status": "Pending",
    "responsible_agency": "Department of Sanitation",
    "final_address": "4800 Dreux Ave",
    "address_councildis": "D",
    "status": "Assigned to Contractor",
    "contractor": "IV Waste",
    "rowid": "1268955",
    "final_x": "3691188.87676",
    "final_y": "553048.920151",
    "longitude": "-90.03670718907338",
    "latitude": "30.014394750294844",
    "geocoded_column": {
      "latitude": "30.014394750294844",
      "longitude": "-90.03670718907338"
    }
  },
  {
    "service_request": "2026-1268954",
    "request_type": "Trash/Recycling",
    "request_reason": "Repair Trash Cart",
    "date_created": "2026-03-26T16:41:04.000",
    "date_modified": "2026-03-26T16:41:05.000",
    "request_status": "Pending",
    "responsible_agency": "Department of Sanitation",
    "final_address": "680 Allen Toussaint Blvd",
    "address_councildis": "A",
    "status": "Assigned to Contractor",
    "contractor": "IV Waste",
    "rowid": "1268954",
    "final_x": "3669013.48897",
    "final_y": "554618.956952",
    "longitude": "-90.10671754489198",
    "latitude": "30.019383135520616",
    "geocoded_column": {
      "latitude": "30.019383135520616",
      "longitude": "-90.10671754489198"
    }
  },
  {
    "service_request": "2026-1268952",
    "request_type": "Trash/Recycling",
    "request_reason": "Replace Trash Cart",
    "date_created": "2026-03-26T16:37:27.000",
    "date_modified": "2026-03-26T16:37:28.000",
    "request_status": "Pending",
    "responsible_agency": "Department of Sanitation",
    "final_address": "2307 Octavia St",
    "address_councildis": "A",
    "status": "Assigned to Contractor",
    "contractor": "IV Waste",
    "rowid": "1268952",
    "final_x": "3667656.31309",
    "final_y": "524124.237244",
    "longitude": "-90.11203276354318",
    "latitude": "29.935572798368746",
    "geocoded_column": {
      "latitude": "29.935572798368746",
      "longitude": "-90.11203276354318"
    }
  },
  {
    "service_request": "2026-1268951",
    "request_type": "Trash/Recycling",
    "request_reason": "Repair Trash Cart",
    "date_created": "2026-03-26T16:34:20.000",
    "date_modified": "2026-03-26T16:34:22.000",
    "request_status": "Pending",
    "responsible_agency": "Department of Sanitation",
    "final_address": "913 Seventh St",
    "address_councildis": "B",
    "status": "Assigned to Contractor",
    "contractor": "IV Waste",
    "rowid": "1268951",
    "final_x": "3676745.00309",
    "final_y": "519884.344504",
    "longitude": "-90.08348566324092",
    "latitude": "29.923644977060917",
    "geocoded_column": {
      "latitude": "29.923644977060917",
      "longitude": "-90.08348566324092"
    }
  },
  {
    "service_request": "2026-1268950",
    "request_type": "Property Maintenance",
    "request_reason": "Property Maintenance",
    "date_created": "2026-03-26T16:12:46.000",
    "date_modified": "2026-03-26T16:12:48.000",
    "request_status": "Pending",
    "responsible_agency": "Department of Code Enforcement",
    "final_address": "1428 Josephine St",
    "address_councildis": "B",
    "status": "Pending",
    "rowid": "1268950",
    "final_x": "3678360.61998",
    "final_y": "523301.798331",
    "longitude": "-90.07826759372112",
    "latitude": "29.932993304345903",
    "geocoded_column": {
      "latitude": "29.932993304345903",
      "longitude": "-90.07826759372112"
    }
  },
  {
    "service_request": "2026-1268949",
    "request_type": "Roads and Streets",
    "request_reason": "Pothole",
    "date_created": "2026-03-26T16:10:49.000",
    "date_modified": "2026-03-26T16:10:51.000",
    "request_status": "Pending",
    "responsible_agency": "Department of Public Works",
    "final_address": "1000 Sixth St",
    "address_councildis": "B",
    "status": "Pending",
    "rowid": "1268949",
    "final_x": "3676719.13537",
    "final_y": "520317.398136",
    "longitude": "-90.08355240825844",
    "latitude": "29.92483651025388",
    "geocoded_column": {
      "latitude": "29.92483651025388",
      "longitude": "-90.08355240825844"
    }
  },
  {
    "service_request": "2026-1268948",
    "request_type": "Streetlights",
    "request_reason": "Streetlight Outage/Malfunction",
    "date_created": "2026-03-26T16:09:40.000",
    "date_modified": "2026-03-26T16:09:44.000",
    "request_status": "Pending",
    "responsible_agency": "Department of Public Works",
    "final_address": "4021 America St",
    "address_councildis": "E",
    "status": "Pending",
    "rowid": "1268948",
    "final_x": "3700084.12925",
    "final_y": "551629.721109",
    "longitude": "-90.00865461746712",
    "latitude": "30.010212716890795",
    "geocoded_column": {
      "latitude": "30.010212716890795",
      "longitude": "-90.00865461746712"
    }
  },
  {
    "service_request": "2026-1268947",
    "request_type": "Trash/Recycling",
    "request_reason": "Replace Trash Cart",
    "date_created": "2026-03-26T16:08:09.000",
    "date_modified": "2026-03-26T16:08:11.000",
    "request_status": "Pending",
    "responsible_agency": "Department of Sanitation",
    "final_address": "4123 Dryades St",
    "address_councildis": "B",
    "status": "Assigned to Contractor",
    "contractor": "IV Waste",
    "rowid": "1268947",
    "final_x": "3671638.1346",
    "final_y": "522077.67385",
    "longitude": "-90.0995316561235",
    "latitude": "29.929828110853617",
    "geocoded_column": {
      "latitude": "29.929828110853617",
      "longitude": "-90.0995316561235"
    }
  },
  {
    "service_request": "2026-1268946",
    "request_type": "Abandoned Vehicles",
    "request_reason": "Abandoned/Junk Vehicles",
    "date_created": "2026-03-26T16:06:46.000",
    "date_modified": "2026-03-26T16:06:49.000",
    "request_status": "Pending",
    "responsible_agency": "Department of Public Works",
    "final_address": "1900 Touro St",
    "address_councildis": "D",
    "status": "Pending",
    "rowid": "1268946",
    "final_x": "3683961.43004",
    "final_y": "539226.395594",
    "longitude": "-90.06002761361336",
    "latitude": "29.976610645673386",
    "geocoded_column": {
      "latitude": "29.976610645673386",
      "longitude": "-90.06002761361336"
    }
  },
  {
    "service_request": "2026-1268945",
    "request_type": "Property Maintenance",
    "request_reason": "Property Maintenance",
    "date_created": "2026-03-26T16:04:32.000",
    "date_modified": "2026-03-26T16:05:18.000",
    "request_status": "Pending",
    "responsible_agency": "Department of Code Enforcement",
    "final_address": "921 Lafayette St",
    "address_councildis": "B",
    "status": "Pending",
    "rowid": "1268945",
    "final_x": "3679623.52079",
    "final_y": "529178.056256",
    "longitude": "-90.07407683625019",
    "latitude": "29.94911296611653",
    "geocoded_column": {
      "latitude": "29.94911296611653",
      "longitude": "-90.07407683625019"
    }
  },
  {
    "service_request": "2026-1268944",
    "request_type": "Trash/Recycling",
    "request_reason": "Request a Large Item Pick Up",
    "date_created": "2026-03-26T16:04:03.000",
    "date_modified": "2026-03-26T16:14:59.000",
    "request_status": "Pending",
    "responsible_agency": "Department of Sanitation",
    "final_address": "5420 Bullard Ave",
    "address_councildis": "E",
    "status": "Assigned to Contractor",
    "contractor": "Waste Pro",
    "rowid": "1268944",
    "final_x": "3717668.02719",
    "final_y": "561083.298462",
    "longitude": "-89.95274135573615",
    "latitude": "30.0356356135766",
    "geocoded_column": {
      "latitude": "30.0356356135766",
      "longitude": "-89.95274135573615"
    }
  },
  {
    "service_request": "2026-1268943",
    "request_type": "Healthy Homes",
    "request_reason": "Healthy Homes",
    "date_created": "2026-03-26T16:00:46.000",
    "date_modified": "2026-03-26T16:04:51.000",
    "request_status": "Pending",
    "responsible_agency": "Department of Code Enforcement",
    "final_address": "1401 St Andrew St",
    "address_councildis": "B",
    "status": "Pending",
    "rowid": "1268943",
    "final_x": "3678815.58011",
    "final_y": "523465.250683",
    "longitude": "-90.07682565870911",
    "latitude": "29.933429034383952",
    "geocoded_column": {
      "latitude": "29.933429034383952",
      "longitude": "-90.07682565870911"
    }
  },
  {
    "service_request": "2026-1268942",
    "request_type": "Property Maintenance",
    "request_reason": "Property Maintenance",
    "date_created": "2026-03-26T15:58:52.000",
    "date_modified": "2026-03-26T15:58:54.000",
    "request_status": "Pending",
    "responsible_agency": "Department of Code Enforcement",
    "final_address": "2914 Leonidas St",
    "address_councildis": "A",
    "status": "Pending",
    "rowid": "1268942",
    "final_x": "3664895.36186",
    "final_y": "534292.369797",
    "longitude": "-90.12040934704288",
    "latitude": "29.96361250379891",
    "geocoded_column": {
      "latitude": "29.96361250379891",
      "longitude": "-90.12040934704288"
    }
  },
  {
    "service_request": "2026-1268941",
    "request_type": "Property Maintenance",
    "request_reason": "Property Maintenance",
    "date_created": "2026-03-26T15:56:42.000",
    "date_modified": "2026-03-26T15:56:43.000",
    "request_status": "Pending",
    "responsible_agency": "Department of Code Enforcement",
    "final_address": "1018 Delachaise St",
    "address_councildis": "B",
    "status": "Pending",
    "rowid": "1268941",
    "final_x": "3674676.2642",
    "final_y": "519261.345463",
    "longitude": "-90.09003725883167",
    "latitude": "29.921993814707722",
    "geocoded_column": {
      "latitude": "29.921993814707722",
      "longitude": "-90.09003725883167"
    }
  },
  {
    "service_request": "2026-1268940",
    "request_type": "Healthy Homes",
    "request_reason": "Healthy Homes",
    "date_created": "2026-03-26T15:56:29.000",
    "date_modified": "2026-03-26T15:56:32.000",
    "request_status": "Pending",
    "responsible_agency": "Department of Code Enforcement",
    "final_address": "3052 Ursula Spencer Way",
    "address_councildis": "D",
    "status": "Pending",
    "rowid": "1268940",
    "final_x": "3693248.23088",
    "final_y": "543362.771982",
    "longitude": "-90.03054862903853",
    "latitude": "29.987697164615533",
    "geocoded_column": {
      "latitude": "29.987697164615533",
      "longitude": "-90.03054862903853"
    }
  },
  {
    "service_request": "2026-1268939",
    "request_type": "Trash/Recycling",
    "request_reason": "Request a Large Item Pick Up",
    "date_created": "2026-03-26T15:54:42.000",
    "date_modified": "2026-03-26T15:54:44.000",
    "request_status": "Pending",
    "responsible_agency": "Department of Sanitation",
    "final_address": "8018 Flounder St",
    "address_councildis": "E",
    "status": "Assigned to Contractor",
    "contractor": "Waste Pro",
    "rowid": "1268939",
    "final_x": "3699579.84797",
    "final_y": "561649.383199",
    "longitude": "-90.00988219386356",
    "latitude": "30.03777897220292",
    "geocoded_column": {
      "latitude": "30.03777897220292",
      "longitude": "-90.00988219386356"
    }
  },
  {
    "service_request": "2026-1268938",
    "request_type": "Abandoned Vehicles",
    "request_reason": "Abandoned/Junk Vehicles",
    "date_created": "2026-03-26T15:50:08.000",
    "date_modified": "2026-03-26T15:50:09.000",
    "request_status": "Pending",
    "responsible_agency": "Department of Public Works",
    "final_address": "6521 Center St",
    "address_councildis": "A",
    "status": "Pending",
    "rowid": "1268938",
    "final_x": "3664949.33927",
    "final_y": "551410.362325",
    "longitude": "-90.11966632365846",
    "latitude": "30.010679623801888",
    "geocoded_column": {
      "latitude": "30.010679623801888",
      "longitude": "-90.11966632365846"
    }
  },
  {
    "service_request": "2026-1268937",
    "request_type": "Trash/Recycling",
    "request_reason": "Request a Large Item Pick Up",
    "date_created": "2026-03-26T15:49:03.000",
    "date_modified": "2026-03-26T15:49:04.000",
    "request_status": "Pending",
    "responsible_agency": "Department of Sanitation",
    "final_address": "7348 Canterbury St",
    "address_councildis": "E",
    "status": "Assigned to Contractor",
    "contractor": "Waste Pro",
    "rowid": "1268937",
    "final_x": "3698783.00983",
    "final_y": "559296.323612",
    "longitude": "-90.01248610264079",
    "latitude": "30.031334250668035",
    "geocoded_column": {
      "latitude": "30.031334250668035",
      "longitude": "-90.01248610264079"
    }
  },
  {
    "service_request": "2026-1268936",
    "request_type": "Trash/Recycling",
    "request_reason": "Replace Trash Cart",
    "date_created": "2026-03-26T15:48:18.000",
    "date_modified": "2026-03-26T15:48:20.000",
    "request_status": "Pending",
    "responsible_agency": "Department of Sanitation",
    "final_address": "1121 Gordon St",
    "address_councildis": "E",
    "status": "Assigned to Contractor",
    "contractor": "Waste Pro",
    "rowid": "1268936",
    "final_x": "3699276.92778",
    "final_y": "533660.878085",
    "longitude": "-90.01185956980041",
    "latitude": "29.960830614596894",
    "geocoded_column": {
      "latitude": "29.960830614596894",
      "longitude": "-90.01185956980041"
    }
  },
  {
    "service_request": "2026-1268935",
    "request_type": "Abandoned Vehicles",
    "request_reason": "Abandoned/Junk Vehicles",
    "date_created": "2026-03-26T15:45:44.000",
    "date_modified": "2026-03-26T15:45:46.000",
    "request_status": "Pending",
    "responsible_agency": "Department of Public Works",
    "final_address": "5500 Glouster Rd",
    "address_councildis": "E",
    "status": "Pending",
    "rowid": "1268935",
    "final_x": "3707433.02264",
    "final_y": "557938.945307",
    "longitude": "-89.98520241229119",
    "latitude": "30.027324986431587",
    "geocoded_column": {
      "latitude": "30.027324986431587",
      "longitude": "-89.98520241229119"
    }
  },
  {
    "service_request": "2026-1268934",
    "request_type": "Trash/Recycling",
    "request_reason": "Request a Large Item Pick Up",
    "date_created": "2026-03-26T15:38:57.000",
    "date_modified": "2026-03-26T15:38:59.000",
    "request_status": "Pending",
    "responsible_agency": "Department of Sanitation",
    "final_address": "1714 Joliet St",
    "address_councildis": "A",
    "status": "Assigned to Contractor",
    "contractor": "IV Waste",
    "rowid": "1268934",
    "final_x": "3662170.17619",
    "final_y": "530781.383938",
    "longitude": "-90.12913176613898",
    "latitude": "29.954037471384275",
    "geocoded_column": {
      "latitude": "29.954037471384275",
      "longitude": "-90.12913176613898"
    }
  },
  {
    "service_request": "2026-1268933",
    "request_type": "Trash/Recycling",
    "request_reason": "Request a Large Item Pick Up",
    "date_created": "2026-03-26T15:38:27.000",
    "date_modified": "2026-03-26T15:38:29.000",
    "request_status": "Pending",
    "responsible_agency": "Department of Sanitation",
    "final_address": "3942 S Pin Oak Ave",
    "address_councildis": "C",
    "status": "Assigned to Contractor",
    "contractor": "Richards Disposal",
    "rowid": "1268933",
    "final_x": "3705019.33758",
    "final_y": "513477.326514",
    "longitude": "-89.99447100460442",
    "latitude": "29.905149584057483",
    "geocoded_column": {
      "latitude": "29.905149584057483",
      "longitude": "-89.99447100460442"
    }
  },
  {
    "service_request": "2026-1268932",
    "request_type": "Trash/Recycling",
    "request_reason": "Request a Large Item Pick Up",
    "date_created": "2026-03-26T15:35:13.000",
    "date_modified": "2026-03-26T15:35:14.000",
    "request_status": "Pending",
    "responsible_agency": "Department of Sanitation",
    "final_address": "5725 St Roch Ave",
    "address_councildis": "D",
    "status": "Assigned to Contractor",
    "contractor": "IV Waste",
    "rowid": "1268932",
    "final_x": "3685146.00553",
    "final_y": "554196.348504",
    "longitude": "-90.05575921323926",
    "latitude": "30.01773639517333",
    "geocoded_column": {
      "latitude": "30.01773639517333",
      "longitude": "-90.05575921323926"
    }
  },
  {
    "service_request": "2026-1268931",
    "request_type": "Trash/Recycling",
    "request_reason": "Repair Trash Cart",
    "date_created": "2026-03-26T15:34:31.000",
    "date_modified": "2026-03-26T15:38:32.000",
    "request_status": "Pending",
    "responsible_agency": "Department of Sanitation",
    "final_address": "9229 Apple St",
    "address_councildis": "A",
    "status": "Assigned to Contractor",
    "contractor": "IV Waste",
    "rowid": "1268931",
    "final_x": "3662322.9552",
    "final_y": "534909.421958",
    "longitude": "-90.12851229336897",
    "latitude": "29.965383818381625",
    "geocoded_column": {
      "latitude": "29.965383818381625",
      "longitude": "-90.12851229336897"
    }
  },
  {
    "service_request": "2026-1268930",
    "request_type": "Trash/Recycling",
    "request_reason": "Request a Large Item Pick Up",
    "date_created": "2026-03-26T15:34:18.000",
    "date_modified": "2026-03-26T15:34:22.000",
    "request_status": "Pending",
    "responsible_agency": "Department of Sanitation",
    "final_address": "5351 Carlisle Ct",
    "address_councildis": "C",
    "status": "Assigned to Contractor",
    "contractor": "Richards Disposal",
    "rowid": "1268930",
    "final_x": "3703676.42193",
    "final_y": "516527.345845",
    "longitude": "-89.99859714952036",
    "latitude": "29.913579173884372",
    "geocoded_column": {
      "latitude": "29.913579173884372",
      "longitude": "-89.99859714952036"
    }
  },
  {
    "service_request": "2026-1268929",
    "request_type": "Trash/Recycling",
    "request_reason": "Repair Trash Cart",
    "date_created": "2026-03-26T15:31:05.000",
    "date_modified": "2026-03-26T15:31:06.000",
    "request_status": "Pending",
    "responsible_agency": "Department of Sanitation",
    "final_address": "1323 Octavia St",
    "address_councildis": "A",
    "status": "Assigned to Contractor",
    "contractor": "IV Waste",
    "rowid": "1268929",
    "final_x": "3666922.47789",
    "final_y": "520812.478009",
    "longitude": "-90.11446071337895",
    "latitude": "29.92648800010431",
    "geocoded_column": {
      "latitude": "29.92648800010431",
      "longitude": "-90.11446071337895"
    }
  },
  {
    "service_request": "2026-1268928",
    "request_type": "Abandoned Vehicles",
    "request_reason": "Abandoned/Junk Vehicles",
    "date_created": "2026-03-26T15:27:42.000",
    "date_modified": "2026-03-26T15:27:44.000",
    "request_status": "Pending",
    "responsible_agency": "Department of Public Works",
    "final_address": "7414 Hurst St",
    "address_councildis": "A",
    "status": "Pending",
    "rowid": "1268928",
    "final_x": "3661556.74995",
    "final_y": "523946.655484",
    "longitude": "-90.13129512506201",
    "latitude": "29.935261858530826",
    "geocoded_column": {
      "latitude": "29.935261858530826",
      "longitude": "-90.13129512506201"
    }
  },
  {
    "service_request": "2026-1268927",
    "request_type": "Trash/Recycling",
    "request_reason": "Request a Large Item Pick Up",
    "date_created": "2026-03-26T15:27:25.000",
    "date_modified": "2026-03-26T15:27:27.000",
    "request_status": "Pending",
    "responsible_agency": "Department of Sanitation",
    "final_address": "5432 General Diaz St",
    "address_councildis": "A",
    "status": "Assigned to Contractor",
    "contractor": "IV Waste",
    "rowid": "1268927",
    "final_x": "3668976.69601",
    "final_y": "543128.801485",
    "longitude": "-90.10722228224365",
    "latitude": "29.987790291740698",
    "geocoded_column": {
      "latitude": "29.987790291740698",
      "longitude": "-90.10722228224365"
    }
  },
  {
    "service_request": "2026-1268926",
    "request_type": "Safety & Permits",
    "request_reason": "Zoning Enforcement",
    "date_created": "2026-03-26T15:25:26.000",
    "date_modified": "2026-03-26T15:26:11.000",
    "request_status": "Pending",
    "responsible_agency": "Safety and Permits",
    "final_address": "315 Huntlee Dr",
    "address_councildis": "C",
    "status": "Pending",
    "rowid": "1268926",
    "final_x": "3701832.92868",
    "final_y": "522511.92377",
    "longitude": "-90.00419664435255",
    "latitude": "29.93009362153343",
    "geocoded_column": {
      "latitude": "29.93009362153343",
      "longitude": "-90.00419664435255"
    }
  },
  {
    "service_request": "2026-1268925",
    "request_type": "Trash/Recycling",
    "request_reason": "Replace Trash Cart",
    "date_created": "2026-03-26T15:23:40.000",
    "date_modified": "2026-03-26T15:23:42.000",
    "request_status": "Pending",
    "responsible_agency": "Department of Sanitation",
    "final_address": "2327 Amazon St",
    "address_councildis": "C",
    "status": "Assigned to Contractor",
    "contractor": "Richards Disposal",
    "rowid": "1268925",
    "final_x": "3692098.73635",
    "final_y": "522146.446714",
    "longitude": "-90.03493884881414",
    "latitude": "29.929395568548852",
    "geocoded_column": {
      "latitude": "29.929395568548852",
      "longitude": "-90.03493884881414"
    }
  },
  {
    "service_request": "2026-1268924",
    "request_type": "Taxi Issues",
    "request_reason": "School Bus Complaints",
    "date_created": "2026-03-26T15:22:42.000",
    "date_modified": "2026-03-26T15:24:59.000",
    "request_status": "Pending",
    "responsible_agency": "Department of Public Works",
    "final_address": "MORRISON RD & DOWNMAN RD",
    "address_councildis": "D",
    "status": "Pending",
    "rowid": "1268924",
    "final_x": "3695031.8",
    "final_y": "557307.18",
    "longitude": "-90.0244118268032",
    "latitude": "30.025983227650283",
    "geocoded_column": {
      "latitude": "30.025983227650283",
      "longitude": "-90.0244118268032"
    }
  },
  {
    "service_request": "2026-1268923",
    "request_type": "Mosquito, Termite & Rodent Control",
    "request_reason": "Mosquito Complaint",
    "date_created": "2026-03-26T15:22:31.000",
    "date_modified": "2026-03-26T15:22:33.000",
    "request_status": "Pending",
    "responsible_agency": "Mosquito, Termite & Rodent Control Board",
    "final_address": "203 Warrington Dr",
    "address_councildis": "D",
    "status": "Pending",
    "rowid": "1268923",
    "final_x": "3682728.34293",
    "final_y": "546987.773777",
    "longitude": "-90.0636504568047",
    "latitude": "29.997989317577243",
    "geocoded_column": {
      "latitude": "29.997989317577243",
      "longitude": "-90.0636504568047"
    }
  },
  {
    "service_request": "2026-1268922",
    "request_type": "Trash/Recycling",
    "request_reason": "Repair Trash Cart",
    "date_created": "2026-03-26T15:14:13.000",
    "date_modified": "2026-03-26T15:14:15.000",
    "request_status": "Pending",
    "responsible_agency": "Department of Sanitation",
    "final_address": "3651 Clematis St",
    "address_councildis": "D",
    "status": "Assigned to Contractor",
    "contractor": "IV Waste",
    "rowid": "1268922",
    "final_x": "3686222.16284",
    "final_y": "546394.976656",
    "longitude": "-90.0526344859876",
    "latitude": "29.996252425455083",
    "geocoded_column": {
      "latitude": "29.996252425455083",
      "longitude": "-90.0526344859876"
    }
  },
  {
    "service_request": "2026-1268921",
    "request_type": "Property Maintenance",
    "request_reason": "Property Maintenance",
    "date_created": "2026-03-26T15:13:48.000",
    "date_modified": "2026-03-26T15:14:27.000",
    "request_status": "Pending",
    "responsible_agency": "Department of Code Enforcement",
    "final_address": "2417 Jonquil St",
    "address_councildis": "D",
    "status": "Pending",
    "rowid": "1268921",
    "final_x": "3685895.38556",
    "final_y": "547160.161425",
    "longitude": "-90.05363975515361",
    "latitude": "29.99836644712251",
    "geocoded_column": {
      "latitude": "29.99836644712251",
      "longitude": "-90.05363975515361"
    }
  },
  {
    "service_request": "2026-1268920",
    "request_type": "Parks & Parkways",
    "request_reason": "Request Tree Service (Right of Way/Public Property)",
    "date_created": "2026-03-26T15:10:57.000",
    "date_modified": "2026-03-26T15:17:53.000",
    "request_status": "Pending",
    "responsible_agency": "Department of Parks & Parkway",
    "final_address": "1626 King Dr",
    "address_councildis": "D",
    "status": "Pending",
    "rowid": "1268920",
    "final_x": "3680207.90299",
    "final_y": "549970.40066",
    "longitude": "-90.07150872840482",
    "latitude": "30.006267029945164",
    "geocoded_column": {
      "latitude": "30.006267029945164",
      "longitude": "-90.07150872840482"
    }
  },
  {
    "service_request": "2026-1268919",
    "request_type": "Trash/Recycling",
    "request_reason": "Repair Trash Cart",
    "date_created": "2026-03-26T15:09:16.000",
    "date_modified": "2026-03-26T15:10:14.000",
    "request_status": "Pending",
    "responsible_agency": "Department of Sanitation",
    "final_address": "5540 Norgate Dr",
    "address_councildis": "E",
    "status": "Assigned to Contractor",
    "contractor": "Waste Pro",
    "rowid": "1268919",
    "final_x": "3707087.62084",
    "final_y": "558121.129115",
    "longitude": "-89.98628707511972",
    "latitude": "30.02783709007401",
    "geocoded_column": {
      "latitude": "30.02783709007401",
      "longitude": "-89.98628707511972"
    }
  },
  {
    "service_request": "2026-1268918",
    "request_type": "Trash/Recycling",
    "request_reason": "Request a Large Item Pick Up",
    "date_created": "2026-03-26T15:05:19.000",
    "date_modified": "2026-03-26T15:05:22.000",
    "request_status": "Pending",
    "responsible_agency": "Department of Sanitation",
    "final_address": "3033 Ponce De Leon St",
    "address_councildis": "A",
    "status": "Assigned to Contractor",
    "contractor": "IV Waste",
    "rowid": "1268918",
    "final_x": "3676870.74677",
    "final_y": "540558.782731",
    "longitude": "-90.0823762508517",
    "latitude": "29.98048900424252",
    "geocoded_column": {
      "latitude": "29.98048900424252",
      "longitude": "-90.0823762508517"
    }
  },
  {
    "service_request": "2026-1268917",
    "request_type": "Safety & Permits",
    "request_reason": "Zoning Enforcement",
    "date_created": "2026-03-26T15:02:39.000",
    "date_modified": "2026-03-26T15:02:41.000",
    "request_status": "Pending",
    "responsible_agency": "Safety and Permits",
    "final_address": "1753 St Charles Ave",
    "address_councildis": "B",
    "status": "Pending",
    "rowid": "1268917",
    "final_x": "3678569.58286",
    "final_y": "524651.56358",
    "longitude": "-90.07756121359743",
    "latitude": "29.9366984196831",
    "geocoded_column": {
      "latitude": "29.9366984196831",
      "longitude": "-90.07756121359743"
    }
  },
  {
    "service_request": "2026-1268916",
    "request_type": "Trash/Recycling",
    "request_reason": "Return Recycling Cart",
    "date_created": "2026-03-26T14:58:18.000",
    "date_modified": "2026-03-26T14:58:20.000",
    "request_status": "Pending",
    "responsible_agency": "Department of Sanitation",
    "final_address": "2449 Cumberland Ct",
    "address_councildis": "C",
    "status": "Pending",
    "rowid": "1268916",
    "final_x": "3704921.56503",
    "final_y": "522168.954042",
    "longitude": "-89.99445905400627",
    "latitude": "29.92905170066669",
    "geocoded_column": {
      "latitude": "29.92905170066669",
      "longitude": "-89.99445905400627"
    }
  },
  {
    "service_request": "2026-1268915",
    "request_type": "Trash/Recycling",
    "request_reason": "Order Recycling Cart",
    "date_created": "2026-03-26T14:56:21.000",
    "date_modified": "2026-03-26T14:56:22.000",
    "request_status": "Pending",
    "responsible_agency": "Department of Sanitation",
    "final_address": "2449 Cumberland Ct",
    "address_councildis": "C",
    "status": "Pending",
    "rowid": "1268915",
    "final_x": "3704921.56503",
    "final_y": "522168.954042",
    "longitude": "-89.99445905400627",
    "latitude": "29.92905170066669",
    "geocoded_column": {
      "latitude": "29.92905170066669",
      "longitude": "-89.99445905400627"
    }
  },
  {
    "service_request": "2026-1268914",
    "request_type": "Trash/Recycling",
    "request_reason": "Request a Large Item Pick Up",
    "date_created": "2026-03-26T14:46:40.000",
    "date_modified": "2026-03-26T14:46:42.000",
    "request_status": "Pending",
    "responsible_agency": "Department of Sanitation",
    "final_address": "1818 Adams St",
    "address_councildis": "A",
    "status": "Assigned to Contractor",
    "contractor": "IV Waste",
    "rowid": "1268914",
    "final_x": "3664548.21114",
    "final_y": "529083.096256",
    "longitude": "-90.12167957023405",
    "latitude": "29.94929879731696",
    "geocoded_column": {
      "latitude": "29.94929879731696",
      "longitude": "-90.12167957023405"
    }
  },
  {
    "service_request": "2026-1268913",
    "request_type": "Drainage",
    "request_reason": "Ditch and Culvert Maintenance",
    "date_created": "2026-03-26T14:41:11.000",
    "date_modified": "2026-03-26T14:41:14.000",
    "request_status": "Pending",
    "responsible_agency": "Department of Public Works",
    "final_address": "2012 Sere St",
    "address_councildis": "D",
    "status": "Pending",
    "rowid": "1268913",
    "final_x": "3682931.30223",
    "final_y": "545703.581392",
    "longitude": "-90.06305428520452",
    "latitude": "29.994452061065545",
    "geocoded_column": {
      "latitude": "29.994452061065545",
      "longitude": "-90.06305428520452"
    }
  },
  {
    "service_request": "2026-1268912",
    "request_type": "Streetlights",
    "request_reason": "Streetlight Outage/Malfunction",
    "date_created": "2026-03-26T14:37:38.000",
    "date_modified": "2026-03-26T14:37:39.000",
    "request_status": "Pending",
    "responsible_agency": "Department of Public Works",
    "final_address": "5740 Pembrook Dr",
    "address_councildis": "C",
    "status": "Pending",
    "rowid": "1268912",
    "final_x": "3704910.46763",
    "final_y": "520836.445625",
    "longitude": "-89.99454323390108",
    "latitude": "29.92538812375073",
    "geocoded_column": {
      "latitude": "29.92538812375073",
      "longitude": "-89.99454323390108"
    }
  },
  {
    "service_request": "2026-1268911",
    "request_type": "Trash/Recycling",
    "request_reason": "Order Trash Cart",
    "date_created": "2026-03-26T14:36:08.000",
    "date_modified": "2026-03-26T14:36:10.000",
    "request_status": "Pending",
    "responsible_agency": "Department of Sanitation",
    "final_address": "1121 Gordon St",
    "address_councildis": "E",
    "status": "Assigned to Contractor",
    "contractor": "Waste Pro",
    "rowid": "1268911",
    "final_x": "3699276.92778",
    "final_y": "533660.878085",
    "longitude": "-90.01185956980041",
    "latitude": "29.960830614596894",
    "geocoded_column": {
      "latitude": "29.960830614596894",
      "longitude": "-90.01185956980041"
    }
  },
  {
    "service_request": "2026-1268910",
    "request_type": "Trash/Recycling",
    "request_reason": "Replace Trash Cart",
    "date_created": "2026-03-26T14:35:08.000",
    "date_modified": "2026-03-26T14:35:10.000",
    "request_status": "Pending",
    "responsible_agency": "Department of Sanitation",
    "final_address": "7724 Burthe St",
    "address_councildis": "A",
    "status": "Assigned to Contractor",
    "contractor": "IV Waste",
    "rowid": "1268910",
    "final_x": "3662179.71239",
    "final_y": "526700.187198",
    "longitude": "-90.12923707415388",
    "latitude": "29.942815213301042",
    "geocoded_column": {
      "latitude": "29.942815213301042",
      "longitude": "-90.12923707415388"
    }
  },
  {
    "service_request": "2026-1268909",
    "request_type": "Trash/Recycling",
    "request_reason": "Request a Large Item Pick Up",
    "date_created": "2026-03-26T14:34:26.000",
    "date_modified": "2026-03-26T14:34:27.000",
    "request_status": "Pending",
    "responsible_agency": "Department of Sanitation",
    "final_address": "5740 Pembrook Dr",
    "address_councildis": "C",
    "status": "Assigned to Contractor",
    "contractor": "Richards Disposal",
    "rowid": "1268909",
    "final_x": "3704910.46763",
    "final_y": "520836.445625",
    "longitude": "-89.99454323390108",
    "latitude": "29.92538812375073",
    "geocoded_column": {
      "latitude": "29.92538812375073",
      "longitude": "-89.99454323390108"
    }
  },
  {
    "service_request": "2026-1268908",
    "request_type": "Utility Poles",
    "request_reason": "Utility Pole Leaning",
    "date_created": "2026-03-26T14:33:54.000",
    "date_modified": "2026-03-26T14:37:48.000",
    "request_status": "Pending",
    "responsible_agency": "Utility Company Collective",
    "final_address": "COHN ST & AUDUBON ST",
    "address_councildis": "A",
    "status": "Pending",
    "rowid": "1268908",
    "final_x": "3665800.9",
    "final_y": "528384.08",
    "longitude": "-90.11774767423391",
    "latitude": "29.947340246080277",
    "geocoded_column": {
      "latitude": "29.947340246080277",
      "longitude": "-90.11774767423391"
    }
  },
  {
    "service_request": "2026-1268907",
    "request_type": "Trash/Recycling",
    "request_reason": "Order Trash Cart",
    "date_created": "2026-03-26T14:28:14.000",
    "date_modified": "2026-03-26T14:28:16.000",
    "request_status": "Pending",
    "responsible_agency": "Department of Sanitation",
    "final_address": "1807 Forstall St",
    "address_councildis": "E",
    "status": "Assigned to Contractor",
    "contractor": "Waste Pro",
    "rowid": "1268907",
    "final_x": "3697044.30755",
    "final_y": "536875.259144",
    "longitude": "-90.01879327042298",
    "latitude": "29.96973962790549",
    "geocoded_column": {
      "latitude": "29.96973962790549",
      "longitude": "-90.01879327042298"
    }
  },
  {
    "service_request": "2026-1268906",
    "request_type": "Trash/Recycling",
    "request_reason": "Repair Trash Cart",
    "date_created": "2026-03-26T14:27:02.000",
    "date_modified": "2026-03-26T14:27:04.000",
    "request_status": "Pending",
    "responsible_agency": "Department of Sanitation",
    "final_address": "2939 Audubon St",
    "address_councildis": "B",
    "status": "Assigned to Contractor",
    "contractor": "IV Waste",
    "rowid": "1268906",
    "final_x": "3667926.35629",
    "final_y": "531596.880195",
    "longitude": "-90.11092855588541",
    "latitude": "29.95611222625727",
    "geocoded_column": {
      "latitude": "29.95611222625727",
      "longitude": "-90.11092855588541"
    }
  },
  {
    "service_request": "2026-1268905",
    "request_type": "General Services",
    "request_reason": "General Service Request",
    "date_created": "2026-03-26T14:24:17.000",
    "date_modified": "2026-03-26T14:48:58.000",
    "case_close_date": "2026-03-26T09:48:57.000",
    "request_status": "Closed",
    "responsible_agency": "Orleans Parish Communication District",
    "final_address": "4627 Baccich St",
    "address_councildis": "D",
    "status": "Referred to External Agency",
    "rowid": "1268905",
    "final_x": "3687822.79766",
    "final_y": "549933.14562",
    "longitude": "-90.04745277794852",
    "latitude": "30.005931817810335",
    "geocoded_column": {
      "latitude": "30.005931817810335",
      "longitude": "-90.04745277794852"
    }
  },
  {
    "service_request": "2026-1268904",
    "request_type": "Trash/Recycling",
    "request_reason": "Repair Recycling Cart",
    "date_created": "2026-03-26T14:17:44.000",
    "date_modified": "2026-03-26T14:17:46.000",
    "request_status": "Pending",
    "responsible_agency": "Department of Sanitation",
    "final_address": "5900 Laurel St",
    "address_councildis": "A",
    "status": "Pending",
    "rowid": "1268904",
    "final_x": "3664952.58439",
    "final_y": "518039.13407",
    "longitude": "-90.12077179121596",
    "latitude": "29.91891964459324",
    "geocoded_column": {
      "latitude": "29.91891964459324",
      "longitude": "-90.12077179121596"
    }
  },
  {
    "service_request": "2026-1268903",
    "request_type": "Streetlights",
    "request_reason": "Streetlight Outage/Malfunction",
    "date_created": "2026-03-26T14:16:47.000",
    "date_modified": "2026-03-26T14:17:30.000",
    "request_status": "Pending",
    "responsible_agency": "Department of Public Works",
    "final_address": "6600 Peony St",
    "address_councildis": "C",
    "status": "Pending",
    "rowid": "1268903",
    "final_x": "3708071.22411",
    "final_y": "516465.260981",
    "longitude": "-89.98472820484612",
    "latitude": "29.9132669666957",
    "geocoded_column": {
      "latitude": "29.9132669666957",
      "longitude": "-89.98472820484612"
    }
  },
  {
    "service_request": "2026-1268902",
    "request_type": "Trash/Recycling",
    "request_reason": "Request a Large Item Pick Up",
    "date_created": "2026-03-26T14:16:42.000",
    "date_modified": "2026-03-26T14:16:43.000",
    "request_status": "Pending",
    "responsible_agency": "Department of Sanitation",
    "final_address": "4427 Dodt Ave",
    "address_councildis": "E",
    "status": "Assigned to Contractor",
    "contractor": "Waste Pro",
    "rowid": "1268902",
    "final_x": "3705639.18763",
    "final_y": "553654.908951",
    "longitude": "-89.99102931243888",
    "latitude": "30.01560345409785",
    "geocoded_column": {
      "latitude": "30.01560345409785",
      "longitude": "-89.99102931243888"
    }
  },
  {
    "service_request": "2026-1268901",
    "request_type": "Trash/Recycling",
    "request_reason": "Repair Trash Cart",
    "date_created": "2026-03-26T14:15:01.000",
    "date_modified": "2026-03-26T14:15:04.000",
    "request_status": "Pending",
    "responsible_agency": "Department of Sanitation",
    "final_address": "4432 St Charles Ave",
    "address_councildis": "B",
    "status": "Assigned to Contractor",
    "contractor": "IV Waste",
    "rowid": "1268901",
    "final_x": "3670552.09966",
    "final_y": "520707.283321",
    "longitude": "-90.10300654114516",
    "latitude": "29.926092085341498",
    "geocoded_column": {
      "latitude": "29.926092085341498",
      "longitude": "-90.10300654114516"
    }
  },
  {
    "service_request": "2026-1268900",
    "request_type": "Trash/Recycling",
    "request_reason": "Illegal Dumping",
    "date_created": "2026-03-26T14:10:07.000",
    "date_modified": "2026-03-26T14:10:08.000",
    "request_status": "Pending",
    "responsible_agency": "Department of Sanitation",
    "final_address": "4036 Buick St",
    "address_councildis": "D",
    "status": "Pending",
    "rowid": "1268900",
    "final_x": "3688823.39798",
    "final_y": "548225.948754",
    "longitude": "-90.04435232604216",
    "latitude": "30.001206735602302",
    "geocoded_column": {
      "latitude": "30.001206735602302",
      "longitude": "-90.04435232604216"
    }
  },
  {
    "service_request": "2026-1268899",
    "request_type": "Abandoned Vehicles",
    "request_reason": "Abandoned/Junk Vehicles",
    "date_created": "2026-03-26T14:07:28.000",
    "date_modified": "2026-03-26T14:07:30.000",
    "request_status": "Pending",
    "responsible_agency": "Department of Public Works",
    "final_address": "8837 Oleander St",
    "address_councildis": "A",
    "status": "Pending",
    "rowid": "1268899",
    "final_x": "3664742.76909",
    "final_y": "535555.169478",
    "longitude": "-90.12084902399272",
    "latitude": "29.96708922779641",
    "geocoded_column": {
      "latitude": "29.96708922779641",
      "longitude": "-90.12084902399272"
    }
  },
  {
    "service_request": "2026-1268898",
    "request_type": "Trash/Recycling",
    "request_reason": "Order Recycling Cart",
    "date_created": "2026-03-26T14:07:02.000",
    "date_modified": "2026-03-26T14:07:03.000",
    "request_status": "Pending",
    "responsible_agency": "Department of Sanitation",
    "final_address": "21 Snipe St",
    "address_councildis": "D",
    "status": "Pending",
    "rowid": "1268898",
    "final_x": "3672267.18683",
    "final_y": "556536.10601",
    "longitude": "-90.09637154316489",
    "latitude": "30.024558434581373",
    "geocoded_column": {
      "latitude": "30.024558434581373",
      "longitude": "-90.09637154316489"
    }
  },
  {
    "service_request": "2026-1268897",
    "request_type": "Parks & Parkways",
    "request_reason": "Request Tree Service (Right of Way/Public Property)",
    "date_created": "2026-03-26T14:03:52.000",
    "date_modified": "2026-03-26T14:03:53.000",
    "request_status": "Pending",
    "responsible_agency": "Department of Parks & Parkway",
    "final_address": "3049 Behrman Hwy",
    "address_councildis": "C",
    "status": "Pending",
    "rowid": "1268897",
    "final_x": "3694337.78333",
    "final_y": "519214.906487",
    "longitude": "-90.02797605262904",
    "latitude": "29.92126487309897",
    "geocoded_column": {
      "latitude": "29.92126487309897",
      "longitude": "-90.02797605262904"
    }
  },
  {
    "service_request": "2026-1268896",
    "request_type": "Trash/Recycling",
    "request_reason": "Repair Trash Cart",
    "date_created": "2026-03-26T14:02:58.000",
    "date_modified": "2026-03-26T14:02:59.000",
    "request_status": "Pending",
    "responsible_agency": "Department of Sanitation",
    "final_address": "5019 Piety Dr",
    "address_councildis": "D",
    "status": "Assigned to Contractor",
    "contractor": "IV Waste",
    "rowid": "1268896",
    "final_x": "3691316.14851",
    "final_y": "552574.491606",
    "longitude": "-90.03632204203515",
    "latitude": "30.0130862872447",
    "geocoded_column": {
      "latitude": "30.0130862872447",
      "longitude": "-90.03632204203515"
    }
  },
  {
    "service_request": "2026-1268895",
    "request_type": "Trash/Recycling",
    "request_reason": "Replace Trash Cart",
    "date_created": "2026-03-26T14:00:13.000",
    "date_modified": "2026-03-26T14:00:14.000",
    "request_status": "Pending",
    "responsible_agency": "Department of Sanitation",
    "final_address": "1825 Touro St",
    "address_councildis": "D",
    "status": "Assigned to Contractor",
    "contractor": "IV Waste",
    "rowid": "1268895",
    "final_x": "3684038.38543",
    "final_y": "539046.157834",
    "longitude": "-90.05979089201222",
    "latitude": "29.976112703188146",
    "geocoded_column": {
      "latitude": "29.976112703188146",
      "longitude": "-90.05979089201222"
    }
  },
  {
    "service_request": "2026-1268894",
    "request_type": "Trash/Recycling",
    "request_reason": "Request a Large Item Pick Up",
    "date_created": "2026-03-26T13:58:23.000",
    "date_modified": "2026-03-26T13:58:25.000",
    "request_status": "Pending",
    "responsible_agency": "Department of Sanitation",
    "final_address": "6260 Eastover Dr",
    "address_councildis": "E",
    "status": "Assigned to Contractor",
    "contractor": "Waste Pro",
    "rowid": "1268894",
    "final_x": "3717408.79154",
    "final_y": "564302.128865",
    "longitude": "-89.953438078264",
    "latitude": "30.044494676262904",
    "geocoded_column": {
      "latitude": "30.044494676262904",
      "longitude": "-89.953438078264"
    }
  },
  {
    "service_request": "2026-1268893",
    "request_type": "Roads and Streets",
    "request_reason": "Sidewalk Damaged or Missing",
    "date_created": "2026-03-26T13:56:50.000",
    "date_modified": "2026-03-26T13:56:51.000",
    "request_status": "Pending",
    "responsible_agency": "Department of Public Works",
    "final_address": "CANAL ST & CHARTRES ST",
    "address_councildis": "C",
    "status": "Pending",
    "rowid": "1268893",
    "final_x": "3681502.4",
    "final_y": "530495.68",
    "longitude": "-90.06809845776112",
    "latitude": "29.95267907670688",
    "geocoded_column": {
      "latitude": "29.95267907670688",
      "longitude": "-90.06809845776112"
    }
  },
  {
    "service_request": "2026-1268892",
    "request_type": "Safety & Permits",
    "request_reason": "Construction permit",
    "date_created": "2026-03-26T13:56:36.000",
    "date_modified": "2026-03-26T14:29:28.000",
    "case_close_date": "2026-03-26T09:29:27.000",
    "request_status": "Closed",
    "responsible_agency": "Safety and Permits",
    "final_address": "1235 Alvar St",
    "address_councildis": "D",
    "status": "Resolved",
    "rowid": "1268892",
    "final_x": "3691691.43312",
    "final_y": "536026.711367",
    "longitude": "-90.03572841559156",
    "latitude": "29.96757419048736",
    "geocoded_column": {
      "latitude": "29.96757419048736",
      "longitude": "-90.03572841559156"
    }
  },
  {
    "service_request": "2026-1268891",
    "request_type": "Trash/Recycling",
    "request_reason": "Request a Large Item Pick Up",
    "date_created": "2026-03-26T13:55:36.000",
    "date_modified": "2026-03-26T13:55:37.000",
    "request_status": "Pending",
    "responsible_agency": "Department of Sanitation",
    "final_address": "8071 Driftwood Dr",
    "address_councildis": "E",
    "status": "Assigned to Contractor",
    "contractor": "Waste Pro",
    "rowid": "1268891",
    "final_x": "3702552.04919",
    "final_y": "561977.888543",
    "longitude": "-90.00047730049396",
    "latitude": "30.038587506287616",
    "geocoded_column": {
      "latitude": "30.038587506287616",
      "longitude": "-90.00047730049396"
    }
  },
  {
    "service_request": "2026-1268890",
    "request_type": "Streetlights",
    "request_reason": "Streetlight Outage/Malfunction",
    "date_created": "2026-03-26T13:55:27.000",
    "date_modified": "2026-03-26T13:55:28.000",
    "request_status": "Pending",
    "responsible_agency": "Department of Public Works",
    "final_address": "1414 Frankfort St",
    "address_councildis": "D",
    "status": "Pending",
    "rowid": "1268890",
    "final_x": "3677838.84853",
    "final_y": "555788.561177",
    "longitude": "-90.0787919126188",
    "latitude": "30.022336397998803",
    "geocoded_column": {
      "latitude": "30.022336397998803",
      "longitude": "-90.0787919126188"
    }
  },
  {
    "service_request": "2026-1268889",
    "request_type": "General Services",
    "request_reason": "General Service Request",
    "date_created": "2026-03-26T13:55:04.000",
    "date_modified": "2026-03-26T13:58:26.000",
    "case_close_date": "2026-03-26T08:56:28.000",
    "request_status": "Closed",
    "responsible_agency": "Orleans Parish Communication District",
    "final_address": "CANAL ST & CHARTRES ST",
    "address_councildis": "C",
    "status": "Referred to Risk Management",
    "rowid": "1268889",
    "final_x": "3681502.4",
    "final_y": "530495.68",
    "longitude": "-90.06809845776112",
    "latitude": "29.95267907670688",
    "geocoded_column": {
      "latitude": "29.95267907670688",
      "longitude": "-90.06809845776112"
    }
  },
  {
    "service_request": "2026-1268888",
    "request_type": "Trash/Recycling",
    "request_reason": "Repair Trash Cart",
    "date_created": "2026-03-26T13:54:49.000",
    "date_modified": "2026-03-26T13:54:50.000",
    "request_status": "Pending",
    "responsible_agency": "Department of Sanitation",
    "final_address": "1714 Bayou Rd",
    "address_councildis": "C",
    "status": "Assigned to Contractor",
    "contractor": "IV Waste",
    "rowid": "1268888",
    "final_x": "3680793.08104",
    "final_y": "536309.321095",
    "longitude": "-90.07013579752484",
    "latitude": "29.968686127248255",
    "geocoded_column": {
      "latitude": "29.968686127248255",
      "longitude": "-90.07013579752484"
    }
  },
  {
    "service_request": "2026-1268887",
    "request_type": "Trash/Recycling",
    "request_reason": "Request a Large Item Pick Up",
    "date_created": "2026-03-26T13:54:03.000",
    "date_modified": "2026-03-26T13:54:05.000",
    "request_status": "Pending",
    "responsible_agency": "Department of Sanitation",
    "final_address": "1400 Leda St",
    "address_councildis": "A",
    "status": "Assigned to Contractor",
    "contractor": "IV Waste",
    "rowid": "1268887",
    "final_x": "3675569.94357",
    "final_y": "541136.142796",
    "longitude": "-90.08646490905033",
    "latitude": "29.982115530310722",
    "geocoded_column": {
      "latitude": "29.982115530310722",
      "longitude": "-90.08646490905033"
    }
  },
  {
    "service_request": "2026-1268886",
    "request_type": "Trash/Recycling",
    "request_reason": "Request a Large Item Pick Up",
    "date_created": "2026-03-26T13:44:52.000",
    "date_modified": "2026-03-26T13:44:54.000",
    "request_status": "Pending",
    "responsible_agency": "Department of Sanitation",
    "final_address": "2236 Forstall St",
    "address_councildis": "E",
    "status": "Assigned to Contractor",
    "contractor": "Waste Pro",
    "rowid": "1268886",
    "final_x": "3697427.99901",
    "final_y": "538596.010697",
    "longitude": "-90.01751914086003",
    "latitude": "29.974458967617924",
    "geocoded_column": {
      "latitude": "29.974458967617924",
      "longitude": "-90.01751914086003"
    }
  },
  {
    "service_request": "2026-1268885",
    "request_type": "Trash/Recycling",
    "request_reason": "Replace Trash Cart",
    "date_created": "2026-03-26T13:43:10.000",
    "date_modified": "2026-03-26T13:43:12.000",
    "request_status": "Pending",
    "responsible_agency": "Department of Sanitation",
    "final_address": "805 Arabella St",
    "address_councildis": "A",
    "status": "Assigned to Contractor",
    "contractor": "IV Waste",
    "rowid": "1268885",
    "final_x": "3665872.25005",
    "final_y": "518994.477175",
    "longitude": "-90.11783688224605",
    "latitude": "29.9215197464729",
    "geocoded_column": {
      "latitude": "29.9215197464729",
      "longitude": "-90.11783688224605"
    }
  },
  {
    "service_request": "2026-1268884",
    "request_type": "Trash/Recycling",
    "request_reason": "Repair Recycling Cart",
    "date_created": "2026-03-26T13:42:53.000",
    "date_modified": "2026-03-26T13:42:55.000",
    "request_status": "Pending",
    "responsible_agency": "Department of Sanitation",
    "final_address": "4211 State Street Dr",
    "address_councildis": "B",
    "status": "Pending",
    "rowid": "1268884",
    "final_x": "3668529.99521",
    "final_y": "531143.419714",
    "longitude": "-90.1090377628428",
    "latitude": "29.954847637920505",
    "geocoded_column": {
      "latitude": "29.954847637920505",
      "longitude": "-90.1090377628428"
    }
  },
  {
    "service_request": "2026-1268883",
    "request_type": "Trash/Recycling",
    "request_reason": "Illegal Dumping",
    "date_created": "2026-03-26T13:40:00.000",
    "date_modified": "2026-03-26T13:40:02.000",
    "request_status": "Pending",
    "responsible_agency": "Department of Sanitation",
    "final_address": "RABBITS ST & EDGE ST",
    "address_councildis": "D",
    "status": "Pending",
    "rowid": "1268883",
    "final_x": "3688311.1",
    "final_y": "545112.28",
    "longitude": "-90.04608121813392",
    "latitude": "29.99266110804973",
    "geocoded_column": {
      "latitude": "29.99266110804973",
      "longitude": "-90.04608121813392"
    }
  },
  {
    "service_request": "2026-1268882",
    "request_type": "Abandoned Vehicles",
    "request_reason": "Abandoned/Junk Vehicles",
    "date_created": "2026-03-26T13:37:28.000",
    "date_modified": "2026-03-26T13:37:29.000",
    "request_status": "Pending",
    "responsible_agency": "Department of Public Works",
    "final_address": "8700 BLK Nelson St",
    "address_councildis": "A",
    "status": "Pending",
    "rowid": "1268882",
    "final_x": "3663415.13868",
    "final_y": "533392.460562",
    "longitude": "-90.12511372624465",
    "latitude": "29.961181048639236",
    "geocoded_column": {
      "latitude": "29.961181048639236",
      "longitude": "-90.12511372624465"
    }
  },
  {
    "service_request": "2026-1268881",
    "request_type": "Trash/Recycling",
    "request_reason": "Request a Large Item Pick Up",
    "date_created": "2026-03-26T13:37:11.000",
    "date_modified": "2026-03-26T13:37:13.000",
    "request_status": "Pending",
    "responsible_agency": "Department of Sanitation",
    "final_address": "1031 Burdette St",
    "address_councildis": "A",
    "status": "Assigned to Contractor",
    "contractor": "IV Waste",
    "rowid": "1268881",
    "final_x": "3662548.25613",
    "final_y": "527288.862207",
    "longitude": "-90.12805393782207",
    "latitude": "29.94442322762445",
    "geocoded_column": {
      "latitude": "29.94442322762445",
      "longitude": "-90.12805393782207"
    }
  },
  {
    "service_request": "2026-1268880",
    "request_type": "Trash/Recycling",
    "request_reason": "Request a Large Item Pick Up",
    "date_created": "2026-03-26T13:32:37.000",
    "date_modified": "2026-03-26T13:32:38.000",
    "request_status": "Pending",
    "responsible_agency": "Department of Sanitation",
    "final_address": "541 Huntlee Dr",
    "address_councildis": "C",
    "status": "Assigned to Contractor",
    "contractor": "Richards Disposal",
    "rowid": "1268880",
    "final_x": "3701774.24356",
    "final_y": "521035.819833",
    "longitude": "-90.00443594485427",
    "latitude": "29.926036718482298",
    "geocoded_column": {
      "latitude": "29.926036718482298",
      "longitude": "-90.00443594485427"
    }
  },
  {
    "service_request": "2026-1268879",
    "request_type": "Trash/Recycling",
    "request_reason": "Request a Large Item Pick Up",
    "date_created": "2026-03-26T13:32:08.000",
    "date_modified": "2026-03-26T14:01:54.000",
    "case_close_date": "2026-03-26T09:01:53.000",
    "request_status": "Closed",
    "responsible_agency": "Department of Sanitation",
    "final_address": "4101 Hamilton St",
    "address_councildis": "A",
    "status": "Assigned to Contractor",
    "contractor": "IV Waste",
    "contractor_action": "Completed",
    "rowid": "1268879",
    "final_x": "3666340.03565",
    "final_y": "538360.345545",
    "longitude": "-90.11571068866927",
    "latitude": "29.974755958349256",
    "geocoded_column": {
      "latitude": "29.974755958349256",
      "longitude": "-90.11571068866927"
    }
  },
  {
    "service_request": "2026-1268878",
    "request_type": "Trash/Recycling",
    "request_reason": "Return Trash Cart",
    "date_created": "2026-03-26T13:32:04.000",
    "date_modified": "2026-03-26T13:32:07.000",
    "request_status": "Pending",
    "responsible_agency": "Department of Sanitation",
    "final_address": "4612 Prytania St",
    "address_councildis": "B",
    "status": "Assigned to Contractor",
    "contractor": "IV Waste",
    "rowid": "1268878",
    "final_x": "3670032.88398",
    "final_y": "520173.543864",
    "longitude": "-90.1046636254298",
    "latitude": "29.924639791020127",
    "geocoded_column": {
      "latitude": "29.924639791020127",
      "longitude": "-90.1046636254298"
    }
  },
  {
    "service_request": "2026-1268877",
    "request_type": "Trash/Recycling",
    "request_reason": "Order Trash Cart",
    "date_created": "2026-03-26T13:32:04.000",
    "date_modified": "2026-03-26T13:32:06.000",
    "request_status": "Pending",
    "responsible_agency": "Department of Sanitation",
    "final_address": "8502 Panola St",
    "address_councildis": "A",
    "status": "Assigned to Contractor",
    "contractor": "IV Waste",
    "rowid": "1268877",
    "final_x": "3662964.16307",
    "final_y": "531688.529155",
    "longitude": "-90.12659449969793",
    "latitude": "29.95650885910464",
    "geocoded_column": {
      "latitude": "29.95650885910464",
      "longitude": "-90.12659449969793"
    }
  },
  {
    "service_request": "2026-1268876",
    "request_type": "Trash/Recycling",
    "request_reason": "Missed Trash Pick-Up",
    "date_created": "2026-03-26T13:28:22.000",
    "date_modified": "2026-03-26T14:13:35.000",
    "case_close_date": "2026-03-26T09:13:34.000",
    "request_status": "Closed",
    "responsible_agency": "Department of Sanitation",
    "final_address": "1865 N Tonti St",
    "address_councildis": "D",
    "status": "Invalid Request",
    "contractor": "IV Waste",
    "contractor_action": "Invalid Request",
    "rowid": "1268876",
    "final_x": "3681876.39272",
    "final_y": "540531.908747",
    "longitude": "-90.06656721506792",
    "latitude": "29.980263896164985",
    "geocoded_column": {
      "latitude": "29.980263896164985",
      "longitude": "-90.06656721506792"
    }
  },
  {
    "service_request": "2026-1268875",
    "request_type": "Parks & Parkways",
    "request_reason": "Request Tree Service (Right of Way/Public Property)",
    "date_created": "2026-03-26T13:28:02.000",
    "date_modified": "2026-03-26T13:28:04.000",
    "request_status": "Pending",
    "responsible_agency": "Department of Parks & Parkway",
    "final_address": "1120 Esplanade Ave",
    "address_councildis": "C",
    "status": "Pending",
    "rowid": "1268875",
    "final_x": "3682692.63848",
    "final_y": "535388.185414",
    "longitude": "-90.06416911344962",
    "latitude": "29.96609560405481",
    "geocoded_column": {
      "latitude": "29.96609560405481",
      "longitude": "-90.06416911344962"
    }
  },
  {
    "service_request": "2026-1268874",
    "request_type": "Trash/Recycling",
    "request_reason": "Repair Trash Cart",
    "date_created": "2026-03-26T13:26:53.000",
    "date_modified": "2026-03-26T13:26:55.000",
    "request_status": "Pending",
    "responsible_agency": "Department of Sanitation",
    "final_address": "2332 Bartholomew St",
    "address_councildis": "D",
    "status": "Assigned to Contractor",
    "contractor": "IV Waste",
    "rowid": "1268874",
    "final_x": "3692946.57065",
    "final_y": "540087.019467",
    "longitude": "-90.03161901201936",
    "latitude": "29.97869945087794",
    "geocoded_column": {
      "latitude": "29.97869945087794",
      "longitude": "-90.03161901201936"
    }
  },
  {
    "service_request": "2026-1268873",
    "request_type": "Trash/Recycling",
    "request_reason": "Request a Large Item Pick Up",
    "date_created": "2026-03-26T13:25:53.000",
    "date_modified": "2026-03-26T13:25:54.000",
    "request_status": "Pending",
    "responsible_agency": "Department of Sanitation",
    "final_address": "6530 Lincoln Beach Blvd",
    "address_councildis": "E",
    "status": "Assigned to Contractor",
    "contractor": "Waste Pro",
    "rowid": "1268873",
    "final_x": "3696932.01655",
    "final_y": "560482.980126",
    "longitude": "-90.01829224978368",
    "latitude": "30.03465563866543",
    "geocoded_column": {
      "latitude": "30.03465563866543",
      "longitude": "-90.01829224978368"
    }
  },
  {
    "service_request": "2026-1268872",
    "request_type": "Trash/Recycling",
    "request_reason": "Order Recycling Cart",
    "date_created": "2026-03-26T13:25:52.000",
    "date_modified": "2026-03-26T13:25:54.000",
    "request_status": "Pending",
    "responsible_agency": "Department of Sanitation",
    "final_address": "4715 Mandeville St",
    "address_councildis": "D",
    "status": "Pending",
    "rowid": "1268872",
    "final_x": "3684790.51644",
    "final_y": "550330.41186",
    "longitude": "-90.05701847566502",
    "latitude": "30.007117374241584",
    "geocoded_column": {
      "latitude": "30.007117374241584",
      "longitude": "-90.05701847566502"
    }
  },
  {
    "service_request": "2026-1268871",
    "request_type": "Health Related Request",
    "request_reason": "Homeless Encampment Complaint",
    "date_created": "2026-03-26T13:24:25.000",
    "date_modified": "2026-03-26T13:24:27.000",
    "request_status": "Pending",
    "responsible_agency": "Office Of Homeless Services And Strategy",
    "final_address": "2800 Chartres St",
    "address_councildis": "C",
    "status": "Pending",
    "rowid": "1268871",
    "final_x": "3687392.67823",
    "final_y": "534231.840837",
    "longitude": "-90.04936745991506",
    "latitude": "29.962772077062155",
    "geocoded_column": {
      "latitude": "29.962772077062155",
      "longitude": "-90.04936745991506"
    }
  },
  {
    "service_request": "2026-1268870",
    "request_type": "Trash/Recycling",
    "request_reason": "Request a Large Item Pick Up",
    "date_created": "2026-03-26T13:24:04.000",
    "date_modified": "2026-03-26T13:24:07.000",
    "request_status": "Pending",
    "responsible_agency": "Department of Sanitation",
    "final_address": "74 Egret St",
    "address_councildis": "D",
    "status": "Assigned to Contractor",
    "contractor": "IV Waste",
    "rowid": "1268870",
    "final_x": "3673840.31534",
    "final_y": "555463.203353",
    "longitude": "-90.09143746560028",
    "latitude": "30.021561550135562",
    "geocoded_column": {
      "latitude": "30.021561550135562",
      "longitude": "-90.09143746560028"
    }
  },
  {
    "service_request": "2026-1268869",
    "request_type": "Trash/Recycling",
    "request_reason": "Illegal Dumping",
    "date_created": "2026-03-26T13:17:23.000",
    "date_modified": "2026-03-26T13:19:05.000",
    "request_status": "Pending",
    "responsible_agency": "Department of Sanitation",
    "final_address": "2018 Bienville Ave",
    "address_councildis": "B",
    "status": "Pending",
    "rowid": "1268869",
    "final_x": "3677835.42856",
    "final_y": "534124.389829",
    "longitude": "-90.07955173902475",
    "latitude": "29.962767632367825",
    "geocoded_column": {
      "latitude": "29.962767632367825",
      "longitude": "-90.07955173902475"
    }
  },
  {
    "service_request": "2026-1268868",
    "request_type": "Roads and Streets",
    "request_reason": "Pothole",
    "date_created": "2026-03-26T13:13:32.000",
    "date_modified": "2026-03-26T13:13:34.000",
    "request_status": "Pending",
    "responsible_agency": "Department of Public Works",
    "final_address": "900 BLK Piety St",
    "address_councildis": "C",
    "status": "Pending",
    "rowid": "1268868",
    "final_x": "3689681.4582",
    "final_y": "535180.74898",
    "longitude": "-90.04210604588444",
    "latitude": "29.965310524582776",
    "geocoded_column": {
      "latitude": "29.965310524582776",
      "longitude": "-90.04210604588444"
    }
  },
  {
    "service_request": "2026-1268867",
    "request_type": "Trash/Recycling",
    "request_reason": "Order Recycling Cart",
    "date_created": "2026-03-26T13:10:03.000",
    "date_modified": "2026-03-26T13:10:04.000",
    "request_status": "Pending",
    "responsible_agency": "Department of Sanitation",
    "final_address": "2362 N Robertson St",
    "address_councildis": "C",
    "status": "Pending",
    "rowid": "1268867",
    "final_x": "3686198.63593",
    "final_y": "537848.657225",
    "longitude": "-90.05301046323079",
    "latitude": "29.97275379995852",
    "geocoded_column": {
      "latitude": "29.97275379995852",
      "longitude": "-90.05301046323079"
    }
  },
  {
    "service_request": "2026-1268866",
    "request_type": "Trash/Recycling",
    "request_reason": "Order Trash Cart",
    "date_created": "2026-03-26T13:08:12.000",
    "date_modified": "2026-03-26T13:08:22.000",
    "request_status": "Pending",
    "responsible_agency": "Department of Sanitation",
    "final_address": "2362 N Robertson St",
    "address_councildis": "C",
    "status": "Assigned to Contractor",
    "contractor": "IV Waste",
    "rowid": "1268866",
    "final_x": "3686198.63593",
    "final_y": "537848.657225",
    "longitude": "-90.05301046323079",
    "latitude": "29.97275379995852",
    "geocoded_column": {
      "latitude": "29.97275379995852",
      "longitude": "-90.05301046323079"
    }
  },
  {
    "service_request": "2026-1268865",
    "request_type": "Abandoned Vehicles",
    "request_reason": "Abandoned/Junk Vehicles",
    "date_created": "2026-03-26T13:03:58.000",
    "date_modified": "2026-03-26T13:04:58.000",
    "request_status": "Pending",
    "responsible_agency": "Department of Public Works",
    "final_address": "1927 Third St",
    "address_councildis": "B",
    "status": "Pending",
    "rowid": "1268865",
    "final_x": "3675739.10331",
    "final_y": "523992.002812",
    "longitude": "-90.08651983252251",
    "latitude": "29.93496983546944",
    "geocoded_column": {
      "latitude": "29.93496983546944",
      "longitude": "-90.08651983252251"
    }
  },
  {
    "service_request": "2026-1268864",
    "request_type": "Roads and Streets",
    "request_reason": "Push-up/Pavement Expansion",
    "date_created": "2026-03-26T13:01:42.000",
    "date_modified": "2026-03-26T13:01:44.000",
    "request_status": "Pending",
    "responsible_agency": "Department of Public Works",
    "final_address": "100 Allen Toussaint Blvd",
    "address_councildis": "A",
    "status": "Pending",
    "rowid": "1268864",
    "final_x": "3666940.75642",
    "final_y": "554786.392088",
    "longitude": "-90.11326107140346",
    "latitude": "30.01990437043757",
    "geocoded_column": {
      "latitude": "30.01990437043757",
      "longitude": "-90.11326107140346"
    }
  },
  {
    "service_request": "2026-1268863",
    "request_type": "Trash/Recycling",
    "request_reason": "Request a Large Item Pick Up",
    "date_created": "2026-03-26T12:59:44.000",
    "date_modified": "2026-03-26T12:59:46.000",
    "request_status": "Pending",
    "responsible_agency": "Department of Sanitation",
    "final_address": "6012 Kuebel Dr",
    "address_councildis": "E",
    "status": "Assigned to Contractor",
    "contractor": "Waste Pro",
    "rowid": "1268863",
    "final_x": "3694972.46314",
    "final_y": "559645.608861",
    "longitude": "-90.0245149216439",
    "latitude": "30.03241487947237",
    "geocoded_column": {
      "latitude": "30.03241487947237",
      "longitude": "-90.0245149216439"
    }
  },
  {
    "service_request": "2026-1268862",
    "request_type": "Abandoned Vehicles",
    "request_reason": "Abandoned/Junk Vehicles",
    "date_created": "2026-03-26T12:57:40.000",
    "date_modified": "2026-03-26T12:58:06.000",
    "request_status": "Pending",
    "responsible_agency": "Department of Public Works",
    "final_address": "1903 Bayou Rd",
    "address_councildis": "C",
    "status": "Pending",
    "rowid": "1268862",
    "final_x": "3680515.99419",
    "final_y": "536857.064456",
    "longitude": "-90.07099179653774",
    "latitude": "29.97020062960035",
    "geocoded_column": {
      "latitude": "29.97020062960035",
      "longitude": "-90.07099179653774"
    }
  },
  {
    "service_request": "2026-1268861",
    "request_type": "Trash/Recycling",
    "request_reason": "Request a Large Item Pick Up",
    "date_created": "2026-03-26T12:56:58.000",
    "date_modified": "2026-03-26T15:54:59.000",
    "request_status": "Pending",
    "responsible_agency": "Department of Sanitation",
    "final_address": "1701 Bartholomew St",
    "address_councildis": "D",
    "status": "Assigned to Contractor",
    "contractor": "IV Waste",
    "rowid": "1268861",
    "final_x": "3692413.62582",
    "final_y": "537580.865096",
    "longitude": "-90.03339204320416",
    "latitude": "29.971825055584745",
    "geocoded_column": {
      "latitude": "29.971825055584745",
      "longitude": "-90.03339204320416"
    }
  },
  {
    "service_request": "2026-1268860",
    "request_type": "Trash/Recycling",
    "request_reason": "Request a Large Item Pick Up",
    "date_created": "2026-03-26T12:52:44.000",
    "date_modified": "2026-03-26T12:53:58.000",
    "request_status": "Pending",
    "responsible_agency": "Department of Sanitation",
    "final_address": "4343 Ray Ave",
    "address_councildis": "E",
    "status": "Assigned to Contractor",
    "contractor": "Waste Pro",
    "rowid": "1268860",
    "final_x": "3699036.15524",
    "final_y": "552234.145302",
    "longitude": "-90.01194351541012",
    "latitude": "30.011907926969418",
    "geocoded_column": {
      "latitude": "30.011907926969418",
      "longitude": "-90.01194351541012"
    }
  },
  {
    "service_request": "2026-1268859",
    "request_type": "Parks & Parkways",
    "request_reason": "Park Maintenance/Clean Up",
    "date_created": "2026-03-26T12:52:24.000",
    "date_modified": "2026-03-26T13:07:45.000",
    "case_close_date": "2026-03-26T08:07:44.000",
    "request_status": "Closed",
    "responsible_agency": "Department of Parks & Parkway",
    "final_address": "5900 Beechcraft St, New Orleans, Louisiana, 70126",
    "address_councildis": "D",
    "status": "Referred to Property Owner",
    "rowid": "1268859",
    "final_x": "3696298.99997",
    "final_y": "553259.043095",
    "longitude": "-90.02055421037453",
    "latitude": "30.014812519547167",
    "geocoded_column": {
      "latitude": "30.014812519547167",
      "longitude": "-90.02055421037453"
    }
  },