[
  {
    "service_request": "2023-975736",
    "request_type": "Health Related Request",
    "request_reason": "Noise Ordinance Complaint",
    "date_created": "2023-02-16T01:15:20.000",
    "date_modified": "2023-02-16T01:15:20.000",
    "request_status": "Pending",
    "responsible_agency": "Health Department",
    "final_address": "1009 N Claiborne Ave, New Orleans, Louisiana, 70116",
    "address_councildis": "D",
    "status": "Pending",
    "rowid": "975736",
    "final_x": "3680417.66101",
    "final_y": "535635.218886",
    "longitude": "-90.07134484150656",
    "latitude": "29.966843952035386",
    "geocoded_column": {
      "latitude": "29.966843952035386",
      "longitude": "-90.07134484150656"
    }
  },
  {
    "service_request": "2023-975735",
    "request_type": "Trash/Recycling",
    "request_reason": "Request a Large Item Pick Up",
    "date_created": "2023-02-16T00:53:59.000",
    "date_modified": "2023-02-16T00:54:00.000",
    "request_status": "Pending",
    "responsible_agency": "Department of Sanitation",
    "final_address": "2320 Jackson Ave",
    "address_councildis": "B",
    "status": "Assigned to Contractor",
    "contractor": "Richards Disposal",
    "rowid": "975735",
    "final_x": "3675673.1364",
    "final_y": "526165.71155",
    "longitude": "-90.08665342663011",
    "latitude": "29.94094879582612",
    "geocoded_column": {
      "latitude": "29.94094879582612",
      "longitude": "-90.08665342663011"
    }
  },
  {
    "service_request": "2023-975734",
    "request_type": "Abandoned Vehicles",
    "request_reason": "Abandoned/Junk Vehicles",
    "date_created": "2023-02-16T00:21:10.000",
    "date_modified": "2023-02-16T00:21:10.000",
    "request_status": "Pending",
    "responsible_agency": "Department of Public Works",
    "final_address": "1109 Numa St",
    "address_councildis": "C",
    "status": "Pending",
    "rowid": "975734",
    "final_x": "3691780.1871",
    "final_y": "527291.360959",
    "longitude": "-90.03576052352129",
    "latitude": "29.943552251408757",
    "geocoded_column": {
      "latitude": "29.943552251408757",
      "longitude": "-90.03576052352129"
    }
  },
  {
    "service_request": "2023-975733",
    "request_type": "Roads/Drainage",
    "request_reason": "Pothole",
    "date_created": "2023-02-16T00:13:42.000",
    "date_modified": "2023-02-16T00:13:42.000",
    "request_status": "Pending",
    "responsible_agency": "Department of Public Works",
    "final_address": "334 OKeefe Ave",
    "address_councildis": "B",
    "status": "Pending",
    "rowid": "975733",
    "final_x": "3679747.31624",
    "final_y": "530153.936449",
    "longitude": "-90.07365208575929",
    "latitude": "29.95179256758149",
    "geocoded_column": {
      "latitude": "29.95179256758149",
      "longitude": "-90.07365208575929"
    }
  },
  {
    "service_request": "2023-975732",
    "request_type": "Trash/Recycling",
    "request_reason": "Replace Recycling Cart",
    "date_created": "2023-02-15T22:48:46.000",
    "date_modified": "2023-02-15T22:48:46.000",
    "request_status": "Pending",
    "responsible_agency": "Department of Sanitation",
    "final_address": "3737 Tall Pines Dr",
    "address_councildis": "C",
    "status": "Pending",
    "rowid": "975732",
    "final_x": "3703918.43505",
    "final_y": "513428.946098",
    "longitude": "-89.99794725823303",
    "latitude": "29.90505187902184",
    "geocoded_column": {
      "latitude": "29.90505187902184",
      "longitude": "-89.99794725823303"
    }
  },
  {
    "service_request": "2023-975731",
    "request_type": "Trash/Recycling",
    "request_reason": "Order Recycling Cart",
    "date_created": "2023-02-15T22:23:47.000",
    "date_modified": "2023-02-15T22:23:47.000",
    "request_status": "Pending",
    "responsible_agency": "Department of Sanitation",
    "final_address": "9210 Tilford Rd",
    "address_councildis": "E",
    "status": "Pending",
    "rowid": "975731",
    "final_x": "3708693.62193",
    "final_y": "557256.182107",
    "longitude": "-89.9812445215065",
    "latitude": "30.02540681390971",
    "geocoded_column": {
      "latitude": "30.02540681390971",
      "longitude": "-89.9812445215065"
    }
  },
  {
    "service_request": "2023-975730",
    "request_type": "Mosquito, Termite & Rodent Control",
    "request_reason": "Non-Rodent Complaint (Mice, Possums, Snakes)",
    "date_created": "2023-02-15T22:16:57.000",
    "date_modified": "2023-02-15T22:16:57.000",
    "request_status": "Pending",
    "responsible_agency": "Mosquito, Termite & Rodent Control Board",
    "final_address": "24 Morrison Ct",
    "address_councildis": "E",
    "status": "Pending",
    "rowid": "975730",
    "final_x": "3704088.18743",
    "final_y": "561280.22915",
    "longitude": "-89.9956484640333",
    "latitude": "30.0366199957958",
    "geocoded_column": {
      "latitude": "30.0366199957958",
      "longitude": "-89.9956484640333"
    }
  },
  {
    "service_request": "2023-975729",
    "request_type": "Trash/Recycling",
    "request_reason": "Repair Trash Cart",
    "date_created": "2023-02-15T21:15:39.000",
    "date_modified": "2023-02-15T21:15:39.000",
    "request_status": "Pending",
    "responsible_agency": "Department of Sanitation",
    "final_address": "5042 Mirabeau Ave",
    "address_councildis": "D",
    "status": "Assigned to Contractor",
    "contractor": "IV Waste",
    "rowid": "975729",
    "final_x": "3692567.06134",
    "final_y": "552124.208726",
    "longitude": "-90.03238599752623",
    "latitude": "30.011809184004687",
    "geocoded_column": {
      "latitude": "30.011809184004687",
      "longitude": "-90.03238599752623"
    }
  },
  {
    "service_request": "2023-975728",
    "request_type": "Trash/Recycling",
    "request_reason": "Request a Large Item Pick Up",
    "date_created": "2023-02-15T21:14:35.000",
    "date_modified": "2023-02-15T21:14:35.000",
    "request_status": "Pending",
    "responsible_agency": "Department of Sanitation",
    "final_address": "1234 Egania St",
    "address_councildis": "E",
    "status": "Assigned to Contractor",
    "contractor": "Waste Pro",
    "rowid": "975728",
    "final_x": "3696944.63178",
    "final_y": "534738.725894",
    "longitude": "-90.01918543823872",
    "latitude": "29.963868067328434",
    "geocoded_column": {
      "latitude": "29.963868067328434",
      "longitude": "-90.01918543823872"
    }
  },
  {
    "service_request": "2023-975727",
    "request_type": "Traffic Signals/Signs/Striping/Streetlights",
    "request_reason": "Street Light Outage/Malfunction",
    "date_created": "2023-02-15T20:58:25.000",
    "date_modified": "2023-02-15T20:58:26.000",
    "request_status": "Pending",
    "responsible_agency": "Department of Public Works",
    "final_address": "1412 Desire St",
    "address_councildis": "C",
    "status": "Assigned to Contractor",
    "contractor": "Legacy Professional Services",
    "rowid": "975727",
    "final_x": "3690451.60374",
    "final_y": "536935.499464",
    "longitude": "-90.03961140701695",
    "latitude": "29.970111586068523",
    "geocoded_column": {
      "latitude": "29.970111586068523",
      "longitude": "-90.03961140701695"
    }
  },
  {
    "service_request": "2023-975725",
    "request_type": "Trash/Recycling",
    "request_reason": "Missed Trash Pick-Up",
    "date_created": "2023-02-15T20:17:17.000",
    "date_modified": "2023-02-15T20:17:18.000",
    "request_status": "Pending",
    "responsible_agency": "Department of Sanitation",
    "final_address": "1920 Adams St, New Orleans, Louisiana, 70118",
    "address_councildis": "A",
    "status": "Assigned to Contractor",
    "contractor": "Richards Disposal",
    "rowid": "975725",
    "final_x": "3664806.90612",
    "final_y": "529360.570689",
    "longitude": "-90.1208534812332",
    "latitude": "29.950054237977923",
    "geocoded_column": {
      "latitude": "29.950054237977923",
      "longitude": "-90.1208534812332"
    }
  },
  {
    "service_request": "2023-975724",
    "request_type": "Roads/Drainage",
    "request_reason": "Man hole cover issue",
    "date_created": "2023-02-15T20:07:45.000",
    "date_modified": "2023-02-15T20:07:46.000",
    "request_status": "Pending",
    "responsible_agency": "Department of Public Works",
    "final_address": "1420 Valence St",
    "address_councildis": "B",
    "status": "Pending",
    "rowid": "975724",
    "final_x": "3669700.59668",
    "final_y": "520355.41356",
    "longitude": "-90.10570639693285",
    "latitude": "29.925149667961925",
    "geocoded_column": {
      "latitude": "29.925149667961925",
      "longitude": "-90.10570639693285"
    }
  },
  {
    "service_request": "2023-975723",
    "request_type": "Trash/Recycling",
    "request_reason": "Order Recycling Cart",
    "date_created": "2023-02-15T20:06:03.000",
    "date_modified": "2023-02-15T20:06:03.000",
    "request_status": "Pending",
    "responsible_agency": "Department of Sanitation",
    "final_address": "6055 Kensington Blvd",
    "address_councildis": "E",
    "status": "Pending",
    "rowid": "975723",
    "final_x": "3713767.26175",
    "final_y": "561599.548575",
    "longitude": "-89.96504885135526",
    "latitude": "30.037183747492353",
    "geocoded_column": {
      "latitude": "30.037183747492353",
      "longitude": "-89.96504885135526"
    }
  },
  {
    "service_request": "2023-975722",
    "request_type": "Trash/Recycling",
    "request_reason": "Illegal Dumping",
    "date_created": "2023-02-15T20:05:28.000",
    "date_modified": "2023-02-15T20:05:28.000",
    "request_status": "Pending",
    "responsible_agency": "Department of Sanitation",
    "final_address": "1300 N Peters St Wharf",
    "address_councildis": "C",
    "status": "Pending",
    "rowid": "975722",
    "final_x": "3684792.23177",
    "final_y": "533284.61786",
    "longitude": "-90.05761262078889",
    "latitude": "29.960247406439905",
    "geocoded_column": {
      "latitude": "29.960247406439905",
      "longitude": "-90.05761262078889"
    }
  },
  {
    "service_request": "2023-975720",
    "request_type": "Trash/Recycling",
    "request_reason": "Replace Trash Cart",
    "date_created": "2023-02-15T19:56:32.000",
    "date_modified": "2023-02-15T19:56:33.000",
    "request_status": "Pending",
    "responsible_agency": "Department of Sanitation",
    "final_address": "1954 N Dorgenois St",
    "address_councildis": "D",
    "status": "Assigned to Contractor",
    "contractor": "IV Waste",
    "rowid": "975720",
    "final_x": "3681868.20892",
    "final_y": "541200.5035",
    "longitude": "-90.06656971737486",
    "latitude": "29.98210254682532",
    "geocoded_column": {
      "latitude": "29.98210254682532",
      "longitude": "-90.06656971737486"
    }
  },
  {
    "service_request": "2023-975719",
    "request_type": "Trash/Recycling",
    "request_reason": "MIssed Recycling Pick-Up",
    "date_created": "2023-02-15T19:42:40.000",
    "date_modified": "2023-02-15T19:42:41.000",
    "request_status": "Pending",
    "responsible_agency": "Department of Sanitation",
    "final_address": "2016 Governor Nicholls St",
    "address_councildis": "D",
    "status": "Assigned to Contractor",
    "contractor": "Richards Disposal",
    "rowid": "975719",
    "final_x": "3679877.89666",
    "final_y": "536777.054344",
    "longitude": "-90.07300975454918",
    "latitude": "29.96999994323643",
    "geocoded_column": {
      "latitude": "29.96999994323643",
      "longitude": "-90.07300975454918"
    }
  },
  {
    "service_request": "2023-975718",
    "request_type": "Trash/Recycling",
    "request_reason": "Replace Trash Cart",
    "date_created": "2023-02-15T19:32:46.000",
    "date_modified": "2023-02-15T19:32:47.000",
    "request_status": "Pending",
    "responsible_agency": "Department of Sanitation",
    "final_address": "4901 Perrier St",
    "address_councildis": "B",
    "status": "Assigned to Contractor",
    "contractor": "Richards Disposal",
    "rowid": "975718",
    "final_x": "3668985.0859",
    "final_y": "519955.912632",
    "longitude": "-90.10797852850848",
    "latitude": "29.924072226317765",
    "geocoded_column": {
      "latitude": "29.924072226317765",
      "longitude": "-90.10797852850848"
    }
  },
  {
    "service_request": "2023-975717",
    "request_type": "Abandoned Vehicles",
    "request_reason": "Abandoned/Junk Vehicles",
    "date_created": "2023-02-15T19:22:27.000",
    "date_modified": "2023-02-15T19:22:27.000",
    "request_status": "Pending",
    "responsible_agency": "Department of Public Works",
    "final_address": "811 N White St",
    "address_councildis": "A",
    "status": "Pending",
    "rowid": "975717",
    "final_x": "3676521.9956",
    "final_y": "537677.902792",
    "longitude": "-90.08357700076856",
    "latitude": "29.972578037661428",
    "geocoded_column": {
      "latitude": "29.972578037661428",
      "longitude": "-90.08357700076856"
    }
  },
  {
    "service_request": "2023-975716",
    "request_type": "Abandoned Vehicles",
    "request_reason": "Abandoned/Junk Vehicles",
    "date_created": "2023-02-15T19:18:17.000",
    "date_modified": "2023-02-15T19:18:17.000",
    "request_status": "Pending",
    "responsible_agency": "Department of Public Works",
    "final_address": "820 N White St",
    "address_councildis": "A",
    "status": "Pending",
    "rowid": "975716",
    "final_x": "3676633.12302",
    "final_y": "537701.913032",
    "longitude": "-90.08322521275696",
    "latitude": "29.972640724412738",
    "geocoded_column": {
      "latitude": "29.972640724412738",
      "longitude": "-90.08322521275696"
    }
  },
  {
    "service_request": "2023-975715",
    "request_type": "Trash/Recycling",
    "request_reason": "Return Recycling Cart",
    "date_created": "2023-02-15T19:09:32.000",
    "date_modified": "2023-02-15T19:09:32.000",
    "request_status": "Pending",
    "responsible_agency": "Department of Sanitation",
    "final_address": "6617 Congress Dr",
    "address_councildis": "D",
    "status": "Pending",
    "rowid": "975715",
    "final_x": "3690699.50889",
    "final_y": "558055.039579",
    "longitude": "-90.03807454998797",
    "latitude": "30.028174924282492",
    "geocoded_column": {
      "latitude": "30.028174924282492",
      "longitude": "-90.03807454998797"
    }
  },
  {
    "service_request": "2023-975714",
    "request_type": "Traffic Signals/Signs/Striping/Streetlights",
    "request_reason": "Street Light Outage/Malfunction",
    "date_created": "2023-02-15T19:09:07.000",
    "date_modified": "2023-02-15T19:09:08.000",
    "request_status": "Pending",
    "responsible_agency": "Department of Public Works",
    "final_address": "812 Jefferson Ave",
    "address_councildis": "A",
    "status": "Assigned to Contractor",
    "contractor": "Legacy Professional Services",
    "rowid": "975714",
    "final_x": "3666615.90957",
    "final_y": "518558.428535",
    "longitude": "-90.11550409258915",
    "latitude": "29.920299037431576",
    "geocoded_column": {
      "latitude": "29.920299037431576",
      "longitude": "-90.11550409258915"
    }
  },
  {
    "service_request": "2023-975713",
    "request_type": "Traffic Signals/Signs/Striping/Streetlights",
    "request_reason": "Street Light Outage/Malfunction",
    "date_created": "2023-02-15T19:03:21.000",
    "date_modified": "2023-02-15T19:03:22.000",
    "request_status": "Pending",
    "responsible_agency": "Department of Public Works",
    "final_address": "5527 Danneel St",
    "address_councildis": "A",
    "status": "Assigned to Contractor",
    "contractor": "Legacy Professional Services",
    "rowid": "975713",
    "final_x": "3667007.87284",
    "final_y": "522464.18969",
    "longitude": "-90.11413566621609",
    "latitude": "29.93102718522684",
    "geocoded_column": {
      "latitude": "29.93102718522684",
      "longitude": "-90.11413566621609"
    }
  },
  {
    "service_request": "2023-975712",
    "request_type": "Trash/Recycling",
    "request_reason": "Replace Trash Cart",
    "date_created": "2023-02-15T18:54:47.000",
    "date_modified": "2023-02-15T18:54:48.000",
    "request_status": "Pending",
    "responsible_agency": "Department of Sanitation",
    "final_address": "2018 Onzaga St",
    "address_councildis": "D",
    "status": "Assigned to Contractor",
    "contractor": "IV Waste",
    "rowid": "975712",
    "final_x": "3681111.26856",
    "final_y": "539027.420938",
    "longitude": "-90.06903623053105",
    "latitude": "29.976150314105535",
    "geocoded_column": {
      "latitude": "29.976150314105535",
      "longitude": "-90.06903623053105"
    }
  },
  {
    "service_request": "2023-975711",
    "request_type": "Trash/Recycling",
    "request_reason": "Illegal Dumping",
    "date_created": "2023-02-15T18:54:31.000",
    "date_modified": "2023-02-15T18:54:31.000",
    "request_status": "Pending",
    "responsible_agency": "Department of Sanitation",
    "final_address": "2432 Dumaine St",
    "address_councildis": "D",
    "status": "Pending",
    "rowid": "975711",
    "final_x": "3678019.8285",
    "final_y": "536817.822216",
    "longitude": "-90.07887631013025",
    "latitude": "29.97016810518361",
    "geocoded_column": {
      "latitude": "29.97016810518361",
      "longitude": "-90.07887631013025"
    }
  },
  {
    "service_request": "2023-975710",
    "request_type": "Roads/Drainage",
    "request_reason": "Man hole cover issue",
    "date_created": "2023-02-15T18:48:57.000",
    "date_modified": "2023-02-15T18:48:57.000",
    "request_status": "Pending",
    "responsible_agency": "Department of Public Works",
    "final_address": "1800 BLK Erato St",
    "address_councildis": "B",
    "status": "Pending",
    "rowid": "975710",
    "final_x": "3678566.14283",
    "final_y": "526656.404808",
    "longitude": "-90.07750270456387",
    "latitude": "29.942211173927674",
    "geocoded_column": {
      "latitude": "29.942211173927674",
      "longitude": "-90.07750270456387"
    }
  },
  {
    "service_request": "2023-975709",
    "request_type": "Trash/Recycling",
    "request_reason": "Order Recycling Cart",
    "date_created": "2023-02-15T18:44:51.000",
    "date_modified": "2023-02-15T18:44:51.000",
    "request_status": "Pending",
    "responsible_agency": "Department of Sanitation",
    "final_address": "8221 Lomond Rd",
    "address_councildis": "E",
    "status": "Pending",
    "rowid": "975709",
    "final_x": "3702887.7338",
    "final_y": "561751.540191",
    "longitude": "-89.99942478118807",
    "latitude": "30.037954396278362",
    "geocoded_column": {
      "latitude": "30.037954396278362",
      "longitude": "-89.99942478118807"
    }
  },
  {
    "service_request": "2023-975708",
    "request_type": "Trash/Recycling",
    "request_reason": "MIssed Recycling Pick-Up",
    "date_created": "2023-02-15T18:44:27.000",
    "date_modified": "2023-02-15T18:44:28.000",
    "request_status": "Pending",
    "responsible_agency": "Department of Sanitation",
    "final_address": "5010 Cardenas Dr",
    "address_councildis": "E",
    "status": "Assigned to Contractor",
    "contractor": "Waste Pro",
    "rowid": "975708",
    "final_x": "3713480.89464",
    "final_y": "557695.859291",
    "longitude": "-89.96610102733777",
    "latitude": "30.026459557702395",
    "geocoded_column": {
      "latitude": "30.026459557702395",
      "longitude": "-89.96610102733777"
    }
  },
  {
    "service_request": "2023-975707",
    "request_type": "Roads/Drainage",
    "request_reason": "Street Subsidence (Sinking)",
    "date_created": "2023-02-15T18:39:31.000",
    "date_modified": "2023-02-15T18:39:31.000",
    "request_status": "Pending",
    "responsible_agency": "Department of Public Works",
    "final_address": "3602 Baronne St",
    "address_councildis": "B",
    "status": "Pending",
    "rowid": "975707",
    "final_x": "3673218.7524",
    "final_y": "521930.889786",
    "longitude": "-90.09454691827901",
    "latitude": "29.929377609178992",
    "geocoded_column": {
      "latitude": "29.929377609178992",
      "longitude": "-90.09454691827901"
    }
  },
  {
    "service_request": "2023-975706",
    "request_type": "Trash/Recycling",
    "request_reason": "MIssed Recycling Pick-Up",
    "date_created": "2023-02-15T18:37:41.000",
    "date_modified": "2023-02-15T18:37:42.000",
    "request_status": "Pending",
    "responsible_agency": "Department of Sanitation",
    "final_address": "5010 Cardenas Dr",
    "address_councildis": "E",
    "status": "Assigned to Contractor",
    "contractor": "Waste Pro",
    "rowid": "975706",
    "final_x": "3713480.89464",
    "final_y": "557695.859291",
    "longitude": "-89.96610102733777",
    "latitude": "30.026459557702395",
    "geocoded_column": {
      "latitude": "30.026459557702395",
      "longitude": "-89.96610102733777"
    }
  },
  {
    "service_request": "2023-975705",
    "request_type": "Abandoned Vehicles",
    "request_reason": "Abandoned/Junk Vehicles",
    "date_created": "2023-02-15T18:24:15.000",
    "date_modified": "2023-02-15T18:24:15.000",
    "request_status": "Pending",
    "responsible_agency": "Department of Public Works",
    "final_address": "6013 St Anthony Ave",
    "address_councildis": "D",
    "status": "Pending",
    "rowid": "975705",
    "final_x": "3682139.38498",
    "final_y": "554851.444888",
    "longitude": "-90.06523604768697",
    "latitude": "30.019629503637244",
    "geocoded_column": {
      "latitude": "30.019629503637244",
      "longitude": "-90.06523604768697"
    }
  },
  {
    "service_request": "2023-975704",
    "request_type": "Trash/Recycling",
    "request_reason": "Order Trash Cart",
    "date_created": "2023-02-15T18:11:17.000",
    "date_modified": "2023-02-15T18:11:18.000",
    "request_status": "Pending",
    "responsible_agency": "Department of Sanitation",
    "final_address": "2411 Painters St",
    "address_councildis": "D",
    "status": "Assigned to Contractor",
    "contractor": "IV Waste",
    "rowid": "975704",
    "final_x": "3687200.26262",
    "final_y": "541430.81742",
    "longitude": "-90.04972041379817",
    "latitude": "29.982572665786385",
    "geocoded_column": {
      "latitude": "29.982572665786385",
      "longitude": "-90.04972041379817"
    }
  },
  {
    "service_request": "2023-975703",
    "request_type": "Trash/Recycling",
    "request_reason": "Start Trash Service",
    "date_created": "2023-02-15T18:09:50.000",
    "date_modified": "2023-02-15T18:09:51.000",
    "request_status": "Pending",
    "responsible_agency": "Department of Sanitation",
    "final_address": "2411 Painters St",
    "address_councildis": "D",
    "status": "Assigned to Contractor",
    "contractor": "IV Waste",
    "rowid": "975703",
    "final_x": "3687200.26262",
    "final_y": "541430.81742",
    "longitude": "-90.04972041379817",
    "latitude": "29.982572665786385",
    "geocoded_column": {
      "latitude": "29.982572665786385",
      "longitude": "-90.04972041379817"
    }
  },
  {
    "service_request": "2023-975702",
    "request_type": "Trash/Recycling",
    "request_reason": "Order Recycling Cart",
    "date_created": "2023-02-15T18:09:07.000",
    "date_modified": "2023-02-15T18:09:07.000",
    "request_status": "Pending",
    "responsible_agency": "Department of Sanitation",
    "final_address": "2411 Painters St",
    "address_councildis": "D",
    "status": "Pending",
    "rowid": "975702",
    "final_x": "3687200.26262",
    "final_y": "541430.81742",
    "longitude": "-90.04972041379817",
    "latitude": "29.982572665786385",
    "geocoded_column": {
      "latitude": "29.982572665786385",
      "longitude": "-90.04972041379817"
    }
  },
  {
    "service_request": "2023-975701",
    "request_type": "Trash/Recycling",
    "request_reason": "Request a Large Item Pick Up",
    "date_created": "2023-02-15T18:08:10.000",
    "date_modified": "2023-02-15T18:08:11.000",
    "request_status": "Pending",
    "responsible_agency": "Department of Sanitation",
    "final_address": "5141 Carlisle Ct",
    "address_councildis": "C",
    "status": "Assigned to Contractor",
    "contractor": "Richards Disposal",
    "rowid": "975701",
    "final_x": "3703174.63895",
    "final_y": "516472.027317",
    "longitude": "-90.0001829538753",
    "latitude": "29.91344312926251",
    "geocoded_column": {
      "latitude": "29.91344312926251",
      "longitude": "-90.0001829538753"
    }
  },
  {
    "service_request": "2023-975700",
    "request_type": "Trash/Recycling",
    "request_reason": "Order Recycling Cart",
    "date_created": "2023-02-15T18:08:04.000",
    "date_modified": "2023-02-15T18:08:04.000",
    "request_status": "Pending",
    "responsible_agency": "Department of Sanitation",
    "final_address": "2413 Painters St",
    "address_councildis": "D",
    "status": "Pending",
    "rowid": "975700",
    "final_x": "3687198.01442",
    "final_y": "541441.943436",
    "longitude": "-90.04972712104794",
    "latitude": "29.982603327635545",
    "geocoded_column": {
      "latitude": "29.982603327635545",
      "longitude": "-90.04972712104794"
    }
  },
  {
    "service_request": "2023-975699",
    "request_type": "Trash/Recycling",
    "request_reason": "Start Trash Service",
    "date_created": "2023-02-15T18:06:16.000",
    "date_modified": "2023-02-15T18:06:17.000",
    "request_status": "Pending",
    "responsible_agency": "Department of Sanitation",
    "final_address": "2413 Painters St",
    "address_councildis": "D",
    "status": "Assigned to Contractor",
    "contractor": "IV Waste",
    "rowid": "975699",
    "final_x": "3687198.01442",
    "final_y": "541441.943436",
    "longitude": "-90.04972712104794",
    "latitude": "29.982603327635545",
    "geocoded_column": {
      "latitude": "29.982603327635545",
      "longitude": "-90.04972712104794"
    }
  },
  {
    "service_request": "2023-975698",
    "request_type": "Trash/Recycling",
    "request_reason": "Order Trash Cart",
    "date_created": "2023-02-15T18:02:38.000",
    "date_modified": "2023-02-15T18:02:38.000",
    "request_status": "Pending",
    "responsible_agency": "Department of Sanitation",
    "final_address": "2413 Painters St",
    "address_councildis": "D",
    "status": "Assigned to Contractor",
    "contractor": "IV Waste",
    "rowid": "975698",
    "final_x": "3687198.01442",
    "final_y": "541441.943436",
    "longitude": "-90.04972712104794",
    "latitude": "29.982603327635545",
    "geocoded_column": {
      "latitude": "29.982603327635545",
      "longitude": "-90.04972712104794"
    }
  },
  {
    "service_request": "2023-975697",
    "request_type": "Trash/Recycling",
    "request_reason": "Replace Recycling Cart",
    "date_created": "2023-02-15T17:58:18.000",
    "date_modified": "2023-02-15T17:58:18.000",
    "request_status": "Pending",
    "responsible_agency": "Department of Sanitation",
    "final_address": "326 Lowerline St",
    "address_councildis": "A",
    "status": "Pending",
    "rowid": "975697",
    "final_x": "3661435.96243",
    "final_y": "523542.840443",
    "longitude": "-90.13168982256309",
    "latitude": "29.9341549779469",
    "geocoded_column": {
      "latitude": "29.9341549779469",
      "longitude": "-90.13168982256309"
    }
  },
  {
    "service_request": "2023-975696",
    "request_type": "Property Maintenance",
    "request_reason": "Property Maintenance",
    "date_created": "2023-02-15T17:56:42.000",
    "date_modified": "2023-02-15T17:56:42.000",
    "request_status": "Pending",
    "responsible_agency": "Department of Code Enforcement",
    "final_address": "2432 Dumaine St",
    "address_councildis": "D",
    "status": "Pending",
    "rowid": "975696",
    "final_x": "3678019.8285",
    "final_y": "536817.822216",
    "longitude": "-90.07887631013025",
    "latitude": "29.97016810518361",
    "geocoded_column": {
      "latitude": "29.97016810518361",
      "longitude": "-90.07887631013025"
    }
  },
  {
    "service_request": "2023-975695",
    "request_type": "Trash/Recycling",
    "request_reason": "Dead Animal Pick Up",
    "date_created": "2023-02-15T17:42:24.000",
    "date_modified": "2023-02-15T17:42:25.000",
    "request_status": "Pending",
    "responsible_agency": "Department of Sanitation",
    "final_address": "DOWNMAN RD & CURRAN BLVD",
    "address_councildis": "D",
    "status": "Assigned to Contractor",
    "contractor": "Waste Pro",
    "rowid": "975695",
    "final_x": "3694594.4",
    "final_y": "558628.48",
    "longitude": "-90.02574630322133",
    "latitude": "30.02963003170184",
    "geocoded_column": {
      "latitude": "30.02963003170184",
      "longitude": "-90.02574630322133"
    }
  },
  {
    "service_request": "2023-975694",
    "request_type": "Trash/Recycling",
    "request_reason": "Missed Trash Pick-Up",
    "date_created": "2023-02-15T17:41:28.000",
    "date_modified": "2023-02-15T17:41:28.000",
    "request_status": "Pending",
    "responsible_agency": "Department of Sanitation",
    "final_address": "6402 Peoples Ave",
    "address_councildis": "D",
    "status": "Assigned to Contractor",
    "contractor": "IV Waste",
    "rowid": "975694",
    "final_x": "3687639.96771",
    "final_y": "556895.594202",
    "longitude": "-90.04778360032876",
    "latitude": "30.025081624007303",
    "geocoded_column": {
      "latitude": "30.025081624007303",
      "longitude": "-90.04778360032876"
    }
  },
  {
    "service_request": "2023-975693",
    "request_type": "Roads/Drainage",
    "request_reason": "Street Flooding / Drainage",
    "date_created": "2023-02-15T17:39:00.000",
    "date_modified": "2023-02-15T17:39:00.000",
    "request_status": "Pending",
    "responsible_agency": "Department of Public Works",
    "final_address": "444 Audubon St",
    "address_councildis": "A",
    "status": "Pending",
    "rowid": "975693",
    "final_x": "3662295.23987",
    "final_y": "523227.254331",
    "longitude": "-90.12898757200293",
    "latitude": "29.933262409653565",
    "geocoded_column": {
      "latitude": "29.933262409653565",
      "longitude": "-90.12898757200293"
    }
  },
  {
    "service_request": "2023-975692",
    "request_type": "Mosquito, Termite & Rodent Control",
    "request_reason": "Rodent Complaint (Rats)",
    "date_created": "2023-02-15T17:38:03.000",
    "date_modified": "2023-02-15T17:38:03.000",
    "request_status": "Pending",
    "responsible_agency": "Mosquito, Termite & Rodent Control Board",
    "final_address": "2432 Dumaine St",
    "address_councildis": "D",
    "status": "Pending",
    "rowid": "975692",
    "final_x": "3678019.8285",
    "final_y": "536817.822216",
    "longitude": "-90.07887631013025",
    "latitude": "29.97016810518361",
    "geocoded_column": {
      "latitude": "29.97016810518361",
      "longitude": "-90.07887631013025"
    }
  },
  {
    "service_request": "2023-975691",
    "request_type": "Abandoned Vehicles",
    "request_reason": "Abandoned/Junk Vehicles",
    "date_created": "2023-02-15T17:33:59.000",
    "date_modified": "2023-02-15T17:33:59.000",
    "request_status": "Pending",
    "responsible_agency": "Department of Public Works",
    "final_address": "7485 Pitt St",
    "address_councildis": "A",
    "status": "Pending",
    "rowid": "975691",
    "final_x": "3660825.20038",
    "final_y": "523911.199164",
    "longitude": "-90.13360581145885",
    "latitude": "29.9351854463242",
    "geocoded_column": {
      "latitude": "29.9351854463242",
      "longitude": "-90.13360581145885"
    }
  },
  {
    "service_request": "2023-975690",
    "request_type": "Trash/Recycling",
    "request_reason": "Missed Trash Pick-Up",
    "date_created": "2023-02-15T17:24:08.000",
    "date_modified": "2023-02-15T17:24:09.000",
    "request_status": "Pending",
    "responsible_agency": "Department of Sanitation",
    "final_address": "7700 BLK Marquis St",
    "address_councildis": "E",
    "status": "Assigned to Contractor",
    "contractor": "Waste Pro",
    "rowid": "975690",
    "final_x": "3710910.46889",
    "final_y": "566768.328521",
    "longitude": "-89.9738830785008",
    "latitude": "30.051489305006566",
    "geocoded_column": {
      "latitude": "30.051489305006566",
      "longitude": "-89.9738830785008"
    }
  },
  {
    "service_request": "2023-975689",
    "request_type": "Abandoned Vehicles",
    "request_reason": "Abandoned/Junk Vehicles",
    "date_created": "2023-02-15T17:21:01.000",
    "date_modified": "2023-02-15T17:21:01.000",
    "request_status": "Pending",
    "responsible_agency": "Department of Public Works",
    "final_address": "1234 Frenchmen St",
    "address_councildis": "C",
    "status": "Pending",
    "rowid": "975689",
    "final_x": "3684504.19855",
    "final_y": "536924.401928",
    "longitude": "-90.05839428153199",
    "latitude": "29.970264369987024",
    "geocoded_column": {
      "latitude": "29.970264369987024",
      "longitude": "-90.05839428153199"
    }
  },
  {
    "service_request": "2023-975688",
    "request_type": "Trash/Recycling",
    "request_reason": "Change Size of Trash Cart",
    "date_created": "2023-02-15T17:14:36.000",
    "date_modified": "2023-02-15T17:25:30.000",
    "request_status": "Pending",
    "responsible_agency": "Department of Sanitation",
    "final_address": "New Orleans,LA",
    "address_councildis": "D",
    "status": "Assigned to Contractor",
    "contractor": "IV Waste",
    "rowid": "975688",
    "final_x": "3673376.0212",
    "final_y": "554438.963736",
    "longitude": "-90.09293954690533",
    "latitude": "30.018759087212775",
    "geocoded_column": {
      "latitude": "30.018759087212775",
      "longitude": "-90.09293954690533"
    }
  },
  {
    "service_request": "2023-975687",
    "request_type": "Roads/Drainage",
    "request_reason": "Pothole",
    "date_created": "2023-02-15T17:12:40.000",
    "date_modified": "2023-02-15T17:12:40.000",
    "request_status": "Pending",
    "responsible_agency": "Department of Public Works",
    "final_address": "6123 Fleur-De-Lis Dr",
    "address_councildis": "A",
    "status": "Pending",
    "rowid": "975687",
    "final_x": "3665278.29748",
    "final_y": "548311.097042",
    "longitude": "-90.118730807055",
    "latitude": "30.002148133078464",
    "geocoded_column": {
      "latitude": "30.002148133078464",
      "longitude": "-90.118730807055"
    }
  },
  {
    "service_request": "2023-975686",
    "request_type": "Roads/Drainage",
    "request_reason": "Street Subsidence (Sinking)",
    "date_created": "2023-02-15T17:07:18.000",
    "date_modified": "2023-02-15T17:07:18.000",
    "request_status": "Pending",
    "responsible_agency": "Department of Public Works",
    "final_address": "337 Harrison Ave",
    "address_councildis": "A",
    "status": "Pending",
    "rowid": "975686",
    "final_x": "3667556.6153",
    "final_y": "549485.147091",
    "longitude": "-90.1114937604419",
    "latitude": "30.00530976140935",
    "geocoded_column": {
      "latitude": "30.00530976140935",
      "longitude": "-90.1114937604419"
    }
  },
  {
    "service_request": "2023-975685",
    "request_type": "Trash/Recycling",
    "request_reason": "MIssed Recycling Pick-Up",
    "date_created": "2023-02-15T16:56:54.000",
    "date_modified": "2023-02-15T16:56:54.000",
    "request_status": "Pending",
    "responsible_agency": "Department of Sanitation",
    "final_address": "124 S Solomon St",
    "address_councildis": "A",
    "status": "Assigned to Contractor",
    "contractor": "Richards Disposal",
    "rowid": "975685",
    "final_x": "3670488.55239",
    "final_y": "538443.536393",
    "longitude": "-90.10260578177494",
    "latitude": "29.97486283688435",
    "geocoded_column": {
      "latitude": "29.97486283688435",
      "longitude": "-90.10260578177494"
    }
  },
  {
    "service_request": "2023-975684",
    "request_type": "Trash/Recycling",
    "request_reason": "Repair Trash Cart",
    "date_created": "2023-02-15T16:54:03.000",
    "date_modified": "2023-02-15T16:54:03.000",
    "request_status": "Pending",
    "responsible_agency": "Department of Sanitation",
    "final_address": "5614 Abbey Dr",
    "address_councildis": "C",
    "status": "Assigned to Contractor",
    "contractor": "Richards Disposal",
    "rowid": "975684",
    "final_x": "3704369.92164",
    "final_y": "521312.229625",
    "longitude": "-89.99623202939772",
    "latitude": "29.926713719238258",
    "geocoded_column": {
      "latitude": "29.926713719238258",
      "longitude": "-89.99623202939772"
    }
  },
  {
    "service_request": "2023-975683",
    "request_type": "Trash/Recycling",
    "request_reason": "Repair Recycling Cart",
    "date_created": "2023-02-15T16:52:53.000",
    "date_modified": "2023-02-15T16:52:54.000",
    "request_status": "Pending",
    "responsible_agency": "Department of Sanitation",
    "final_address": "6000 Music St",
    "address_councildis": "D",
    "status": "Pending",
    "rowid": "975683",
    "final_x": "3685302.68879",
    "final_y": "555149.120281",
    "longitude": "-90.0552305773943",
    "latitude": "30.020351362168416",
    "geocoded_column": {
      "latitude": "30.020351362168416",
      "longitude": "-90.0552305773943"
    }
  },
  {
    "service_request": "2023-975682",
    "request_type": "Trash/Recycling",
    "request_reason": "Dead Animal Pick Up",
    "date_created": "2023-02-15T16:51:15.000",
    "date_modified": "2023-02-15T16:51:16.000",
    "request_status": "Pending",
    "responsible_agency": "Department of Sanitation",
    "final_address": "4500 BLK Downman Rd",
    "address_councildis": "D",
    "status": "Assigned to Contractor",
    "contractor": "Waste Pro",
    "rowid": "975682",
    "final_x": "3696041.81523",
    "final_y": "553430.920157",
    "longitude": "-90.02136056809803",
    "latitude": "30.01529321628117",
    "geocoded_column": {
      "latitude": "30.01529321628117",
      "longitude": "-90.02136056809803"
    }
  },
  {
    "service_request": "2023-975681",
    "request_type": "Trash/Recycling",
    "request_reason": "Order Recycling Cart",
    "date_created": "2023-02-15T16:46:50.000",
    "date_modified": "2023-02-15T16:46:50.000",
    "request_status": "Pending",
    "responsible_agency": "Department of Sanitation",
    "final_address": "2335 Laurel St",
    "address_councildis": "B",
    "status": "Pending",
    "rowid": "975681",
    "final_x": "3678731.08712",
    "final_y": "521102.704953",
    "longitude": "-90.07717416318503",
    "latitude": "29.92693535438655",
    "geocoded_column": {
      "latitude": "29.92693535438655",
      "longitude": "-90.07717416318503"
    }
  },
  {
    "service_request": "2023-975680",
    "request_type": "Trash/Recycling",
    "request_reason": "Request a Large Item Pick Up",
    "date_created": "2023-02-15T16:45:41.000",
    "date_modified": "2023-02-15T16:48:41.000",
    "request_status": "Pending",
    "responsible_agency": "Department of Sanitation",
    "final_address": "2335 Laurel St",
    "address_councildis": "B",
    "status": "Assigned to Contractor",
    "contractor": "Richards Disposal",
    "rowid": "975680",
    "final_x": "3678731.08712",
    "final_y": "521102.704953",
    "longitude": "-90.07717416318503",
    "latitude": "29.92693535438655",
    "geocoded_column": {
      "latitude": "29.92693535438655",
      "longitude": "-90.07717416318503"
    }
  },
  {
    "service_request": "2023-975679",
    "request_type": "Roads/Drainage",
    "request_reason": "Damaged Sidewalk",
    "date_created": "2023-02-15T16:38:03.000",
    "date_modified": "2023-02-15T16:38:03.000",
    "request_status": "Pending",
    "responsible_agency": "Department of Public Works",
    "final_address": "2021 Royal St",
    "address_councildis": "C",
    "status": "Pending",
    "rowid": "975679",
    "final_x": "3684527.59791",
    "final_y": "534848.98311",
    "longitude": "-90.05839331258237",
    "latitude": "29.964556970942553",
    "geocoded_column": {
      "latitude": "29.964556970942553",
      "longitude": "-90.05839331258237"
    }
  },
  {
    "service_request": "2023-975678",
    "request_type": "Trash/Recycling",
    "request_reason": "Missed Trash Pick-Up",
    "date_created": "2023-02-15T16:29:07.000",
    "date_modified": "2023-02-15T16:29:08.000",
    "request_status": "Pending",
    "responsible_agency": "Department of Sanitation",
    "final_address": "7700 BLK Breakwater Dr",
    "address_councildis": "A",
    "status": "Assigned to Contractor",
    "contractor": "IV Waste",
    "rowid": "975678",
    "final_x": "3665849.43073",
    "final_y": "557934.165743",
    "longitude": "-90.11660371125134",
    "latitude": "30.02859153825419",
    "geocoded_column": {
      "latitude": "30.02859153825419",
      "longitude": "-90.11660371125134"
    }
  },
  {
    "service_request": "2023-975677",
    "request_type": "Trash/Recycling",
    "request_reason": "Request a Large Item Pick Up",
    "date_created": "2023-02-15T16:25:30.000",
    "date_modified": "2023-02-15T16:25:31.000",
    "request_status": "Pending",
    "responsible_agency": "Department of Sanitation",
    "final_address": "2403 State St",
    "address_councildis": "A",
    "status": "Assigned to Contractor",
    "contractor": "Richards Disposal",
    "rowid": "975677",
    "final_x": "3666754.14145",
    "final_y": "525385.096317",
    "longitude": "-90.11483860922401",
    "latitude": "29.939066166763737",
    "geocoded_column": {
      "latitude": "29.939066166763737",
      "longitude": "-90.11483860922401"
    }
  },
  {
    "service_request": "2023-975676",
    "request_type": "Roads/Drainage",
    "request_reason": "Accessibility Ramps, Curbs and Sidewalk Repair",
    "date_created": "2023-02-15T16:21:09.000",
    "date_modified": "2023-02-15T16:21:09.000",
    "request_status": "Pending",
    "responsible_agency": "Department of Public Works",
    "final_address": "1300 N Broad St",
    "address_councildis": "D",
    "status": "Pending",
    "rowid": "975676",
    "final_x": "3678119.03803",
    "final_y": "538717.037385",
    "longitude": "-90.07849731140278",
    "latitude": "29.975387308563494",
    "geocoded_column": {
      "latitude": "29.975387308563494",
      "longitude": "-90.07849731140278"
    }
  },
  {
    "service_request": "2023-975675",
    "request_type": "Traffic Signals/Signs/Striping/Streetlights",
    "request_reason": "Additional signage",
    "date_created": "2023-02-15T16:20:54.000",
    "date_modified": "2023-02-15T16:20:54.000",
    "request_status": "Pending",
    "responsible_agency": "Department of Public Works",
    "final_address": "1217 Pleasant St",
    "address_councildis": "B",
    "status": "Pending",
    "rowid": "975675",
    "final_x": "3675337.60885",
    "final_y": "520352.783992",
    "longitude": "-90.0879122227166",
    "latitude": "29.924975171027558",
    "geocoded_column": {
      "latitude": "29.924975171027558",
      "longitude": "-90.0879122227166"
    }
  },
  {
    "service_request": "2023-975674",
    "request_type": "Tax and Revenue",
    "request_reason": "Sales Tax Question",
    "date_created": "2023-02-15T16:18:48.000",
    "date_modified": "2023-02-15T16:18:48.000",
    "request_status": "Pending",
    "responsible_agency": "Bureau of Revenue",
    "status": "Pending",
    "rowid": "975674",
    "longitude": "0.0",
    "latitude": "0.0",
    "geocoded_column": {
      "latitude": "0.0",
      "longitude": "0.0"
    }
  },
  {
    "service_request": "2023-975673",
    "request_type": "Trash/Recycling",
    "request_reason": "MIssed Recycling Pick-Up",
    "date_created": "2023-02-15T16:16:36.000",
    "date_modified": "2023-02-15T16:16:36.000",
    "request_status": "Pending",
    "responsible_agency": "Department of Sanitation",
    "final_address": "6501 E Hermes St",
    "address_councildis": "D",
    "status": "Assigned to Contractor",
    "contractor": "Waste Pro",
    "rowid": "975673",
    "final_x": "3698071.24573",
    "final_y": "555337.169817",
    "longitude": "-90.01487925129234",
    "latitude": "30.020470632187674",
    "geocoded_column": {
      "latitude": "30.020470632187674",
      "longitude": "-90.01487925129234"
    }
  },
  {
    "service_request": "2023-975672",
    "request_type": "Trash/Recycling",
    "request_reason": "Missed Trash Pick-Up",
    "date_created": "2023-02-15T16:13:14.000",
    "date_modified": "2023-02-15T16:13:15.000",
    "request_status": "Pending",
    "responsible_agency": "Department of Sanitation",
    "final_address": "3231 Ponce De Leon St",
    "address_councildis": "A",
    "status": "Assigned to Contractor",
    "contractor": "Richards Disposal",
    "rowid": "975672",
    "final_x": "3675736.85915",
    "final_y": "540592.280139",
    "longitude": "-90.08595640856659",
    "latitude": "29.980615100039547",
    "geocoded_column": {
      "latitude": "29.980615100039547",
      "longitude": "-90.08595640856659"
    }
  },
  {
    "service_request": "2023-975671",
    "request_type": "Trash/Recycling",
    "request_reason": "Replace Trash Cart",
    "date_created": "2023-02-15T16:11:58.000",
    "date_modified": "2023-02-15T16:11:59.000",
    "request_status": "Pending",
    "responsible_agency": "Department of Sanitation",
    "final_address": "2407 Palmer Ave",
    "address_councildis": "A",
    "status": "Assigned to Contractor",
    "contractor": "Richards Disposal",
    "rowid": "975671",
    "final_x": "3666404.53677",
    "final_y": "525620.071677",
    "longitude": "-90.11593447565313",
    "latitude": "29.93972249154665",
    "geocoded_column": {
      "latitude": "29.93972249154665",
      "longitude": "-90.11593447565313"
    }
  },
  {
    "service_request": "2023-975670",
    "request_type": "Mosquito, Termite & Rodent Control",
    "request_reason": "Rodent Complaint (Rats)",
    "date_created": "2023-02-15T16:09:45.000",
    "date_modified": "2023-02-15T16:09:46.000",
    "request_status": "Pending",
    "responsible_agency": "Mosquito, Termite & Rodent Control Board",
    "final_address": "6024 N Rampart St",
    "address_councildis": "E",
    "status": "Pending",
    "rowid": "975670",
    "final_x": "3699176.42071",
    "final_y": "532905.833412",
    "longitude": "-90.01220444018121",
    "latitude": "29.958757697249915",
    "geocoded_column": {
      "latitude": "29.958757697249915",
      "longitude": "-90.01220444018121"
    }
  },
  {
    "service_request": "2023-975669",
    "request_type": "Trash/Recycling",
    "request_reason": "Replace Trash Cart",
    "date_created": "2023-02-15T15:59:46.000",
    "date_modified": "2023-02-15T15:59:47.000",
    "request_status": "Pending",
    "responsible_agency": "Department of Sanitation",
    "final_address": "7620 Weaver Ave",
    "address_councildis": "E",
    "status": "Assigned to Contractor",
    "contractor": "Waste Pro",
    "rowid": "975669",
    "final_x": "3707354.56369",
    "final_y": "564384.512609",
    "longitude": "-89.9852107040684",
    "latitude": "30.04505028765451",
    "geocoded_column": {
      "latitude": "30.04505028765451",
      "longitude": "-89.9852107040684"
    }
  },
  {
    "service_request": "2023-975668",
    "request_type": "Trash/Recycling",
    "request_reason": "Order Trash Cart",
    "date_created": "2023-02-15T15:59:44.000",
    "date_modified": "2023-02-15T15:59:45.000",
    "request_status": "Pending",
    "responsible_agency": "Department of Sanitation",
    "final_address": "2526 St Maurice Ave",
    "address_councildis": "E",
    "status": "Assigned to Contractor",
    "contractor": "Waste Pro",
    "rowid": "975668",
    "final_x": "3701893.39985",
    "final_y": "538393.545417",
    "longitude": "-90.00342385422837",
    "latitude": "29.973760509707922",
    "geocoded_column": {
      "latitude": "29.973760509707922",
      "longitude": "-90.00342385422837"
    }
  },
  {
    "service_request": "2023-975667",
    "request_type": "Property Maintenance",
    "request_reason": "Property Maintenance",
    "date_created": "2023-02-15T15:59:24.000",
    "date_modified": "2023-02-15T15:59:24.000",
    "request_status": "Pending",
    "responsible_agency": "Department of Code Enforcement",
    "final_address": "8408 Nelson St",
    "address_councildis": "A",
    "status": "Pending",
    "rowid": "975667",
    "final_x": "3664234.90061",
    "final_y": "532596.105092",
    "longitude": "-90.12255162703414",
    "latitude": "29.958967537993566",
    "geocoded_column": {
      "latitude": "29.958967537993566",
      "longitude": "-90.12255162703414"
    }
  },
  {
    "service_request": "2023-975666",
    "request_type": "Roads/Drainage",
    "request_reason": "Pothole",
    "date_created": "2023-02-15T15:56:11.000",
    "date_modified": "2023-02-15T19:48:37.000",
    "case_close_date": "2023-02-14T18:00:00.000",
    "request_status": "Closed",
    "responsible_agency": "Department of Public Works",
    "final_address": "1915 Annette St",
    "address_councildis": "D",
    "status": "Duplicate Request",
    "rowid": "975666",
    "final_x": "3682985.76898",
    "final_y": "539233.567242",
    "longitude": "-90.06310879725254",
    "latitude": "29.976660140744663",
    "geocoded_column": {
      "latitude": "29.976660140744663",
      "longitude": "-90.06310879725254"
    }
  },
  {
    "service_request": "2023-975665",
    "request_type": "Trash/Recycling",
    "request_reason": "Missed Trash Pick-Up",
    "date_created": "2023-02-15T15:55:36.000",
    "date_modified": "2023-02-15T16:45:11.000",
    "case_close_date": "2023-02-15T10:45:11.000",
    "request_status": "Closed",
    "responsible_agency": "Department of Sanitation",
    "final_address": "10231 Deer Park Blvd",
    "address_councildis": "E",
    "status": "Duplicate Request",
    "contractor": "Waste Pro",
    "rowid": "975665",
    "final_x": "3712383.72664",
    "final_y": "560878.861726",
    "longitude": "-89.96944819943425",
    "latitude": "30.035247501196462",
    "geocoded_column": {
      "latitude": "30.035247501196462",
      "longitude": "-89.96944819943425"
    }
  },
  {
    "service_request": "2023-975664",
    "request_type": "Abandoned Vehicles",
    "request_reason": "Abandoned/Junk Vehicles",
    "date_created": "2023-02-15T15:55:05.000",
    "date_modified": "2023-02-15T15:55:05.000",
    "request_status": "Pending",
    "responsible_agency": "Department of Public Works",
    "final_address": "2234 Kraft Pl",
    "address_councildis": "C",
    "status": "Pending",
    "rowid": "975664",
    "final_x": "3692499.60905",
    "final_y": "523141.350011",
    "longitude": "-90.03363774898993",
    "latitude": "29.93211871887617",
    "geocoded_column": {
      "latitude": "29.93211871887617",
      "longitude": "-90.03363774898993"
    }
  },
  {
    "service_request": "2023-975663",
    "request_type": "Traffic Signals/Signs/Striping/Streetlights",
    "request_reason": "Street Light Outage/Malfunction",
    "date_created": "2023-02-15T15:52:05.000",
    "date_modified": "2023-02-15T15:52:05.000",
    "request_status": "Pending",
    "responsible_agency": "Department of Public Works",
    "final_address": "5602 Tullis Dr",
    "address_councildis": "C",
    "status": "Assigned to Contractor",
    "contractor": "Legacy Professional Services",
    "rowid": "975663",
    "final_x": "3704703.85265",
    "final_y": "512410.527025",
    "longitude": "-89.9955059920012",
    "latitude": "29.902226380857527",
    "geocoded_column": {
      "latitude": "29.902226380857527",
      "longitude": "-89.9955059920012"
    }
  },
  {
    "service_request": "2023-975661",
    "request_type": "Traffic Signals/Signs/Striping/Streetlights",
    "request_reason": "Additional signage",
    "date_created": "2023-02-15T15:48:51.000",
    "date_modified": "2023-02-15T15:48:51.000",
    "request_status": "Pending",
    "responsible_agency": "Department of Public Works",
    "final_address": "1405 Poland Ave",
    "address_councildis": "D",
    "status": "Pending",
    "rowid": "975661",
    "final_x": "3693394.7775",
    "final_y": "536154.584327",
    "longitude": "-90.03034464778165",
    "latitude": "29.967872646497",
    "geocoded_column": {
      "latitude": "29.967872646497",
      "longitude": "-90.03034464778165"
    }
  },
  {
    "service_request": "2023-975660",
    "request_type": "Trash/Recycling",
    "request_reason": "Repair Recycling Cart",
    "date_created": "2023-02-15T15:48:31.000",
    "date_modified": "2023-02-15T15:48:31.000",
    "request_status": "Pending",
    "responsible_agency": "Department of Sanitation",
    "final_address": "3017 Annette St",
    "address_councildis": "D",
    "status": "Pending",
    "rowid": "975660",
    "final_x": "3682584.93148",
    "final_y": "543685.007758",
    "longitude": "-90.06421904944601",
    "latitude": "29.98891225271109",
    "geocoded_column": {
      "latitude": "29.98891225271109",
      "longitude": "-90.06421904944601"
    }
  },
  {
    "service_request": "2023-975659",
    "request_type": "Roads/Drainage",
    "request_reason": "Road Shoulder Repair",
    "date_created": "2023-02-15T15:47:31.000",
    "date_modified": "2023-02-15T15:48:19.000",
    "request_status": "Pending",
    "responsible_agency": "Department of Public Works",
    "final_address": "5801 Paris Ave",
    "address_councildis": "D",
    "status": "Pending",
    "rowid": "975659",
    "final_x": "3679134.67925",
    "final_y": "553854.233559",
    "longitude": "-90.07476453635554",
    "latitude": "30.016978625613756",
    "geocoded_column": {
      "latitude": "30.016978625613756",
      "longitude": "-90.07476453635554"
    }
  },
  {
    "service_request": "2023-975658",
    "request_type": "Trash/Recycling",
    "request_reason": "MIssed Recycling Pick-Up",
    "date_created": "2023-02-15T15:42:35.000",
    "date_modified": "2023-02-15T15:42:36.000",
    "request_status": "Pending",
    "responsible_agency": "Department of Sanitation",
    "final_address": "11200 Chef Menteur Hwy",
    "address_councildis": "E",
    "status": "Assigned to Contractor",
    "contractor": "Waste Pro",
    "rowid": "975658",
    "final_x": "3716501.04197",
    "final_y": "555743.655193",
    "longitude": "-89.95663193198165",
    "latitude": "30.020992339521815",
    "geocoded_column": {
      "latitude": "30.020992339521815",
      "longitude": "-89.95663193198165"
    }
  },
  {
    "service_request": "2023-975657",
    "request_type": "Trash/Recycling",
    "request_reason": "Missed Trash Pick-Up",
    "date_created": "2023-02-15T15:42:01.000",
    "date_modified": "2023-02-15T15:42:02.000",
    "request_status": "Pending",
    "responsible_agency": "Department of Sanitation",
    "final_address": "11200 Chef Menteur Hwy",
    "address_councildis": "E",
    "status": "Assigned to Contractor",
    "contractor": "Waste Pro",
    "rowid": "975657",
    "final_x": "3716501.04197",
    "final_y": "555743.655193",
    "longitude": "-89.95663193198165",
    "latitude": "30.020992339521815",
    "geocoded_column": {
      "latitude": "30.020992339521815",
      "longitude": "-89.95663193198165"
    }
  },
  {
    "service_request": "2023-975656",
    "request_type": "Traffic Signals/Signs/Striping/Streetlights",
    "request_reason": "Additional signage",
    "date_created": "2023-02-15T15:37:20.000",
    "date_modified": "2023-02-15T15:37:20.000",
    "request_status": "Pending",
    "responsible_agency": "Department of Public Works",
    "final_address": "8117 Freret St",
    "address_councildis": "A",
    "status": "Pending",
    "rowid": "975656",
    "final_x": "3661379.27226",
    "final_y": "528013.866495",
    "longitude": "-90.13172077319469",
    "latitude": "29.946450517074393",
    "geocoded_column": {
      "latitude": "29.946450517074393",
      "longitude": "-90.13172077319469"
    }
  },
  {
    "service_request": "2023-975655",
    "request_type": "Trash/Recycling",
    "request_reason": "Missed Trash Pick-Up",
    "date_created": "2023-02-15T15:36:49.000",
    "date_modified": "2023-02-15T15:36:49.000",
    "request_status": "Pending",
    "responsible_agency": "Department of Sanitation",
    "final_address": "60 Lakewood Estates Dr",
    "address_councildis": "C",
    "status": "Assigned to Contractor",
    "contractor": "Richards Disposal",
    "rowid": "975655",
    "final_x": "3701505.4769",
    "final_y": "512873.187313",
    "longitude": "-90.00558293359846",
    "latitude": "29.903600833474133",
    "geocoded_column": {
      "latitude": "29.903600833474133",
      "longitude": "-90.00558293359846"
    }
  },
  {
    "service_request": "2023-975654",
    "request_type": "Trash/Recycling",
    "request_reason": "Missed Trash Pick-Up",
    "date_created": "2023-02-15T15:34:36.000",
    "date_modified": "2023-02-15T15:34:37.000",
    "request_status": "Pending",
    "responsible_agency": "Department of Sanitation",
    "final_address": "4827 Chrysler St",
    "address_councildis": "E",
    "status": "Assigned to Contractor",
    "contractor": "Waste Pro",
    "rowid": "975654",
    "final_x": "3715349.39154",
    "final_y": "557203.840923",
    "longitude": "-89.96021548701214",
    "latitude": "30.02504526718147",
    "geocoded_column": {
      "latitude": "30.02504526718147",
      "longitude": "-89.96021548701214"
    }
  },
  {
    "service_request": "2023-975653",
    "request_type": "Trash/Recycling",
    "request_reason": "Replace Trash Cart",
    "date_created": "2023-02-15T15:33:36.000",
    "date_modified": "2023-02-15T15:33:37.000",
    "request_status": "Pending",
    "responsible_agency": "Department of Sanitation",
    "final_address": "5768 Wilton Dr",
    "address_councildis": "D",
    "status": "Assigned to Contractor",
    "contractor": "IV Waste",
    "rowid": "975653",
    "final_x": "3681682.79631",
    "final_y": "554525.631064",
    "longitude": "-90.06669009632147",
    "latitude": "30.01874752080159",
    "geocoded_column": {
      "latitude": "30.01874752080159",
      "longitude": "-90.06669009632147"
    }
  },
  {
    "service_request": "2023-975652",
    "request_type": "Roads/Drainage",
    "request_reason": "Damaged Sidewalk",
    "date_created": "2023-02-15T15:33:10.000",
    "date_modified": "2023-02-15T15:33:10.000",
    "request_status": "Pending",
    "responsible_agency": "Department of Public Works",
    "final_address": "7400 Dartmoor Dr",
    "address_councildis": "E",
    "status": "Pending",
    "rowid": "975652",
    "final_x": "3704943.01841",
    "final_y": "561888.866847",
    "longitude": "-89.99292454113606",
    "latitude": "30.038266042314778",
    "geocoded_column": {
      "latitude": "30.038266042314778",
      "longitude": "-89.99292454113606"
    }
  },
  {
    "service_request": "2023-975651",
    "request_type": "Trash/Recycling",
    "request_reason": "Request a Large Item Pick Up",
    "date_created": "2023-02-15T15:28:03.000",
    "date_modified": "2023-02-15T15:28:03.000",
    "request_status": "Pending",
    "responsible_agency": "Department of Sanitation",
    "final_address": "2337 Spain St",
    "address_councildis": "D",
    "status": "Assigned to Contractor",
    "contractor": "IV Waste",
    "rowid": "975651",
    "final_x": "3685799.12578",
    "final_y": "541136.268044",
    "longitude": "-90.05415627715104",
    "latitude": "29.98180584330652",
    "geocoded_column": {
      "latitude": "29.98180584330652",
      "longitude": "-90.05415627715104"
    }
  },
  {
    "service_request": "2023-975650",
    "request_type": "Trash/Recycling",
    "request_reason": "Replace Trash Cart",
    "date_created": "2023-02-15T15:25:15.000",
    "date_modified": "2023-02-15T15:25:16.000",
    "request_status": "Pending",
    "responsible_agency": "Department of Sanitation",
    "final_address": "4849 Laurel St",
    "address_councildis": "B",
    "status": "Assigned to Contractor",
    "contractor": "Richards Disposal",
    "rowid": "975650",
    "final_x": "3669214.12577",
    "final_y": "517947.564022",
    "longitude": "-90.1073233606671",
    "latitude": "29.918543166114045",
    "geocoded_column": {
      "latitude": "29.918543166114045",
      "longitude": "-90.1073233606671"
    }
  },
  {
    "service_request": "2023-975649",
    "request_type": "Trash/Recycling",
    "request_reason": "Missed Trash Pick-Up",
    "date_created": "2023-02-15T15:25:07.000",
    "date_modified": "2023-02-15T15:25:07.000",
    "request_status": "Pending",
    "responsible_agency": "Department of Sanitation",
    "final_address": "29 Olympic Ct",
    "address_councildis": "C",
    "status": "Assigned to Contractor",
    "contractor": "Richards Disposal",
    "rowid": "975649",
    "final_x": "3699623.93207",
    "final_y": "515924.831476",
    "longitude": "-90.01140993939292",
    "latitude": "29.91205164149595",
    "geocoded_column": {
      "latitude": "29.91205164149595",
      "longitude": "-90.01140993939292"
    }
  },
  {
    "service_request": "2023-975648",
    "request_type": "Roads/Drainage",
    "request_reason": "Catch Basin - Clogged",
    "date_created": "2023-02-15T15:24:28.000",
    "date_modified": "2023-02-15T15:26:27.000",
    "request_status": "Pending",
    "responsible_agency": "Department of Public Works",
    "final_address": "1937 Jena St",
    "address_councildis": "B",
    "status": "Pending",
    "rowid": "975648",
    "final_x": "3670345.25089",
    "final_y": "522221.499066",
    "longitude": "-90.10360820567645",
    "latitude": "29.930261799922615",
    "geocoded_column": {
      "latitude": "29.930261799922615",
      "longitude": "-90.10360820567645"
    }
  },
  {
    "service_request": "2023-975647",
    "request_type": "Trash/Recycling",
    "request_reason": "Illegal Dumping",
    "date_created": "2023-02-15T15:19:44.000",
    "date_modified": "2023-02-15T15:19:44.000",
    "request_status": "Pending",
    "responsible_agency": "Department of Code Enforcement",
    "final_address": "2100 Flood St",
    "address_councildis": "E",
    "status": "Pending",
    "rowid": "975647",
    "final_x": "3698694.95114",
    "final_y": "537637.073928",
    "longitude": "-90.01355270892716",
    "latitude": "29.971782172102323",
    "geocoded_column": {
      "latitude": "29.971782172102323",
      "longitude": "-90.01355270892716"
    }
  },
  {
    "service_request": "2023-975646",
    "request_type": "Abandoned Vehicles",
    "request_reason": "Abandoned/Junk Vehicles",
    "date_created": "2023-02-15T15:18:53.000",
    "date_modified": "2023-02-15T15:21:10.000",
    "request_status": "Pending",
    "responsible_agency": "Department of Public Works",
    "final_address": "209 Harrison Ave",
    "address_councildis": "A",
    "status": "Pending",
    "rowid": "975646",
    "final_x": "3667023.23361",
    "final_y": "549553.299731",
    "longitude": "-90.11317654225897",
    "latitude": "30.0055127855662",
    "geocoded_column": {
      "latitude": "30.0055127855662",
      "longitude": "-90.11317654225897"
    }
  },
  {
    "service_request": "2023-975645",
    "request_type": "Trash/Recycling",
    "request_reason": "Request a Large Item Pick Up",
    "date_created": "2023-02-15T15:15:36.000",
    "date_modified": "2023-02-15T15:15:36.000",
    "request_status": "Pending",
    "responsible_agency": "Department of Sanitation",
    "final_address": "4949 Virgilian St",
    "address_councildis": "D",
    "status": "Assigned to Contractor",
    "contractor": "Waste Pro",
    "rowid": "975645",
    "final_x": "3697451.8945",
    "final_y": "554948.269656",
    "longitude": "-90.01685032055592",
    "latitude": "30.019420884976046",
    "geocoded_column": {
      "latitude": "30.019420884976046",
      "longitude": "-90.01685032055592"
    }
  },
  {
    "service_request": "2023-975643",
    "request_type": "Traffic Signals/Signs/Striping/Streetlights",
    "request_reason": "Traffic Signal Malfunctioning/Damaged",
    "date_created": "2023-02-15T15:10:53.000",
    "date_modified": "2023-02-15T15:10:54.000",
    "request_status": "Pending",
    "responsible_agency": "Department of Public Works",
    "final_address": "CALLIOPE ST & ANNUNCIATION ST & GAIENNIE ST",
    "address_councildis": "B",
    "status": "Pending",
    "rowid": "975643",
    "final_x": "3681532.2",
    "final_y": "525857.38",
    "longitude": "-90.06816607131924",
    "latitude": "29.93992440362708",
    "geocoded_column": {
      "latitude": "29.93992440362708",
      "longitude": "-90.06816607131924"
    }
  },
  {
    "service_request": "2023-975642",
    "request_type": "Roads/Drainage",
    "request_reason": "Pothole",
    "date_created": "2023-02-15T15:08:31.000",
    "date_modified": "2023-02-15T19:51:07.000",
    "case_close_date": "2023-02-15T13:51:07.000",
    "request_status": "Closed",
    "responsible_agency": "Department of Public Works",
    "final_address": "1915 Annette St",
    "address_councildis": "D",
    "status": "Duplicate Request",
    "rowid": "975642",
    "final_x": "3682985.76898",
    "final_y": "539233.567242",
    "longitude": "-90.06310879725254",
    "latitude": "29.976660140744663",
    "geocoded_column": {
      "latitude": "29.976660140744663",
      "longitude": "-90.06310879725254"
    }
  },
  {
    "service_request": "2023-975640",
    "request_type": "Roads/Drainage",
    "request_reason": "Accessibility Ramps, Curbs and Sidewalk Repair",
    "date_created": "2023-02-15T15:07:01.000",
    "date_modified": "2023-02-15T15:07:01.000",
    "request_status": "Pending",
    "responsible_agency": "Department of Public Works",
    "final_address": "1819 Monroe St",
    "address_councildis": "A",
    "status": "Pending",
    "rowid": "975640",
    "final_x": "3661936.12691",
    "final_y": "531454.263555",
    "longitude": "-90.12984848674539",
    "latitude": "29.95589443433823",
    "geocoded_column": {
      "latitude": "29.95589443433823",
      "longitude": "-90.12984848674539"
    }
  },
  {
    "service_request": "2023-975638",
    "request_type": "Trash/Recycling",
    "request_reason": "Missed Trash Pick-Up",
    "date_created": "2023-02-15T15:03:02.000",
    "date_modified": "2023-02-15T15:03:02.000",
    "request_status": "Pending",
    "responsible_agency": "Department of Sanitation",
    "final_address": "1830 Milan St, New Orleans, Louisiana, 70115",
    "address_councildis": "B",
    "status": "Assigned to Contractor",
    "contractor": "Richards Disposal",
    "rowid": "975638",
    "final_x": "3671413.13793",
    "final_y": "521911.253626",
    "longitude": "-90.1002475871783",
    "latitude": "29.929377168359814",
    "geocoded_column": {
      "latitude": "29.929377168359814",
      "longitude": "-90.1002475871783"
    }
  },
  {
    "service_request": "2023-975637",
    "request_type": "Trash/Recycling",
    "request_reason": "Missed Trash Pick-Up",
    "date_created": "2023-02-15T15:02:27.000",
    "date_modified": "2023-02-15T15:06:06.000",
    "case_close_date": "2023-02-15T09:06:06.000",
    "request_status": "Closed",
    "responsible_agency": "Department of Sanitation",
    "final_address": "10231 Deer Park Blvd",
    "address_councildis": "E",
    "status": "Assigned to Contractor",
    "contractor": "Waste Pro",
    "contractor_action": "Completed",
    "rowid": "975637",
    "final_x": "3712383.72664",
    "final_y": "560878.861726",
    "longitude": "-89.96944819943425",
    "latitude": "30.035247501196462",
    "geocoded_column": {
      "latitude": "30.035247501196462",
      "longitude": "-89.96944819943425"
    }
  },
  {
    "service_request": "2023-975636",
    "request_type": "Trash/Recycling",
    "request_reason": "Repair Trash Cart",
    "date_created": "2023-02-15T15:02:14.000",
    "date_modified": "2023-02-15T15:02:15.000",
    "request_status": "Pending",
    "responsible_agency": "Department of Sanitation",
    "final_address": "5543 Paris Ave",
    "address_councildis": "D",
    "status": "Assigned to Contractor",
    "contractor": "IV Waste",
    "rowid": "975636",
    "final_x": "3679213.11458",
    "final_y": "552882.156247",
    "longitude": "-90.07455045413002",
    "latitude": "30.01430339555141",
    "geocoded_column": {
      "latitude": "30.01430339555141",
      "longitude": "-90.07455045413002"
    }
  },
  {
    "service_request": "2023-975635",
    "request_type": "Trash/Recycling",
    "request_reason": "Illegal Dumping",
    "date_created": "2023-02-15T15:00:32.000",
    "date_modified": "2023-02-15T15:00:32.000",
    "request_status": "Pending",
    "responsible_agency": "Department of Sanitation",
    "final_address": "1129 Seventh St",
    "address_councildis": "B",
    "status": "Pending",
    "rowid": "975635",
    "final_x": "3676283.32872",
    "final_y": "520611.388216",
    "longitude": "-90.08491799622867",
    "latitude": "29.925657950943368",
    "geocoded_column": {
      "latitude": "29.925657950943368",
      "longitude": "-90.08491799622867"
    }
  },
  {
    "service_request": "2023-975634",
    "request_type": "Property Maintenance",
    "request_reason": "Property Maintenance",
    "date_created": "2023-02-15T14:58:35.000",
    "date_modified": "2023-02-15T14:58:35.000",
    "request_status": "Pending",
    "responsible_agency": "Department of Code Enforcement",
    "final_address": "2832 General Taylor St",
    "address_councildis": "B",
    "status": "Pending",
    "rowid": "975634",
    "final_x": "3671495.0667",
    "final_y": "525472.392893",
    "longitude": "-90.09986793720718",
    "latitude": "29.939166726980343",
    "geocoded_column": {
      "latitude": "29.939166726980343",
      "longitude": "-90.09986793720718"
    }
  },
  {
    "service_request": "2023-975633",
    "request_type": "Trash/Recycling",
    "request_reason": "Missed Trash Pick-Up",
    "date_created": "2023-02-15T14:55:52.000",
    "date_modified": "2023-02-15T14:55:53.000",
    "request_status": "Pending",
    "responsible_agency": "Department of Sanitation",
    "final_address": "85 Audubon Blvd",
    "address_councildis": "A",
    "status": "Assigned to Contractor",
    "contractor": "Richards Disposal",
    "rowid": "975633",
    "final_x": "3665940.62266",
    "final_y": "527736.288703",
    "longitude": "-90.11732822040973",
    "latitude": "29.94555495267322",
    "geocoded_column": {
      "latitude": "29.94555495267322",
      "longitude": "-90.11732822040973"
    }
  },
  {
    "service_request": "2023-975632",
    "request_type": "Traffic Signals/Signs/Striping/Streetlights",
    "request_reason": "Street Light Outage/Malfunction",
    "date_created": "2023-02-15T14:52:51.000",
    "date_modified": "2023-02-15T16:14:36.000",
    "request_status": "Pending",
    "responsible_agency": "Department of Public Works",
    "final_address": "1240 Camp St, New Orleans, Louisiana, 70130",
    "address_councildis": "B",
    "status": "Assigned to Contractor",
    "contractor": "Legacy Professional Services",
    "rowid": "975632",
    "final_x": "3680198.09986",
    "final_y": "525358.634365",
    "longitude": "-90.07239534849856",
    "latitude": "29.93859345473388",
    "geocoded_column": {
      "latitude": "29.93859345473388",
      "longitude": "-90.07239534849856"
    }
  },
  {
    "service_request": "2023-975629",
    "request_type": "Trash/Recycling",
    "request_reason": "Request a Large Item Pick Up",
    "date_created": "2023-02-15T14:45:20.000",
    "date_modified": "2023-02-15T14:45:21.000",
    "request_status": "Pending",
    "responsible_agency": "Department of Sanitation",
    "final_address": "7569 Avalon Way",
    "address_councildis": "E",
    "status": "Assigned to Contractor",
    "contractor": "Waste Pro",
    "rowid": "975629",
    "final_x": "3709173.9155",
    "final_y": "564402.016289",
    "longitude": "-89.97946008676786",
    "latitude": "30.04503943378443",
    "geocoded_column": {
      "latitude": "30.04503943378443",
      "longitude": "-89.97946008676786"
    }
  },
  {
    "service_request": "2023-975628",
    "request_type": "Safety & Permits",
    "request_reason": "Safety & Permits Request (Cyber Incident Back Up)",
    "date_created": "2023-02-15T14:41:57.000",
    "date_modified": "2023-02-15T14:41:57.000",
    "request_status": "Pending",
    "responsible_agency": "Safety and Permits",
    "status": "Pending",
    "rowid": "975628",
    "longitude": "0.0",
    "latitude": "0.0",
    "geocoded_column": {
      "latitude": "0.0",
      "longitude": "0.0"
    }
  },
  {
    "service_request": "2023-975627",
    "request_type": "Roads/Drainage",
    "request_reason": "Accessibility Ramps, Curbs and Sidewalk Repair",
    "date_created": "2023-02-15T14:40:33.000",
    "date_modified": "2023-02-15T14:40:33.000",
    "request_status": "Pending",
    "responsible_agency": "Department of Public Works",
    "final_address": "8601 Green St",
    "address_councildis": "A",
    "status": "Pending",
    "rowid": "975627",
    "final_x": "3661826.2473",
    "final_y": "530923.185666",
    "longitude": "-90.1302130580833",
    "latitude": "29.9544373144888",
    "geocoded_column": {
      "latitude": "29.9544373144888",
      "longitude": "-90.1302130580833"
    }
  },
  {
    "service_request": "2023-975626",
    "request_type": "Roads/Drainage",
    "request_reason": "Accessibility Ramps, Curbs and Sidewalk Repair",
    "date_created": "2023-02-15T14:39:28.000",
    "date_modified": "2023-02-15T14:39:29.000",
    "request_status": "Pending",
    "responsible_agency": "Department of Public Works",
    "final_address": "1132 Numa St",
    "address_councildis": "C",
    "status": "Pending",
    "rowid": "975626",
    "final_x": "3691867.90512",
    "final_y": "527083.753919",
    "longitude": "-90.03549100002807",
    "latitude": "29.942978671675366",
    "geocoded_column": {
      "latitude": "29.942978671675366",
      "longitude": "-90.03549100002807"
    }
  },
  {
    "service_request": "2023-975625",
    "request_type": "Trash/Recycling",
    "request_reason": "Illegal Dumping",
    "date_created": "2023-02-15T14:38:30.000",
    "date_modified": "2023-02-15T14:38:30.000",
    "request_status": "Pending",
    "responsible_agency": "Department of Sanitation",
    "final_address": "1428 Spain St",
    "address_councildis": "C",
    "status": "Pending",
    "rowid": "975625",
    "final_x": "3685989.2367",
    "final_y": "537737.904648",
    "longitude": "-90.05367568984896",
    "latitude": "29.972455700940646",
    "geocoded_column": {
      "latitude": "29.972455700940646",
      "longitude": "-90.05367568984896"
    }
  },
  {
    "service_request": "2023-975623",
    "request_type": "Parks & Parkways",
    "request_reason": "Request Tree Service (Right of Way/Public Property)",
    "date_created": "2023-02-15T14:38:16.000",
    "date_modified": "2023-02-15T15:04:51.000",
    "request_status": "Pending",
    "responsible_agency": "Department of Parks & Parkway",
    "final_address": "5711 Kensington Blvd",
    "address_councildis": "E",
    "status": "Pending",
    "rowid": "975623",
    "final_x": "3713794.31179",
    "final_y": "560514.25795",
    "longitude": "-89.96500432512264",
    "latitude": "30.034198744936756",
    "geocoded_column": {
      "latitude": "30.034198744936756",
      "longitude": "-89.96500432512264"
    }
  },
  {
    "service_request": "2023-975622",
    "request_type": "Trash/Recycling",
    "request_reason": "Request a Large Item Pick Up",
    "date_created": "2023-02-15T14:34:06.000",
    "date_modified": "2023-02-15T14:34:07.000",
    "request_status": "Pending",
    "responsible_agency": "Department of Sanitation",
    "final_address": "5712 Wilton Dr",
    "address_councildis": "D",
    "status": "Assigned to Contractor",
    "contractor": "IV Waste",
    "rowid": "975622",
    "final_x": "3681734.71797",
    "final_y": "553888.398103",
    "longitude": "-90.06654830203374",
    "latitude": "30.016993784361116",
    "geocoded_column": {
      "latitude": "30.016993784361116",
      "longitude": "-90.06654830203374"
    }
  },
  {
    "service_request": "2023-975621",
    "request_type": "Trash/Recycling",
    "request_reason": "Missed Trash Pick-Up",
    "date_created": "2023-02-15T14:31:14.000",
    "date_modified": "2023-02-15T14:31:15.000",
    "request_status": "Pending",
    "responsible_agency": "Department of Sanitation",
    "final_address": "4340 Van Ave",
    "address_councildis": "D",
    "status": "Assigned to Contractor",
    "contractor": "IV Waste",
    "rowid": "975621",
    "final_x": "3679903.90223",
    "final_y": "548562.551635",
    "longitude": "-90.07251808209105",
    "latitude": "30.00240514992865",
    "geocoded_column": {
      "latitude": "30.00240514992865",
      "longitude": "-90.07251808209105"
    }
  },
  {
    "service_request": "2023-975620",
    "request_type": "Trash/Recycling",
    "request_reason": "Repair Trash Cart",
    "date_created": "2023-02-15T14:30:56.000",
    "date_modified": "2023-02-15T14:30:57.000",
    "request_status": "Pending",
    "responsible_agency": "Department of Sanitation",
    "final_address": "29 Killdeer St",
    "address_councildis": "D",
    "status": "Assigned to Contractor",
    "contractor": "IV Waste",
    "rowid": "975620",
    "final_x": "3675656.80481",
    "final_y": "555839.022041",
    "longitude": "-90.08568491016229",
    "latitude": "30.022540656648754",
    "geocoded_column": {
      "latitude": "30.022540656648754",
      "longitude": "-90.08568491016229"
    }
  },
  {
    "service_request": "2023-975619",
    "request_type": "Tax and Revenue",
    "request_reason": "Sales Tax Question",
    "date_created": "2023-02-15T14:28:34.000",
    "date_modified": "2023-02-15T14:28:35.000",
    "request_status": "Pending",
    "responsible_agency": "Bureau of Revenue",
    "final_address": "5712 W Louis Prima Dr",
    "address_councildis": "E",
    "status": "Pending",
    "rowid": "975619",
    "final_x": "3715819.18104",
    "final_y": "561671.527583",
    "longitude": "-89.95856166725815",
    "latitude": "30.037314128239625",
    "geocoded_column": {
      "latitude": "30.037314128239625",
      "longitude": "-89.95856166725815"
    }
  },
  {
    "service_request": "2023-975618",
    "request_type": "Trash/Recycling",
    "request_reason": "Illegal Dumping",
    "date_created": "2023-02-15T14:10:34.000",
    "date_modified": "2023-02-15T14:10:34.000",
    "request_status": "Pending",
    "responsible_agency": "Department of Sanitation",
    "final_address": "2432 Dumaine St",
    "address_councildis": "D",
    "status": "Pending",
    "rowid": "975618",
    "final_x": "3678019.8285",
    "final_y": "536817.822216",
    "longitude": "-90.07887631013025",
    "latitude": "29.97016810518361",
    "geocoded_column": {
      "latitude": "29.97016810518361",
      "longitude": "-90.07887631013025"
    }
  },
  {
    "service_request": "2023-975617",
    "request_type": "Abandoned Vehicles",
    "request_reason": "Abandoned/Junk Vehicles",
    "date_created": "2023-02-15T14:06:36.000",
    "date_modified": "2023-02-15T14:06:36.000",
    "request_status": "Pending",
    "responsible_agency": "Department of Public Works",
    "final_address": "0 BLK Honeysuckle Ln",
    "address_councildis": "E",
    "status": "Pending",
    "rowid": "975617",
    "final_x": "3713159.57988",
    "final_y": "568219.133034",
    "longitude": "-89.96671974407226",
    "latitude": "30.055404862797666",
    "geocoded_column": {
      "latitude": "30.055404862797666",
      "longitude": "-89.96671974407226"
    }
  },
  {
    "service_request": "2023-975616",
    "request_type": "Trash/Recycling",
    "request_reason": "Request a Large Item Pick Up",
    "date_created": "2023-02-15T14:05:54.000",
    "date_modified": "2023-02-15T14:05:55.000",
    "request_status": "Pending",
    "responsible_agency": "Department of Sanitation",
    "final_address": "1630 Lizardi St",
    "address_councildis": "E",
    "status": "Assigned to Contractor",
    "contractor": "Waste Pro",
    "rowid": "975616",
    "final_x": "3697065.15562",
    "final_y": "536307.314503",
    "longitude": "-90.01874800827764",
    "latitude": "29.968177325574526",
    "geocoded_column": {
      "latitude": "29.968177325574526",
      "longitude": "-90.01874800827764"
    }
  },
  {
    "service_request": "2023-975615",
    "request_type": "Trash/Recycling",
    "request_reason": "Illegal Dumping",
    "date_created": "2023-02-15T14:02:14.000",
    "date_modified": "2023-02-15T14:02:14.000",
    "request_status": "Pending",
    "responsible_agency": "Department of Sanitation",
    "final_address": "2600 Lizardi St",
    "address_councildis": "E",
    "status": "Pending",
    "rowid": "975615",
    "final_x": "3698093.20477",
    "final_y": "539779.97729",
    "longitude": "-90.01537526452026",
    "latitude": "29.97769342709925",
    "geocoded_column": {
      "latitude": "29.97769342709925",
      "longitude": "-90.01537526452026"
    }
  },
  {
    "service_request": "2023-975614",
    "request_type": "Traffic Signals/Signs/Striping/Streetlights",
    "request_reason": "Street Light Outage/Malfunction",
    "date_created": "2023-02-15T14:00:32.000",
    "date_modified": "2023-02-15T14:00:33.000",
    "request_status": "Pending",
    "responsible_agency": "Department of Public Works",
    "final_address": "2424 Royal St",
    "address_councildis": "C",
    "status": "Assigned to Contractor",
    "contractor": "Legacy Professional Services",
    "rowid": "975614",
    "final_x": "3686109.60489",
    "final_y": "534922.923462",
    "longitude": "-90.05339485288546",
    "latitude": "29.964711785653222",
    "geocoded_column": {
      "latitude": "29.964711785653222",
      "longitude": "-90.05339485288546"
    }
  },
  {
    "service_request": "2023-975613",
    "request_type": "Trash/Recycling",
    "request_reason": "Request a Large Item Pick Up",
    "date_created": "2023-02-15T13:59:32.000",
    "date_modified": "2023-02-15T13:59:33.000",
    "request_status": "Pending",
    "responsible_agency": "Department of Sanitation",
    "final_address": "2918 OReilly St",
    "address_councildis": "D",
    "status": "Assigned to Contractor",
    "contractor": "IV Waste",
    "rowid": "975613",
    "final_x": "3678975.95918",
    "final_y": "542068.498124",
    "longitude": "-90.07567474590645",
    "latitude": "29.984576832425656",
    "geocoded_column": {
      "latitude": "29.984576832425656",
      "longitude": "-90.07567474590645"
    }
  },
  {
    "service_request": "2023-975612",
    "request_type": "Trash/Recycling",
    "request_reason": "Request a Large Item Pick Up",
    "date_created": "2023-02-15T13:53:52.000",
    "date_modified": "2023-02-15T15:17:24.000",
    "case_close_date": "2023-02-15T09:17:24.000",
    "request_status": "Closed",
    "responsible_agency": "Department of Sanitation",
    "final_address": "4974 Sandalwood St",
    "address_councildis": "E",
    "status": "Assigned to Contractor",
    "contractor": "Waste Pro",
    "contractor_action": "Completed",
    "rowid": "975612",
    "final_x": "3712011.36018",
    "final_y": "557577.020955",
    "longitude": "-89.97074900740701",
    "latitude": "30.026180931117764",
    "geocoded_column": {
      "latitude": "30.026180931117764",
      "longitude": "-89.97074900740701"
    }
  },
  {
    "service_request": "2023-975611",
    "request_type": "Trash/Recycling",
    "request_reason": "Order Recycling Cart",
    "date_created": "2023-02-15T13:48:01.000",
    "date_modified": "2023-02-15T13:48:02.000",
    "request_status": "Pending",
    "responsible_agency": "Department of Sanitation",
    "final_address": "1429 New York St",
    "address_councildis": "D",
    "status": "Pending",
    "rowid": "975611",
    "final_x": "3678088.2948",
    "final_y": "555693.776281",
    "longitude": "-90.07800700408691",
    "latitude": "30.022068262111368",
    "geocoded_column": {
      "latitude": "30.022068262111368",
      "longitude": "-90.07800700408691"
    }
  },
  {
    "service_request": "2023-975610",
    "request_type": "Trash/Recycling",
    "request_reason": "Illegal Dumping",
    "date_created": "2023-02-15T13:46:18.000",
    "date_modified": "2023-02-15T13:46:18.000",
    "request_status": "Pending",
    "responsible_agency": "Department of Sanitation",
    "final_address": "2600 Tupelo St",
    "address_councildis": "E",
    "status": "Pending",
    "rowid": "975610",
    "final_x": "3701581.78602",
    "final_y": "538742.677001",
    "longitude": "-90.00439520351675",
    "latitude": "29.974730435629336",
    "geocoded_column": {
      "latitude": "29.974730435629336",
      "longitude": "-90.00439520351675"
    }
  },
  {
    "service_request": "2023-975609",
    "request_type": "Trash/Recycling",
    "request_reason": "Missed Trash Pick-Up",
    "date_created": "2023-02-15T13:44:29.000",
    "date_modified": "2023-02-15T13:44:30.000",
    "request_status": "Pending",
    "responsible_agency": "Department of Sanitation",
    "final_address": "10231 Deer Park Blvd",
    "address_councildis": "E",
    "status": "Assigned to Contractor",
    "contractor": "Waste Pro",
    "rowid": "975609",
    "final_x": "3712383.72664",
    "final_y": "560878.861726",
    "longitude": "-89.96944819943425",
    "latitude": "30.035247501196462",
    "geocoded_column": {
      "latitude": "30.035247501196462",
      "longitude": "-89.96944819943425"
    }
  },
  {
    "service_request": "2023-975608",
    "request_type": "Roads/Drainage",
    "request_reason": "Pothole",
    "date_created": "2023-02-15T13:42:02.000",
    "date_modified": "2023-02-15T13:42:03.000",
    "request_status": "Pending",
    "responsible_agency": "Department of Public Works",
    "final_address": "6300 BLK Canal Blvd",
    "address_councildis": "A",
    "status": "Pending",
    "rowid": "975608",
    "final_x": "3668759.35241",
    "final_y": "549677.81513",
    "longitude": "-90.10768753047387",
    "latitude": "30.00580421199699",
    "geocoded_column": {
      "latitude": "30.00580421199699",
      "longitude": "-90.10768753047387"
    }
  },
  {
    "service_request": "2023-975607",
    "request_type": "Trash/Recycling",
    "request_reason": "Request a Large Item Pick Up",
    "date_created": "2023-02-15T13:37:13.000",
    "date_modified": "2023-02-15T15:17:50.000",
    "case_close_date": "2023-02-15T09:17:50.000",
    "request_status": "Closed",
    "responsible_agency": "Department of Sanitation",
    "final_address": "4811 Friar Tuck Dr",
    "address_councildis": "E",
    "status": "Assigned to Contractor",
    "contractor": "Waste Pro",
    "contractor_action": "Completed",
    "rowid": "975607",
    "final_x": "3717798.67141",
    "final_y": "557278.881755",
    "longitude": "-89.95247338680763",
    "latitude": "30.025170668007856",
    "geocoded_column": {
      "latitude": "30.025170668007856",
      "longitude": "-89.95247338680763"
    }
  },
  {
    "service_request": "2023-975606",
    "request_type": "Trash/Recycling",
    "request_reason": "Replace Trash Cart",
    "date_created": "2023-02-15T13:28:26.000",
    "date_modified": "2023-02-15T13:28:26.000",
    "request_status": "Pending",
    "responsible_agency": "Department of Sanitation",
    "final_address": "85 Audubon Blvd",
    "address_councildis": "A",
    "status": "Assigned to Contractor",
    "contractor": "Richards Disposal",
    "rowid": "975606",
    "final_x": "3665940.62266",
    "final_y": "527736.288703",
    "longitude": "-90.11732822040973",
    "latitude": "29.94555495267322",
    "geocoded_column": {
      "latitude": "29.94555495267322",
      "longitude": "-90.11732822040973"
    }
  },
  {
    "service_request": "2023-975605",
    "request_type": "Trash/Recycling",
    "request_reason": "Order Recycling Cart",
    "date_created": "2023-02-15T13:24:35.000",
    "date_modified": "2023-02-15T13:24:35.000",
    "request_status": "Pending",
    "responsible_agency": "Department of Sanitation",
    "final_address": "4932 Palace St",
    "address_councildis": "E",
    "status": "Pending",
    "rowid": "975605",
    "final_x": "3729065.11379",
    "final_y": "562615.442272",
    "longitude": "-89.91666525286603",
    "latitude": "30.039465868934546",
    "geocoded_column": {
      "latitude": "30.039465868934546",
      "longitude": "-89.91666525286603"
    }
  },
  {
    "service_request": "2023-975604",
    "request_type": "Trash/Recycling",
    "request_reason": "Order Trash Cart",
    "date_created": "2023-02-15T13:19:41.000",
    "date_modified": "2023-02-15T13:19:41.000",
    "request_status": "Pending",
    "responsible_agency": "Department of Sanitation",
    "final_address": "4509 Majestic Oaks Dr",
    "address_councildis": "D",
    "status": "Assigned to Contractor",
    "contractor": "Waste Pro",
    "rowid": "975604",
    "final_x": "3697958.79683",
    "final_y": "553043.112727",
    "longitude": "-90.01531793048889",
    "latitude": "30.01416640062351",
    "geocoded_column": {
      "latitude": "30.01416640062351",
      "longitude": "-90.01531793048889"
    }
  },
  {
    "service_request": "2023-975603",
    "request_type": "Trash/Recycling",
    "request_reason": "Repair Trash Cart",
    "date_created": "2023-02-15T13:15:33.000",
    "date_modified": "2023-02-15T13:15:33.000",
    "request_status": "Pending",
    "responsible_agency": "Department of Sanitation",
    "final_address": "1920 S Gayoso St",
    "address_councildis": "B",
    "status": "Assigned to Contractor",
    "contractor": "Richards Disposal",
    "rowid": "975603",
    "final_x": "3670106.17537",
    "final_y": "529531.027969",
    "longitude": "-90.10411539018419",
    "latitude": "29.95036768915229",
    "geocoded_column": {
      "latitude": "29.95036768915229",
      "longitude": "-90.10411539018419"
    }
  },
  {
    "service_request": "2023-975602",
    "request_type": "Traffic Signals/Signs/Striping/Streetlights",
    "request_reason": "Street Light Outage/Malfunction",
    "date_created": "2023-02-15T13:12:30.000",
    "date_modified": "2023-02-15T13:12:31.000",
    "request_status": "Pending",
    "responsible_agency": "Department of Public Works",
    "final_address": "3931 Louisiana Avenue Prkwy",
    "address_councildis": "B",
    "status": "Assigned to Contractor",
    "contractor": "Legacy Professional Services",
    "rowid": "975602",
    "final_x": "3671165.69748",
    "final_y": "529259.999553",
    "longitude": "-90.1007791700258",
    "latitude": "29.949591154267402",
    "geocoded_column": {
      "latitude": "29.949591154267402",
      "longitude": "-90.1007791700258"
    }
  },
  {
    "service_request": "2023-975601",
    "request_type": "Trash/Recycling",
    "request_reason": "Request a Large Item Pick Up",
    "date_created": "2023-02-15T13:08:34.000",
    "date_modified": "2023-02-15T13:15:47.000",
    "request_status": "Pending",
    "responsible_agency": "Department of Sanitation",
    "final_address": "1442 St Maurice Ave",
    "address_councildis": "E",
    "status": "Assigned to Contractor",
    "contractor": "Waste Pro",
    "rowid": "975601",
    "final_x": "3700338.47268",
    "final_y": "534532.696069",
    "longitude": "-90.00847560467865",
    "latitude": "29.96319409662935",
    "geocoded_column": {
      "latitude": "29.96319409662935",
      "longitude": "-90.00847560467865"
    }
  },
  {
    "service_request": "2023-975600",
    "request_type": "Abandoned Vehicles",
    "request_reason": "Abandoned/Junk Vehicles",
    "date_created": "2023-02-15T13:07:39.000",
    "date_modified": "2023-02-15T13:07:40.000",
    "request_status": "Pending",
    "responsible_agency": "Department of Public Works",
    "final_address": "3429 Cecil St",
    "address_councildis": "A",
    "status": "Pending",
    "rowid": "975600",
    "final_x": "3663464.70279",
    "final_y": "537956.340873",
    "longitude": "-90.12480520703892",
    "latitude": "29.973728780960535",
    "geocoded_column": {
      "latitude": "29.973728780960535",
      "longitude": "-90.12480520703892"
    }
  },
  {
    "service_request": "2023-975599",
    "request_type": "Trash/Recycling",
    "request_reason": "Missed Trash Pick-Up",
    "date_created": "2023-02-15T13:04:33.000",
    "date_modified": "2023-02-15T13:05:40.000",
    "request_status": "Pending",
    "responsible_agency": "Department of Sanitation",
    "final_address": "11031 Chaucer St",
    "address_councildis": "E",
    "status": "Assigned to Contractor",
    "contractor": "Waste Pro",
    "rowid": "975599",
    "final_x": "3713243.66661",
    "final_y": "562296.034207",
    "longitude": "-89.96667726081746",
    "latitude": "30.039115984848607",
    "geocoded_column": {
      "latitude": "30.039115984848607",
      "longitude": "-89.96667726081746"
    }
  },
  {
    "service_request": "2023-975598",
    "request_type": "Trash/Recycling",
    "request_reason": "Repair Trash Cart",
    "date_created": "2023-02-15T13:02:11.000",
    "date_modified": "2023-02-15T13:02:12.000",
    "request_status": "Pending",
    "responsible_agency": "Department of Sanitation",
    "final_address": "7017 Fleur-De-Lis Dr",
    "address_councildis": "A",
    "status": "Assigned to Contractor",
    "contractor": "IV Waste",
    "rowid": "975598",
    "final_x": "3665646.29376",
    "final_y": "554403.904344",
    "longitude": "-90.11736399971873",
    "latitude": "30.01889049927293",
    "geocoded_column": {
      "latitude": "30.01889049927293",
      "longitude": "-90.11736399971873"
    }
  },
  {
    "service_request": "2023-975597",
    "request_type": "Trash/Recycling",
    "request_reason": "Order Recycling Cart",
    "date_created": "2023-02-15T13:01:02.000",
    "date_modified": "2023-02-15T13:01:02.000",
    "request_status": "Pending",
    "responsible_agency": "Department of Sanitation",
    "final_address": "7017 Fleur-De-Lis Dr",
    "address_councildis": "A",
    "status": "Pending",
    "rowid": "975597",
    "final_x": "3665646.29376",
    "final_y": "554403.904344",
    "longitude": "-90.11736399971873",
    "latitude": "30.01889049927293",
    "geocoded_column": {
      "latitude": "30.01889049927293",
      "longitude": "-90.11736399971873"
    }
  },
  {
    "service_request": "2023-975596",
    "request_type": "Trash/Recycling",
    "request_reason": "MIssed Recycling Pick-Up",
    "date_created": "2023-02-15T12:59:29.000",
    "date_modified": "2023-02-15T12:59:30.000",
    "request_status": "Pending",
    "responsible_agency": "Department of Sanitation",
    "final_address": "634 Eighth St",
    "address_councildis": "B",
    "status": "Assigned to Contractor",
    "contractor": "Richards Disposal",
    "rowid": "975596",
    "final_x": "3676938.26549",
    "final_y": "518905.502967",
    "longitude": "-90.08290932307021",
    "latitude": "29.920947681168073",
    "geocoded_column": {
      "latitude": "29.920947681168073",
      "longitude": "-90.08290932307021"
    }
  },
  {
    "service_request": "2023-975595",
    "request_type": "Trash/Recycling",
    "request_reason": "Illegal Dumping",
    "date_created": "2023-02-15T12:58:48.000",
    "date_modified": "2023-02-15T12:58:48.000",
    "request_status": "Pending",
    "responsible_agency": "Department of Sanitation",
    "final_address": "1526 Arts St",
    "address_councildis": "C",
    "status": "Pending",
    "rowid": "975595",
    "final_x": "3687038.48822",
    "final_y": "538184.272713",
    "longitude": "-90.05034619178805",
    "latitude": "29.973650794771697",
    "geocoded_column": {
      "latitude": "29.973650794771697",
      "longitude": "-90.05034619178805"
    }
  },
  {
    "service_request": "2023-975594",
    "request_type": "Trash/Recycling",
    "request_reason": "Replace Recycling Cart",
    "date_created": "2023-02-15T12:57:24.000",
    "date_modified": "2023-02-15T12:57:24.000",
    "request_status": "Pending",
    "responsible_agency": "Department of Sanitation",
    "final_address": "906 Mazant St, New Orleans, Louisiana, 70117",
    "address_councildis": "C",
    "status": "Pending",
    "rowid": "975594",
    "final_x": "3691892.60329",
    "final_y": "534543.874757",
    "longitude": "-90.03514617257636",
    "latitude": "29.96349064578947",
    "geocoded_column": {
      "latitude": "29.96349064578947",
      "longitude": "-90.03514617257636"
    }
  },
  {
    "service_request": "2023-975592",
    "request_type": "Parks & Parkways",
    "request_reason": "Request Tree Service (Right of Way/Public Property)",
    "date_created": "2023-02-15T12:56:21.000",
    "date_modified": "2023-02-15T15:07:20.000",
    "request_status": "Pending",
    "responsible_agency": "Department of Parks & Parkway",
    "final_address": "6825 General Diaz St",
    "address_councildis": "A",
    "status": "Pending",
    "rowid": "975592",
    "final_x": "3670106.43617",
    "final_y": "552806.765974",
    "longitude": "-90.10332565611077",
    "latitude": "30.014368037352064",
    "geocoded_column": {
      "latitude": "30.014368037352064",
      "longitude": "-90.10332565611077"
    }
  },
  {
    "service_request": "2023-975591",
    "request_type": "Trash/Recycling",
    "request_reason": "Return Trash Cart",
    "date_created": "2023-02-15T12:56:16.000",
    "date_modified": "2023-02-15T12:56:16.000",
    "request_status": "Pending",
    "responsible_agency": "Department of Sanitation",
    "final_address": "2415 Lafitte Ave",
    "address_councildis": "D",
    "status": "Assigned to Contractor",
    "contractor": "Richards Disposal",
    "rowid": "975591",
    "final_x": "3677351.63125",
    "final_y": "535835.674183",
    "longitude": "-90.08102044728832",
    "latitude": "29.967487630669012",
    "geocoded_column": {
      "latitude": "29.967487630669012",
      "longitude": "-90.08102044728832"
    }
  },
  {
    "service_request": "2023-975590",
    "request_type": "Roads/Drainage",
    "request_reason": "Pothole",
    "date_created": "2023-02-15T12:55:18.000",
    "date_modified": "2023-02-15T12:55:18.000",
    "request_status": "Pending",
    "responsible_agency": "Department of Public Works",
    "final_address": "3100 Touro St",
    "address_councildis": "D",
    "status": "Pending",
    "rowid": "975590",
    "final_x": "3683546.78946",
    "final_y": "544017.486094",
    "longitude": "-90.06116917519955",
    "latitude": "29.989797122232307",
    "geocoded_column": {
      "latitude": "29.989797122232307",
      "longitude": "-90.06116917519955"
    }
  },
  {
    "service_request": "2023-975589",
    "request_type": "Trash/Recycling",
    "request_reason": "Missed Trash Pick-Up",
    "date_created": "2023-02-15T12:50:57.000",
    "date_modified": "2023-02-15T12:50:58.000",
    "request_status": "Pending",
    "responsible_agency": "Department of Sanitation",
    "final_address": "1539 Congress St",
    "address_councildis": "D",
    "status": "Assigned to Contractor",
    "contractor": "IV Waste",
    "rowid": "975589",
    "final_x": "3691203.76265",
    "final_y": "537374.123016",
    "longitude": "-90.03722035207143",
    "latitude": "29.97129427352472",
    "geocoded_column": {
      "latitude": "29.97129427352472",
      "longitude": "-90.03722035207143"
    }
  },
  {
    "service_request": "2023-975588",
    "request_type": "Trash/Recycling",
    "request_reason": "MIssed Recycling Pick-Up",
    "date_created": "2023-02-15T12:48:33.000",
    "date_modified": "2023-02-15T12:48:34.000",
    "request_status": "Pending",
    "responsible_agency": "Department of Sanitation",
    "final_address": "2509 Governor Nicholls St",
    "address_councildis": "D",
    "status": "Assigned to Contractor",
    "contractor": "Richards Disposal",
    "rowid": "975588",
    "final_x": "3678578.2797",
    "final_y": "537895.413385",
    "longitude": "-90.07707535185554",
    "latitude": "29.97311428845961",
    "geocoded_column": {
      "latitude": "29.97311428845961",
      "longitude": "-90.07707535185554"
    }
  },