[
  {
    "service_request": "2023-1038287",
    "request_type": "Roads/Drainage",
    "request_reason": "Catch Basin - Clogged",
    "date_created": "2023-09-26T01:59:35.000",
    "date_modified": "2023-09-26T01:59:35.000",
    "request_status": "Pending",
    "responsible_agency": "Department of Public Works",
    "final_address": "1123 St Mary St",
    "address_councildis": "B",
    "status": "Pending",
    "rowid": "1038287",
    "final_x": "3679646.81282",
    "final_y": "522984.260795",
    "longitude": "-90.07421819140693",
    "latitude": "29.932081380629377",
    "geocoded_column": {
      "latitude": "29.932081380629377",
      "longitude": "-90.07421819140693"
    }
  },
  {
    "service_request": "2023-1038286",
    "request_type": "Traffic Signals/Signs/Striping/Streetlights",
    "request_reason": "Street Light Outage/Malfunction",
    "date_created": "2023-09-26T01:00:52.000",
    "date_modified": "2023-09-26T01:00:53.000",
    "request_status": "Pending",
    "responsible_agency": "Department of Public Works",
    "final_address": "611 Esplanade Ave",
    "address_councildis": "C",
    "status": "Assigned to Contractor",
    "contractor": "Legacy Professional Services",
    "rowid": "1038286",
    "final_x": "3684293.73589",
    "final_y": "534298.427781",
    "longitude": "-90.05915116402679",
    "latitude": "29.96305028636645",
    "geocoded_column": {
      "latitude": "29.96305028636645",
      "longitude": "-90.05915116402679"
    }
  },
  {
    "service_request": "2023-1038285",
    "request_type": "Roads/Drainage",
    "request_reason": "Pothole",
    "date_created": "2023-09-26T00:48:28.000",
    "date_modified": "2023-09-26T00:48:28.000",
    "request_status": "Pending",
    "responsible_agency": "Department of Public Works",
    "final_address": "1126 General Taylor St",
    "address_councildis": "B",
    "status": "Pending",
    "rowid": "1038285",
    "final_x": "3672864.10702",
    "final_y": "519916.905976",
    "longitude": "-90.09573513881266",
    "latitude": "29.923850338476225",
    "geocoded_column": {
      "latitude": "29.923850338476225",
      "longitude": "-90.09573513881266"
    }
  },
  {
    "service_request": "2023-1038284",
    "request_type": "Traffic Signals/Signs/Striping/Streetlights",
    "request_reason": "Traffic Signal Malfunctioning/Damaged",
    "date_created": "2023-09-26T00:47:05.000",
    "date_modified": "2023-09-26T00:47:05.000",
    "request_status": "Pending",
    "responsible_agency": "Department of Public Works",
    "final_address": "1413 Chartres St",
    "address_councildis": "C",
    "status": "Pending",
    "rowid": "1038284",
    "final_x": "3684401.04853",
    "final_y": "534330.485637",
    "longitude": "-90.05881115819784",
    "latitude": "29.96313515275919",
    "geocoded_column": {
      "latitude": "29.96313515275919",
      "longitude": "-90.05881115819784"
    }
  },
  {
    "service_request": "2023-1038283",
    "request_type": "Traffic Signals/Signs/Striping/Streetlights",
    "request_reason": "Street Light Outage/Malfunction",
    "date_created": "2023-09-26T00:40:17.000",
    "date_modified": "2023-09-26T00:40:18.000",
    "request_status": "Pending",
    "responsible_agency": "Department of Public Works",
    "final_address": "611 Esplanade Ave",
    "address_councildis": "C",
    "status": "Assigned to Contractor",
    "contractor": "Legacy Professional Services",
    "rowid": "1038283",
    "final_x": "3684293.73589",
    "final_y": "534298.427781",
    "longitude": "-90.05915116402679",
    "latitude": "29.96305028636645",
    "geocoded_column": {
      "latitude": "29.96305028636645",
      "longitude": "-90.05915116402679"
    }
  },
  {
    "service_request": "2023-1038282",
    "request_type": "Abandoned Vehicles",
    "request_reason": "Abandoned/Junk Vehicles",
    "date_created": "2023-09-26T00:39:29.000",
    "date_modified": "2023-09-26T00:39:29.000",
    "request_status": "Pending",
    "responsible_agency": "Department of Public Works",
    "final_address": "3917 Ulloa St",
    "address_councildis": "B",
    "status": "Pending",
    "rowid": "1038282",
    "final_x": "3670250.07066",
    "final_y": "536092.327239",
    "longitude": "-90.10343867379792",
    "latitude": "29.96840484300736",
    "geocoded_column": {
      "latitude": "29.96840484300736",
      "longitude": "-90.10343867379792"
    }
  },
  {
    "service_request": "2023-1038281",
    "request_type": "Traffic Signals/Signs/Striping/Streetlights",
    "request_reason": "Street Light Outage/Malfunction",
    "date_created": "2023-09-26T00:28:16.000",
    "date_modified": "2023-09-26T00:28:17.000",
    "request_status": "Pending",
    "responsible_agency": "Department of Public Works",
    "final_address": "611 Esplanade Ave",
    "address_councildis": "C",
    "status": "Assigned to Contractor",
    "contractor": "Legacy Professional Services",
    "rowid": "1038281",
    "final_x": "3684293.73589",
    "final_y": "534298.427781",
    "longitude": "-90.05915116402679",
    "latitude": "29.96305028636645",
    "geocoded_column": {
      "latitude": "29.96305028636645",
      "longitude": "-90.05915116402679"
    }
  },
  {
    "service_request": "2023-1038280",
    "request_type": "Roads/Drainage",
    "request_reason": "Pothole",
    "date_created": "2023-09-26T00:04:17.000",
    "date_modified": "2023-09-26T00:04:17.000",
    "request_status": "Pending",
    "responsible_agency": "Department of Public Works",
    "final_address": "1424 Amelia St",
    "address_councildis": "B",
    "status": "Pending",
    "rowid": "1038280",
    "final_x": "3673307.68648",
    "final_y": "520332.357688",
    "longitude": "-90.09432073545838",
    "latitude": "29.92497951623605",
    "geocoded_column": {
      "latitude": "29.92497951623605",
      "longitude": "-90.09432073545838"
    }
  },
  {
    "service_request": "2023-1038279",
    "request_type": "Roads/Drainage",
    "request_reason": "Pothole",
    "date_created": "2023-09-25T22:47:46.000",
    "date_modified": "2023-09-25T22:47:46.000",
    "request_status": "Pending",
    "responsible_agency": "Department of Public Works",
    "final_address": "1319 Amelia St",
    "address_councildis": "B",
    "status": "Pending",
    "rowid": "1038279",
    "final_x": "3673480.65761",
    "final_y": "520026.003512",
    "longitude": "-90.09378518242065",
    "latitude": "29.92413199657126",
    "geocoded_column": {
      "latitude": "29.92413199657126",
      "longitude": "-90.09378518242065"
    }
  },
  {
    "service_request": "2023-1038278",
    "request_type": "Traffic Signals/Signs/Striping/Streetlights",
    "request_reason": "Traffic Sign Missing/Damaged",
    "date_created": "2023-09-25T22:11:16.000",
    "date_modified": "2023-09-25T22:11:16.000",
    "request_status": "Pending",
    "responsible_agency": "Department of Public Works",
    "final_address": "KERLEREC ST & ROYAL ST",
    "address_councildis": "C",
    "status": "Pending",
    "rowid": "1038278",
    "final_x": "3684244.8",
    "final_y": "534676.08",
    "longitude": "-90.0592924373154",
    "latitude": "29.96409019605609",
    "geocoded_column": {
      "latitude": "29.96409019605609",
      "longitude": "-90.0592924373154"
    }
  },
  {
    "service_request": "2023-1038277",
    "request_type": "Abandoned Vehicles",
    "request_reason": "Abandoned/Junk Vehicles",
    "date_created": "2023-09-25T21:44:03.000",
    "date_modified": "2023-09-25T21:44:03.000",
    "request_status": "Pending",
    "responsible_agency": "Department of Public Works",
    "final_address": "4121 Constance St",
    "address_councildis": "B",
    "status": "Pending",
    "rowid": "1038277",
    "final_x": "3672004.74049",
    "final_y": "518549.362231",
    "longitude": "-90.09849437590015",
    "latitude": "29.920115523322036",
    "geocoded_column": {
      "latitude": "29.920115523322036",
      "longitude": "-90.09849437590015"
    }
  },
  {
    "service_request": "2023-1038276",
    "request_type": "Traffic Signals/Signs/Striping/Streetlights",
    "request_reason": "Street Light Outage/Malfunction",
    "date_created": "2023-09-25T21:30:43.000",
    "date_modified": "2023-09-25T21:30:44.000",
    "request_status": "Pending",
    "responsible_agency": "Department of Public Works",
    "final_address": "1120 Philip St",
    "address_councildis": "B",
    "status": "Assigned to Contractor",
    "contractor": "Legacy Professional Services",
    "rowid": "1038276",
    "final_x": "3678425.83061",
    "final_y": "521942.120506",
    "longitude": "-90.07810875006922",
    "latitude": "29.929252671364562",
    "geocoded_column": {
      "latitude": "29.929252671364562",
      "longitude": "-90.07810875006922"
    }
  },
  {
    "service_request": "2023-1038275",
    "request_type": "Trash/Recycling",
    "request_reason": "Request a Large Item Pick Up",
    "date_created": "2023-09-25T21:30:43.000",
    "date_modified": "2023-09-25T21:30:44.000",
    "request_status": "Pending",
    "responsible_agency": "Department of Sanitation",
    "final_address": "137 N Telemachus St",
    "address_councildis": "B",
    "status": "Assigned to Contractor",
    "contractor": "Richards Disposal",
    "rowid": "1038275",
    "final_x": "3672460.61902",
    "final_y": "537704.045192",
    "longitude": "-90.09640269581179",
    "latitude": "29.97277109699031",
    "geocoded_column": {
      "latitude": "29.97277109699031",
      "longitude": "-90.09640269581179"
    }
  },
  {
    "service_request": "2023-1038274",
    "request_type": "Traffic Signals/Signs/Striping/Streetlights",
    "request_reason": "Traffic Signal Malfunctioning/Damaged",
    "date_created": "2023-09-25T20:52:42.000",
    "date_modified": "2023-09-25T20:52:43.000",
    "request_status": "Pending",
    "responsible_agency": "Department of Public Works",
    "final_address": "LOYOLA AVE & EARHART BLVD & SIMON BOLIVAR AVE & CALLIOPE ST",
    "address_councildis": "B",
    "status": "Pending",
    "rowid": "1038274",
    "final_x": "3678106.8",
    "final_y": "527628.88",
    "longitude": "-90.07891933879137",
    "latitude": "29.944898992908257",
    "geocoded_column": {
      "latitude": "29.944898992908257",
      "longitude": "-90.07891933879137"
    }
  },
  {
    "service_request": "2023-1038273",
    "request_type": "Traffic Signals/Signs/Striping/Streetlights",
    "request_reason": "Street Light Outage/Malfunction",
    "date_created": "2023-09-25T20:39:48.000",
    "date_modified": "2023-09-25T20:39:48.000",
    "request_status": "Pending",
    "responsible_agency": "Department of Public Works",
    "final_address": "6450 Milne Blvd",
    "address_councildis": "A",
    "status": "Assigned to Contractor",
    "contractor": "Legacy Professional Services",
    "rowid": "1038273",
    "final_x": "3667277.71309",
    "final_y": "550725.682517",
    "longitude": "-90.1123331141941",
    "latitude": "30.00872897633857",
    "geocoded_column": {
      "latitude": "30.00872897633857",
      "longitude": "-90.1123331141941"
    }
  },
  {
    "service_request": "2023-1038272",
    "request_type": "Trash/Recycling",
    "request_reason": "Order Recycling Cart",
    "date_created": "2023-09-25T20:12:01.000",
    "date_modified": "2023-09-25T20:12:01.000",
    "request_status": "Pending",
    "responsible_agency": "Department of Sanitation",
    "final_address": "9810 Andover Dr",
    "address_councildis": "E",
    "status": "Pending",
    "rowid": "1038272",
    "final_x": "3708870.025",
    "final_y": "561907.623775",
    "longitude": "-89.98051359108288",
    "latitude": "30.038190718837477",
    "geocoded_column": {
      "latitude": "30.038190718837477",
      "longitude": "-89.98051359108288"
    }
  },
  {
    "service_request": "2023-1038271",
    "request_type": "Traffic Signals/Signs/Striping/Streetlights",
    "request_reason": "Street Light Outage/Malfunction",
    "date_created": "2023-09-25T20:03:48.000",
    "date_modified": "2023-09-25T20:03:51.000",
    "request_status": "Pending",
    "responsible_agency": "Department of Public Works",
    "final_address": "712 Constantinople St",
    "address_councildis": "B",
    "status": "Assigned to Contractor",
    "contractor": "Legacy Professional Services",
    "rowid": "1038271",
    "final_x": "3672543.59636",
    "final_y": "518316.785974",
    "longitude": "-90.09680138509869",
    "latitude": "29.919460034065203",
    "geocoded_column": {
      "latitude": "29.919460034065203",
      "longitude": "-90.09680138509869"
    }
  },
  {
    "service_request": "2023-1038270",
    "request_type": "Traffic Signals/Signs/Striping/Streetlights",
    "request_reason": "Street Light Outage/Malfunction",
    "date_created": "2023-09-25T19:56:46.000",
    "date_modified": "2023-09-25T19:56:47.000",
    "request_status": "Pending",
    "responsible_agency": "Department of Public Works",
    "final_address": "712 Constantinople St",
    "address_councildis": "B",
    "status": "Assigned to Contractor",
    "contractor": "Legacy Professional Services",
    "rowid": "1038270",
    "final_x": "3672543.59636",
    "final_y": "518316.785974",
    "longitude": "-90.09680138509869",
    "latitude": "29.919460034065203",
    "geocoded_column": {
      "latitude": "29.919460034065203",
      "longitude": "-90.09680138509869"
    }
  },
  {
    "service_request": "2023-1038269",
    "request_type": "Parks & Parkways",
    "request_reason": "Request Tree Service (Right of Way/Public Property)",
    "date_created": "2023-09-25T19:22:42.000",
    "date_modified": "2023-09-25T19:22:42.000",
    "request_status": "Pending",
    "responsible_agency": "Department of Parks & Parkway",
    "final_address": "2022 State St",
    "address_councildis": "A",
    "status": "Pending",
    "rowid": "1038269",
    "final_x": "3666248.40244",
    "final_y": "524263.705852",
    "longitude": "-90.11647289223306",
    "latitude": "29.93599747985402",
    "geocoded_column": {
      "latitude": "29.93599747985402",
      "longitude": "-90.11647289223306"
    }
  },
  {
    "service_request": "2023-1038268",
    "request_type": "Trash/Recycling",
    "request_reason": "Illegal Dumping",
    "date_created": "2023-09-25T19:10:41.000",
    "date_modified": "2023-09-25T19:10:41.000",
    "request_status": "Pending",
    "responsible_agency": "Department of Sanitation",
    "final_address": "1922 Laurel St",
    "address_councildis": "B",
    "status": "Pending",
    "rowid": "1038268",
    "final_x": "3680151.04085",
    "final_y": "522126.322938",
    "longitude": "-90.07265619340751",
    "latitude": "29.92970708873247",
    "geocoded_column": {
      "latitude": "29.92970708873247",
      "longitude": "-90.07265619340751"
    }
  },
  {
    "service_request": "2023-1038267",
    "request_type": "Trash/Recycling",
    "request_reason": "Replace Trash Cart",
    "date_created": "2023-09-25T19:10:30.000",
    "date_modified": "2023-09-25T19:10:31.000",
    "request_status": "Pending",
    "responsible_agency": "Department of Sanitation",
    "final_address": "5349 Magazine St",
    "address_councildis": "B",
    "status": "Assigned to Contractor",
    "contractor": "Richards Disposal",
    "rowid": "1038267",
    "final_x": "3667046.21178",
    "final_y": "518812.004151",
    "longitude": "-90.11413731067415",
    "latitude": "29.92098370836291",
    "geocoded_column": {
      "latitude": "29.92098370836291",
      "longitude": "-90.11413731067415"
    }
  },
  {
    "service_request": "2023-1038266",
    "request_type": "Abandoned Vehicles",
    "request_reason": "Abandoned/Junk Vehicles",
    "date_created": "2023-09-25T19:06:16.000",
    "date_modified": "2023-09-25T19:06:16.000",
    "request_status": "Pending",
    "responsible_agency": "Department of Public Works",
    "final_address": "1922 Laurel St",
    "address_councildis": "B",
    "status": "Pending",
    "rowid": "1038266",
    "final_x": "3680151.04085",
    "final_y": "522126.322938",
    "longitude": "-90.07265619340751",
    "latitude": "29.92970708873247",
    "geocoded_column": {
      "latitude": "29.92970708873247",
      "longitude": "-90.07265619340751"
    }
  },
  {
    "service_request": "2023-1038265",
    "request_type": "Property Maintenance",
    "request_reason": "Property Maintenance",
    "date_created": "2023-09-25T19:05:58.000",
    "date_modified": "2023-09-25T19:05:58.000",
    "request_status": "Pending",
    "responsible_agency": "Department of Code Enforcement",
    "final_address": "8532 Huntington Park Dr",
    "address_councildis": "E",
    "status": "Pending",
    "rowid": "1038265",
    "final_x": "3705369.77035",
    "final_y": "560116.170269",
    "longitude": "-89.99164150177226",
    "latitude": "30.033378090258225",
    "geocoded_column": {
      "latitude": "30.033378090258225",
      "longitude": "-89.99164150177226"
    }
  },
  {
    "service_request": "2023-1038264",
    "request_type": "Property Maintenance",
    "request_reason": "Property Maintenance",
    "date_created": "2023-09-25T19:00:33.000",
    "date_modified": "2023-09-25T19:00:33.000",
    "request_status": "Pending",
    "responsible_agency": "Department of Code Enforcement",
    "final_address": "8561 Fordham Ct",
    "address_councildis": "E",
    "status": "Pending",
    "rowid": "1038264",
    "final_x": "3705257.92139",
    "final_y": "560558.018526",
    "longitude": "-89.99197860816406",
    "latitude": "30.034596600260215",
    "geocoded_column": {
      "latitude": "30.034596600260215",
      "longitude": "-89.99197860816406"
    }
  },
  {
    "service_request": "2023-1038263",
    "request_type": "Property Maintenance",
    "request_reason": "Property Maintenance",
    "date_created": "2023-09-25T18:57:46.000",
    "date_modified": "2023-09-25T18:57:46.000",
    "request_status": "Pending",
    "responsible_agency": "Department of Code Enforcement",
    "final_address": "7151 Benson Ct",
    "address_councildis": "E",
    "status": "Pending",
    "rowid": "1038263",
    "final_x": "3705334.26596",
    "final_y": "560629.374942",
    "longitude": "-89.99173471004289",
    "latitude": "30.03479034479472",
    "geocoded_column": {
      "latitude": "30.03479034479472",
      "longitude": "-89.99173471004289"
    }
  },
  {
    "service_request": "2023-1038262",
    "request_type": "Roads/Drainage",
    "request_reason": "Pothole",
    "date_created": "2023-09-25T18:56:51.000",
    "date_modified": "2023-09-25T18:56:51.000",
    "request_status": "Pending",
    "responsible_agency": "Department of Public Works",
    "final_address": "5820 Hurst St",
    "address_councildis": "A",
    "status": "Pending",
    "rowid": "1038262",
    "final_x": "3665881.5394",
    "final_y": "521666.973177",
    "longitude": "-90.11771806353475",
    "latitude": "29.928867997550743",
    "geocoded_column": {
      "latitude": "29.928867997550743",
      "longitude": "-90.11771806353475"
    }
  },
  {
    "service_request": "2023-1038261",
    "request_type": "Roads/Drainage",
    "request_reason": "Pothole",
    "date_created": "2023-09-25T18:55:47.000",
    "date_modified": "2023-09-25T18:55:47.000",
    "request_status": "Pending",
    "responsible_agency": "Department of Public Works",
    "final_address": "6056 Prytania St",
    "address_councildis": "A",
    "status": "Pending",
    "rowid": "1038261",
    "final_x": "3664777.32365",
    "final_y": "520956.318201",
    "longitude": "-90.12122759545672",
    "latitude": "29.926946085385712",
    "geocoded_column": {
      "latitude": "29.926946085385712",
      "longitude": "-90.12122759545672"
    }
  },
  {
    "service_request": "2023-1038260",
    "request_type": "Roads/Drainage",
    "request_reason": "Pothole",
    "date_created": "2023-09-25T18:54:24.000",
    "date_modified": "2023-09-25T18:54:24.000",
    "request_status": "Pending",
    "responsible_agency": "Department of Public Works",
    "final_address": "1525 Eleonore St",
    "address_councildis": "A",
    "status": "Pending",
    "rowid": "1038260",
    "final_x": "3665916.94823",
    "final_y": "521918.417722",
    "longitude": "-90.11759786279285",
    "latitude": "29.929558357498486",
    "geocoded_column": {
      "latitude": "29.929558357498486",
      "longitude": "-90.11759786279285"
    }
  },
  {
    "service_request": "2023-1038259",
    "request_type": "Property Maintenance",
    "request_reason": "Property Maintenance",
    "date_created": "2023-09-25T18:45:14.000",
    "date_modified": "2023-09-25T18:45:14.000",
    "request_status": "Pending",
    "responsible_agency": "Department of Code Enforcement",
    "final_address": "7126 Parkside Ct",
    "address_councildis": "E",
    "status": "Pending",
    "rowid": "1038259",
    "final_x": "3704455.35863",
    "final_y": "560053.108957",
    "longitude": "-89.99453344542539",
    "latitude": "30.03323410501178",
    "geocoded_column": {
      "latitude": "30.03323410501178",
      "longitude": "-89.99453344542539"
    }
  },
  {
    "service_request": "2023-1038257",
    "request_type": "Trash/Recycling",
    "request_reason": "Missed Trash Pick-Up",
    "date_created": "2023-09-25T18:14:50.000",
    "date_modified": "2023-09-25T18:14:51.000",
    "request_status": "Pending",
    "responsible_agency": "Department of Sanitation",
    "final_address": "806 Hidalgo St",
    "address_councildis": "A",
    "status": "Assigned to Contractor",
    "contractor": "IV Waste",
    "rowid": "1038257",
    "final_x": "3668798.23713",
    "final_y": "544026.665038",
    "longitude": "-90.10775564122244",
    "latitude": "29.990264359043714",
    "geocoded_column": {
      "latitude": "29.990264359043714",
      "longitude": "-90.10775564122244"
    }
  },
  {
    "service_request": "2023-1038256",
    "request_type": "Trash/Recycling",
    "request_reason": "Return Recycling Cart",
    "date_created": "2023-09-25T18:07:14.000",
    "date_modified": "2023-09-25T18:07:14.000",
    "request_status": "Pending",
    "responsible_agency": "Department of Sanitation",
    "final_address": "3411 Bruxelles St",
    "address_councildis": "D",
    "status": "Pending",
    "rowid": "1038256",
    "final_x": "3680173.96117",
    "final_y": "544913.639951",
    "longitude": "-90.07179184582327",
    "latitude": "29.992363763787317",
    "geocoded_column": {
      "latitude": "29.992363763787317",
      "longitude": "-90.07179184582327"
    }
  },
  {
    "service_request": "2023-1038255",
    "request_type": "Parks & Parkways",
    "request_reason": "Request Grass Cutting Service (City Owned Property)",
    "date_created": "2023-09-25T18:01:24.000",
    "date_modified": "2023-09-25T18:01:24.000",
    "request_status": "Pending",
    "responsible_agency": "Department of Parks & Parkway",
    "final_address": "4400 Longfellow Dr",
    "address_councildis": "E",
    "status": "Pending",
    "rowid": "1038255",
    "final_x": "3709733.01253",
    "final_y": "554052.415576",
    "longitude": "-89.97807996641306",
    "latitude": "30.016563942404638",
    "geocoded_column": {
      "latitude": "30.016563942404638",
      "longitude": "-89.97807996641306"
    }
  },
  {
    "service_request": "2023-1038254",
    "request_type": "Parks & Parkways",
    "request_reason": "Request Tree Service (Right of Way/Public Property)",
    "date_created": "2023-09-25T17:57:36.000",
    "date_modified": "2023-09-25T17:57:36.000",
    "request_status": "Pending",
    "responsible_agency": "Department of Parks & Parkway",
    "final_address": "4000 BLK Franklin Ave",
    "address_councildis": "D",
    "status": "Pending",
    "rowid": "1038254",
    "final_x": "3687049.70329",
    "final_y": "547652.968458",
    "longitude": "-90.04997584160202",
    "latitude": "29.999685990603545",
    "geocoded_column": {
      "latitude": "29.999685990603545",
      "longitude": "-90.04997584160202"
    }
  },
  {
    "service_request": "2023-1038253",
    "request_type": "Abandoned Vehicles",
    "request_reason": "Vehicle Blocking Your Driveway",
    "date_created": "2023-09-25T17:54:09.000",
    "date_modified": "2023-09-25T17:54:09.000",
    "request_status": "Pending",
    "responsible_agency": "Department of Public Works",
    "final_address": "2201 Calhoun St",
    "address_councildis": "A",
    "status": "Pending",
    "rowid": "1038253",
    "final_x": "3665838.92442",
    "final_y": "525099.378685",
    "longitude": "-90.11773764042846",
    "latitude": "29.938307264089133",
    "geocoded_column": {
      "latitude": "29.938307264089133",
      "longitude": "-90.11773764042846"
    }
  },
  {
    "service_request": "2023-1038252",
    "request_type": "Abandoned Vehicles",
    "request_reason": "Vehicle Blocking Your Driveway",
    "date_created": "2023-09-25T17:53:27.000",
    "date_modified": "2023-09-25T17:53:27.000",
    "request_status": "Pending",
    "responsible_agency": "Department of Public Works",
    "final_address": "2201 Calhoun St",
    "address_councildis": "A",
    "status": "Pending",
    "rowid": "1038252",
    "final_x": "3665838.92442",
    "final_y": "525099.378685",
    "longitude": "-90.11773764042846",
    "latitude": "29.938307264089133",
    "geocoded_column": {
      "latitude": "29.938307264089133",
      "longitude": "-90.11773764042846"
    }
  },
  {
    "service_request": "2023-1038251",
    "request_type": "Abandoned Vehicles",
    "request_reason": "Vehicle Blocking Your Driveway",
    "date_created": "2023-09-25T17:51:26.000",
    "date_modified": "2023-09-25T17:51:26.000",
    "request_status": "Pending",
    "responsible_agency": "Department of Public Works",
    "final_address": "2201 Calhoun St",
    "address_councildis": "A",
    "status": "Pending",
    "rowid": "1038251",
    "final_x": "3665838.92442",
    "final_y": "525099.378685",
    "longitude": "-90.11773764042846",
    "latitude": "29.938307264089133",
    "geocoded_column": {
      "latitude": "29.938307264089133",
      "longitude": "-90.11773764042846"
    }
  },
  {
    "service_request": "2023-1038250",
    "request_type": "Abandoned Vehicles",
    "request_reason": "Vehicle Blocking Your Driveway",
    "date_created": "2023-09-25T17:46:32.000",
    "date_modified": "2023-09-25T17:46:32.000",
    "request_status": "Pending",
    "responsible_agency": "Department of Public Works",
    "final_address": "2201 Calhoun St",
    "address_councildis": "A",
    "status": "Pending",
    "rowid": "1038250",
    "final_x": "3665838.92442",
    "final_y": "525099.378685",
    "longitude": "-90.11773764042846",
    "latitude": "29.938307264089133",
    "geocoded_column": {
      "latitude": "29.938307264089133",
      "longitude": "-90.11773764042846"
    }
  },
  {
    "service_request": "2023-1038249",
    "request_type": "Trash/Recycling",
    "request_reason": "Order Trash Cart",
    "date_created": "2023-09-25T17:43:48.000",
    "date_modified": "2023-09-25T17:43:49.000",
    "request_status": "Pending",
    "responsible_agency": "Department of Sanitation",
    "final_address": "6326 Dorothea St",
    "address_councildis": "D",
    "status": "Assigned to Contractor",
    "contractor": "Waste Pro",
    "rowid": "1038249",
    "final_x": "3696855.788",
    "final_y": "557574.983131",
    "longitude": "-90.01863858084305",
    "latitude": "30.026662167089533",
    "geocoded_column": {
      "latitude": "30.026662167089533",
      "longitude": "-90.01863858084305"
    }
  },
  {
    "service_request": "2023-1038248",
    "request_type": "Trash/Recycling",
    "request_reason": "Order Recycling Cart",
    "date_created": "2023-09-25T17:27:06.000",
    "date_modified": "2023-09-25T17:27:07.000",
    "request_status": "Pending",
    "responsible_agency": "Department of Sanitation",
    "final_address": "106 Kingston Ct",
    "address_councildis": "C",
    "status": "Pending",
    "rowid": "1038248",
    "final_x": "3705843.09777",
    "final_y": "517846.83999",
    "longitude": "-89.9917097335042",
    "latitude": "29.91713775149591",
    "geocoded_column": {
      "latitude": "29.91713775149591",
      "longitude": "-89.9917097335042"
    }
  },
  {
    "service_request": "2023-1038247",
    "request_type": "Abandoned Vehicles",
    "request_reason": "Abandoned/Junk Vehicles",
    "date_created": "2023-09-25T17:24:42.000",
    "date_modified": "2023-09-25T17:24:42.000",
    "request_status": "Pending",
    "responsible_agency": "Department of Public Works",
    "final_address": "6559 Fleur-De-Lis Dr",
    "address_councildis": "A",
    "status": "Pending",
    "rowid": "1038247",
    "final_x": "3665460.43252",
    "final_y": "551747.454229",
    "longitude": "-90.11804028012395",
    "latitude": "30.01159161403642",
    "geocoded_column": {
      "latitude": "30.01159161403642",
      "longitude": "-90.11804028012395"
    }
  },
  {
    "service_request": "2023-1038246",
    "request_type": "Traffic Signals/Signs/Striping/Streetlights",
    "request_reason": "Street Light Outage/Malfunction",
    "date_created": "2023-09-25T17:22:01.000",
    "date_modified": "2023-09-25T17:22:01.000",
    "request_status": "Pending",
    "responsible_agency": "Department of Public Works",
    "final_address": "5508 Annunciation St",
    "address_councildis": "A",
    "status": "Assigned to Contractor",
    "contractor": "Legacy Professional Services",
    "rowid": "1038246",
    "final_x": "3666038.32128",
    "final_y": "517515.25791",
    "longitude": "-90.11736221589926",
    "latitude": "29.91744751164147",
    "geocoded_column": {
      "latitude": "29.91744751164147",
      "longitude": "-90.11736221589926"
    }
  },
  {
    "service_request": "2023-1038245",
    "request_type": "Trash/Recycling",
    "request_reason": "Request a Large Item Pick Up",
    "date_created": "2023-09-25T17:13:59.000",
    "date_modified": "2023-09-25T17:14:00.000",
    "request_status": "Pending",
    "responsible_agency": "Department of Sanitation",
    "final_address": "6027 N Derbigny St",
    "address_councildis": "E",
    "status": "Assigned to Contractor",
    "contractor": "Waste Pro",
    "rowid": "1038245",
    "final_x": "3700267.07671",
    "final_y": "535577.683782",
    "longitude": "-90.00866291375566",
    "latitude": "29.96606970766521",
    "geocoded_column": {
      "latitude": "29.96606970766521",
      "longitude": "-90.00866291375566"
    }
  },
  {
    "service_request": "2023-1038244",
    "request_type": "Safety & Permits",
    "request_reason": "Licenses & Permits",
    "date_created": "2023-09-25T17:09:35.000",
    "date_modified": "2023-09-25T17:09:35.000",
    "request_status": "Pending",
    "responsible_agency": "Safety and Permits",
    "status": "Pending",
    "rowid": "1038244",
    "longitude": "0.0",
    "latitude": "0.0",
    "geocoded_column": {
      "latitude": "0.0",
      "longitude": "0.0"
    }
  },
  {
    "service_request": "2023-1038243",
    "request_type": "Trash/Recycling",
    "request_reason": "Order Trash Cart",
    "date_created": "2023-09-25T17:08:13.000",
    "date_modified": "2023-09-25T17:08:14.000",
    "request_status": "Pending",
    "responsible_agency": "Department of Sanitation",
    "final_address": "5751 Carlisle Ct",
    "address_councildis": "C",
    "status": "Assigned to Contractor",
    "contractor": "Richards Disposal",
    "rowid": "1038243",
    "final_x": "3704919.01047",
    "final_y": "516478.791989",
    "longitude": "-89.99467697155762",
    "latitude": "29.91340580934551",
    "geocoded_column": {
      "latitude": "29.91340580934551",
      "longitude": "-89.99467697155762"
    }
  },
  {
    "service_request": "2023-1038241",
    "request_type": "Trash/Recycling",
    "request_reason": "Request a Large Item Pick Up",
    "date_created": "2023-09-25T17:06:27.000",
    "date_modified": "2023-09-25T17:06:28.000",
    "request_status": "Pending",
    "responsible_agency": "Department of Sanitation",
    "final_address": "12021 E Barrington Dr",
    "address_councildis": "E",
    "status": "Assigned to Contractor",
    "contractor": "Waste Pro",
    "rowid": "1038241",
    "final_x": "3714694.86821",
    "final_y": "566127.617571",
    "longitude": "-89.96194617379786",
    "latitude": "30.049603613661116",
    "geocoded_column": {
      "latitude": "30.049603613661116",
      "longitude": "-89.96194617379786"
    }
  },
  {
    "service_request": "2023-1038240",
    "request_type": "Abandoned Vehicles",
    "request_reason": "Abandoned/Junk Vehicles",
    "date_created": "2023-09-25T17:03:41.000",
    "date_modified": "2023-09-25T17:03:41.000",
    "request_status": "Pending",
    "responsible_agency": "Department of Public Works",
    "final_address": "5500 BLK Warrington Dr",
    "address_councildis": "D",
    "status": "Pending",
    "rowid": "1038240",
    "final_x": "3680857.83805",
    "final_y": "553189.06631",
    "longitude": "-90.06934325337735",
    "latitude": "30.0150975028042",
    "geocoded_column": {
      "latitude": "30.0150975028042",
      "longitude": "-90.06934325337735"
    }
  },
  {
    "service_request": "2023-1038239",
    "request_type": "Abandoned Vehicles",
    "request_reason": "Abandoned/Junk Vehicles",
    "date_created": "2023-09-25T17:02:41.000",
    "date_modified": "2023-09-25T17:02:41.000",
    "request_status": "Pending",
    "responsible_agency": "Department of Public Works",
    "final_address": "1245 St Bernard Ave",
    "address_councildis": "C",
    "status": "Pending",
    "rowid": "1038239",
    "final_x": "3682976.07797",
    "final_y": "536460.879623",
    "longitude": "-90.06323647066438",
    "latitude": "29.969036507578892",
    "geocoded_column": {
      "latitude": "29.969036507578892",
      "longitude": "-90.06323647066438"
    }
  },
  {
    "service_request": "2023-1038238",
    "request_type": "Property Maintenance",
    "request_reason": "Property Maintenance",
    "date_created": "2023-09-25T16:57:45.000",
    "date_modified": "2023-09-25T16:57:45.000",
    "request_status": "Pending",
    "responsible_agency": "Department of Code Enforcement",
    "final_address": "1345 Annette St",
    "address_councildis": "C",
    "status": "Pending",
    "rowid": "1038238",
    "final_x": "3683116.75381",
    "final_y": "536920.837256",
    "longitude": "-90.06277610046752",
    "latitude": "29.97029694363221",
    "geocoded_column": {
      "latitude": "29.97029694363221",
      "longitude": "-90.06277610046752"
    }
  },
  {
    "service_request": "2023-1038237",
    "request_type": "Trash/Recycling",
    "request_reason": "Request a Large Item Pick Up",
    "date_created": "2023-09-25T16:55:18.000",
    "date_modified": "2023-09-25T16:55:19.000",
    "request_status": "Pending",
    "responsible_agency": "Department of Sanitation",
    "final_address": "4504 S Johnson St",
    "address_councildis": "B",
    "status": "Assigned to Contractor",
    "contractor": "Richards Disposal",
    "rowid": "1038237",
    "final_x": "3669754.41959",
    "final_y": "527122.895551",
    "longitude": "-90.10530754435898",
    "latitude": "29.943756481756097",
    "geocoded_column": {
      "latitude": "29.943756481756097",
      "longitude": "-90.10530754435898"
    }
  },
  {
    "service_request": "2023-1038236",
    "request_type": "Property Maintenance",
    "request_reason": "Property Maintenance",
    "date_created": "2023-09-25T16:54:20.000",
    "date_modified": "2023-09-25T16:54:20.000",
    "request_status": "Pending",
    "responsible_agency": "Department of Code Enforcement",
    "status": "Pending",
    "rowid": "1038236",
    "longitude": "0.0",
    "latitude": "0.0",
    "geocoded_column": {
      "latitude": "0.0",
      "longitude": "0.0"
    }
  },
  {
    "service_request": "2023-1038235",
    "request_type": "Trash/Recycling",
    "request_reason": "Request a Large Item Pick Up",
    "date_created": "2023-09-25T16:51:06.000",
    "date_modified": "2023-09-25T16:51:07.000",
    "request_status": "Pending",
    "responsible_agency": "Department of Sanitation",
    "final_address": "347 22Nd St",
    "address_councildis": "A",
    "status": "Assigned to Contractor",
    "contractor": "IV Waste",
    "rowid": "1038235",
    "final_x": "3664839.11597",
    "final_y": "549399.402643",
    "longitude": "-90.12008183507523",
    "latitude": "30.00515339149226",
    "geocoded_column": {
      "latitude": "30.00515339149226",
      "longitude": "-90.12008183507523"
    }
  },
  {
    "service_request": "2023-1038234",
    "request_type": "Property Maintenance",
    "request_reason": "Property Maintenance",
    "date_created": "2023-09-25T16:48:42.000",
    "date_modified": "2023-09-25T16:48:42.000",
    "request_status": "Pending",
    "responsible_agency": "Department of Code Enforcement",
    "status": "Pending",
    "rowid": "1038234",
    "longitude": "0.0",
    "latitude": "0.0",
    "geocoded_column": {
      "latitude": "0.0",
      "longitude": "0.0"
    }
  },
  {
    "service_request": "2023-1038233",
    "request_type": "Trash/Recycling",
    "request_reason": "Request a Large Item Pick Up",
    "date_created": "2023-09-25T16:46:27.000",
    "date_modified": "2023-09-25T16:46:28.000",
    "request_status": "Pending",
    "responsible_agency": "Department of Sanitation",
    "final_address": "8911 Dwyer Rd",
    "address_councildis": "E",
    "status": "Assigned to Contractor",
    "contractor": "Waste Pro",
    "rowid": "1038233",
    "final_x": "3707935.06212",
    "final_y": "557089.272154",
    "longitude": "-89.98364765013957",
    "latitude": "30.02497246680143",
    "geocoded_column": {
      "latitude": "30.02497246680143",
      "longitude": "-89.98364765013957"
    }
  },
  {
    "service_request": "2023-1038232",
    "request_type": "Property Maintenance",
    "request_reason": "Property Maintenance",
    "date_created": "2023-09-25T16:45:08.000",
    "date_modified": "2023-09-25T16:45:08.000",
    "request_status": "Pending",
    "responsible_agency": "Department of Code Enforcement",
    "final_address": "2627 Monroe St",
    "address_councildis": "A",
    "status": "Pending",
    "rowid": "1038232",
    "final_x": "3663956.08141",
    "final_y": "533671.632837",
    "longitude": "-90.12339620993714",
    "latitude": "29.961932986149947",
    "geocoded_column": {
      "latitude": "29.961932986149947",
      "longitude": "-90.12339620993714"
    }
  },
  {
    "service_request": "2023-1038231",
    "request_type": "Property Maintenance",
    "request_reason": "Property Maintenance",
    "date_created": "2023-09-25T16:37:00.000",
    "date_modified": "2023-09-25T16:37:00.000",
    "request_status": "Pending",
    "responsible_agency": "Department of Code Enforcement",
    "status": "Pending",
    "rowid": "1038231",
    "longitude": "0.0",
    "latitude": "0.0",
    "geocoded_column": {
      "latitude": "0.0",
      "longitude": "0.0"
    }
  },
  {
    "service_request": "2023-1038230",
    "request_type": "Trash/Recycling",
    "request_reason": "Illegal Dumping",
    "date_created": "2023-09-25T16:34:44.000",
    "date_modified": "2023-09-25T16:34:44.000",
    "request_status": "Pending",
    "responsible_agency": "Department of Sanitation",
    "final_address": "1941 Port St",
    "address_councildis": "D",
    "status": "Pending",
    "rowid": "1038230",
    "final_x": "3688294.26652",
    "final_y": "539690.357322",
    "longitude": "-90.0463267603365",
    "latitude": "29.977753274030842",
    "geocoded_column": {
      "latitude": "29.977753274030842",
      "longitude": "-90.0463267603365"
    }
  },
  {
    "service_request": "2023-1038229",
    "request_type": "Trash/Recycling",
    "request_reason": "Illegal Dumping",
    "date_created": "2023-09-25T16:34:18.000",
    "date_modified": "2023-09-25T16:34:18.000",
    "request_status": "Pending",
    "responsible_agency": "Department of Sanitation",
    "final_address": "1938 Port St",
    "address_councildis": "D",
    "status": "Pending",
    "rowid": "1038229",
    "final_x": "3688235.14569",
    "final_y": "539698.325194",
    "longitude": "-90.04651320114266",
    "latitude": "29.977777008620443",
    "geocoded_column": {
      "latitude": "29.977777008620443",
      "longitude": "-90.04651320114266"
    }
  },
  {
    "service_request": "2023-1038228",
    "request_type": "Trash/Recycling",
    "request_reason": "Illegal Dumping",
    "date_created": "2023-09-25T16:33:44.000",
    "date_modified": "2023-09-25T16:33:44.000",
    "request_status": "Pending",
    "responsible_agency": "Department of Sanitation",
    "final_address": "1935 Port St",
    "address_councildis": "D",
    "status": "Pending",
    "rowid": "1038228",
    "final_x": "3688291.34236",
    "final_y": "539670.133386",
    "longitude": "-90.04633671324238",
    "latitude": "29.97769775566643",
    "geocoded_column": {
      "latitude": "29.97769775566643",
      "longitude": "-90.04633671324238"
    }
  },
  {
    "service_request": "2023-1038227",
    "request_type": "Trash/Recycling",
    "request_reason": "Illegal Dumping",
    "date_created": "2023-09-25T16:32:31.000",
    "date_modified": "2023-09-25T16:32:32.000",
    "request_status": "Pending",
    "responsible_agency": "Department of Sanitation",
    "final_address": "1944 Port St",
    "address_councildis": "D",
    "status": "Pending",
    "rowid": "1038227",
    "final_x": "3688248.14383",
    "final_y": "539738.624394",
    "longitude": "-90.04647071921252",
    "latitude": "29.977887415789255",
    "geocoded_column": {
      "latitude": "29.977887415789255",
      "longitude": "-90.04647071921252"
    }
  },
  {
    "service_request": "2023-1038226",
    "request_type": "Trash/Recycling",
    "request_reason": "Request a Large Item Pick Up",
    "date_created": "2023-09-25T16:31:51.000",
    "date_modified": "2023-09-25T16:42:57.000",
    "request_status": "Pending",
    "responsible_agency": "Department of Sanitation",
    "final_address": "1348 Allen Toussaint Blvd",
    "address_councildis": "D",
    "status": "Assigned to Contractor",
    "contractor": "IV Waste",
    "rowid": "1038226",
    "final_x": "3677295.84398",
    "final_y": "555065.453657",
    "longitude": "-90.08053265689318",
    "latitude": "30.020364450425745",
    "geocoded_column": {
      "latitude": "30.020364450425745",
      "longitude": "-90.08053265689318"
    }
  },
  {
    "service_request": "2023-1038225",
    "request_type": "Trash/Recycling",
    "request_reason": "Request a Large Item Pick Up",
    "date_created": "2023-09-25T16:30:54.000",
    "date_modified": "2023-09-25T16:30:55.000",
    "request_status": "Pending",
    "responsible_agency": "Department of Sanitation",
    "final_address": "5710 St Bernard Ave",
    "address_councildis": "D",
    "status": "Assigned to Contractor",
    "contractor": "IV Waste",
    "rowid": "1038225",
    "final_x": "3676761.79445",
    "final_y": "553418.291159",
    "longitude": "-90.0822769154463",
    "latitude": "30.015851392177428",
    "geocoded_column": {
      "latitude": "30.015851392177428",
      "longitude": "-90.0822769154463"
    }
  },
  {
    "service_request": "2023-1038224",
    "request_type": "Traffic Signals/Signs/Striping/Streetlights",
    "request_reason": "Additional signage",
    "date_created": "2023-09-25T16:29:15.000",
    "date_modified": "2023-09-25T16:30:18.000",
    "request_status": "Pending",
    "responsible_agency": "Department of Public Works",
    "final_address": "N GALVEZ ST & PAULINE ST",
    "address_councildis": "D",
    "status": "Pending",
    "rowid": "1038224",
    "final_x": "3692145.4",
    "final_y": "539215.68",
    "longitude": "-90.03418060100778",
    "latitude": "29.976328580023814",
    "geocoded_column": {
      "latitude": "29.976328580023814",
      "longitude": "-90.03418060100778"
    }
  },
  {
    "service_request": "2023-1038223",
    "request_type": "Property Maintenance",
    "request_reason": "Property Maintenance",
    "date_created": "2023-09-25T16:27:41.000",
    "date_modified": "2023-09-25T16:27:41.000",
    "request_status": "Pending",
    "responsible_agency": "Department of Code Enforcement",
    "status": "Pending",
    "rowid": "1038223",
    "longitude": "0.0",
    "latitude": "0.0",
    "geocoded_column": {
      "latitude": "0.0",
      "longitude": "0.0"
    }
  },
  {
    "service_request": "2023-1038222",
    "request_type": "Trash/Recycling",
    "request_reason": "Repair Trash Cart",
    "date_created": "2023-09-25T16:23:00.000",
    "date_modified": "2023-09-25T16:23:00.000",
    "request_status": "Pending",
    "responsible_agency": "Department of Sanitation",
    "final_address": "993 Crystal St",
    "address_councildis": "D",
    "status": "Assigned to Contractor",
    "contractor": "IV Waste",
    "rowid": "1038222",
    "final_x": "3671518.51707",
    "final_y": "557163.762267",
    "longitude": "-90.09871584580539",
    "latitude": "30.026306465022707",
    "geocoded_column": {
      "latitude": "30.026306465022707",
      "longitude": "-90.09871584580539"
    }
  },
  {
    "service_request": "2023-1038221",
    "request_type": "Roads/Drainage",
    "request_reason": "Pothole",
    "date_created": "2023-09-25T16:21:11.000",
    "date_modified": "2023-09-25T16:21:11.000",
    "request_status": "Pending",
    "responsible_agency": "Department of Public Works",
    "final_address": "1014 Leonidas St",
    "address_councildis": "A",
    "status": "Pending",
    "rowid": "1038221",
    "final_x": "3660239.93606",
    "final_y": "529176.061952",
    "longitude": "-90.13527971395206",
    "latitude": "29.949678987568635",
    "geocoded_column": {
      "latitude": "29.949678987568635",
      "longitude": "-90.13527971395206"
    }
  },
  {
    "service_request": "2023-1038220",
    "request_type": "Property Maintenance",
    "request_reason": "Property Maintenance",
    "date_created": "2023-09-25T16:19:50.000",
    "date_modified": "2023-09-25T16:19:50.000",
    "request_status": "Pending",
    "responsible_agency": "Department of Code Enforcement",
    "status": "Pending",
    "rowid": "1038220",
    "longitude": "0.0",
    "latitude": "0.0",
    "geocoded_column": {
      "latitude": "0.0",
      "longitude": "0.0"
    }
  },
  {
    "service_request": "2023-1038219",
    "request_type": "Trash/Recycling",
    "request_reason": "Replace Trash Cart",
    "date_created": "2023-09-25T16:16:11.000",
    "date_modified": "2023-09-25T16:16:12.000",
    "request_status": "Pending",
    "responsible_agency": "Department of Sanitation",
    "final_address": "6001 Wilton Dr",
    "address_councildis": "D",
    "status": "Assigned to Contractor",
    "contractor": "IV Waste",
    "rowid": "1038219",
    "final_x": "3681815.87797",
    "final_y": "554681.584664",
    "longitude": "-90.06626415727388",
    "latitude": "30.01917229050315",
    "geocoded_column": {
      "latitude": "30.01917229050315",
      "longitude": "-90.06626415727388"
    }
  },
  {
    "service_request": "2023-1038218",
    "request_type": "Abandoned Vehicles",
    "request_reason": "Abandoned/Junk Vehicles",
    "date_created": "2023-09-25T16:15:23.000",
    "date_modified": "2023-09-25T16:15:23.000",
    "request_status": "Pending",
    "responsible_agency": "Department of Public Works",
    "final_address": "2130 Holiday Dr",
    "address_councildis": "C",
    "status": "Pending",
    "rowid": "1038218",
    "final_x": "3698990.14359",
    "final_y": "523349.941691",
    "longitude": "-90.01314031643632",
    "latitude": "29.932488246813563",
    "geocoded_column": {
      "latitude": "29.932488246813563",
      "longitude": "-90.01314031643632"
    }
  },
  {
    "service_request": "2023-1038217",
    "request_type": "Property Maintenance",
    "request_reason": "Property Maintenance",
    "date_created": "2023-09-25T16:14:59.000",
    "date_modified": "2023-09-25T16:14:59.000",
    "request_status": "Pending",
    "responsible_agency": "Department of Code Enforcement",
    "status": "Pending",
    "rowid": "1038217",
    "longitude": "0.0",
    "latitude": "0.0",
    "geocoded_column": {
      "latitude": "0.0",
      "longitude": "0.0"
    }
  },
  {
    "service_request": "2023-1038215",
    "request_type": "Trash/Recycling",
    "request_reason": "Request a Large Item Pick Up",
    "date_created": "2023-09-25T16:06:25.000",
    "date_modified": "2023-09-25T16:06:26.000",
    "request_status": "Pending",
    "responsible_agency": "Department of Sanitation",
    "final_address": "2435 Governor Nicholls St",
    "address_councildis": "D",
    "status": "Assigned to Contractor",
    "contractor": "Richards Disposal",
    "rowid": "1038215",
    "final_x": "3678720.42453",
    "final_y": "537783.581832",
    "longitude": "-90.07663030392345",
    "latitude": "29.97280250421531",
    "geocoded_column": {
      "latitude": "29.97280250421531",
      "longitude": "-90.07663030392345"
    }
  },
  {
    "service_request": "2023-1038214",
    "request_type": "Property Maintenance",
    "request_reason": "Property Maintenance",
    "date_created": "2023-09-25T16:06:19.000",
    "date_modified": "2023-09-25T16:06:19.000",
    "request_status": "Pending",
    "responsible_agency": "Department of Code Enforcement",
    "final_address": "2019 Marais St",
    "address_councildis": "C",
    "status": "Pending",
    "rowid": "1038214",
    "final_x": "3684382.01634",
    "final_y": "536651.549511",
    "longitude": "-90.05878973029225",
    "latitude": "29.969517858089105",
    "geocoded_column": {
      "latitude": "29.969517858089105",
      "longitude": "-90.05878973029225"
    }
  },
  {
    "service_request": "2023-1038213",
    "request_type": "Trash/Recycling",
    "request_reason": "Request a Large Item Pick Up",
    "date_created": "2023-09-25T16:04:23.000",
    "date_modified": "2023-09-25T16:04:24.000",
    "request_status": "Pending",
    "responsible_agency": "Department of Sanitation",
    "final_address": "1622 Nie Prkwy",
    "address_councildis": "C",
    "status": "Assigned to Contractor",
    "contractor": "Richards Disposal",
    "rowid": "1038213",
    "final_x": "3701271.35332",
    "final_y": "524920.133372",
    "longitude": "-90.00588136125636",
    "latitude": "29.93673326004419",
    "geocoded_column": {
      "latitude": "29.93673326004419",
      "longitude": "-90.00588136125636"
    }
  },
  {
    "service_request": "2023-1038212",
    "request_type": "Safety & Permits",
    "request_reason": "Construction permit",
    "date_created": "2023-09-25T15:59:17.000",
    "date_modified": "2023-09-25T15:59:17.000",
    "request_status": "Pending",
    "responsible_agency": "Department of Code Enforcement",
    "final_address": "3511 Octavia St",
    "address_councildis": "A",
    "status": "Pending",
    "rowid": "1038212",
    "final_x": "3668602.71604",
    "final_y": "528433.530176",
    "longitude": "-90.10889957462071",
    "latitude": "29.94739419058378",
    "geocoded_column": {
      "latitude": "29.94739419058378",
      "longitude": "-90.10889957462071"
    }
  },
  {
    "service_request": "2023-1038211",
    "request_type": "Property Maintenance",
    "request_reason": "Property Maintenance",
    "date_created": "2023-09-25T15:58:30.000",
    "date_modified": "2023-09-25T15:58:30.000",
    "request_status": "Pending",
    "responsible_agency": "Department of Code Enforcement",
    "final_address": "1200 Touro St",
    "address_councildis": "C",
    "status": "Pending",
    "rowid": "1038211",
    "final_x": "3684174.82402",
    "final_y": "536634.412039",
    "longitude": "-90.05944466167489",
    "latitude": "29.969477071340567",
    "geocoded_column": {
      "latitude": "29.969477071340567",
      "longitude": "-90.05944466167489"
    }
  },
  {
    "service_request": "2023-1038210",
    "request_type": "Mosquito, Termite & Rodent Control",
    "request_reason": "Rodent Complaint (Rats)",
    "date_created": "2023-09-25T15:54:18.000",
    "date_modified": "2023-09-25T15:54:18.000",
    "request_status": "Pending",
    "responsible_agency": "Mosquito, Termite & Rodent Control Board",
    "final_address": "2456 N Galvez St",
    "address_councildis": "D",
    "status": "Pending",
    "rowid": "1038210",
    "final_x": "3686714.18204",
    "final_y": "540113.433035",
    "longitude": "-90.05130224935417",
    "latitude": "29.978965287925345",
    "geocoded_column": {
      "latitude": "29.978965287925345",
      "longitude": "-90.05130224935417"
    }
  },
  {
    "service_request": "2023-1038209",
    "request_type": "Abandoned Vehicles",
    "request_reason": "Abandoned/Junk Vehicles",
    "date_created": "2023-09-25T15:51:42.000",
    "date_modified": "2023-09-25T15:51:43.000",
    "request_status": "Pending",
    "responsible_agency": "Department of Public Works",
    "final_address": "8300 Nelson St",
    "address_councildis": "A",
    "status": "Pending",
    "rowid": "1038209",
    "final_x": "3664529.76506",
    "final_y": "532332.095235",
    "longitude": "-90.12162933081449",
    "latitude": "29.958233026458224",
    "geocoded_column": {
      "latitude": "29.958233026458224",
      "longitude": "-90.12162933081449"
    }
  },
  {
    "service_request": "2023-1038208",
    "request_type": "Trash/Recycling",
    "request_reason": "Request a Large Item Pick Up",
    "date_created": "2023-09-25T15:48:17.000",
    "date_modified": "2023-09-25T15:48:18.000",
    "request_status": "Pending",
    "responsible_agency": "Department of Sanitation",
    "final_address": "4959 Elysian Fields Ave",
    "address_councildis": "D",
    "status": "Assigned to Contractor",
    "contractor": "IV Waste",
    "rowid": "1038208",
    "final_x": "3683942.92981",
    "final_y": "551166.022037",
    "longitude": "-90.05966688608936",
    "latitude": "30.00944093139664",
    "geocoded_column": {
      "latitude": "30.00944093139664",
      "longitude": "-90.05966688608936"
    }
  },
  {
    "service_request": "2023-1038207",
    "request_type": "Property Maintenance",
    "request_reason": "Property Maintenance",
    "date_created": "2023-09-25T15:47:10.000",
    "date_modified": "2023-09-25T15:47:10.000",
    "request_status": "Pending",
    "responsible_agency": "Department of Code Enforcement",
    "final_address": "1901 Marais St",
    "address_councildis": "C",
    "status": "Pending",
    "rowid": "1038207",
    "final_x": "3683869.78709",
    "final_y": "536606.045831",
    "longitude": "-90.06040898723492",
    "latitude": "29.969408395341414",
    "geocoded_column": {
      "latitude": "29.969408395341414",
      "longitude": "-90.06040898723492"
    }
  },
  {
    "service_request": "2023-1038206",
    "request_type": "Trash/Recycling",
    "request_reason": "Request a Large Item Pick Up",
    "date_created": "2023-09-25T15:45:58.000",
    "date_modified": "2023-09-25T15:45:59.000",
    "request_status": "Pending",
    "responsible_agency": "Department of Sanitation",
    "final_address": "2412 Valence St",
    "address_councildis": "B",
    "status": "Assigned to Contractor",
    "contractor": "Richards Disposal",
    "rowid": "1038206",
    "final_x": "3669392.82497",
    "final_y": "523708.113147",
    "longitude": "-90.1065646276437",
    "latitude": "29.934377583719453",
    "geocoded_column": {
      "latitude": "29.934377583719453",
      "longitude": "-90.1065646276437"
    }
  },
  {
    "service_request": "2023-1038205",
    "request_type": "Parks & Parkways",
    "request_reason": "Request Tree Service (Right of Way/Public Property)",
    "date_created": "2023-09-25T15:44:45.000",
    "date_modified": "2023-09-25T15:44:46.000",
    "request_status": "Pending",
    "responsible_agency": "Department of Parks & Parkway",
    "final_address": "1000 S Carrollton Ave",
    "address_councildis": "A",
    "status": "Pending",
    "rowid": "1038205",
    "final_x": "3661508.04582",
    "final_y": "527906.928127",
    "longitude": "-90.1313177293451",
    "latitude": "29.946152756883016",
    "geocoded_column": {
      "latitude": "29.946152756883016",
      "longitude": "-90.1313177293451"
    }
  },
  {
    "service_request": "2023-1038204",
    "request_type": "Trash/Recycling",
    "request_reason": "Order Recycling Cart",
    "date_created": "2023-09-25T15:32:47.000",
    "date_modified": "2023-09-25T15:32:47.000",
    "request_status": "Pending",
    "responsible_agency": "Department of Sanitation",
    "final_address": "2620 Marr Ave",
    "address_councildis": "C",
    "status": "Pending",
    "rowid": "1038204",
    "final_x": "3691473.08387",
    "final_y": "520805.458617",
    "longitude": "-90.03696180380496",
    "latitude": "29.925727782354183",
    "geocoded_column": {
      "latitude": "29.925727782354183",
      "longitude": "-90.03696180380496"
    }
  },
  {
    "service_request": "2023-1038203",
    "request_type": "Trash/Recycling",
    "request_reason": "Replace Trash Cart",
    "date_created": "2023-09-25T15:31:51.000",
    "date_modified": "2023-09-25T15:31:51.000",
    "request_status": "Pending",
    "responsible_agency": "Department of Sanitation",
    "final_address": "2713 Josephine St",
    "address_councildis": "B",
    "status": "Assigned to Contractor",
    "contractor": "Richards Disposal",
    "rowid": "1038203",
    "final_x": "3675465.8923",
    "final_y": "527177.609535",
    "longitude": "-90.08727299252463",
    "latitude": "29.943737380662142",
    "geocoded_column": {
      "latitude": "29.943737380662142",
      "longitude": "-90.08727299252463"
    }
  },
  {
    "service_request": "2023-1038202",
    "request_type": "Trash/Recycling",
    "request_reason": "Order Recycling Cart",
    "date_created": "2023-09-25T15:31:47.000",
    "date_modified": "2023-09-25T15:31:47.000",
    "request_status": "Pending",
    "responsible_agency": "Department of Sanitation",
    "final_address": "2616 Marr Ave",
    "address_councildis": "C",
    "status": "Pending",
    "rowid": "1038202",
    "final_x": "3691472.80585",
    "final_y": "520869.121529",
    "longitude": "-90.03696040777062",
    "latitude": "29.925902842587178",
    "geocoded_column": {
      "latitude": "29.925902842587178",
      "longitude": "-90.03696040777062"
    }
  },
  {
    "service_request": "2023-1038201",
    "request_type": "Trash/Recycling",
    "request_reason": "Missed Trash Pick-Up",
    "date_created": "2023-09-25T15:30:50.000",
    "date_modified": "2023-09-25T19:11:26.000",
    "case_close_date": "2023-09-25T14:11:26.000",
    "request_status": "Closed",
    "responsible_agency": "Department of Sanitation",
    "final_address": "5528 S Claiborne Ave",
    "address_councildis": "A",
    "status": "Duplicate Request",
    "contractor": "Richards Disposal",
    "contractor_action": "duplicate",
    "rowid": "1038201",
    "final_x": "3667892.95469",
    "final_y": "526439.486014",
    "longitude": "-90.11120772230845",
    "latitude": "29.94193205041005",
    "geocoded_column": {
      "latitude": "29.94193205041005",
      "longitude": "-90.11120772230845"
    }
  },
  {
    "service_request": "2023-1038200",
    "request_type": "Trash/Recycling",
    "request_reason": "Repair Trash Cart",
    "date_created": "2023-09-25T15:29:34.000",
    "date_modified": "2023-09-25T15:29:34.000",
    "request_status": "Pending",
    "responsible_agency": "Department of Sanitation",
    "final_address": "5325 Wingate Dr",
    "address_councildis": "D",
    "status": "Assigned to Contractor",
    "contractor": "IV Waste",
    "rowid": "1038200",
    "final_x": "3681460.78364",
    "final_y": "552797.68623",
    "longitude": "-90.06745189308931",
    "latitude": "30.01400304763723",
    "geocoded_column": {
      "latitude": "30.01400304763723",
      "longitude": "-90.06745189308931"
    }
  },
  {
    "service_request": "2023-1038199",
    "request_type": "Trash/Recycling",
    "request_reason": "Missed Trash Pick-Up",
    "date_created": "2023-09-25T15:28:35.000",
    "date_modified": "2023-09-25T15:28:36.000",
    "request_status": "Pending",
    "responsible_agency": "Department of Sanitation",
    "final_address": "5528 S Claiborne Ave",
    "address_councildis": "A",
    "status": "Assigned to Contractor",
    "contractor": "Richards Disposal",
    "rowid": "1038199",
    "final_x": "3667892.95469",
    "final_y": "526439.486014",
    "longitude": "-90.11120772230845",
    "latitude": "29.94193205041005",
    "geocoded_column": {
      "latitude": "29.94193205041005",
      "longitude": "-90.11120772230845"
    }
  },
  {
    "service_request": "2023-1038198",
    "request_type": "Property Maintenance",
    "request_reason": "Property Maintenance",
    "date_created": "2023-09-25T15:24:43.000",
    "date_modified": "2023-09-25T15:24:43.000",
    "request_status": "Pending",
    "responsible_agency": "Department of Code Enforcement",
    "final_address": "2625 Ursulines Ave",
    "address_councildis": "D",
    "status": "Pending",
    "rowid": "1038198",
    "final_x": "3677934.43125",
    "final_y": "538019.394057",
    "longitude": "-90.07910446724452",
    "latitude": "29.97347458667208",
    "geocoded_column": {
      "latitude": "29.97347458667208",
      "longitude": "-90.07910446724452"
    }
  },
  {
    "service_request": "2023-1038197",
    "request_type": "Roads/Drainage",
    "request_reason": "Damaged Sidewalk",
    "date_created": "2023-09-25T15:23:22.000",
    "date_modified": "2023-09-25T15:23:22.000",
    "request_status": "Pending",
    "responsible_agency": "Department of Public Works",
    "final_address": "OWENS BLVD & PARIS AVE",
    "address_councildis": "D",
    "status": "Pending",
    "rowid": "1038197",
    "final_x": "3679352.5",
    "final_y": "549061.58",
    "longitude": "-90.07424270743954",
    "latitude": "30.00379397143771",
    "geocoded_column": {
      "latitude": "30.00379397143771",
      "longitude": "-90.07424270743954"
    }
  },
  {
    "service_request": "2023-1038196",
    "request_type": "Trash/Recycling",
    "request_reason": "Replace Trash Cart",
    "date_created": "2023-09-25T15:21:40.000",
    "date_modified": "2023-09-25T15:21:40.000",
    "request_status": "Pending",
    "responsible_agency": "Department of Sanitation",
    "final_address": "2352 Laurel St",
    "address_councildis": "B",
    "status": "Assigned to Contractor",
    "contractor": "Richards Disposal",
    "rowid": "1038196",
    "final_x": "3678667.78549",
    "final_y": "520965.674361",
    "longitude": "-90.07737873117209",
    "latitude": "29.92656047295355",
    "geocoded_column": {
      "latitude": "29.92656047295355",
      "longitude": "-90.07737873117209"
    }
  },
  {
    "service_request": "2023-1038195",
    "request_type": "Traffic Signals/Signs/Striping/Streetlights",
    "request_reason": "Street Light Outage/Malfunction",
    "date_created": "2023-09-25T15:18:32.000",
    "date_modified": "2023-09-25T15:18:33.000",
    "request_status": "Pending",
    "responsible_agency": "Department of Public Works",
    "final_address": "535 Bermuda St",
    "address_councildis": "C",
    "status": "Assigned to Contractor",
    "contractor": "Legacy Professional Services",
    "rowid": "1038195",
    "final_x": "3686864.30825",
    "final_y": "529929.905153",
    "longitude": "-90.05118798940084",
    "latitude": "29.95095950348544",
    "geocoded_column": {
      "latitude": "29.95095950348544",
      "longitude": "-90.05118798940084"
    }
  },
  {
    "service_request": "2023-1038194",
    "request_type": "Abandoned Vehicles",
    "request_reason": "Abandoned/Junk Vehicles",
    "date_created": "2023-09-25T15:15:05.000",
    "date_modified": "2023-09-25T15:15:05.000",
    "request_status": "Pending",
    "responsible_agency": "Department of Public Works",
    "final_address": "7932 Haney Dr",
    "address_councildis": "E",
    "status": "Pending",
    "rowid": "1038194",
    "final_x": "3711919.33861",
    "final_y": "568185.074597",
    "longitude": "-89.9706411438213",
    "latitude": "30.055351829984016",
    "geocoded_column": {
      "latitude": "30.055351829984016",
      "longitude": "-89.9706411438213"
    }
  },
  {
    "service_request": "2023-1038193",
    "request_type": "Roads/Drainage",
    "request_reason": "Street Subsidence (Sinking)",
    "date_created": "2023-09-25T15:13:24.000",
    "date_modified": "2023-09-25T15:13:24.000",
    "request_status": "Pending",
    "responsible_agency": "Department of Public Works",
    "final_address": "4515 Paris Ave",
    "address_councildis": "D",
    "status": "Pending",
    "rowid": "1038193",
    "final_x": "3679513.47938",
    "final_y": "549166.464467",
    "longitude": "-90.07373050399403",
    "latitude": "30.004077501456866",
    "geocoded_column": {
      "latitude": "30.004077501456866",
      "longitude": "-90.07373050399403"
    }
  },
  {
    "service_request": "2023-1038192",
    "request_type": "Trash/Recycling",
    "request_reason": "Request a Large Item Pick Up",
    "date_created": "2023-09-25T15:12:36.000",
    "date_modified": "2023-09-25T15:12:37.000",
    "request_status": "Pending",
    "responsible_agency": "Department of Sanitation",
    "final_address": "13125 Calais St",
    "address_councildis": "E",
    "status": "Assigned to Contractor",
    "contractor": "Waste Pro",
    "rowid": "1038192",
    "final_x": "3724463.62144",
    "final_y": "560689.077534",
    "longitude": "-89.93128162530246",
    "latitude": "30.034324782820143",
    "geocoded_column": {
      "latitude": "30.034324782820143",
      "longitude": "-89.93128162530246"
    }
  },
  {
    "service_request": "2023-1038191",
    "request_type": "Traffic Signals/Signs/Striping/Streetlights",
    "request_reason": "Street Light Outage/Malfunction",
    "date_created": "2023-09-25T15:11:50.000",
    "date_modified": "2023-09-25T15:11:51.000",
    "request_status": "Pending",
    "responsible_agency": "Department of Public Works",
    "final_address": "7742 Berg Rd",
    "address_councildis": "E",
    "status": "Assigned to Contractor",
    "contractor": "Legacy Professional Services",
    "rowid": "1038191",
    "final_x": "3711542.01368",
    "final_y": "567275.60202",
    "longitude": "-89.97186793737464",
    "latitude": "30.052863483689798",
    "geocoded_column": {
      "latitude": "30.052863483689798",
      "longitude": "-89.97186793737464"
    }
  },
  {
    "service_request": "2023-1038190",
    "request_type": "Trash/Recycling",
    "request_reason": "Missed Trash Pick-Up",
    "date_created": "2023-09-25T15:10:23.000",
    "date_modified": "2023-09-25T15:10:24.000",
    "request_status": "Pending",
    "responsible_agency": "Department of Sanitation",
    "final_address": "2 Garden Ln",
    "address_councildis": "A",
    "status": "Assigned to Contractor",
    "contractor": "Richards Disposal",
    "rowid": "1038190",
    "final_x": "3663897.32339",
    "final_y": "539922.836042",
    "longitude": "-90.12337330948344",
    "latitude": "29.979123434598396",
    "geocoded_column": {
      "latitude": "29.979123434598396",
      "longitude": "-90.12337330948344"
    }
  },
  {
    "service_request": "2023-1038189",
    "request_type": "Abandoned Vehicles",
    "request_reason": "Abandoned/Junk Vehicles",
    "date_created": "2023-09-25T15:09:16.000",
    "date_modified": "2023-09-25T15:10:19.000",
    "request_status": "Pending",
    "responsible_agency": "Department of Public Works",
    "final_address": "7900 Breakwater Dr",
    "address_councildis": "A",
    "status": "Pending",
    "rowid": "1038189",
    "final_x": "3664989.36052",
    "final_y": "557781.413403",
    "longitude": "-90.11932661949814",
    "latitude": "30.02819660748211",
    "geocoded_column": {
      "latitude": "30.02819660748211",
      "longitude": "-90.11932661949814"
    }
  },
  {
    "service_request": "2023-1038188",
    "request_type": "Roads/Drainage",
    "request_reason": "Street Flooding / Drainage",
    "date_created": "2023-09-25T15:06:40.000",
    "date_modified": "2023-09-25T15:06:40.000",
    "request_status": "Pending",
    "responsible_agency": "Department of Public Works",
    "final_address": "616 Seventh St",
    "address_councildis": "B",
    "status": "Pending",
    "rowid": "1038188",
    "final_x": "3677258.05",
    "final_y": "518966.761911",
    "longitude": "-90.0818977957304",
    "latitude": "29.921106524014785",
    "geocoded_column": {
      "latitude": "29.921106524014785",
      "longitude": "-90.0818977957304"
    }
  },
  {
    "service_request": "2023-1038187",
    "request_type": "Traffic Signals/Signs/Striping/Streetlights",
    "request_reason": "Request for Stop Sign",
    "date_created": "2023-09-25T15:06:20.000",
    "date_modified": "2023-09-25T15:06:21.000",
    "request_status": "Pending",
    "responsible_agency": "Department of Public Works",
    "final_address": "MANDEVILLE ST & N MIRO ST",
    "address_councildis": "D",
    "status": "Pending",
    "rowid": "1038187",
    "final_x": "3685452.1",
    "final_y": "540416.18",
    "longitude": "-90.05527771459015",
    "latitude": "29.97983650272793",
    "geocoded_column": {
      "latitude": "29.97983650272793",
      "longitude": "-90.05527771459015"
    }
  },
  {
    "service_request": "2023-1038186",
    "request_type": "Trash/Recycling",
    "request_reason": "Repair Recycling Cart",
    "date_created": "2023-09-25T15:05:39.000",
    "date_modified": "2023-09-25T15:05:41.000",
    "request_status": "Pending",
    "responsible_agency": "Department of Sanitation",
    "final_address": "7818 Berg Rd",
    "address_councildis": "E",
    "status": "Pending",
    "rowid": "1038186",
    "final_x": "3711485.44094",
    "final_y": "567360.653604",
    "longitude": "-89.97204355265852",
    "latitude": "30.053099189100823",
    "geocoded_column": {
      "latitude": "30.053099189100823",
      "longitude": "-89.97204355265852"
    }
  },
  {
    "service_request": "2023-1038185",
    "request_type": "Trash/Recycling",
    "request_reason": "Repair Trash Cart",
    "date_created": "2023-09-25T15:03:53.000",
    "date_modified": "2023-09-25T15:03:53.000",
    "request_status": "Pending",
    "responsible_agency": "Department of Sanitation",
    "final_address": "4665 Pecan St",
    "address_councildis": "E",
    "status": "Assigned to Contractor",
    "contractor": "Waste Pro",
    "rowid": "1038185",
    "final_x": "3701909.22301",
    "final_y": "553914.073367",
    "longitude": "-90.00280470422516",
    "latitude": "30.016435675048957",
    "geocoded_column": {
      "latitude": "30.016435675048957",
      "longitude": "-90.00280470422516"
    }
  },
  {
    "service_request": "2023-1038184",
    "request_type": "Trash/Recycling",
    "request_reason": "Repair Recycling Cart",
    "date_created": "2023-09-25T15:03:23.000",
    "date_modified": "2023-09-25T15:03:23.000",
    "request_status": "Pending",
    "responsible_agency": "Department of Sanitation",
    "final_address": "13165 Wales St",
    "address_councildis": "E",
    "status": "Pending",
    "rowid": "1038184",
    "final_x": "3716294.32524",
    "final_y": "571067.073511",
    "longitude": "-89.95670339571441",
    "latitude": "30.06313234751536",
    "geocoded_column": {
      "latitude": "30.06313234751536",
      "longitude": "-89.95670339571441"
    }
  },
  {
    "service_request": "2023-1038183",
    "request_type": "Traffic Signals/Signs/Striping/Streetlights",
    "request_reason": "Street Light Outage/Malfunction",
    "date_created": "2023-09-25T15:02:55.000",
    "date_modified": "2023-09-25T15:02:56.000",
    "request_status": "Pending",
    "responsible_agency": "Department of Public Works",
    "final_address": "HARCOURT DR & PERLITA ST",
    "address_councildis": "D",
    "status": "Assigned to Contractor",
    "contractor": "Legacy Professional Services",
    "rowid": "1038183",
    "final_x": "3678805.5",
    "final_y": "548521.28",
    "longitude": "-90.07598950301563",
    "latitude": "30.002324854547574",
    "geocoded_column": {
      "latitude": "30.002324854547574",
      "longitude": "-90.07598950301563"
    }
  },
  {
    "service_request": "2023-1038182",
    "request_type": "Trash/Recycling",
    "request_reason": "Order Recycling Cart",
    "date_created": "2023-09-25T15:01:43.000",
    "date_modified": "2023-09-25T15:01:43.000",
    "request_status": "Pending",
    "responsible_agency": "Department of Sanitation",
    "final_address": "1041 Jena St",
    "address_councildis": "B",
    "status": "Pending",
    "rowid": "1038182",
    "final_x": "3670636.68187",
    "final_y": "519438.335223",
    "longitude": "-90.10278255736814",
    "latitude": "29.922600384855283",
    "geocoded_column": {
      "latitude": "29.922600384855283",
      "longitude": "-90.10278255736814"
    }
  },
  {
    "service_request": "2023-1038181",
    "request_type": "Property Maintenance",
    "request_reason": "Property Maintenance",
    "date_created": "2023-09-25T15:00:21.000",
    "date_modified": "2023-09-25T15:00:22.000",
    "request_status": "Pending",
    "responsible_agency": "Department of Code Enforcement",
    "final_address": "215 Adams St",
    "address_councildis": "A",
    "status": "Pending",
    "rowid": "1038181",
    "final_x": "3660828.93504",
    "final_y": "524881.712316",
    "longitude": "-90.1335619398706",
    "latitude": "29.937853944146834",
    "geocoded_column": {
      "latitude": "29.937853944146834",
      "longitude": "-90.1335619398706"
    }
  },
  {
    "service_request": "2023-1038180",
    "request_type": "Trash/Recycling",
    "request_reason": "Order Recycling Cart",
    "date_created": "2023-09-25T14:58:04.000",
    "date_modified": "2023-09-25T14:58:04.000",
    "request_status": "Pending",
    "responsible_agency": "Department of Sanitation",
    "final_address": "1043 Jena St",
    "address_councildis": "B",
    "status": "Pending",
    "rowid": "1038180",
    "final_x": "3670638.12692",
    "final_y": "519451.822135",
    "longitude": "-90.10277753870902",
    "latitude": "29.92263742690297",
    "geocoded_column": {
      "latitude": "29.92263742690297",
      "longitude": "-90.10277753870902"
    }
  },
  {
    "service_request": "2023-1038179",
    "request_type": "Trash/Recycling",
    "request_reason": "Request a Large Item Pick Up",
    "date_created": "2023-09-25T14:57:53.000",
    "date_modified": "2023-09-25T14:57:54.000",
    "request_status": "Pending",
    "responsible_agency": "Department of Sanitation",
    "final_address": "7818 Berg Rd",
    "address_councildis": "E",
    "status": "Assigned to Contractor",
    "contractor": "Waste Pro",
    "rowid": "1038179",
    "final_x": "3711485.44094",
    "final_y": "567360.653604",
    "longitude": "-89.97204355265852",
    "latitude": "30.053099189100823",
    "geocoded_column": {
      "latitude": "30.053099189100823",
      "longitude": "-89.97204355265852"
    }
  },
  {
    "service_request": "2023-1038178",
    "request_type": "Trash/Recycling",
    "request_reason": "Request a Large Item Pick Up",
    "date_created": "2023-09-25T14:57:13.000",
    "date_modified": "2023-09-25T14:57:14.000",
    "request_status": "Pending",
    "responsible_agency": "Department of Sanitation",
    "final_address": "13537 N Lemans St",
    "address_councildis": "E",
    "status": "Assigned to Contractor",
    "contractor": "Waste Pro",
    "rowid": "1038178",
    "final_x": "3725725.69964",
    "final_y": "563184.95056",
    "longitude": "-89.92719655614712",
    "latitude": "30.041144881783488",
    "geocoded_column": {
      "latitude": "30.041144881783488",
      "longitude": "-89.92719655614712"
    }
  },
  {
    "service_request": "2023-1038177",
    "request_type": "Trash/Recycling",
    "request_reason": "MIssed Recycling Pick-Up",
    "date_created": "2023-09-25T14:55:16.000",
    "date_modified": "2023-09-25T14:55:37.000",
    "request_status": "Pending",
    "responsible_agency": "Department of Sanitation",
    "final_address": "13032 Biscay St",
    "address_councildis": "E",
    "status": "Assigned to Contractor",
    "contractor": "Waste Pro",
    "rowid": "1038177",
    "final_x": "3723959.24607",
    "final_y": "561546.219231",
    "longitude": "-89.93284239085094",
    "latitude": "30.036698530863493",
    "geocoded_column": {
      "latitude": "30.036698530863493",
      "longitude": "-89.93284239085094"
    }
  },
  {
    "service_request": "2023-1038176",
    "request_type": "Trash/Recycling",
    "request_reason": "Request a Large Item Pick Up",
    "date_created": "2023-09-25T14:53:57.000",
    "date_modified": "2023-09-25T14:53:57.000",
    "request_status": "Pending",
    "responsible_agency": "Department of Sanitation",
    "final_address": "725 Jourdan Ave",
    "address_councildis": "E",
    "status": "Assigned to Contractor",
    "contractor": "Waste Pro",
    "rowid": "1038176",
    "final_x": "3694717.26006",
    "final_y": "533234.935876",
    "longitude": "-90.02627340230015",
    "latitude": "29.9598032283643",
    "geocoded_column": {
      "latitude": "29.9598032283643",
      "longitude": "-90.02627340230015"
    }
  },
  {
    "service_request": "2023-1038175",
    "request_type": "Property Maintenance",
    "request_reason": "Property Maintenance",
    "date_created": "2023-09-25T14:51:43.000",
    "date_modified": "2023-09-25T14:51:43.000",
    "request_status": "Pending",
    "responsible_agency": "Department of Code Enforcement",
    "final_address": "1208 Bienville St",
    "address_councildis": "C",
    "status": "Pending",
    "rowid": "1038175",
    "final_x": "3680118.85423",
    "final_y": "532406.184579",
    "longitude": "-90.07240068814228",
    "latitude": "29.957974253118042",
    "geocoded_column": {
      "latitude": "29.957974253118042",
      "longitude": "-90.07240068814228"
    }
  },
  {
    "service_request": "2023-1038174",
    "request_type": "Trash/Recycling",
    "request_reason": "Request a Large Item Pick Up",
    "date_created": "2023-09-25T14:51:28.000",
    "date_modified": "2023-09-25T14:51:29.000",
    "request_status": "Pending",
    "responsible_agency": "Department of Sanitation",
    "final_address": "2400 Hudson Pl",
    "address_councildis": "C",
    "status": "Assigned to Contractor",
    "contractor": "Richards Disposal",
    "rowid": "1038174",
    "final_x": "3703670.05591",
    "final_y": "522344.499578",
    "longitude": "-89.99840333602641",
    "latitude": "29.929574539983918",
    "geocoded_column": {
      "latitude": "29.929574539983918",
      "longitude": "-89.99840333602641"
    }
  },
  {
    "service_request": "2023-1038173",
    "request_type": "Graffiti Removal",
    "request_reason": "Graffiti Removal",
    "date_created": "2023-09-25T14:50:09.000",
    "date_modified": "2023-09-25T14:50:09.000",
    "request_status": "Pending",
    "responsible_agency": "Department of Code Enforcement",
    "final_address": "237 Basin St",
    "address_councildis": "C",
    "status": "Pending",
    "rowid": "1038173",
    "final_x": "3680172.49256",
    "final_y": "532376.167043",
    "longitude": "-90.07223235666983",
    "latitude": "29.95789009194436",
    "geocoded_column": {
      "latitude": "29.95789009194436",
      "longitude": "-90.07223235666983"
    }
  },
  {
    "service_request": "2023-1038172",
    "request_type": "Trash/Recycling",
    "request_reason": "Request a Large Item Pick Up",
    "date_created": "2023-09-25T14:49:57.000",
    "date_modified": "2023-09-25T14:49:57.000",
    "request_status": "Pending",
    "responsible_agency": "Department of Sanitation",
    "final_address": "2635 Milan St",
    "address_councildis": "B",
    "status": "Assigned to Contractor",
    "contractor": "Richards Disposal",
    "rowid": "1038172",
    "final_x": "3671266.26036",
    "final_y": "524719.861052",
    "longitude": "-90.1006158684819",
    "latitude": "29.93710427887458",
    "geocoded_column": {
      "latitude": "29.93710427887458",
      "longitude": "-90.1006158684819"
    }
  },
  {
    "service_request": "2023-1038171",
    "request_type": "Trash/Recycling",
    "request_reason": "Request a Large Item Pick Up",
    "date_created": "2023-09-25T14:49:42.000",
    "date_modified": "2023-09-25T14:49:43.000",
    "request_status": "Pending",
    "responsible_agency": "Department of Sanitation",
    "final_address": "1900 BLK N Prieur St",
    "address_councildis": "D",
    "status": "Assigned to Contractor",
    "contractor": "IV Waste",
    "rowid": "1038171",
    "final_x": "3683094.7591",
    "final_y": "539113.991442",
    "longitude": "-90.06276876075576",
    "latitude": "29.976328026367906",
    "geocoded_column": {
      "latitude": "29.976328026367906",
      "longitude": "-90.06276876075576"
    }
  },
  {
    "service_request": "2023-1038170",
    "request_type": "Trash/Recycling",
    "request_reason": "Request a Large Item Pick Up",
    "date_created": "2023-09-25T14:48:43.000",
    "date_modified": "2023-09-25T14:55:52.000",
    "case_close_date": "2023-09-25T09:55:52.000",
    "request_status": "Closed",
    "responsible_agency": "Department of Sanitation",
    "final_address": "2854 Fortin St",
    "address_councildis": "A",
    "status": "Assigned to Contractor",
    "contractor": "IV Waste",
    "contractor_action": "Completed",
    "rowid": "1038170",
    "final_x": "3677936.82293",
    "final_y": "540875.344715",
    "longitude": "-90.07899817656201",
    "latitude": "29.981327394520708",
    "geocoded_column": {
      "latitude": "29.981327394520708",
      "longitude": "-90.07899817656201"
    }
  },
  {
    "service_request": "2023-1038169",
    "request_type": "Graffiti Removal",
    "request_reason": "Graffiti Removal",
    "date_created": "2023-09-25T14:47:53.000",
    "date_modified": "2023-09-25T14:47:53.000",
    "request_status": "Pending",
    "responsible_agency": "Department of Code Enforcement",
    "final_address": "235 Basin St",
    "address_councildis": "C",
    "status": "Pending",
    "rowid": "1038169",
    "final_x": "3680145.39413",
    "final_y": "532352.858819",
    "longitude": "-90.0723187357695",
    "latitude": "29.95782682226525",
    "geocoded_column": {
      "latitude": "29.95782682226525",
      "longitude": "-90.0723187357695"
    }
  },
  {
    "service_request": "2023-1038168",
    "request_type": "Trash/Recycling",
    "request_reason": "Request a Large Item Pick Up",
    "date_created": "2023-09-25T14:46:06.000",
    "date_modified": "2023-09-25T14:52:29.000",
    "case_close_date": "2023-09-25T09:52:29.000",
    "request_status": "Closed",
    "responsible_agency": "Department of Sanitation",
    "final_address": "4547 Paris Ave",
    "address_councildis": "D",
    "status": "Assigned to Contractor",
    "contractor": "IV Waste",
    "contractor_action": "Completed",
    "rowid": "1038168",
    "final_x": "3679474.95663",
    "final_y": "549643.643604",
    "longitude": "-90.07383563396391",
    "latitude": "30.005390737943145",
    "geocoded_column": {
      "latitude": "30.005390737943145",
      "longitude": "-90.07383563396391"
    }
  },
  {
    "service_request": "2023-1038167",
    "request_type": "Trash/Recycling",
    "request_reason": "Request a Large Item Pick Up",
    "date_created": "2023-09-25T14:40:31.000",
    "date_modified": "2023-09-25T14:40:32.000",
    "request_status": "Pending",
    "responsible_agency": "Department of Sanitation",
    "final_address": "360 Leslie Ln",
    "address_councildis": "A",
    "status": "Assigned to Contractor",
    "contractor": "IV Waste",
    "rowid": "1038167",
    "final_x": "3664659.42522",
    "final_y": "547336.598545",
    "longitude": "-90.1207184848632",
    "latitude": "29.999486620435047",
    "geocoded_column": {
      "latitude": "29.999486620435047",
      "longitude": "-90.1207184848632"
    }
  },
  {
    "service_request": "2023-1038166",
    "request_type": "Trash/Recycling",
    "request_reason": "MIssed Recycling Pick-Up",
    "date_created": "2023-09-25T14:37:34.000",
    "date_modified": "2023-09-25T14:37:35.000",
    "request_status": "Pending",
    "responsible_agency": "Department of Sanitation",
    "final_address": "7141 Pinebrook Dr",
    "address_councildis": "E",
    "status": "Assigned to Contractor",
    "contractor": "Waste Pro",
    "rowid": "1038166",
    "final_x": "3719353.79993",
    "final_y": "570230.445479",
    "longitude": "-89.94706436409044",
    "latitude": "30.06073054778855",
    "geocoded_column": {
      "latitude": "30.06073054778855",
      "longitude": "-89.94706436409044"
    }
  },
  {
    "service_request": "2023-1038165",
    "request_type": "Trash/Recycling",
    "request_reason": "Request a Large Item Pick Up",
    "date_created": "2023-09-25T14:36:42.000",
    "date_modified": "2023-09-25T14:36:43.000",
    "request_status": "Pending",
    "responsible_agency": "Department of Sanitation",
    "final_address": "5360 Chestnut St",
    "address_councildis": "B",
    "status": "Assigned to Contractor",
    "contractor": "Richards Disposal",
    "rowid": "1038165",
    "final_x": "3667092.52199",
    "final_y": "519384.759735",
    "longitude": "-90.11397189037513",
    "latitude": "29.922557250929447",
    "geocoded_column": {
      "latitude": "29.922557250929447",
      "longitude": "-90.11397189037513"
    }
  },
  {
    "service_request": "2023-1038164",
    "request_type": "Parks & Parkways",
    "request_reason": "Request Tree Service (Right of Way/Public Property)",
    "date_created": "2023-09-25T14:34:40.000",
    "date_modified": "2023-09-25T14:34:40.000",
    "request_status": "Pending",
    "responsible_agency": "Department of Parks & Parkway",
    "final_address": "4200 St Claude Ave",
    "address_councildis": "C",
    "status": "Pending",
    "rowid": "1038164",
    "final_x": "3692420.1775",
    "final_y": "535102.232966",
    "longitude": "-90.03346015390127",
    "latitude": "29.96500948872354",
    "geocoded_column": {
      "latitude": "29.96500948872354",
      "longitude": "-90.03346015390127"
    }
  },
  {
    "service_request": "2023-1038163",
    "request_type": "Trash/Recycling",
    "request_reason": "Order Recycling Cart",
    "date_created": "2023-09-25T14:34:00.000",
    "date_modified": "2023-09-25T14:34:00.000",
    "request_status": "Pending",
    "responsible_agency": "Department of Sanitation",
    "final_address": "2610 Marr Ave",
    "address_councildis": "C",
    "status": "Pending",
    "rowid": "1038163",
    "final_x": "3691476.30569",
    "final_y": "520929.061497",
    "longitude": "-90.03694721913324",
    "latitude": "29.926067548447207",
    "geocoded_column": {
      "latitude": "29.926067548447207",
      "longitude": "-90.03694721913324"
    }
  },
  {
    "service_request": "2023-1038162",
    "request_type": "Trash/Recycling",
    "request_reason": "Order Recycling Cart",
    "date_created": "2023-09-25T14:33:34.000",
    "date_modified": "2023-09-25T14:33:35.000",
    "request_status": "Pending",
    "responsible_agency": "Department of Sanitation",
    "final_address": "2600 Marr Ave",
    "address_councildis": "C",
    "status": "Pending",
    "rowid": "1038162",
    "final_x": "3691475.87177",
    "final_y": "520991.160697",
    "longitude": "-90.0369463710458",
    "latitude": "29.926238313840795",
    "geocoded_column": {
      "latitude": "29.926238313840795",
      "longitude": "-90.0369463710458"
    }
  },
  {
    "service_request": "2023-1038161",
    "request_type": "Roads/Drainage",
    "request_reason": "Accessibility Ramps, Curbs and Sidewalk Repair",
    "date_created": "2023-09-25T14:32:39.000",
    "date_modified": "2023-09-25T14:32:40.000",
    "request_status": "Pending",
    "responsible_agency": "Department of Public Works",
    "final_address": "1500 Robert St",
    "address_councildis": "B",
    "status": "Pending",
    "rowid": "1038161",
    "final_x": "3668613.28711",
    "final_y": "520458.439544",
    "longitude": "-90.10913522156315",
    "latitude": "29.925464943437184",
    "geocoded_column": {
      "latitude": "29.925464943437184",
      "longitude": "-90.10913522156315"
    }
  },
  {
    "service_request": "2023-1038160",
    "request_type": "Trash/Recycling",
    "request_reason": "Order Recycling Cart",
    "date_created": "2023-09-25T14:31:33.000",
    "date_modified": "2023-09-25T14:31:34.000",
    "request_status": "Pending",
    "responsible_agency": "Department of Sanitation",
    "final_address": "216 N Miro St",
    "address_councildis": "B",
    "status": "Pending",
    "rowid": "1038160",
    "final_x": "3677075.23573",
    "final_y": "534522.536965",
    "longitude": "-90.08193859951744",
    "latitude": "29.963885252163166",
    "geocoded_column": {
      "latitude": "29.963885252163166",
      "longitude": "-90.08193859951744"
    }
  },
  {
    "service_request": "2023-1038159",
    "request_type": "Traffic Signals/Signs/Striping/Streetlights",
    "request_reason": "Traffic Sign Missing/Damaged",
    "date_created": "2023-09-25T14:31:24.000",
    "date_modified": "2023-09-25T14:31:24.000",
    "request_status": "Pending",
    "responsible_agency": "Department of Public Works",
    "final_address": "N ROBERTSON ST & CONGRESS ST",
    "address_councildis": "D",
    "status": "Pending",
    "rowid": "1038159",
    "final_x": "3691088.7",
    "final_y": "537067.68",
    "longitude": "-90.03759467863037",
    "latitude": "29.97045524171115",
    "geocoded_column": {
      "latitude": "29.97045524171115",
      "longitude": "-90.03759467863037"
    }
  },
  {
    "service_request": "2023-1038158",
    "request_type": "Trash/Recycling",
    "request_reason": "Illegal Dumping",
    "date_created": "2023-09-25T14:27:57.000",
    "date_modified": "2023-09-25T14:27:58.000",
    "request_status": "Pending",
    "responsible_agency": "Department of Sanitation",
    "final_address": "2729 Josephine St",
    "address_councildis": "B",
    "status": "Pending",
    "rowid": "1038158",
    "final_x": "3675391.61953",
    "final_y": "527280.132671",
    "longitude": "-90.08750397243237",
    "latitude": "29.944021506162713",
    "geocoded_column": {
      "latitude": "29.944021506162713",
      "longitude": "-90.08750397243237"
    }
  },
  {
    "service_request": "2023-1038157",
    "request_type": "Trash/Recycling",
    "request_reason": "Replace Trash Cart",
    "date_created": "2023-09-25T14:26:09.000",
    "date_modified": "2023-09-25T14:26:10.000",
    "request_status": "Pending",
    "responsible_agency": "Department of Sanitation",
    "final_address": "4216 N Rampart St",
    "address_councildis": "C",
    "status": "Assigned to Contractor",
    "contractor": "IV Waste",
    "rowid": "1038157",
    "final_x": "3692422.39741",
    "final_y": "534653.271814",
    "longitude": "-90.03346922728561",
    "latitude": "29.963774934250083",
    "geocoded_column": {
      "latitude": "29.963774934250083",
      "longitude": "-90.03346922728561"
    }
  },
  {
    "service_request": "2023-1038156",
    "request_type": "Trash/Recycling",
    "request_reason": "Request a Large Item Pick Up",
    "date_created": "2023-09-25T14:19:37.000",
    "date_modified": "2023-09-25T14:19:38.000",
    "request_status": "Pending",
    "responsible_agency": "Department of Sanitation",
    "final_address": "4710 Wright Rd",
    "address_councildis": "E",
    "status": "Assigned to Contractor",
    "contractor": "Waste Pro",
    "rowid": "1038156",
    "final_x": "3716586.93624",
    "final_y": "556827.970202",
    "longitude": "-89.95631936060117",
    "latitude": "30.023970937074626",
    "geocoded_column": {
      "latitude": "30.023970937074626",
      "longitude": "-89.95631936060117"
    }
  },
  {
    "service_request": "2023-1038152",
    "request_type": "Property Maintenance",
    "request_reason": "Property Maintenance",
    "date_created": "2023-09-25T14:15:15.000",
    "date_modified": "2023-09-25T15:15:12.000",
    "request_status": "Pending",
    "responsible_agency": "Department of Code Enforcement",
    "final_address": "2634 Gordon St",
    "address_councildis": "E",
    "status": "Pending",
    "rowid": "1038152",
    "final_x": "3701388.08669",
    "final_y": "539084.440522",
    "longitude": "-90.00499443710099",
    "latitude": "29.975676336655294",
    "geocoded_column": {
      "latitude": "29.975676336655294",
      "longitude": "-90.00499443710099"
    }
  },
  {
    "service_request": "2023-1038150",
    "request_type": "Parks & Parkways",
    "request_reason": "Request Tree Service (Right of Way/Public Property)",
    "date_created": "2023-09-25T14:12:19.000",
    "date_modified": "2023-09-25T14:12:19.000",
    "request_status": "Pending",
    "responsible_agency": "Department of Parks & Parkway",
    "final_address": "8235 S Claiborne Ave",
    "address_councildis": "A",
    "status": "Pending",
    "rowid": "1038150",
    "final_x": "3664405.35834",
    "final_y": "532073.651715",
    "longitude": "-90.12203080212802",
    "latitude": "29.957526007840634",
    "geocoded_column": {
      "latitude": "29.957526007840634",
      "longitude": "-90.12203080212802"
    }
  },
  {
    "service_request": "2023-1038148",
    "request_type": "Roads/Drainage",
    "request_reason": "Damaged Sidewalk",
    "date_created": "2023-09-25T14:12:15.000",
    "date_modified": "2023-09-25T14:12:15.000",
    "request_status": "Pending",
    "responsible_agency": "Department of Public Works",
    "final_address": "7012 Jeannette St",
    "address_councildis": "A",
    "status": "Pending",
    "rowid": "1038148",
    "final_x": "3665085.96679",
    "final_y": "527035.058558",
    "longitude": "-90.12005010171151",
    "latitude": "29.94365170679247",
    "geocoded_column": {
      "latitude": "29.94365170679247",
      "longitude": "-90.12005010171151"
    }
  },
  {
    "service_request": "2023-1038146",
    "request_type": "Trash/Recycling",
    "request_reason": "Missed Trash Pick-Up",
    "date_created": "2023-09-25T14:10:59.000",
    "date_modified": "2023-09-25T14:10:59.000",
    "request_status": "Pending",
    "responsible_agency": "Department of Sanitation",
    "status": "Assigned to Contractor",
    "rowid": "1038146",
    "longitude": "0.0",
    "latitude": "0.0",
    "geocoded_column": {
      "latitude": "0.0",
      "longitude": "0.0"
    }
  },
  {
    "service_request": "2023-1038143",
    "request_type": "Parks & Parkways",
    "request_reason": "Request Tree Service (Right of Way/Public Property)",
    "date_created": "2023-09-25T14:08:01.000",
    "date_modified": "2023-09-25T14:18:12.000",
    "case_close_date": "2023-09-25T09:18:12.000",
    "request_status": "Closed",
    "responsible_agency": "Department of Parks & Parkway",
    "final_address": "7012 Jeannette St",
    "address_councildis": "A",
    "status": "Duplicate Request",
    "rowid": "1038143",
    "final_x": "3665085.96679",
    "final_y": "527035.058558",
    "longitude": "-90.12005010171151",
    "latitude": "29.94365170679247",
    "geocoded_column": {
      "latitude": "29.94365170679247",
      "longitude": "-90.12005010171151"
    }
  },
  {
    "service_request": "2023-1038141",
    "request_type": "Trash/Recycling",
    "request_reason": "Request a Large Item Pick Up",
    "date_created": "2023-09-25T14:03:07.000",
    "date_modified": "2023-09-25T14:04:16.000",
    "request_status": "Pending",
    "responsible_agency": "Department of Sanitation",
    "final_address": "418 Thayer St",
    "address_councildis": "C",
    "status": "Assigned to Contractor",
    "contractor": "Richards Disposal",
    "rowid": "1038141",
    "final_x": "3689594.41679",
    "final_y": "530100.926401",
    "longitude": "-90.0425616260201",
    "latitude": "29.951345472012935",
    "geocoded_column": {
      "latitude": "29.951345472012935",
      "longitude": "-90.0425616260201"
    }
  },
  {
    "service_request": "2023-1038140",
    "request_type": "Trash/Recycling",
    "request_reason": "Repair Recycling Cart",
    "date_created": "2023-09-25T14:00:02.000",
    "date_modified": "2023-09-25T14:00:49.000",
    "request_status": "Pending",
    "responsible_agency": "Department of Sanitation",
    "final_address": "342 Pacific Ave",
    "address_councildis": "C",
    "status": "Pending",
    "rowid": "1038140",
    "final_x": "3688570.04675",
    "final_y": "530377.650306",
    "longitude": "-90.0457862557931",
    "latitude": "29.95213805727556",
    "geocoded_column": {
      "latitude": "29.95213805727556",
      "longitude": "-90.0457862557931"
    }
  },
  {
    "service_request": "2023-1038139",
    "request_type": "Abandoned Vehicles",
    "request_reason": "Abandoned/Junk Vehicles",
    "date_created": "2023-09-25T13:56:49.000",
    "date_modified": "2023-09-25T13:56:49.000",
    "request_status": "Pending",
    "responsible_agency": "Department of Public Works",
    "final_address": "1000 BLK Camp St",
    "address_councildis": "B",
    "status": "Pending",
    "rowid": "1038139",
    "final_x": "3680484.00284",
    "final_y": "526729.901052",
    "longitude": "-90.07144504620884",
    "latitude": "29.94235532793877",
    "geocoded_column": {
      "latitude": "29.94235532793877",
      "longitude": "-90.07144504620884"
    }
  },
  {
    "service_request": "2023-1038138",
    "request_type": "Trash/Recycling",
    "request_reason": "Repair Trash Cart",
    "date_created": "2023-09-25T13:56:42.000",
    "date_modified": "2023-09-25T13:56:42.000",
    "request_status": "Pending",
    "responsible_agency": "Department of Sanitation",
    "final_address": "2901 Holiday Dr",
    "address_councildis": "C",
    "status": "Assigned to Contractor",
    "contractor": "Richards Disposal",
    "rowid": "1038138",
    "final_x": "3698698.07722",
    "final_y": "520724.586425",
    "longitude": "-90.01415775625266",
    "latitude": "29.925278672230792",
    "geocoded_column": {
      "latitude": "29.925278672230792",
      "longitude": "-90.01415775625266"
    }
  },
  {
    "service_request": "2023-1038137",
    "request_type": "Trash/Recycling",
    "request_reason": "Order Recycling Cart",
    "date_created": "2023-09-25T13:56:37.000",
    "date_modified": "2023-09-25T13:56:38.000",
    "request_status": "Pending",
    "responsible_agency": "Department of Sanitation",
    "final_address": "6121 Dover Pl",
    "address_councildis": "C",
    "status": "Pending",
    "rowid": "1038137",
    "final_x": "3706684.75748",
    "final_y": "519020.390775",
    "longitude": "-89.98900966055314",
    "latitude": "29.920337484634505",
    "geocoded_column": {
      "latitude": "29.920337484634505",
      "longitude": "-89.98900966055314"
    }
  },
  {
    "service_request": "2023-1038136",
    "request_type": "Trash/Recycling",
    "request_reason": "Request a Large Item Pick Up",
    "date_created": "2023-09-25T13:56:16.000",
    "date_modified": "2023-09-25T13:56:16.000",
    "request_status": "Pending",
    "responsible_agency": "Department of Sanitation",
    "final_address": "2518 General Pershing St",
    "address_councildis": "B",
    "status": "Assigned to Contractor",
    "contractor": "Richards Disposal",
    "rowid": "1038136",
    "final_x": "3670864.39687",
    "final_y": "524241.031612",
    "longitude": "-90.10190082417249",
    "latitude": "29.935799534262514",
    "geocoded_column": {
      "latitude": "29.935799534262514",
      "longitude": "-90.10190082417249"
    }
  },
  {
    "service_request": "2023-1038135",
    "request_type": "Property Maintenance",
    "request_reason": "Property Maintenance",
    "date_created": "2023-09-25T13:53:34.000",
    "date_modified": "2023-09-25T13:53:34.000",
    "request_status": "Pending",
    "responsible_agency": "Department of Code Enforcement",
    "final_address": "2634 Gordon St",
    "address_councildis": "E",
    "status": "Pending",
    "rowid": "1038135",
    "final_x": "3701388.08669",
    "final_y": "539084.440522",
    "longitude": "-90.00499443710099",
    "latitude": "29.975676336655294",
    "geocoded_column": {
      "latitude": "29.975676336655294",
      "longitude": "-90.00499443710099"
    }
  },